     3.02           OBSERVATION DATA    M (MIXED)           RINEX VERSION / TYPE
SAVERINEX           SC600               20200517 155931 LCL PGM / RUN BY / DATE
       G = GPS       R = GLONASS       C = COMPASS          COMMENT
       S = SBAS      J = QZSS          E = GALILEO          COMMENT
BEAN                                                        MARKER NAME
1                                                           MARKER NUMBER
GEODETIC                                                    MARKER TYPE
Unige DICCA         GTER                                    OBSERVER / AGENCY
SC60291900056       SC600               2.12(191202)        REC # / TYPE / VERS
                    HEMA45          NONE                    ANT # / TYPE
  4509407.8091   693652.4678  4442337.6214                  APPROX POSITION XYZ
        0.0000        0.0000        0.0000                  ANTENNA: DELTA H/E/N
G    8 C1C L1C D1C S1C C2Y L2Y D2Y S2Y                      SYS / # / OBS TYPES
R    8 C1C L1C D1C S1C C2P L2P D2P S2P                      SYS / # / OBS TYPES
C    4 C1I L1I D1I S1I                                      SYS / # / OBS TYPES
E    8 C1C L1C D1C S1C C7Q L7Q D7Q S7Q                      SYS / # / OBS TYPES
DBHZ                                                        COMMENT
     30.000                                                 INTERVAL
  2020    05    17    13    00    0.0000000     GPS         TIME OF FIRST OBS
  2020    05    17    13    59   30.0000000     GPS         TIME OF LAST OBS
     0                                                      RCV CLOCK OFFS APPL
G L1C  0.00000                                              SYS / PHASE SHIFT
G L2Y  0.00000                                              SYS / PHASE SHIFT
R L1C  0.00000                                              SYS / PHASE SHIFT
R L2P  0.25000                                              SYS / PHASE SHIFT
C L1I  0.00000                                              SYS / PHASE SHIFT
E L1C  0.50000                                              SYS / PHASE SHIFT
E L7Q -0.25000                                              SYS / PHASE SHIFT
 13 R02 -4 R03  5 R04  6 R05  1 R09 -2 R10 -5 R14 -7 R15  0 GLONASS SLOT / FRQ #
    R16 -1 R17  4 R18 -3 R19  3 R20  2                      GLONASS SLOT / FRQ #
 C1C   71.950 C2C   71.950 C2P   71.950                     GLONASS COD/PHS/BIS
    18                                                      LEAP SECONDS
*** Above antenna height is from mark to ANTENNA BOTTOM.    COMMENT
    17     4        0.0000        ANT MEASURE TYPE/HEIGT    COMMENT
    0.0000    0.0000    0.0458    0.0405    0.0000          COMMENT
                    BASE STATION                            COMMENT
                                                            END OF HEADER
> 2020 05 17 13 00  0.0000000  0 18        .000000000000
G18  20304050.641 8 106698551.045 8       229.918          50.000    20304051.602 8  83141689.664 8       179.157          50.000
G20  23738480.836 6 124746529.167 6      3277.578          41.000    23738484.961 4  97205108.495 4      2553.951          29.000
G21  20647302.227 8 108502349.006 8       189.617          50.000    20647301.398 8  84547287.127 8       147.754          50.000
G25  24629719.938 6 129430041.437 6     -3544.691          39.000    24629719.789 6 100854556.104 6     -2762.097          40.000
G26  20482961.742 6 107638689.541 6      1087.414          39.000    20482962.430 6  83874293.815 6       847.336          40.000
G29  22247530.023 6 116911591.651 6     -2474.344          36.000
G31  22597047.422 8 118748268.736 8     -2779.434          50.000    22597046.688 8  92531103.664 8     -2165.792          50.000
R09  19311526.109 8 103122477.245 8        94.473          51.000    19311527.172 8  80206371.229 8        73.479          49.000
R16  22014829.227 6 117599303.732 6     -4124.664          36.000    22014831.242 5  91466118.716 5     -3208.072          34.000
R18  22405269.453 5 119600837.159 5     -3552.172          32.000    22405281.742 4  93022937.592 4     -2762.800          27.000
R20  21061264.500 6 112624072.965 6      2547.242          38.000    21061271.523 7  87596495.856 7      1981.188          43.000
C05  39630999.398 5 206369013.110 5        12.523          34.000
C27  21566585.336 8 112302974.625 8       443.000          51.000
C30  24645945.836 6 128337924.498 6      2553.742          39.000
E11  22358078.656 8 117492519.197 8       -35.039          50.000    22358077.461 8  90026725.265 8       -26.833          49.000
E24  23880335.852 8 125491978.149 8     -2604.766          51.000    23880346.758 7  96156218.976 7     -1995.859          47.000
E25  23484372.516 8 123411205.277 8      -182.656          51.000    23484375.148 8  94561819.660 8      -139.945          51.000
E36  25204574.156 8 132450926.332 8      2301.551          49.000    25204578.414 8 101488392.405 8      1763.544          49.000
> 2020 05 17 13 00 30.0000000  0 18        .000000000000
G18  20302788.305 8 106691918.151 8       212.832          50.000    20302789.125 8  83136521.175 8       165.843          50.000
G20  23719776.430 6 124648236.988 6      3276.297          39.000    23719780.594 6  97128517.256 6      2552.962          37.000
G21  20646261.992 8 108496881.857 8       175.324          50.000    20646260.906 8  84543027.029 8       136.616          50.000
G25  24649961.500 6 129536416.113 6     -3546.492          37.000    24649963.742 6 100937445.419 6     -2763.503          37.000
G26  20476794.469 6 107606278.127 6      1074.160          39.000    20476794.766 6  83849038.186 6       837.008          39.000
G29  22261663.719 6 116985873.651 6     -2477.484          36.000    22261671.539 5  91157864.038 5     -1930.516          32.000
G31  22612942.023 8 118831796.814 8     -2788.473          49.000    22612941.336 8  92596190.458 8     -2172.839          50.000
R09  19311066.086 8 103120021.580 8        69.766          51.000    19311067.234 8  80204461.247 8        54.262          49.000
R16  22038019.555 6 117723178.762 6     -4132.625          36.000    22038021.953 5  91562465.816 5     -3214.270          33.000
R18  22425235.055 5 119707420.841 5     -3552.801          32.000    22425245.617 4  93105835.985 4     -2763.296          28.000
R20  21047010.750 6 112547852.262 6      2534.961          36.000    21047017.391 7  87537213.060 7      1971.636          42.000
C05  39630922.109 5 206368611.312 5        14.629          35.000
C27  21564059.344 8 112289819.572 8       434.641          51.000
C30  24631243.188 6 128261362.251 6      2550.980          36.000
E11  22358306.461 8 117493716.642 8       -43.883          50.000    22358304.969 8  90027642.792 8       -33.708          49.000
E24  23895223.094 8 125570210.940 8     -2610.051          51.000    23895234.906 8  96216163.552 8     -1999.858          48.000
E25  23485448.078 8 123416857.819 8      -193.598          51.000    23485450.875 8  94566150.815 8      -148.287          51.000
E36  25191452.859 8 132381971.083 8      2296.051          51.000    25191457.117 8 101435556.616 8      1759.357          48.000
> 2020 05 17 13 01  0.0000000  0 18        .000000000000
G18  20301623.305 8 106685795.853 8       189.410          50.000    20301623.961 8  83131750.553 8       147.592          50.000
G20  23701079.555 6 124549987.970 6      3268.328          39.000    23701083.914 5  97051959.678 5      2546.752          35.000
G21  20645302.188 8 108491838.316 8       154.984          50.000    20645300.977 8  84539096.999 8       120.767          49.000
G25  24670212.531 6 129642839.303 6     -3554.121          38.000    24670217.000 6 101020372.516 6     -2769.448          38.000
G26  20470701.094 6 107574257.556 6      1054.410          38.000    20470701.570 6  83824087.123 6       821.618          38.000
G31  22628885.703 8 118915582.179 8     -2803.191          50.000    22628885.359 8  92661477.721 8     -2184.308          50.000
R09  19310744.406 8 103118304.157 8        38.750          51.000    19310745.594 8  80203125.462 8        30.139          50.000
R16  22061253.547 5 117847294.233 5     -4147.188          32.000    22061255.703 5  91658999.925 5     -3225.596          31.000
R18  22445201.102 5 119814005.980 5     -3559.379          31.000    22445212.023 5  93188735.440 5     -2768.412          30.000
R20  21032824.477 5 112471991.034 5      2516.418          35.000    21032829.258 6  87478209.905 6      1957.214          40.000
C05  39630834.586 5 206368155.661 5         9.859          35.000
C27  21561580.867 8 112276911.921 8       420.117          51.000
C28  23241284.391 5 121023447.828 5     -2157.641          33.000
C30  24616559.070 5 128184893.592 5      2541.461          32.000
E11  22358585.258 8 117495181.727 8       -59.598          49.000    22358583.695 8  90028765.382 8       -45.639          50.000
E24  23910139.727 8 125648599.855 8     -2621.773          50.000    23910152.969 8  96276227.762 8     -2008.799          48.000
E25  23486585.156 8 123422833.605 8      -210.641          51.000    23486587.859 8  94570729.670 8      -161.403          51.000
E36  25178362.680 8 132313178.276 8      2284.289          51.000    25178365.758 7 101382845.284 7      1750.335          47.000
> 2020 05 17 13 01 30.0000000  0 14        .000000000000
G18  20300586.281 8 106680346.088 8       178.246          50.000    20300586.727 8  83127503.993 8       138.896          50.000
G20  23682422.711 6 124451947.164 6      3272.242          40.000    23682426.844 5  96975564.309 5      2549.802          34.000
G21  20644453.672 8 108487380.178 8       146.648          49.000    20644452.508 8  84535623.137 8       114.272          49.000
G25  24690504.242 6 129749472.199 6     -3550.188          40.000    24690509.039 6 101103462.993 6     -2766.383          39.000
G26  20464712.844 6 107542791.715 6      1047.617          38.000    20464714.102 6  83799568.268 6       816.325          38.000
G31  22644909.039 8 118999784.705 8     -2805.914          50.000    22644908.828 8  92727090.043 8     -2186.427          51.000
R09  19310592.172 8 103117490.840 8        19.934          51.000    19310593.500 8  80202492.870 8        15.504          51.000
R20  21018736.812 5 112396655.417 5      2510.457          34.000    21018740.414 6  87419615.610 6      1952.578          41.000
C27  21559180.602 8 112264412.126 8       417.594          51.000
C28  23253700.633 5 121088104.700 5     -2156.234          32.000
E11  22358945.703 8 117497075.937 8       -62.527          49.000    22358944.281 8  90030216.804 8       -47.845          50.000
E24  23925116.641 8 125727306.307 8     -2621.164          49.000    23925130.695 8  96336535.296 8     -2008.424          48.000
E25  23487814.719 8 123429295.552 8      -215.883          51.000    23487817.328 8  94575681.034 8      -165.414          51.000
E36  25165334.430 8 132244710.832 8      2284.512          51.000    25165336.141 7 101330383.254 7      1750.464          47.000
> 2020 05 17 13 02  0.0000000  0 18        .000000000000
G18  20299650.430 8 106675428.327 8       152.848          51.000    20299650.492 8  83123671.976 8       119.102          50.000
G20  23663779.766 6 124353977.387 6      3262.012          40.000    23663782.734 6  96899224.280 6      2541.830          36.000
G21  20643689.984 8 108483366.683 8       124.145          49.000    20643688.617 8  84532495.747 8        96.736          49.000
G25  24710809.383 7 129856173.126 7     -3560.188          42.000    24710813.383 7 101186606.442 7     -2774.178          42.000
G26  20458803.000 6 107511741.991 6      1025.395          37.000    20458805.359 6  83775373.634 6       799.006          38.000
G29  22304263.656 5 117209649.991 5     -2496.160          31.000
G31  22660984.742 8 119084261.761 8     -2822.672          50.000    22660983.977 8  92792916.309 8     -2199.485          50.000
R09  19310582.547 8 103117439.879 8       -13.348          51.000    19310584.117 8  80202453.227 8       -10.382          51.000
R16  22107919.453 5 118096542.297 5     -4165.488          32.000    22107925.172 5  91852869.258 5     -3239.827          33.000
R20  21004719.961 5 112321703.310 5      2489.473          32.000    21004725.156 7  87361319.600 7      1936.260          42.000
C05  39630694.734 5 206367426.380 5        11.008          35.000
C27  21556831.930 8 112252180.864 8       400.980          51.000
C28  23266190.445 6 121152992.203 6     -2167.281          36.000
C30  24587298.133 5 128032518.516 5      2532.746          33.000
E11  22359360.922 8 117499258.501 8       -79.852          49.000    22359359.633 8  90031889.165 8       -61.218          50.000
E24  23940127.219 8 125806189.195 8     -2634.555          48.000    23940141.469 8  96396978.013 8     -2018.703          48.000
E25  23489110.117 8 123436103.938 8      -234.930          51.000    23489112.852 8  94580897.853 8      -180.017          51.000
E36  25152340.891 8 132176429.129 8      2270.703          51.000    25152342.516 8 101278063.556 8      1739.919          48.000
> 2020 05 17 13 02 30.0000000  0 19        .000000000000
G18  20298805.648 8 106670988.566 8       142.305          51.000    20298805.383 8  83120212.416 8       110.887          50.000
G20  23645140.961 6 124256028.090 6      3266.621          40.000    23645142.445 6  96822900.211 6      2545.422          38.000
G21  20643000.500 8 108479743.421 8       116.559          49.000    20642998.984 8  84529672.436 8        90.825          49.000
G25  24731117.375 7 129962887.098 7     -3555.188          44.000    24731120.750 7 101269760.062 7     -2770.279          44.000
G26  20452962.883 6 107481056.146 6      1019.203          39.000    20452965.406 6  83751462.592 6       794.187          39.000
G29  22318485.891 5 117284421.099 5     -2492.891          30.000
G31  22677101.602 8 119168956.590 8     -2824.473          49.000    22677100.117 8  92858912.229 8     -2200.888          49.000
R09  19310705.750 8 103118097.771 8       -31.383          51.000    19310707.492 8  80202964.907 8       -24.409          51.000
R16  22131318.609 4 118221513.637 4     -4165.988          29.000    22131318.961 5  91950069.142 5     -3240.213          33.000
R18  22505205.125 5 120134303.940 5     -3554.594          32.000    22505203.984 4  93437781.531 4     -2764.678          29.000
R20  20990764.508 5 112247081.046 5      2484.410          33.000    20990771.117 6  87303280.049 6      1932.316          40.000
C05  39630605.438 5 206366961.917 5        18.551          35.000
C27  21554524.422 8 112240164.537 8       399.215          51.000
C28  23278668.844 6 121217939.413 6     -2163.527          37.000
C30  24572698.500 6 127956484.585 6      2535.766          36.000
E11  22359820.609 8 117501675.039 8       -82.098          48.000    22359819.312 8  90033740.796 8       -62.927          50.000
E24  23955160.570 7 125885193.984 7     -2633.176          47.000    23955175.867 7  96457514.090 7     -2017.622          47.000
E25  23490461.336 8 123443205.679 8      -239.285          51.000    23490464.148 8  94586339.439 8      -183.348          51.000
E36  25139371.984 8 132108280.117 8      2271.703          49.000    25139373.688 7 101225845.510 7      1740.713          47.000
> 2020 05 17 13 03  0.0000000  0 18        .000000000000
G18  20298068.945 8 106667116.827 8       122.855          51.000    20298068.516 8  83117195.498 8        95.732          50.000
G20  23626523.859 6 124158192.331 6      3262.758          39.000    23626524.445 6  96746664.613 6      2542.412          39.000
G21  20642402.180 8 108476599.930 8       100.145          49.000    20642400.758 8  84527222.982 8        78.035          49.000
G25  24751444.727 7 130069703.304 7     -3558.922          44.000    24751447.922 7 101352993.382 7     -2773.189          44.000
G26  20447209.836 6 107450826.303 6      1003.688          38.000    20447211.828 6  83727906.908 6       782.094          38.000
G29  22332766.484 5 117359425.073 5     -2497.922          33.000
G31  22693276.359 8 119253956.617 8     -2835.023          49.000    22693274.328 8  92925145.949 8     -2209.112          49.000
R09  19310979.211 8 103119557.060 8       -58.602          51.000    19310980.914 8  80204099.911 8       -45.579          51.000
R16  22154763.914 5 118346747.655 5     -4176.066          32.000    22154767.289 5  92047476.053 5     -3248.052          32.000
R18  22525204.312 5 120241090.219 5     -3556.453          32.000    22525205.562 4  93520837.580 4     -2766.130          28.000
R20  20976888.242 5 112172881.303 5      2469.602          30.000    20976893.484 6  87245569.105 6      1920.801          38.000
C27  21552275.227 8 112228452.387 8       388.641          51.000
C28  23291172.633 5 121283034.798 5     -2168.883          32.000
C30  24558130.500 6 127880604.268 6      2529.953          38.000
E11  22360342.086 8 117504415.289 8       -93.152          48.000    22360340.695 8  90035840.456 8       -71.469          51.000
E24  23970234.312 8 125964410.138 8     -2640.535          49.000    23970250.469 7  96518212.112 7     -2023.369          47.000
E25  23491885.773 8 123450691.780 8      -252.609          51.000    23491888.383 8  94592075.538 8      -193.549          51.000
E36  25126445.469 8 132040354.814 8      2263.785          50.000    25126446.883 7 101173798.875 7      1734.654          47.000
> 2020 05 17 13 03 30.0000000  0 18        .000000000000
G18  20297446.203 8 106663843.368 8        94.004          51.000    20297445.273 8  83114644.767 8        73.250          49.000
G20  23607934.758 5 124060504.060 5      3249.027          35.000    23607934.875 6  96670543.950 6      2531.713          36.000
G21  20641901.023 8 108473966.387 8        74.352          49.000    20641899.516 8  84525170.881 8        57.936          49.000
G25  24771797.039 7 130176651.017 7     -3572.262          44.000    24771800.570 7 101436329.172 7     -2783.581          44.000
G26  20441549.977 6 107421084.690 6       978.195          37.000    20441552.328 6  83704731.606 6       762.230          37.000
G31  22709514.672 8 119339290.323 8     -2854.945          50.000    22709512.750 8  92991639.692 8     -2224.636          50.000
R09  19311408.656 8 103121849.525 8       -95.441          51.000    19311410.180 8  80205882.944 8       -74.232          51.000
R16  22178272.148 5 118472320.472 5     -4195.902          35.000    22178276.609 5  92145143.811 5     -3263.480          31.000
R18  22545219.141 4 120347909.167 4     -3568.266          29.000    22545223.273 5  93603935.890 5     -2775.318          30.000
R20  20963096.406 4 112099136.090 4      2445.520          29.000    20963100.844 6  87188211.691 6      1902.071          38.000
C05  39630435.320 5 206366075.619 5         8.367          35.000
C27  21550090.141 8 112217074.348 8       368.750          51.000
C28  23303665.422 5 121348331.954 5     -2182.980          30.000
C30  24543597.922 6 127804908.372 6      2514.914          41.000
E11  22360930.852 8 117507509.266 8      -114.164          48.000    22360929.742 8  90038211.165 8       -87.437          51.000
E24  23985355.055 8 126043867.337 8     -2657.625          50.000    23985370.656 7  96579094.847 7     -2036.272          46.000
E25  23493389.555 8 123458593.321 8      -275.246          51.000    23493391.453 8  94598129.964 8      -210.897          51.000
E36  25113567.656 8 131972684.437 8      2246.449          49.000    25113569.523 8 101121947.572 8      1721.305          48.000
> 2020 05 17 13 04  0.0000000  0 17        .000000000000
G18  20296948.367 8 106661226.360 8        78.117          51.000    20296947.148 8  83112605.556 8        60.871          49.000
G20  23589384.742 5 123963025.010 5      3247.008          31.000    23589384.930 5  96594586.269 5      2530.139          32.000
G21  20641507.883 8 108471900.958 8        61.238          49.000    20641506.539 8  84523561.471 8        47.718          49.000
G25  24792184.828 7 130283787.563 7     -3572.492          43.000    24792188.680 7 101519812.117 7     -2783.763          42.000
G26  20435994.414 6 107391891.311 6       966.145          38.000    20435997.445 6  83681983.494 6       752.840          38.000
G31  22725827.188 8 119425013.543 8     -2861.996          50.000    22725826.250 8  93058436.932 8     -2230.130          50.000
R09  19312005.320 8 103125035.509 8      -119.176          51.000    19312006.781 8  80208360.925 8       -92.692          51.000
R16  22201849.688 6 118598264.089 6     -4202.434          36.000    22201856.086 4  92243099.933 4     -3268.562          26.000
R20  20949401.781 5 112025905.429 5      2433.754          31.000    20949406.969 6  87131254.544 6      1892.920          39.000
C05  39630371.695 5 206365744.473 5        11.262          35.000
C27  21547980.242 8 112206088.153 8       361.508          51.000
C28  23316240.570 5 121413839.760 5     -2185.492          32.000
C30  24529110.867 6 127729455.335 6      2512.836          41.000
E11  22361597.852 8 117511014.787 8      -121.758          48.000    22361597.062 8  90040897.230 8       -93.238          51.000
E24  24000532.938 8 126123623.267 8     -2661.625          51.000    24000547.617 7  96640206.481 7     -2039.406          45.000
E25  23494983.906 8 123466969.491 8      -285.301          51.000    23494985.164 8  94604548.074 8      -218.628          51.000
E36  25100749.766 8 131905328.156 8      2241.934          49.000    25100752.266 8 101070336.956 8      1717.809          48.000
> 2020 05 17 13 04 30.0000000  0 18        .000000000000
G18  20296533.453 8 106659045.264 8        62.047          51.000    20296532.352 8  83110906.018 8        48.348          50.000
G20  23570831.719 5 123865561.850 5      3245.754          34.000    23570833.500 5  96518622.207 5      2529.159          34.000
G21  20641180.812 8 108470182.472 8        47.969          50.000    20641179.484 8  84522222.415 8        37.378          49.000
G25  24812566.047 7 130390891.500 7     -3573.004          43.000    24812570.172 7 101603269.629 7     -2784.162          43.000
G26  20430502.008 6 107363027.618 6       953.203          40.000    20430505.258 6  83659492.287 6       742.753          41.000
G31  22742171.461 8 119510903.403 8     -2869.035          50.000    22742171.875 8  93125364.044 8     -2235.612          50.000
R09  19312727.438 8 103128891.965 8      -143.188          51.000    19312728.656 8  80211360.403 8      -111.368          51.000
R16  22225453.070 6 118724351.505 6     -4208.734          37.000
R18  22585297.008 5 120561851.996 5     -3566.188          33.000    22585305.688 5  93770358.054 5     -2773.698          34.000
R20  20935761.984 5 111952966.096 5      2423.023          31.000    20935767.992 6  87074524.021 6      1884.574          38.000
C05  39630283.805 5 206365286.625 5        14.004          34.000
C27  21545903.680 8 112195275.234 8       354.207          51.000
C28  23328823.609 4 121479362.979 4     -2188.871          29.000
C30  24514627.320 6 127654027.534 6      2510.383          40.000
E11  22362301.461 8 117514711.084 8      -129.609          49.000    22362300.422 8  90043729.448 8       -99.362          50.000
E24  24015725.570 8 126203456.878 8     -2665.762          51.000    24015738.375 7  96701377.587 7     -2042.537          45.000
E25  23496626.781 8 123475600.617 8      -295.289          51.000    23496627.789 8  94611161.525 8      -226.234          51.000
E36  25087950.125 8 131838066.476 8      2237.074          49.000    25087953.297 8 101018798.766 8      1714.152          49.000
> 2020 05 17 13 05  0.0000000  0 18        .000000000000
G18  20296237.180 8 106657487.131 8        42.293          51.000    20296236.055 8  83109691.895 8        32.956          50.000
G20  23552313.562 6 123768256.671 6      3241.145          37.000    23552316.336 6  96442800.007 6      2525.570          37.000
G21  20640955.422 8 108468997.733 8        31.375          49.000    20640953.953 8  84521299.232 8        24.451          49.000
G25  24832976.062 6 130498148.963 6     -3576.883          41.000    24832980.391 6 101686846.772 6     -2787.184          41.000
G26  20425108.461 6 107334682.642 6       936.875          40.000    20425111.930 6  83637405.290 6       730.032          40.000
G31  22758582.750 8 119597144.801 8     -2879.816          49.000    22758584.258 8  93192565.089 8     -2244.013          49.000
R09  19313610.781 8 103133610.137 8      -171.008          51.000    19313611.891 8  80215030.070 8      -133.006          51.000
R16  22249118.977 6 118850769.688 6     -4218.754          38.000
R18  22605345.094 5 120668878.772 5     -3568.488          35.000    22605354.742 5  93853601.114 5     -2775.491          31.000
R20  20922213.000 5 111880510.005 5      2407.309          31.000    20922218.156 5  87018169.357 5      1872.354          35.000
C05  39630207.516 5 206364890.047 5        12.660          34.000
C27  21543895.969 8 112184820.979 8       343.250          51.000
C28  23341443.406 4 121545022.638 4     -2193.141          28.000
C30  24500182.461 6 127578811.148 6      2504.188          38.000
E11  22363076.766 8 117518785.006 8      -141.492          48.000    22363075.680 8  90046851.025 8      -108.350          51.000
E24  24030968.367 8 126283554.752 8     -2673.602          51.000    24030979.820 7  96762751.192 7     -2048.550          46.000
E25  23498353.664 8 123484674.724 8      -309.172          51.000    23498354.664 8  94618114.398 8      -236.859          51.000
E36  25075204.625 8 131771087.405 8      2228.598          50.000    25075208.500 8 100967477.172 8      1707.612          50.000
> 2020 05 17 13 05 30.0000000  0 17        .000000000000
G18  20296044.031 8 106656471.305 8        23.883          51.000    20296042.922 8  83108900.348 8        18.610          50.000
G20  23533815.820 6 123671056.766 6      3236.969          38.000    23533819.758 6  96367059.825 6      2522.313          38.000
G21  20640816.062 8 108468265.438 8        16.031          49.000    20640814.766 8  84520728.615 8        12.492          49.000
G25  24853399.461 6 130605478.590 6     -3579.875          40.000    24853404.227 6 101770480.162 6     -2789.516          39.000
G26  20419798.508 6 107306777.721 6       921.977          41.000    20419801.836 6  83615661.188 6       718.423          41.000
G31  22775045.250 8 119683654.668 8     -2889.074          49.000    22775047.430 8  93259975.347 8     -2251.230          49.000
R09  19314640.625 8 103139108.926 8      -197.344          51.000    19314641.094 8  80219306.902 8      -153.490          50.000
R16  22272831.203 6 118977434.222 6     -4227.234          39.000    22272832.219 4  92538024.458 4     -3287.846          25.000
R18  22625399.055 6 120775925.484 6     -3569.852          36.000    22625406.953 5  93936859.634 5     -2776.554          31.000
R20  20908740.664 4 111808425.915 4      2393.555          28.000    20908747.227 6  86962121.315 6      1861.657          37.000
C05  39630127.773 5 206364474.249 5        13.664          34.000
C27  21541941.703 8 112174645.566 8       333.652          51.000
C30  24485761.875 6 127503727.161 6      2499.934          37.000
E11  22363908.375 8 117523155.538 8      -151.340          48.000    22363907.539 8  90050199.894 8      -115.953          51.000
E24  24046245.734 8 126363835.767 8     -2679.953          50.000    24046256.992 8  96824265.132 8     -2053.390          48.000
E25  23500149.516 8 123494112.152 8      -321.566          51.000    23500150.562 8  94625345.662 8      -246.437          51.000
E36  25062498.109 8 131704311.351 8      2221.594          50.000    25062501.562 8 100916311.126 8      1702.233          49.000
> 2020 05 17 13 06  0.0000000  0 18        .000000000000
G18  20295952.562 8 106655989.941 8         -.570          51.000    20295951.688 8  83108525.279 8         -.444          51.000
G20  23515337.930 6 123573957.518 6      3227.039          40.000    23515342.414 6  96291398.096 6      2514.573          38.000
G21  20640761.289 8 108467977.907 8        -5.531          49.000    20640760.125 8  84520504.575 8        -4.307          49.000
G25  24873834.695 6 130712871.521 6     -3588.555          40.000    24873839.836 6 101854162.889 6     -2796.279          39.000
G26  20414571.062 6 107279306.977 6       900.648          41.000    20414574.422 6  83594255.437 6       701.804          41.000
G29  22418994.570 6 117812577.551 6     -2537.562          38.000    22418992.922 6  91802031.898 6     -1977.331          36.000
G31  22791557.125 8 119770422.883 8     -2904.273          50.000    22791559.258 8  93327586.939 8     -2263.070          49.000
R09  19315815.430 8 103145381.645 8      -229.820          51.000    19315815.805 8  80224185.653 8      -178.749          51.000
R16  22296588.086 6 119104334.322 6     -4241.945          38.000    22296586.398 4  92636725.417 4     -3299.300          24.000
R18  22645456.344 5 120882982.701 5     -3576.328          35.000    22645462.172 5  94020126.328 5     -2781.589          33.000
C05  39630043.375 5 206364035.196 5         7.438          34.000
C27  21540039.688 8 112164741.274 8       317.938          51.000
C28  23366754.211 4 121676865.307 4     -2208.137          29.000
C30  24471363.703 5 127428768.873 5      2488.680          33.000
E11  22364795.164 8 117527814.717 8      -167.840          48.000    22364794.250 8  90053769.912 8      -128.733          51.000
E24  24061555.781 8 126444291.684 8     -2692.402          48.000    24061568.008 8  96885913.100 8     -2063.037          50.000
E25  23502013.242 8 123503905.973 8      -340.016          51.000    23502014.500 8  94632850.007 8      -260.531          51.000
E36  25049828.719 8 131637731.507 8      2208.324          51.000    25049831.555 8 100865295.456 8      1692.084          49.000
> 2020 05 17 13 06 30.0000000  0 16        .000000000000
G18  20295971.102 8 106656087.123 8        -5.656          51.000    20295970.492 8  83108601.011 8        -4.407          51.000
G20  23496888.898 7 123477006.622 7      3236.391          42.000    23496893.000 6  96215851.989 6      2521.866          37.000
G21  20640799.664 8 108468179.023 8        -7.582          49.000    20640798.227 8  84520661.280 8        -5.908          49.000
G26  20409434.695 6 107252316.537 6       898.984          41.000    20409438.336 6  83573223.900 6       700.504          41.000
G29  22433460.812 5 117888583.987 5     -2528.434          35.000    22433441.805 5  91861257.561 5     -1970.217          34.000
G31  22808126.344 8 119857491.593 8     -2900.152          50.000    22808127.906 8  93395432.665 8     -2259.859          49.000
R09  19317143.508 8 103152474.053 8      -242.773          51.000    19317144.109 8  80229701.954 8      -188.821          51.000
R16  22320396.516 6 119231511.615 6     -4236.707          36.000    22320393.383 4  92735637.492 4     -3295.217          25.000
R18  22665523.492 5 120990093.781 5     -3564.246          32.000    22665527.664 5  94103435.001 5     -2772.188          35.000
C05  39629962.664 5 206363614.995 5        20.793          34.000
C27  21538198.234 8 112155151.889 8       321.520          51.000
C30  24456996.633 5 127353980.692 5      2496.984          33.000
E11  22365745.133 8 117532806.439 8      -164.680          48.000    22365744.055 8  90057594.722 8      -126.099          51.000
E24  24076906.758 7 126524966.108 7     -2685.637          45.000    24076920.797 8  96947728.550 8     -2057.796          51.000
E25  23503953.367 8 123514101.260 8      -339.383          51.000    23503954.891 8  94640661.982 8      -260.059          51.000
E36  25037205.344 8 131571393.068 8      2214.539          50.000    25037207.492 8 100814464.746 8      1696.834          49.000
> 2020 05 17 13 07  0.0000000  0 18        .000000000000
G18  20296117.742 8 106656858.589 8       -33.449          51.000    20296117.281 8  83109202.160 8       -26.064          51.000
G20  23478487.328 7 123380303.261 7      3222.602          44.000    23478490.406 6  96140498.781 6      2511.118          36.000
G21  20640949.039 8 108468964.343 8       -32.504          49.000    20640947.438 8  84521273.212 8       -25.328          49.000
G26  20404408.539 7 107225904.187 7       874.387          42.000    20404412.273 7  83552642.828 7       681.340          43.000
G29  22447952.664 4 117964748.180 4     -2542.820          29.000
G31  22824770.469 8 119944954.181 8     -2918.637          49.000    22824771.281 8  93463585.295 8     -2274.262          49.000
R09  19318643.438 8 103160484.345 8      -278.910          51.000    19318644.594 8  80235932.177 8      -216.930          51.000
R16  22344275.336 5 119359060.916 5     -4254.473          31.000    22344269.961 4  92834838.355 4     -3309.034          24.000
R18  22685618.609 5 121097354.765 5     -3574.484          33.000    22685620.906 6  94186860.311 6     -2780.151          36.000
R20  20868802.070 5 111594841.336 5      2350.184          31.000    20868811.641 6  86795994.536 6      1827.921          40.000
C05  39629903.984 5 206363309.325 5        11.309          34.000
C27  21536435.430 8 112145972.401 8       302.562          51.000
C28  23392193.531 5 121809279.886 5     -2212.785          32.000
C30  24442683.531 5 127279458.477 5      2482.953          35.000
E11  22366776.430 8 117538226.218 8      -184.441          48.000    22366775.344 8  90061747.538 8      -141.310          51.000
E24  24092315.859 6 126605954.362 6     -2701.684          40.000    24092333.562 8  97009784.524 8     -2069.995          51.000
E25  23505988.289 8 123524794.790 8      -361.324          51.000    23505989.945 8  94648855.722 8      -276.931          51.000
E36  25024645.602 8 131505392.881 8      2197.695          50.000    25024647.523 8 100763893.216 8      1683.921          49.000
> 2020 05 17 13 07 30.0000000  0 17        .000000000000
G18  20296338.352 8 106658018.654 8       -47.938          51.000    20296338.195 8  83110106.108 8       -37.354          51.000
G20  23460079.562 7 123283565.479 7      3222.398          46.000    23460081.711 6  96065118.759 6      2510.960          38.000
G21  20641155.156 8 108470047.478 8       -43.918          50.000    20641153.359 8  84522117.223 8       -34.222          50.000
G26  20399438.430 7 107199786.197 7       862.879          43.000    20399441.930 7  83532291.133 7       672.376          43.000
G29  22462473.070 6 118041025.094 6     -2543.406          37.000    22462442.992 5  91979954.195 5     -1981.866          30.000
G31  22841434.539 8 120032522.881 8     -2923.570          49.000    22841434.578 8  93531820.618 8     -2278.107          49.000
R09  19320261.039 8 103169123.141 8      -301.387          51.000    19320262.617 8  80242651.235 8      -234.412          51.000
R18  22705687.102 5 121204474.084 5     -3570.980          35.000    22705687.859 6  94270175.281 6     -2777.432          37.000
R20  20855631.117 5 111524449.319 5      2340.957          32.000    20855641.664 6  86741246.168 6      1820.744          40.000
C05  39629813.117 5 206362835.586 5        15.691          35.000
C27  21534696.836 8 112136919.822 8       296.906          51.000
C28  23404930.992 5 121875605.143 5     -2213.129          31.000
C30  24428370.148 6 127204919.996 6      2482.473          37.000
E11  22367834.836 8 117543788.165 8      -190.641          48.000    22367833.836 8  90066009.291 8      -146.135          51.000
E24  24107730.477 7 126686970.197 7     -2703.809          44.000    24107751.234 8  97071861.644 8     -2071.728          51.000
E25  23508063.805 8 123535701.824 8      -369.949          51.000    23508065.727 8  94657213.036 8      -283.453          51.000
E36  25012095.875 8 131439446.278 8      2194.438          49.000    25012098.555 8 100713362.733 8      1681.524          49.000
> 2020 05 17 13 08  0.0000000  0 18        .000000000000
G18  20296693.555 8 106659886.940 8       -71.000          51.000    20296694.031 8  83111561.942 8       -55.325          50.000
G20  23441726.820 7 123187116.431 7      3213.195          46.000    23441727.672 6  95989963.751 6      2503.792          36.000
G21  20641478.984 8 108471748.182 8       -63.875          50.000    20641476.930 8  84523442.441 8       -49.776          50.000
G26  20394585.656 7 107174284.249 7       842.875          43.000    20394588.617 7  83512419.489 7       656.786          43.000
G29  22477043.430 5 118117544.656 5     -2552.531          32.000    22477012.172 5  92039579.963 5     -1988.985          30.000
G31  22858178.844 8 120120514.927 8     -2937.012          48.000    22858177.977 8  93600385.810 8     -2288.584          48.000
R09  19322057.375 8 103178716.328 8      -332.562          51.000    19322059.383 8  80250112.582 8      -258.663          51.000
R16  22392139.438 5 119614799.973 5     -4271.160          30.000
R18  22725788.508 6 121311775.351 6     -3576.969          36.000    22725789.508 5  94353631.805 5     -2782.087          34.000
R20  20842572.297 5 111454598.115 5      2322.199          34.000    20842579.445 6  86686917.452 6      1806.155          37.000
C05  39629750.812 5 206362511.164 5        11.988          35.000
C27  21533043.578 8 112128311.078 8       282.613          51.000
C28  23417724.000 5 121942212.541 5     -2221.918          33.000
C30  24414116.141 6 127130683.135 6      2472.426          39.000
E11  22368981.125 8 117549811.778 8      -205.270          48.000    22368980.102 8  90070624.790 8      -157.261          51.000
E24  24123213.766 7 126768333.090 7     -2714.793          47.000    24123234.641 8  97134204.642 8     -2080.238          51.000
E25  23510241.102 8 123547143.042 8      -387.262          51.000    23510243.172 8  94665979.674 8      -296.760          51.000
E36  24999617.656 8 131373874.033 8      2182.484          50.000    24999621.172 8 100663119.118 8      1672.239          49.000
> 2020 05 17 13 08 30.0000000  0 17        .000000000000
G18  20297137.391 8 106662221.107 8       -87.586          51.000    20297138.016 8  83113380.771 8       -68.249          51.000
G20  23423383.352 7 123090717.214 7      3210.406          45.000    23423382.539 6  95914847.529 6      2501.618          38.000
G21  20641873.977 8 108473823.577 8       -77.422          50.000    20641871.812 8  84525059.666 8       -60.326          50.000
G26  20389804.438 7 107149158.018 7       829.215          44.000    20389806.992 7  83492840.608 7       646.141          44.000
G31  22874956.875 8 120208686.134 8     -2944.078          48.000    22874954.914 8  93669090.605 8     -2294.087          48.000
R09  19323986.773 8 103189018.559 8      -357.148          51.000    19323988.734 8  80258125.420 8      -277.785          51.000
R16  22416135.750 5 119742969.718 5     -4277.730          30.000
R18  22745877.883 5 121419011.111 5     -3574.953          35.000    22745878.711 5  94437037.330 5     -2780.522          31.000
R20  20829573.609 5 111385078.135 5      2310.164          32.000    20829575.758 5  86632846.451 5      1796.797          32.000
C05  39629671.094 5 206362096.760 5        13.492          34.000
C27  21531429.586 8 112119906.139 8       274.805          51.000
C28  23430524.023 5 122008861.791 5     -2224.203          33.000
C30  24399875.438 6 127056508.611 6      2469.586          39.000
E11  22370169.148 8 117556054.565 8      -213.660          49.000    22370167.930 8  90075408.219 8      -163.863          51.000
E24  24138718.102 8 126849800.260 8     -2719.293          51.000    24138737.422 8  97196627.497 8     -2083.524          51.000
E25  23512474.188 8 123558877.070 8      -397.914          51.000    23512476.234 8  94674970.670 8      -304.880          51.000
E36  24987164.992 8 131308434.911 8      2177.074          50.000    24987168.383 8 100612977.475 8      1668.208          49.000
> 2020 05 17 13 09  0.0000000  0 17        .000000000000
G18  20297690.586 8 106665130.854 8      -105.570          50.000    20297691.797 8  83115648.107 8       -82.263          50.000
G20  23405070.531 7 122994481.444 7      3206.277          44.000    23405067.641 5  95839858.658 5      2498.398          35.000
G21  20642361.055 8 108476383.357 8       -92.410          50.000    20642358.906 8  84527054.306 8       -72.008          50.000
G26  20385116.023 7 107124519.273 7       814.262          45.000    20385118.312 7  83473641.580 7       634.493          45.000
G31  22891789.195 7 120297143.879 7     -2952.254          46.000    22891786.164 7  93738018.638 7     -2300.461          45.000
R09  19326069.891 8 103200142.093 8      -383.504          51.000    19326071.766 8  80266777.041 8      -298.281          51.000
R16  22440179.539 5 119871411.212 5     -4284.391          31.000    22440191.359 4  93233385.182 4     -3332.304          28.000
R18  22765975.023 6 121526291.779 6     -3575.941          36.000    22765976.391 4  94520475.694 4     -2781.294          28.000
R20  20816655.594 4 111316002.151 4      2296.613          29.000    20816652.180 5  86579120.833 5      1786.258          32.000
C05  39629594.953 5 206361699.625 5        13.949          34.000
C27  21529875.531 8 112111813.916 8       265.520          51.000
C28  23443352.109 4 122075685.516 4     -2228.617          28.000
C30  24385668.125 6 126982506.229 6      2464.551          37.000
E11  22371419.680 8 117562626.082 8      -223.629          49.000    22371418.250 8  90080443.531 8      -171.319          51.000
E24  24154263.164 8 126931481.014 8     -2725.344          51.000    24154280.484 8  97259214.013 8     -2088.283          50.000
E25  23514783.914 8 123571014.693 8      -410.449          51.000    23514786.148 8  94684270.915 8      -314.467          51.000
E36  24974758.383 8 131243239.756 8      2170.176          48.000    24974761.898 8 100563022.775 8      1662.814          49.000
> 2020 05 17 13 09 30.0000000  0 17        .000000000000
G18  20298353.039 8 106668614.363 8      -128.805          49.000    20298354.945 8  83118362.533 8      -100.367          49.000
G20  23386788.430 7 122898410.648 7      3196.387          42.000    23386783.938 6  95764998.358 6      2490.691          36.000
G21  20642939.953 8 108479425.530 8      -112.652          49.000    20642937.930 8  84529424.838 8       -87.781          49.000
G26  20380520.516 7 107100368.264 7       793.719          46.000    20380522.555 7  83454822.614 7       618.482          46.000
G31  22908675.148 7 120385884.578 7     -2965.684          44.000    22908672.047 7  93807167.162 7     -2310.922          44.000
R09  19328306.742 8 103212086.072 8      -415.059          51.000    19328308.266 8  80276066.799 8      -322.823          51.000
R16  22464271.023 5 120000104.390 5     -4297.742          35.000    22464279.047 4  93333483.035 4     -3342.688          28.000
R18  22786080.102 5 121633613.848 5     -3581.480          35.000    22786082.562 4  94603952.372 4     -2785.596          25.000
R20  20803820.359 4 111247369.675 4      2276.719          29.000    20803817.703 5  86525739.991 5      1770.775          34.000
C05  39629522.516 5 206361322.683 5         9.426          34.000
C27  21528381.250 8 112104032.784 8       251.094          51.000
C28  23456200.719 5 122142666.347 5     -2237.336          35.000
C30  24371494.281 5 126908675.089 5      2454.793          31.000
E11  22372732.500 8 117569524.416 8      -238.336          49.000    22372730.797 8  90085729.260 8      -182.678          51.000
E24  24169848.047 8 127013373.157 8     -2736.383          51.000    24169863.719 8  97321962.481 8     -2096.724          49.000
E25  23517170.086 8 123583555.075 8      -427.816          51.000    23517172.648 8  94693879.758 8      -327.774          51.000
E36  24962397.727 7 131178287.930 7      2157.910          47.000    24962401.734 8 100513254.513 8      1653.446          49.000
> 2020 05 17 13 10  0.0000000  0 16        .000000000000
G18  20299115.672 8 106672623.573 8      -142.484          49.000    20299117.719 8  83121486.581 8      -111.027          49.000
G20  23368528.805 7 122802460.482 7      3196.105          44.000    23368524.359 6  95690232.021 6      2490.475          37.000
G21  20643601.312 8 108482901.559 8      -123.254          48.000    20643599.453 8  84532133.442 8       -96.042          48.000
G26  20376008.922 7 107076658.973 7       782.906          46.000    20376010.727 7  83436347.844 7       610.054          46.000
G31  22925605.766 7 120474857.696 7     -2969.668          44.000    22925603.977 7  93876496.825 7     -2314.030          44.000
R09  19330688.305 8 103224802.450 8      -436.883          50.000    19330689.711 8  80285957.309 8      -339.798          51.000
R16  22488400.930 5 120129005.884 5     -4299.672          34.000    22488406.531 5  93433739.711 5     -3344.189          32.000
R18  22806183.672 6 121740927.895 6     -3576.742          36.000
C05  39629444.586 5 206360917.155 5        13.738          34.000
C27  21526937.750 8 112096515.381 8       245.996          51.000
C28  23469082.586 4 122209713.314 4     -2236.867          28.000
C30  24357347.047 5 126834968.609 5      2454.777          32.000
E11  22374098.234 8 117576701.419 8      -244.238          48.000    22374096.391 8  90091228.530 8      -187.096          51.000
E24  24185463.398 8 127095428.311 8     -2737.969          51.000    24185477.266 7  97384835.871 7     -2097.915          47.000
E25  23519623.977 8 123596451.230 8      -435.949          51.000    23519626.875 8  94703761.219 8      -333.982          51.000
E36  24950075.211 8 131113532.553 8      2155.020          48.000    24950079.281 8 100463636.774 8      1651.362          49.000
> 2020 05 17 13 10 30.0000000  0 15        .000000000000
G18  20299978.297 8 106677156.775 8      -164.539          49.000    20299980.375 8  83125018.940 8      -128.212          49.000
G20  23350292.906 7 122706632.958 7      3187.355          45.000    23350289.594 6  95615561.252 6      2483.657          39.000
G21  20644344.836 8 108486809.635 8      -142.164          48.000    20644343.031 8  84535178.704 8      -110.777          48.000
G26  20371581.305 7 107053391.819 7       763.465          46.000    20371582.953 7  83418217.590 7       594.905          47.000
G31  22942580.625 7 120564059.722 7     -2981.949          47.000    22942580.328 7  93946004.821 7     -2323.600          47.000
R09  19333214.445 8 103238290.591 8      -467.145          51.000    19333216.031 8  80296448.080 8      -363.335          51.000
R16  22512568.742 5 120258107.803 5     -4310.848          34.000    22512573.562 5  93534152.199 5     -3352.888          31.000
R18  22826284.922 6 121848231.069 6     -3581.402          36.000    22826287.531 4  94770878.827 4     -2785.535          25.000
C05  39629360.898 5 206360481.059 5        10.246          34.000
C27  21525544.461 8 112089260.231 8       232.812          50.000
C30  24343218.375 5 126761386.375 5      2446.262          34.000
E11  22375516.531 8 117584155.215 8      -257.504          49.000    22375514.523 8  90096939.898 8      -197.362          50.000
E24  24201108.758 8 127177644.475 8     -2747.734          51.000    24201120.844 7  97447832.611 7     -2105.437          46.000
E25  23522145.320 8 123609702.520 8      -452.281          51.000    23522148.656 8  94713914.795 8      -346.517          51.000
E36  24937790.711 8 131048972.975 8      2144.082          49.000    24937794.922 8 100414169.070 8      1642.943          51.000
> 2020 05 17 13 11  0.0000000  0 14        .000000000000
G18  20300961.258 8 106682321.725 8      -180.305          50.000    20300963.375 8  83129043.585 8      -140.497          50.000
G20  23332101.844 7 122611039.791 7      3184.656          46.000    23332099.883 7  95541073.118 7      2481.553          42.000
G21  20645191.094 8 108491257.437 8      -154.879          48.000    20645189.516 8  84538644.512 8      -120.685          48.000
G26  20367258.539 7 107030676.618 7       750.383          46.000    20367260.188 7  83400517.423 7       584.714          46.000
G31  22959619.422 7 120653596.386 7     -2987.750          47.000    22959620.258 7  94015773.580 7     -2328.120          47.000
R09  19335906.133 8 103252660.595 8      -491.352          51.000    19335907.352 8  80307624.763 8      -382.162          51.000
R16  22536793.602 5 120387516.404 5     -4316.453          32.000    22536797.469 5  93634803.244 5     -3357.244          31.000
R18  22846404.195 5 121955631.518 5     -3579.875          35.000    22846412.039 4  94854431.657 4     -2784.344          25.000
C27  21524221.906 8 112082374.376 8       225.699          50.000
C30  24329131.789 6 126688036.160 6      2443.625          36.000
E11  22377008.117 8 117591993.652 8      -265.340          49.000    22377005.828 8  90102945.961 8      -203.345          50.000
E24  24216804.836 8 127260129.077 8     -2751.684          51.000    24216815.695 7  97511035.036 7     -2108.430          44.000
E25  23524754.758 8 123623417.768 8      -462.551          51.000    23524758.617 8  94724423.881 8      -354.380          51.000
E36  24925564.289 8 130984718.232 8      2139.105          50.000    24925568.969 8 100364934.944 8      1639.067          51.000
> 2020 05 17 13 11 30.0000000  0 18        .000000000000
G18  20302028.406 8 106687928.212 8      -197.121          50.000    20302030.117 8  83133412.269 8      -153.601          50.000
G20  23313919.930 7 122515494.188 7      3181.043          47.000    23313919.664 6  95466622.035 6      2478.735          41.000
G21  20646103.773 8 108496054.420 8      -168.699          48.000    20646102.602 8  84542382.433 8      -131.454          48.000
G26  20363005.023 7 107008325.215 7       736.094          47.000    20363006.789 7  83383100.742 7       573.580          47.000
G29  22579582.039 5 118656482.221 5     -2580.797          30.000    22579560.977 4  92459569.566 4     -2011.001          29.000
G31  22976685.383 7 120743275.196 7     -2994.613          46.000    22976686.828 7  94085653.106 7     -2333.465          46.000
R09  19338726.844 8 103267719.973 8      -516.500          51.000    19338727.445 8  80319337.623 8      -401.722          50.000
R16  22561038.992 4 120517035.785 4     -4322.219          29.000    22561042.758 5  93735540.484 5     -3361.729          31.000
R18  22866505.750 4 122062959.858 4     -3578.867          28.000    22866508.406 4  94937888.313 4     -2783.554          25.000
R20  20753253.453 4 110976957.838 4      2226.512          29.000    20753252.719 5  86315419.810 5      1731.731          35.000
C05  39629202.820 5 206359658.035 5        14.660          34.000
C27  21522934.391 8 112075669.573 8       217.523          51.000
C28  23507860.953 5 122411590.408 5     -2248.398          31.000
C30  24315052.766 6 126614730.633 6      2440.090          38.000
E11  22378536.500 8 117600026.343 8      -274.031          49.000    22378534.344 8  90109100.884 8      -209.933          51.000
E24  24232515.555 8 127342691.609 8     -2756.305          50.000    24232525.875 7  97574297.157 7     -2112.043          44.000
E25  23527416.250 8 123637407.827 8      -473.984          51.000    23527420.914 8  94735143.523 8      -363.135          51.000
E36  24913359.578 8 130920579.290 8      2133.145          49.000    24913364.789 8 100315789.529 8      1634.430          51.000
> 2020 05 17 13 12  0.0000000  0 15        .000000000000
G18  20303234.320 8 106694264.655 8      -218.074          50.000    20303235.742 8  83138349.772 8      -169.928          50.000
G20  23295802.688 7 122420288.315 7      3173.086          45.000    23295803.969 7  95392435.689 7      2472.538          43.000
G21  20647137.828 8 108501488.604 8      -186.336          48.000    20647136.711 8  84546616.866 8      -145.194          48.000
G26  20358876.125 8 106986628.200 8       717.586          48.000    20358877.930 8  83366193.959 8       559.161          48.000
G31  22993832.688 7 120833382.640 7     -3005.281          44.000    22993834.500 7  94155866.677 7     -2341.778          44.000
R09  19341731.266 8 103283763.035 8      -545.691          51.000    19341731.781 8  80331815.540 8      -424.427          50.000
R20  20740830.406 4 110910543.939 4      2210.102          29.000    20740834.047 6  86263764.515 6      1718.974          38.000
C05  39629147.250 5 206359368.093 5        12.219          34.000
C27  21521736.477 8 112069431.908 8       205.539          50.000
C28  23520858.211 6 122479257.662 6     -2255.141          36.000
C30  24301036.320 6 126541756.708 6      2432.195          40.000
E11  22380156.609 8 117608541.659 8      -286.383          48.000    22380155.031 8  90115625.603 8      -219.418          51.000
E24  24248296.125 8 127425620.264 8     -2764.984          49.000    24248306.898 7  97637839.808 7     -2118.678          46.000
E25  23530185.383 8 123651962.202 8      -489.160          51.000    23530190.688 8  94746295.563 8      -374.799          51.000
E36  24901231.430 8 130856845.878 8      2123.062          48.000    24901237.148 8 100266954.827 8      1626.747          51.000
> 2020 05 17 13 12 30.0000000  0 16        .000000000000
G18  20304517.344 8 106701006.065 8      -234.871          50.000    20304518.641 8  83143602.815 8      -183.016          50.000
G20  23277688.938 7 122325100.933 7      3169.137          45.000    23277691.484 7  95318263.750 7      2469.457          45.000
G21  20648231.367 8 108507234.957 8      -200.102          48.000    20648230.219 8  84551094.559 8      -155.923          48.000
G26  20354810.375 8 106965262.575 8       703.195          48.000    20354812.062 8  83349545.426 8       547.944          48.000
G29  22609120.328 6 118811684.200 6     -2590.645          36.000    22609098.680 5  92580551.156 5     -2018.684          33.000
G31  23010998.578 7 120923591.644 7     -3012.242          44.000    23011001.195 7  94226159.425 7     -2347.202          44.000
R09  19344857.969 8 103300459.700 8      -571.082          51.000    19344858.359 8  80344801.831 8      -444.175          50.000
R20  20728460.141 5 110844409.594 5      2196.176          31.000    20728468.086 6  86212326.776 6      1708.137          38.000
C05  39629064.195 5 206358935.827 5        13.844          34.000
C27  21520566.195 8 112063339.650 8       197.223          50.000
C28  23533851.141 6 122546904.311 6     -2257.996          36.000
C30  24287021.039 6 126468793.290 6      2428.605          40.000
E11  22381806.953 8 117617214.654 8      -295.371          48.000    22381805.641 8  90122271.148 8      -226.302          51.000
E24  24264084.320 8 127508589.745 8     -2769.711          49.000    24264096.359 7  97701413.746 7     -2122.390          46.000
E25  23533000.703 8 123666756.977 8      -500.707          51.000    23533006.070 8  94757631.809 8      -383.623          51.000
E36  24889118.406 7 130793194.128 7      2116.852          47.000    24889124.156 8 100218182.722 8      1622.006          51.000
> 2020 05 17 13 13  0.0000000  0 15        .000000000000
G18  20305932.438 8 106708441.214 8      -255.945          50.000    20305933.430 8  83149396.453 8      -199.438          50.000
G20  23259634.164 7 122230224.534 7      3160.590          45.000    23259637.734 7  95244334.145 7      2462.800          44.000
G21  20649439.156 8 108513582.221 8      -218.309          48.000    20649438.148 8  84556040.500 8      -170.111          48.000
G26  20350863.102 8 106944519.305 8       684.414          48.000    20350864.453 8  83333381.835 8       533.310          48.000
G31  23028238.477 7 121014189.145 7     -3023.047          45.000    23028241.406 7  94296754.879 7     -2355.621          44.000
R09  19348162.250 8 103318104.414 8      -600.621          51.000    19348162.875 8  80358525.499 8      -467.150          51.000
R18  22926896.117 5 122385356.392 5     -3583.699          30.000    22926901.141 4  95188591.167 4     -2787.322          29.000
C05  39629008.367 5 206358645.250 5        10.887          34.000
C27  21519479.039 8 112057679.244 8       184.805          50.000
C28  23546890.914 5 122614816.270 5     -2264.680          32.000
C30  24273063.547 6 126396127.789 6      2420.602          36.000
E11  22383542.414 8 117626333.982 8      -308.086          49.000    22383540.898 8  90129258.672 8      -235.967          51.000
E24  24279935.336 8 127591888.567 8     -2778.871          49.000    24279948.344 7  97765240.057 7     -2129.307          46.000
E25  23535916.977 8 123682082.038 8      -516.359          51.000    23535922.172 8  94769374.390 8      -395.697          51.000
E36  24877076.664 8 130729914.117 8      2106.395          50.000    24877081.539 8 100169695.475 8      1614.006          51.000
> 2020 05 17 13 13 30.0000000  0 15        .000000000000
G18  20307444.047 8 106716383.649 8      -273.285          50.000    20307444.547 8  83155585.375 8      -212.949          50.000
G20  23241604.117 7 122135476.737 7      3155.773          44.000    23241607.977 7  95170504.685 7      2459.044          44.000
G21  20650725.961 8 108520343.530 8      -232.391          49.000    20650724.656 8  84561309.066 8      -181.084          49.000
G26  20346999.133 8 106924214.059 8       669.484          49.000    20347000.266 8  83317559.575 8       521.676          49.000
G31  23045516.602 7 121104986.752 7     -3030.117          45.000    23045519.070 7  94367506.221 7     -2361.133          45.000
R09  19351608.547 8 103336508.269 8      -626.238          51.000    19351609.766 8  80372839.578 8      -487.074          51.000
R16  22658532.789 5 121037848.065 5     -4353.797          34.000    22658528.336 4  94140497.573 4     -3386.293          27.000
C05  39628944.453 5 206358312.494 5        11.664          34.000
C27  21518439.641 8 112052266.275 8       176.273          50.000
C28  23559942.086 5 122682808.874 5     -2267.672          32.000
C30  24259131.867 5 126323576.532 5      2416.453          34.000
E11  22385327.172 8 117635713.243 8      -317.043          49.000    22385325.719 8  90136445.370 8      -243.004          51.000
E24  24295813.852 8 127675330.047 8     -2783.844          50.000    24295827.000 7  97829175.697 7     -2132.976          46.000
E25  23538899.008 8 123697752.041 8      -528.160          51.000    23538903.789 8  94781381.266 8      -404.685          51.000
E36  24865070.555 8 130666820.604 8      2099.891          51.000    24865074.828 8 100121351.126 8      1609.040          51.000
> 2020 05 17 13 14  0.0000000  0 15        .000000000000
G18  20309053.703 8 106724841.546 8      -290.336          51.000    20309054.016 8  83162175.959 8      -226.236          51.000
G20  23223601.172 7 122040869.181 7      3151.270          46.000    23223604.742 7  95096784.497 7      2455.535          44.000
G21  20652093.125 8 108527527.076 8      -246.316          49.000    20652091.539 8  84566906.651 8      -191.935          48.000
G26  20343220.508 8 106904357.109 8       654.508          49.000    20343221.688 8  83302086.631 8       510.009          50.000
G31  23062834.328 7 121195990.626 7     -3036.891          45.000    23062835.570 7  94438418.276 7     -2366.411          45.000
R09  19355198.562 8 103355680.337 8      -651.855          51.000    19355200.008 8  80387751.177 8      -506.999          50.000
R16  22682999.398 5 121168537.684 5     -4359.168          32.000    22682997.820 4  94242144.947 4     -3390.467          28.000
C05  39628874.414 5 206357947.576 5        12.922          34.000
C27  21517449.336 8 112047109.216 8       167.723          50.000
C28  23573014.375 5 122750889.866 5     -2271.223          33.000
C30  24245227.102 4 126251253.879 4      2411.418          29.000
E11  22387162.891 8 117645360.688 8      -326.027          49.000    22387161.750 8  90143837.580 8      -249.789          51.000
E24  24311721.344 8 127758922.179 8     -2788.824          51.000    24311734.414 7  97893226.775 7     -2136.807          47.000
E25  23541948.672 8 123713776.284 8      -539.953          51.000    23541952.805 8  94793659.583 8      -413.772          51.000
E36  24853101.711 8 130603923.048 8      2093.473          50.000    24853105.859 8 100073156.937 8      1604.122          51.000
> 2020 05 17 13 14 30.0000000  0 15        .000000000000
G18  20310779.047 8 106733907.896 8      -305.727          51.000    20310779.273 8  83169240.675 8      -238.228          50.000
G20  23205643.742 7 121946498.911 7      3148.430          47.000    23205646.773 7  95023249.247 7      2453.325          45.000
G21  20653558.219 8 108535225.816 8      -258.625          49.000    20653556.461 8  84572905.703 8      -201.526          49.000
G26  20339545.289 8 106885043.596 8       641.340          50.000    20339546.805 8  83287037.155 8       499.745          50.000
G31  23080208.422 7 121287291.566 7     -3041.613          42.000    23080208.562 7  94509561.828 7     -2370.091          42.000
R09  19358949.992 8 103375715.996 8      -675.473          51.000    19358951.734 8  80403334.462 8      -525.368          49.000
R16  22707514.117 5 121299492.487 5     -4362.875          30.000    22707514.219 4  94343998.528 4     -3393.350          28.000
R18  22987303.305 5 122707744.570 5     -3578.254          31.000    22987313.953 5  95439364.174 5     -2783.077          32.000
C05  39628816.078 5 206357644.525 5        15.645          35.000
C27  21516525.773 8 112042300.553 8       161.055          50.000
C28  23586121.391 5 122819151.322 5     -2271.355          33.000
E11  22389067.633 8 117655369.265 8      -332.883          50.000    22389066.422 8  90151506.478 8      -255.021          50.000
E24  24327675.398 8 127842757.720 8     -2791.871          51.000    24327688.344 7  97957464.355 7     -2139.313          47.000
E25  23545083.797 8 123730248.872 8      -549.871          51.000    23545087.070 8  94806281.421 8      -421.399          51.000
E36  24841187.461 8 130541315.746 8      2088.613          49.000    24841192.492 8 100025185.137 8      1600.396          51.000
> 2020 05 17 13 15  0.0000000  0 16        .000000000000
G18  20312588.344 8 106743415.187 8      -328.250          51.000    20312588.117 8  83176648.943 8      -255.782          50.000
G20  23187700.375 8 121852202.457 8      3137.879          48.000    23187702.586 7  94949771.529 7      2445.103          44.000
G21  20655089.445 8 108543271.824 8      -277.945          49.000    20655087.688 8  84579175.312 8      -216.581          49.000
G26  20335941.914 8 106866108.105 8       620.875          49.000    20335943.930 8  83272282.233 8       483.799          49.000
G31  23097606.750 6 121378720.369 6     -3053.828          39.000    23097605.922 6  94580805.023 6     -2379.606          39.000
R09  19362830.992 8 103396445.268 8      -706.566          51.000    19362833.211 8  80419457.195 8      -549.555          48.000
R16  22732045.250 5 121430539.684 5     -4373.711          32.000    22732046.883 4  94445924.000 4     -3401.781          29.000
R18  23007430.180 5 122815168.852 5     -3583.156          30.000    23007439.570 5  95522916.353 5     -2786.899          31.000
C05  39628737.844 5 206357236.225 5        11.305          34.000
C27  21515637.352 8 112037674.674 8       147.227          51.000
C28  23599231.914 5 122887427.241 5     -2279.703          32.000
C30  24217491.320 5 126106842.307 5      2400.445          32.000
E11  22391009.031 8 117665571.482 8      -347.371          49.000    22391007.758 8  90159323.775 8      -266.233          50.000
E24  24343643.938 8 127926668.964 8     -2802.309          51.000    24343655.820 7  98021759.932 7     -2147.247          46.000
E25  23548272.586 8 123747003.390 8      -567.207          51.000    23548275.133 8  94819119.281 8      -434.610          51.000
E36  24829296.867 8 130478832.433 8      2076.672          50.000    24829302.562 8  99977308.340 8      1591.195          51.000
> 2020 05 17 13 15 30.0000000  0 15        .000000000000
G18  20314512.758 8 106753527.943 8      -347.605          50.000    20314512.414 8  83184529.025 8      -270.861          50.000
G20  23169802.727 7 121758147.729 7      3130.629          47.000    23169803.812 7  94876482.165 7      2439.451          42.000
G21  20656717.969 8 108551829.580 8      -293.992          49.000    20656716.289 8  84585843.679 8      -229.085          49.000
G26  20332442.250 8 106847717.352 8       603.566          50.000    20332444.570 8  83257951.747 8       470.311          50.000
G29  22698343.297 6 119280596.044 6     -2619.195          36.000    22698352.648 5  92945933.573 5     -2040.941          34.000
G31  23115060.109 5 121470439.643 5     -3061.633          34.000    23115058.602 5  94652274.622 5     -2385.688          34.000
R09  19366874.000 8 103418036.237 8      -734.367          51.000    19366875.812 7  80436250.190 7      -571.174          47.000
C05  39628671.148 5 206356889.752 5        10.328          34.000
C27  21514815.289 8 112033395.008 8       136.605          50.000
C28  23612378.195 5 122955880.682 5     -2285.133          33.000
C30  24203671.969 6 126034900.104 6      2394.270          36.000
E11  22393018.602 8 117676131.974 8      -358.309          50.000    22393017.266 8  90167415.596 8      -274.458          50.000
E24  24359657.727 8 128010820.241 8     -2809.305          49.000    24359667.977 7  98086239.460 7     -2152.593          46.000
E25  23551546.500 8 123764205.562 8      -581.109          51.000    23551548.258 8  94832300.158 8      -445.308          51.000
E36  24817461.781 8 130416638.983 8      2067.922          51.000    24817467.375 8  99929653.636 8      1584.494          51.000
> 2020 05 17 13 16  0.0000000  0 14        .000000000000
G18  20316546.242 8 106764214.471 8      -362.527          51.000    20316546.188 8  83192856.204 8      -282.489          50.000
G20  23151945.531 7 121664307.070 7      3127.730          47.000    23151944.992 6  94803359.621 6      2437.193          41.000
G21  20658437.617 8 108560867.146 8      -306.117          48.000    20658436.188 8  84592885.950 8      -238.533          48.000
G26  20329040.617 8 106829841.697 8       590.500          50.000    20329042.844 8  83244022.658 8       460.130          50.000
G31  23132561.898 5 121562415.612 5     -3066.895          35.000    23132562.258 5  94723944.232 5     -2389.788          35.000
R09  19371073.062 8 103440457.411 8      -757.879          51.000    19371074.516 8  80453688.852 8      -589.461          48.000
R16  22781247.242 4 121693364.303 4     -4384.520          28.000    22781251.742 4  94650392.088 4     -3410.182          26.000
C05  39628609.867 5 206356570.583 5        13.402          35.000
C27  21514053.898 8 112029430.552 8       130.172          50.000
C30  24189893.375 6 125963144.158 6      2391.789          38.000
E11  22395090.555 8 117687019.081 8      -364.996          50.000    22395089.078 8  90175757.677 8      -279.675          51.000
E24  24375710.406 7 128095179.695 7     -2812.074          47.000    24375720.117 7  98150878.481 7     -2154.793          46.000
E25  23554899.664 8 123781824.769 8      -590.941          51.000    23554900.555 8  94845800.598 8      -452.841          51.000
E36  24805676.039 8 130354705.008 8      2063.410          51.000    24805681.523 8  99882197.728 8      1581.037          51.000
> 2020 05 17 13 16 30.0000000  0 13        .000000000000
G18  20318678.000 8 106775417.293 8      -386.082          51.000    20318677.953 8  83201585.668 8      -300.843          51.000
G20  23134118.945 7 121570627.439 7      3116.016          45.000    23134116.984 6  94730362.582 6      2428.067          40.000
G21  20660237.875 8 108570327.100 8      -326.371          50.000    20660236.516 8  84600257.332 8      -254.315          50.000
G26  20325726.562 8 106812425.888 8       568.734          50.000    20325728.555 8  83230451.904 8       443.170          50.000
G31  23150102.164 6 121654589.152 6     -3079.203          38.000    23150106.180 6  94795767.763 6     -2399.382          38.000
R09  19375416.922 8 103463650.854 8      -790.172          51.000    19375417.984 8  80471728.170 8      -614.578          48.000
C27  21513342.586 8 112025724.782 8       115.168          51.000
C28  23638736.547 4 123093102.548 4     -2295.352          28.000
C30  24176139.438 6 125891518.764 6      2381.238          40.000
E11  22397213.492 8 117698175.480 8      -380.641          50.000    22397212.266 8  90184306.104 8      -291.624          50.000
E24  24391790.711 7 128179689.687 7     -2823.688          44.000    24391802.320 7  98215632.867 7     -2163.524          47.000
E25  23558321.281 8 123799804.747 8      -609.488          51.000    23558321.977 8  94859577.454 8      -467.040          51.000
E36  24793929.070 8 130292974.381 8      2050.230          51.000    24793934.602 8  99834897.639 8      1570.920          51.000
> 2020 05 17 13 17  0.0000000  0 14        .000000000000
G18  20320904.539 8 106787118.392 8      -397.086          50.000    20320904.625 8  83210703.417 8      -309.418          51.000
G20  23116320.141 7 121477093.989 7      3116.516          46.000    23116317.344 6  94657479.448 6      2428.457          39.000
G21  20662114.977 8 108580190.838 8      -334.293          50.000    20662113.648 8  84607943.366 8      -260.488          50.000
G26  20322497.023 8 106795454.099 8       559.516          51.000    20322498.891 8  83217227.131 8       435.986          51.000
G31  23167676.375 6 121746940.376 6     -3080.203          41.000    23167686.359 6  94867729.690 6     -2400.161          40.000
R09  19379902.023 8 103487598.788 8      -809.633          51.000    19379902.773 8  80490354.345 8      -629.714          49.000
C05  39628468.672 5 206355835.464 5        14.621          34.000
C27  21512677.672 8 112022260.363 8       112.578          51.000
C28  23651978.539 5 123162029.039 5     -2291.699          35.000
C30  24162406.055 6 125820007.335 6      2382.816          39.000
E11  22399384.266 8 117709583.200 8      -383.332          50.000    22399383.078 8  90193047.098 8      -293.617          50.000
E24  24407894.266 6 128264332.015 6     -2822.512          40.000    24407910.133 7  98280488.718 7     -2162.779          47.000
E25  23561808.242 8 123818128.630 8      -615.383          51.000    23561809.305 8  94873617.818 8      -471.566          51.000
E36  24782217.758 8 130231430.454 8      2049.414          51.000    24782223.156 8  99787740.608 8      1570.303          51.000
> 2020 05 17 13 17 30.0000000  0 14        .000000000000
G18  20323250.883 8 106799448.989 8      -421.961          51.000    20323251.367 8  83220311.674 8      -328.801          51.000
G20  23098575.242 7 121383842.068 7      3103.359          47.000    23098572.398 6  94584815.682 6      2418.202          39.000
G21  20664093.758 8 108590589.501 8      -356.016          50.000    20664092.383 8  84616046.228 8      -277.412          50.000
G26  20319377.375 8 106779059.643 8       536.484          51.000    20319379.203 8  83204452.231 8       418.040          51.000
G31  23185309.031 7 121839598.511 7     -3094.066          42.000    23185325.016 6  94939930.838 6     -2410.961          38.000
R09  19384553.219 8 103512435.111 8      -843.160          51.000    19384554.195 8  80509671.483 8      -655.791          49.000
C05  39628410.391 5 206355531.658 5         8.691          33.000
C27  21512083.727 8 112019167.715 8        96.535          51.000
C28  23665222.070 5 123230990.590 5     -2302.242          35.000
C30  24148717.711 6 125748741.192 6      2370.898          37.000
E11  22401627.984 8 117721373.619 8      -399.961          50.000    22401626.695 8  90202081.299 8      -306.523          50.000
E24  24424049.320 6 128349237.864 6     -2834.809          41.000    24424068.000 7  98345546.441 7     -2172.270          47.000
E25  23565385.781 8 123836928.779 8      -635.152          51.000    23565386.922 8  94888023.123 8      -486.627          51.000
E36  24770567.281 8 130170205.724 8      2035.047          51.000    24770572.148 8  99740828.164 8      1559.262          50.000
> 2020 05 17 13 18  0.0000000  0 14        .000000000000
G18  20325697.719 8 106812307.588 8      -436.523          50.000    20325698.336 8  83230331.366 8      -340.148          50.000
G20  23080865.562 8 121290774.453 8      3100.035          48.000    23080862.695 6  94512295.519 6      2415.612          40.000
G21  20666155.211 8 108601421.899 8      -367.359          51.000    20666153.742 8  84624487.070 8      -286.254          50.000
G26  20316348.641 8 106763143.242 8       523.418          51.000    20316350.586 8  83192049.840 8       407.858          51.000
G31  23202980.391 6 121932460.496 6     -3098.070          40.000    23203002.586 6  95012290.831 6     -2414.075          40.000
R09  19389351.375 8 103538057.321 8      -866.250          51.000    19389352.203 8  80529599.855 8      -673.750          49.000
C05  39628350.180 5 206355218.009 5        11.195          34.000
C27  21511541.812 8 112016346.716 8        90.465          51.000
C28  23678447.352 5 123299911.467 5     -2303.172          30.000
C30  24135056.609 6 125677621.060 6      2369.273          37.000
E11  22403924.898 8 117733445.307 8      -406.031          50.000    22403924.109 8  90211331.047 8      -311.046          50.000
E24  24440237.508 7 128434305.660 7     -2837.258          45.000    24440256.555 7  98410728.242 7     -2174.000          46.000
E25  23569034.672 8 123856104.909 8      -644.516          51.000    23569035.820 8  94902716.533 8      -493.778          51.000
E36  24758958.438 8 130109200.120 8      2030.805          50.000    24758962.625 8  99694083.644 8      1556.041          50.000
> 2020 05 17 13 18 30.0000000  0 14        .000000000000
G18  20328235.625 8 106825644.809 8      -452.656          51.000    20328236.180 8  83240724.014 8      -352.719          51.000
G20  23063182.312 8 121197846.115 8      3095.082          49.000    23063179.289 6  94439883.866 6      2411.752          40.000
G21  20668289.695 8 108612638.128 8      -380.406          51.000    20668288.109 8  84633227.003 8      -296.417          49.000
G26  20313401.820 8 106747657.668 8       508.828          51.000    20313403.859 8  83179983.145 8       396.489          51.000
G31  23220680.156 6 122025475.081 6     -3102.984          36.000    23220708.492 6  95084769.694 6     -2417.913          37.000
R09  19394287.484 8 103564415.411 8      -890.949          51.000    19394288.062 8  80550100.583 8      -692.961          49.000
C05  39628278.414 5 206354844.348 5        13.766          34.000
C27  21511043.195 8 112013748.986 8        82.746          51.000
C28  23691726.219 5 123369026.589 5     -2305.039          35.000
C30  24121416.109 6 125606599.279 6      2365.578          39.000
E11  22406266.156 8 117745749.039 8      -413.918          50.000    22406265.578 8  90220758.603 8      -317.218          50.000
E24  24456447.914 7 128519485.872 7     -2841.285          45.000    24456466.930 7  98475996.158 7     -2176.996          46.000
E25  23572745.922 8 123875608.801 8      -655.629          51.000    23572747.656 8  94917661.079 8      -502.365          51.000
E36  24747381.844 8 130048365.615 8      2024.918          49.000    24747385.422 8  99647470.235 8      1551.581          50.000
> 2020 05 17 13 19  0.0000000  0 14        .000000000000
G18  20330877.922 8 106839530.224 8      -471.871          51.000    20330878.383 8  83251543.832 8      -367.689          51.000
G20  23045539.234 8 121105129.700 8      3087.168          50.000    23045536.031 6  94367637.317 6      2405.585          41.000
G21  20670510.438 8 108624307.743 8      -396.441          51.000    20670508.594 8  84642320.213 8      -308.915          50.000
G26  20310550.586 8 106732674.667 8       490.996          51.000    20310552.789 8  83168308.083 8       382.591          51.000
G31  23238421.461 6 122118709.746 6     -3111.312          36.000    23238455.086 5  95157420.028 5     -2424.402          35.000
R09  19399374.688 8 103591580.602 8      -918.871          51.000    19399375.219 8  80571229.046 8      -714.678          50.000
C05  39628208.781 5 206354481.922 5        11.805          34.000
C27  21510600.844 8 112011443.994 8        71.996          51.000
C28  23705025.680 5 123438262.840 5     -2309.793          35.000
C30  24107808.898 6 125535746.160 6      2358.789          38.000
E11  22408664.984 8 117758354.627 8      -425.371          50.000    22408664.070 8  90230417.444 8      -325.970          49.000
E24  24472692.688 7 128604847.990 7     -2848.422          45.000    24472711.734 7  98541403.415 7     -2182.380          45.000
E25  23576533.055 8 123895511.224 8      -670.059          51.000    23576535.414 8  94932910.986 8      -513.430          51.000
E36  24735851.336 8 129987773.196 8      2015.750          50.000    24735854.672 8  99601042.331 8      1544.551          50.000
> 2020 05 17 13 19 30.0000000  0 14        .000000000000
G18  20333623.375 8 106853957.455 8      -489.367          51.000    20333623.648 8  83262785.832 8      -381.325          51.000
G20  23027935.664 8 121012623.101 8      3080.707          49.000    23027933.461 7  94295554.291 7      2400.554          43.000
G21  20672816.188 8 108636424.307 8      -410.676          50.000    20672814.406 8  84651761.702 8      -320.007          50.000
G26  20307794.227 8 106718189.993 8       475.172          51.000    20307796.688 8  83157021.316 8       370.264          51.000
G31  23256204.125 6 122212156.578 6     -3117.949          36.000    23256241.648 5  95230235.679 5     -2429.580          32.000
R09  19404611.727 8 103619547.084 8      -944.926          51.000    19404612.664 8  80592980.732 8      -734.942          50.000
C05  39628140.000 5 206354123.289 5        12.625          34.000
C27  21510213.180 8 112009425.834 8        63.109          51.000
C28  23718347.117 6 123507614.234 6     -2312.750          36.000
C30  24094234.266 6 125465056.634 6      2354.359          38.000
E11  22411119.922 8 117771255.647 8      -434.008          50.000    22411118.797 8  90240302.651 8      -332.632          49.000
E24  24488970.594 7 128690385.504 7     -2853.320          46.000    24488988.828 7  98606945.073 7     -2186.427          43.000
E25  23580395.000 8 123915806.936 8      -682.309          51.000    23580397.602 8  94948462.252 8      -522.796          51.000
E36  24724365.961 8 129927417.851 8      2008.648          50.000    24724369.195 8  99554796.073 8      1539.061          50.000
> 2020 05 17 13 20  0.0000000  0 14        .000000000000
G18  20336469.703 8 106868914.856 8      -507.863          51.000    20336469.578 8  83274440.965 8      -395.738          50.000
G20  23010370.406 8 120920318.991 8      3073.059          49.000    23010369.547 7  94223629.046 7      2394.591          45.000
G21  20675204.680 8 108648976.296 8      -426.008          50.000    20675202.883 8  84661542.490 8      -331.954          50.000
G26  20305130.977 8 106704194.263 8       457.941          51.000    20305133.422 8  83146115.551 8       356.837          51.000
G31  23274025.328 6 122305802.113 6     -3125.367          36.000    23274065.266 5  95303206.112 5     -2435.351          31.000
R09  19409996.516 8 103648303.369 8      -972.070          51.000    19409998.039 8  80615346.718 8      -756.055          50.000
C05  39628070.289 5 206353760.177 5        12.027          34.000
C27  21509878.648 8 112007683.606 8        53.078          51.000
C28  23731686.766 5 123577069.524 5     -2317.492          34.000
C30  24080690.117 6 125394520.646 6      2347.961          38.000
E11  22413629.016 8 117784440.890 8      -444.688          50.000    22413627.859 8  90250405.639 8      -340.791          49.000
E24  24505279.508 7 128776086.754 7     -2859.840          46.000    24505295.414 7  98672612.161 7     -2191.282          43.000
E25  23584329.891 8 123936485.595 8      -696.113          51.000    23584332.445 8  94964306.935 8      -533.353          51.000
E36  24712923.852 8 129867289.419 8      2000.074          50.000    24712927.039 8  99508723.672 8      1532.485          50.000
> 2020 05 17 13 20 30.0000000  0 14        .000000000000
G18  20339420.953 8 106884423.364 8      -526.523          51.000    20339420.680 8  83286525.513 8      -410.278          51.000
G20  22992848.391 8 120828242.489 8      3064.980          48.000    22992848.938 7  94151881.155 7      2388.296          47.000
G21  20677679.828 8 108661983.876 8      -441.562          49.000    20677677.883 8  84671678.263 8      -344.075          49.000
G26  20302565.164 8 106690710.558 8       440.578          51.000    20302567.344 8  83135608.779 8       343.308          51.000
G31  23291888.781 6 122399665.470 6     -3132.969          37.000    23291928.641 5  95376553.520 5     -2441.268          30.000
R09  19415533.172 8 103677871.081 8      -999.477          51.000    19415535.391 8  80638343.835 8      -777.371          50.000
C05  39628003.477 5 206353412.437 5        11.062          34.000
C27  21509601.266 8 112006238.624 8        42.898          51.000
C28  23745049.242 5 123646649.422 5     -2321.801          32.000
C30  24067179.672 6 125324160.188 6      2341.996          36.000
E11  22416196.125 8 117797931.356 8      -455.027          50.000    22416195.055 8  90260742.472 8      -348.645          49.000
E24  24521623.523 8 128861972.591 8     -2866.234          48.000    24521636.805 7  98738420.708 7     -2196.164          44.000
E25  23588341.836 8 123957569.280 8      -709.793          51.000    23588344.508 8  94980461.954 8      -543.807          51.000
E36  24701529.188 8 129807410.235 8      1991.473          49.000    24701531.836 8  99462842.246 8      1525.973          50.000
> 2020 05 17 13 21  0.0000000  0 15        .000000000000
G18  20342478.156 8 106900488.918 8      -543.473          51.000    20342477.883 8  83299044.147 8      -423.485          51.000
G20  22975371.617 7 120736403.200 7      3058.680          47.000    22975373.383 7  94080318.105 7      2383.390          47.000
G21  20680242.820 8 108675453.312 8      -455.387          49.000    20680241.062 8  84682173.927 8      -354.847          49.000
G26  20300098.203 8 106677747.035 8       424.820          51.000    20300100.422 8  83125507.329 8       331.029          51.000
G31  23309795.219 6 122493751.115 6     -3138.730          37.000    23309829.867 5  95449866.795 5     -2445.776          33.000
R09  19421223.281 8 103708256.430 8     -1025.121          50.000    19421225.695 8  80661976.882 8      -797.319          50.000
R20  20530794.039 4 109787416.839 4      1950.641          28.000
C05  39627941.164 5 206353088.089 5        11.766          35.000
C27  21509381.828 8 112005097.297 8        34.281          51.000
C28  23758434.664 5 123716360.232 5     -2324.402          31.000
C30  24053702.609 5 125253982.660 5      2337.355          30.000
E11  22418822.422 8 117811733.207 8      -463.742          50.000    22418821.539 8  90271317.930 8      -355.413          49.000
E24  24538004.258 8 128948049.002 8     -2871.055          50.000    24538016.008 7  98804375.286 7     -2199.866          47.000
E25  23592432.156 8 123979065.200 8      -722.113          51.000    23592435.172 8  94996932.830 8      -553.302          51.000
E36  24690183.406 8 129747787.660 8      1984.516          49.000    24690185.641 8  99417157.455 8      1520.519          50.000
> 2020 05 17 13 21 30.0000000  0 14        .000000000000
G18  20345632.648 8 106917065.756 8      -561.293          51.000    20345632.016 8  83311961.159 8      -437.374          50.000
G20  22957931.742 7 120644759.518 7      3051.066          44.000    22957934.570 7  94008907.487 7      2377.454          44.000
G21  20682884.922 8 108689338.730 8      -469.793          48.000    20682883.195 8  84692993.743 8      -366.072          49.000
G26  20297721.891 8 106665260.046 8       408.195          51.000    20297724.359 8  83115777.206 8       318.074          51.000
G31  23327735.016 5 122588011.176 5     -3145.062          35.000    23327768.383 5  95523306.654 5     -2450.744          31.000
R09  19427057.930 8 103739413.614 8     -1051.426          51.000    19427060.148 8  80686210.222 8      -817.776          48.000
C05  39627874.859 5 206352742.993 5        11.246          33.000
C27  21509212.305 8 112004214.852 8        24.902          51.000
C28  23771839.359 5 123786156.707 5     -2328.359          34.000
C30  24040251.094 5 125183944.187 5      2331.777          32.000
E11  22421499.445 8 117825800.934 8      -473.746          51.000    22421498.586 8  90282097.098 8      -362.845          48.000
E24  24554412.695 8 129034270.167 8     -2876.660          51.000    24554424.234 8  98870440.782 8     -2204.188          49.000
E25  23596592.656 8 124000928.742 8      -735.359          51.000    23596595.781 8  95013685.402 8      -563.328          51.000
E36  24678877.891 8 129688377.352 8      1976.609          48.000    24678880.617 8  99371635.308 8      1514.509          50.000
> 2020 05 17 13 22  0.0000000  0 15        .000000000000
G18  20348887.734 8 106934171.301 8      -583.809          51.000    20348887.023 8  83325290.146 8      -454.916          50.000
G20  22940532.500 6 120553333.142 6      3038.965          40.000    22940536.852 6  93937666.178 6      2368.025          41.000
G21  20685609.695 8 108703657.775 8      -489.422          49.000    20685607.602 8  84704151.447 8      -381.365          49.000
G26  20295440.031 8 106653269.292 8       386.598          51.000    20295442.531 8  83106433.747 8       301.245          51.000
G29  22894595.297 5 120311909.102 5     -2675.793          30.000
G31  23345710.938 5 122682461.524 5     -3156.465          35.000    23345698.117 5  95596759.133 5     -2459.583          34.000
R09  19433040.703 8 103771360.514 8     -1083.023          51.000    19433042.336 8  80711057.814 8      -842.349          48.000
C05  39627808.148 5 206352395.442 5         6.715          35.000
C27  21509096.008 8 112003609.180 8        10.750          51.000
C28  23785266.664 5 123856123.305 5     -2335.891          31.000
C30  24026830.672 6 125114063.206 6      2322.035          38.000
E11  22424230.391 8 117840152.105 8      -487.754          51.000    22424229.594 8  90293093.465 8      -373.751          49.000
E24  24570851.891 8 129120653.459 8     -2886.988          51.000    24570863.969 8  98936630.516 8     -2212.075          51.000
E25  23600826.734 8 124023178.546 8      -752.906          51.000    23600829.836 8  95030733.938 8      -576.845          51.000
E36  24667616.375 8 129629198.221 8      1963.832          48.000    24667620.195 8  99326290.300 8      1504.823          51.000
> 2020 05 17 13 22 30.0000000  0 12        .000000000000
G18  20352278.516 8 106951989.821 8      -601.586          51.000    20352277.977 8  83339174.726 8      -468.768          50.000
G20  22923209.664 6 120462312.523 6      3031.551          39.000    22923215.727 6  93866740.988 6      2362.241          39.000
G21  20688452.070 8 108718594.326 8      -503.879          49.000    20688449.617 8  84715790.328 8      -392.630          49.000
G26  20293288.164 8 106641961.182 8       369.840          51.000    20293290.578 8  83097622.243 8       288.187          51.000
G29  22909888.227 5 120392266.695 5     -2677.746          33.000
R09  19439206.195 8 103804284.792 8     -1109.254          51.000    19439208.008 8  80736665.538 8      -862.756          49.000
C27  21509067.766 8 112003463.463 8         1.527          51.000
C30  24013477.078 6 125044523.895 6      2316.703          39.000
E11  22427050.523 8 117854971.369 8      -497.621          50.000    22427049.852 8  90304448.499 8      -381.294          49.000
E24  24587356.805 8 129207383.162 8     -2892.449          51.000    24587369.539 8  99003085.704 8     -2216.367          51.000
E25  23605169.453 8 124046000.190 8      -765.965          51.000    23605172.648 8  95048220.625 8      -586.962          51.000
E36  24656434.383 8 129570436.022 8      1956.090          50.000    24656439.250 8  99281264.748 8      1498.777          51.000
> 2020 05 17 13 23  0.0000000  0 12        .000000000000
G18  20355729.797 8 106970125.677 8      -613.891          50.000    20355729.000 8  83353306.548 8      -478.356          50.000
G20  22905891.023 7 120371305.637 7      3029.285          42.000    22905895.914 6  93795826.535 6      2360.482          40.000
G21  20691336.539 8 108733752.737 8      -512.914          49.000    20691333.953 8  84727602.081 8      -399.673          49.000
G26  20291191.359 8 106630942.299 8       358.387          51.000    20291193.625 8  83089036.098 8       279.262          51.000
R09  19445479.844 8 103837784.617 8     -1130.410          51.000    19445481.812 8  80762720.926 8      -879.208          49.000
C05  39627704.195 5 206351853.795 5        11.938          34.000
C27  21509053.016 8 112003386.343 8        -2.559          51.000
C30  24000114.430 6 124974935.749 6      2316.254          39.000
E11  22429884.492 8 117869863.290 8      -501.746          50.000    22429883.992 8  90315859.204 8      -384.344          49.000
E24  24603851.805 8 129294063.674 8     -2892.660          51.000    24603865.383 8  99069503.180 8     -2216.439          51.000
E25  23609545.922 8 124068999.202 8      -773.660          51.000    23609549.195 8  95065843.217 8      -592.831          51.000
E36  24645256.867 8 129511696.598 8      1953.449          50.000    24645262.281 8  99236256.626 8      1496.799          51.000
> 2020 05 17 13 23 30.0000000  0 13        .000000000000
G18  20359258.148 8 106988667.543 8      -622.598          51.000    20359257.500 8  83367754.794 8      -485.141          50.000
G20  22888594.250 7 120280405.709 7      3030.406          43.000    22888596.789 6  93724995.468 6      2361.356          39.000
G21  20694280.156 8 108749221.532 8      -518.531          49.000    20694277.555 8  84739655.697 8      -404.050          49.000
G26  20289166.758 8 106620303.549 8       350.574          51.000    20289169.102 8  83080746.161 8       273.175          51.000
G29  22940440.805 5 120552786.916 5     -2672.715          34.000
R09  19451878.445 8 103871950.286 8     -1147.680          51.000    19451879.719 8  80789294.221 8      -892.640          49.000
C05  39627608.898 5 206351357.968 5        20.551          33.000
C27  21509068.500 8 112003466.354 8        -2.953          51.000
C30  23986759.391 6 124905388.028 6      2319.906          38.000
E11  22432749.141 8 117884916.804 8      -502.016          50.000    22432748.555 8  90327393.732 8      -384.772          49.000
E24  24620353.664 8 129380783.688 8     -2888.949          50.000    24620368.078 8  99135950.939 8     -2213.613          51.000
E25  23613973.383 8 124092265.530 8      -777.660          51.000    23613976.625 8  95083670.640 8      -595.849          51.000
E36  24634101.000 8 129453070.104 8      1954.684          51.000    24634106.008 8  99191335.040 8      1497.748          51.000
> 2020 05 17 13 24  0.0000000  0 13        .000000000000
G18  20362934.156 8 107007984.943 8      -652.734          51.000    20362933.938 8  83382807.313 8      -508.624          51.000
G20  22871388.891 7 120189986.070 7      3010.016          44.000    22871389.688 6  93654538.689 6      2345.470          39.000
G21  20697353.195 8 108765370.218 8      -545.480          50.000    20697350.562 8  84752239.090 8      -425.050          49.000
G26  20287285.289 8 106610416.603 8       321.125          51.000    20287287.633 8  83073042.043 8       250.227          51.000
G31  23417967.773 4 123062292.963 4     -3178.762          29.000
R09  19458472.000 8 103907157.469 8     -1186.742          51.000    19458472.852 8  80816677.573 8      -923.022          49.000
C27  21509183.953 8 112004070.234 8       -24.805          51.000
C30  23973483.625 6 124836248.316 6      2301.625          37.000
E11  22435715.062 8 117900501.753 8      -524.379          50.000    22435714.086 8  90339335.445 8      -401.758          49.000
E12  24630280.609 5 129432998.136 5     -2532.914          33.000
E24  24636932.656 8 129467912.690 8     -2906.984          48.000    24636948.195 8  99202712.112 8     -2227.451          50.000
E25  23618522.336 8 124116169.919 8      -803.414          51.000    23618525.742 8  95101986.976 8      -615.612          51.000
E36  24623037.039 8 129394927.529 8      1934.172          51.000    24623040.906 8  99146784.258 8      1482.007          51.000
> 2020 05 17 13 24 30.0000000  0 13        .000000000000
G18  20366693.773 8 107027742.563 8      -666.266          50.000    20366693.727 8  83398202.865 8      -519.168          50.000
G20  22854211.945 7 120099715.956 7      3005.902          45.000    22854211.828 6  93584198.370 6      2342.262          41.000
G21  20700491.789 8 108781863.506 8      -555.980          50.000    20700489.305 8  84765091.005 8      -433.232          50.000
G26  20285483.516 8 106600948.343 8       308.145          51.000    20285485.891 8  83065664.186 8       240.113          51.000
G31  23436136.328 4 123157730.322 4     -3181.824          29.000
R09  19465196.516 8 103943065.512 8     -1209.090          51.000    19465197.234 8  80844606.039 8      -940.403          49.000
C27  21509336.602 8 112004866.418 8       -30.234          51.000
C30  23960222.648 5 124767185.643 5      2300.625          32.000
E11  22438718.211 8 117916283.048 8      -529.609          49.000    22438717.133 8  90351427.619 8      -405.769          49.000
E12  24644730.250 5 129508930.941 5     -2531.027          31.000
E24  24653525.312 7 129555115.495 7     -2908.480          47.000    24653542.047 8  99269529.827 8     -2228.585          48.000
E25  23623129.117 8 124140378.277 8      -812.379          51.000    23623132.711 8  95120536.227 8      -622.490          51.000
E36  24612001.391 8 129336935.092 8      1930.113          51.000    24612004.617 8  99102348.510 8      1478.900          51.000
> 2020 05 17 13 25  0.0000000  0 11        .000000000000
G18  20370570.133 8 107048113.682 8      -686.195          50.000    20370570.328 8  83414076.453 8      -534.698          50.000
G20  22837096.617 7 120009772.465 7      2995.598          46.000    22837096.773 6  93514112.603 6      2334.235          39.000
G21  20703729.000 8 108798874.315 8      -572.641          50.000    20703726.625 8  84778346.173 8      -446.213          49.000
G26  20283794.852 8 106592074.225 8       288.953          51.000    20283797.211 8  83058749.285 8       225.158          51.000
R09  19472085.086 8 103979850.956 8     -1237.719          50.000    19472085.953 8  80873216.962 8      -962.670          49.000
C27  21509559.672 8 112006027.315 8       -41.797          51.000
C30  23947010.844 4 124698373.478 4      2293.176          29.000
E11  22441791.672 8 117932434.343 8      -541.676          49.000    22441790.820 8  90363803.297 8      -415.002          49.000
E24  24670165.789 8 129642565.371 8     -2916.117          48.000    24670182.039 7  99336536.832 7     -2234.427          46.000
E25  23627826.906 8 124165065.153 8      -827.938          51.000    23627830.305 8  95139452.130 8      -634.382          51.000
E36  24601027.680 8 129279267.567 8      1919.797          51.000    24601030.734 8  99058161.703 8      1471.067          51.000
> 2020 05 17 13 25 30.0000000  0 12        .000000000000
G18  20374527.523 8 107068910.247 8      -693.734          50.000    20374528.047 8  83430281.580 8      -540.572          50.000
G20  22820008.695 8 119919972.204 8      2997.457          48.000    22820009.211 7  93444138.392 7      2335.684          42.000
G21  20707028.883 8 108816214.597 8      -577.051          48.000    20707026.438 8  84791858.092 8      -449.647          48.000
G26  20282183.812 8 106583608.516 8       281.773          51.000    20282186.250 8  83052152.621 8       219.567          51.000
G31  23472557.188 5 123349102.581 5     -3184.594          31.000    23472552.555 5  96116169.590 5     -2481.511          32.000
R09  19479101.492 8 104017322.951 8     -1253.914          50.000    19479103.203 8  80902361.821 8      -975.266          49.000
C27  21509816.922 8 112007367.298 8       -41.199          51.000
C28  23879817.836 5 124348465.103 5     -2347.250          31.000
E11  22444900.000 8 117948767.912 8      -541.020          49.000    22444899.242 8  90376318.651 8      -414.532          49.000
E24  24686818.391 8 129730074.431 8     -2911.469          49.000    24686832.398 7  99403589.132 7     -2230.878          45.000
E25  23632580.375 8 124190043.776 8      -830.973          51.000    23632583.266 8  95158591.586 8      -636.743          51.000
E36  24590080.516 8 129221738.469 8      1921.816          51.000    24590083.781 8  99014080.990 8      1472.534          51.000
> 2020 05 17 13 26  0.0000000  0 13        .000000000000
G18  20378558.992 8 107090095.835 8      -716.707          50.000    20378559.508 8  83446789.826 8      -558.473          50.000
G20  22802941.664 8 119830282.700 8      2983.648          48.000    22802943.094 7  93374250.510 7      2324.921          42.000
G21  20710384.422 8 108833848.428 8      -596.875          49.000    20710382.109 8  84805598.747 8      -465.097          49.000
G26  20280643.922 8 106575516.888 8       259.426          51.000    20280646.555 8  83045847.444 8       202.150          51.000
G29  23017268.844 6 120956562.542 6     -2698.047          36.000
G31  23490778.219 5 123444866.676 5     -3196.703          35.000    23490778.469 5  96190790.874 5     -2490.941          34.000
R09  19486240.094 8 104055444.132 8     -1285.645          50.000    19486241.914 8  80932011.630 8      -999.946          49.000
C27  21510101.953 8 112008850.963 8       -55.863          51.000
C28  23893375.992 4 124419055.261 4     -2356.691          29.000
E11  22448036.047 8 117965247.665 8      -555.719          49.000    22448035.117 8  90388945.986 8      -425.801          49.000
E24  24703475.641 8 129817606.302 8     -2922.203          49.000    24703487.844 7  99470658.897 7     -2239.037          46.000
E25  23637382.891 8 124215278.952 8      -849.535          51.000    23637385.336 8  95177927.626 8      -650.934          51.000
E36  24579152.859 8 129164312.899 8      1908.402          51.000    24579156.555 8  98970079.604 8      1462.246          51.000
> 2020 05 17 13 26 30.0000000  0 11        .000000000000
G18  20382737.453 8 107112052.982 8      -749.617          51.000    20382737.633 8  83463899.287 8      -584.117          50.000
G20  22785969.195 8 119741090.725 8      2959.809          49.000    22785970.875 7  93304750.314 7      2306.347          42.000
G21  20713868.734 8 108852157.919 8      -626.395          49.000    20713866.500 8  84819865.882 8      -488.100          49.000
G26  20279248.508 8 106568184.169 8       226.828          51.000    20279251.250 8  83040133.629 8       176.749          51.000
G31  23509080.992 6 123541049.349 6     -3217.676          37.000    23509083.922 6  96265738.300 6     -2507.292          36.000
R09  19493573.297 8 104094603.987 8     -1327.684          50.000    19493575.164 8  80962469.300 8     -1032.643          49.000
C27  21510487.727 8 112010858.182 8       -80.480          51.000
E11  22451272.727 8 117982256.534 8      -581.004          49.000    22451271.445 8  90401978.752 8      -445.041          49.000
E24  24720210.016 8 129905543.645 8     -2942.926          49.000    24720222.336 7  99538039.393 7     -2255.038          47.000
E25  23642307.055 8 124241154.551 8      -878.164          51.000    23642309.297 8  95197754.382 8      -672.942          51.000
E36  24568317.359 8 129107375.001 8      1884.891          49.000    24568321.625 8  98926451.883 8      1444.213          51.000
> 2020 05 17 13 27  0.0000000  0 13        .000000000000
G18  20387026.047 8 107134588.837 8      -744.645          51.000    20387026.180 8  83481459.720 8      -580.239          51.000
G20  22769055.320 8 119652207.640 8      2973.723          49.000    22769056.891 7  93235490.838 7      2317.186          42.000
G21  20717444.867 8 108870950.002 8      -618.230          50.000    20717442.531 8  84834509.075 8      -481.735          50.000
G26  20277961.328 8 106561419.658 8       232.180          51.000    20277963.789 8  83034862.577 8       180.919          51.000
G31  23527426.164 6 123637456.280 6     -3200.926          36.000    23527434.789 6  96340860.459 6     -2494.231          36.000
R09  19501064.453 8 104134606.154 8     -1330.977          51.000    19501066.461 8  80993582.049 8     -1035.204          50.000
C27  21510937.172 8 112013198.559 8       -67.508          51.000
C28  23920646.477 5 124561091.520 5     -2356.363          32.000
C30  23894417.289 6 124424496.181 6      2281.773          37.000
E11  22454573.523 8 117999601.977 8      -567.367          50.000    22454572.266 8  90415269.414 8      -434.706          49.000
E24  24736984.703 8 129993693.706 8     -2925.586          49.000    24736998.000 8  99605582.882 8     -2241.692          49.000
E25  23647315.953 8 124267478.972 8      -868.754          50.000    23647318.406 8  95217925.030 8      -665.558          51.000
E36  24557538.117 8 129050733.452 8      1899.379          50.000    24557542.547 8  98883051.240 8      1455.347          51.000
> 2020 05 17 13 27 30.0000000  0 14        .000000000000
G18  20391355.070 8 107157337.221 8      -771.582          51.000    20391354.867 8  83499185.737 8      -601.233          50.000
G20  22752131.211 8 119563271.394 8      2955.730          48.000    22752132.258 7  93166189.949 7      2303.170          42.000
G21  20721043.250 8 108889858.649 8      -642.004          51.000    20721040.836 8  84849243.099 8      -500.263          50.000
G26  20276713.016 8 106554859.398 8       205.520          51.000    20276715.484 8  83029750.693 8       160.145          51.000
G31  23545744.375 5 123733719.459 5     -3216.207          34.000    23545754.781 5  96415870.661 5     -2506.135          34.000
R09  19508644.273 8 104175078.668 8     -1366.770          51.000    19508646.180 8  81025060.648 8     -1063.043          51.000
R18  23510208.852 5 125499043.729 5     -3568.508          30.000
C27  21511380.938 8 112015509.992 8       -86.227          51.000
C28  23934267.531 5 124631980.246 5     -2368.777          32.000
C30  23881324.570 6 124356275.620 6      2266.805          39.000
E11  22457868.633 8 118016918.248 8      -586.418          49.000    22457867.703 8  90428537.727 8      -449.489          49.000
E24  24753729.969 8 130081690.425 8     -2940.309          48.000    24753744.727 8  99673008.876 8     -2252.973          50.000
E25  23652340.844 8 124293887.313 8      -891.453          51.000    23652343.375 8  95238160.011 8      -683.079          51.000
E36  24546746.477 8 128994023.621 8      1881.734          51.000    24546750.656 8  98839598.294 8      1441.857          51.000
> 2020 05 17 13 28  0.0000000  0 12        .000000000000
G18  20395817.047 8 107180784.989 8      -790.699          51.000    20395816.539 8  83517456.730 8      -616.129          50.000
G20  22735290.266 7 119474773.328 7      2945.047          47.000    22735291.117 7  93097230.475 7      2294.842          43.000
G21  20724756.422 8 108909371.006 8      -657.969          51.000    20724754.125 8  84864447.551 8      -512.703          51.000
G26  20275596.664 8 106548992.471 8       186.336          51.000    20275599.336 8  83025179.064 8       145.197          50.000
G31  23564127.633 5 123830324.444 5     -3222.871          30.000    23564137.789 5  96491147.162 5     -2511.331          30.000
R09  19516404.664 8 104216516.275 8     -1394.898          51.000    19516406.703 8  81057289.888 8     -1084.921          51.000
C27  21511912.156 8 112018275.734 8       -97.352          51.000
C30  23868292.906 6 124288399.893 6      2258.844          36.000
E11  22461250.773 8 118034692.587 8      -597.754          48.000    22461249.836 8  90442157.022 8      -457.986          48.000
E24  24770538.484 7 130170020.776 7     -2947.441          46.000    24770554.781 8  99740690.527 8     -2258.429          50.000
E25  23657474.805 8 124320867.692 8      -906.422          51.000    23657477.484 8  95258833.290 8      -694.504          51.000
E36  24536035.328 8 128937733.986 8      1871.672          51.000    24536039.016 8  98796467.298 8      1434.204          51.000
> 2020 05 17 13 28 30.0000000  0 11        .000000000000
G18  20400370.078 8 107204711.802 8      -805.586          51.000    20400369.680 8  83536101.021 8      -627.729          50.000
G20  22718491.469 7 119386497.264 7      2938.762          46.000    22718493.070 7  93028443.957 7      2289.944          45.000
G21  20728542.359 8 108929266.227 8      -669.590          51.000    20728540.070 8  84879950.326 8      -521.755          51.000
G26  20274570.625 8 106543600.715 8       171.930          50.000    20274573.469 8  83020977.693 8       133.971          50.000
R09  19524303.422 8 104258695.308 8     -1418.375          51.000    19524305.820 8  81090095.791 8     -1103.181          51.000
C27  21512488.812 8 112021278.220 8      -103.984          51.000
C30  23855285.711 4 124220652.224 4      2255.746          28.000
E11  22464678.203 8 118052705.001 8      -604.262          48.000    22464677.117 8  90455958.724 8      -463.081          48.000
E24  24787368.336 7 130258464.560 7     -2950.055          45.000    24787386.102 8  99808459.082 8     -2260.351          50.000
E25  23662676.102 8 124348201.074 8      -916.984          51.000    23662679.148 8  95279777.046 8      -702.627          51.000
E36  24525362.648 8 128881645.765 8      1866.266          51.000    24525366.008 8  98753490.637 8      1429.987          51.000
> 2020 05 17 13 29  0.0000000  0 11        .000000000000
G18  20405056.320 8 107229338.392 8      -823.980          51.000    20405055.969 8  83555290.576 8      -642.063          50.000
G20  22701777.945 7 119298668.083 7      2928.605          46.000    22701779.906 7  92960005.674 7      2282.030          45.000
G21  20732443.172 8 108949765.086 8      -684.684          51.000    20732440.875 8  84895923.473 8      -533.520          51.000
G26  20273677.500 8 106538907.011 8       153.332          50.000    20273680.453 8  83017320.266 8       119.480          50.000
R09  19532382.930 8 104301839.882 8     -1445.520          51.000    19532385.234 8  81123652.696 8     -1124.293          50.000
C27  21513152.883 8 112024736.933 8      -114.469          51.000
C28  23975339.039 5 124845874.492 5     -2379.207          33.000
E11  22468193.055 7 118071176.686 7      -615.020          47.000    22468192.234 8  90470112.341 8      -471.219          48.000
E24  24804261.789 7 130347242.598 7     -2956.285          44.000    24804280.461 8  99876483.755 8     -2265.229          49.000
E25  23667987.109 8 124376109.441 8      -931.324          51.000    23667990.289 8  95301161.365 8      -713.654          51.000
E36  24514770.219 8 128825981.271 8      1857.012          51.000    24514773.594 8  98710838.634 8      1422.902          51.000
> 2020 05 17 13 29 30.0000000  0 12        .000000000000
G18  20409780.898 8 107254166.358 8      -840.719          51.000    20409780.312 8  83574637.051 8      -655.106          50.000
G20  22685055.211 7 119210791.889 7      2920.074          45.000    22685057.539 7  92891530.734 7      2275.386          44.000
G21  20736363.953 8 108970369.262 8      -698.398          51.000    20736361.633 8  84911978.677 8      -544.207          51.000
G26  20272822.859 8 106534415.242 8       136.613          51.000    20272825.703 8  83013820.163 8       106.452          51.000
G31  23619445.781 5 124120997.452 5     -3237.383          34.000    23619443.938 5  96717678.299 5     -2522.642          35.000
R09  19540548.641 8 104345443.369 8     -1471.023          51.000    19540550.258 8  81157566.501 8     -1144.129          49.000
C27  21513809.930 8 112028158.854 8      -123.133          51.000
C28  23989026.141 4 124917154.681 4     -2382.453          28.000
E11  22471700.562 8 118089609.570 8      -623.355          48.000    22471700.000 8  90484236.239 8      -477.627          48.000
E24  24821124.094 7 130435856.730 7     -2960.738          44.000    24821142.898 7  99944382.816 7     -2268.633          47.000
E25  23673313.016 8 124404095.681 8      -943.816          51.000    23673316.102 8  95322605.344 8      -723.163          51.000
E36  24504163.219 8 128770243.766 8      1849.355          51.000    24504167.094 8  98668130.669 8      1417.069          51.000
> 2020 05 17 13 30  0.0000000  0 13        .000000000000
G18  20414616.906 8 107279579.412 8      -854.723          51.000    20414616.164 8  83594439.443 8      -666.018          49.000
G20  22668397.234 7 119123256.918 7      2914.266          44.000    22668400.023 7  92823321.692 7      2270.856          43.000
G21  20740377.805 8 108991462.579 8      -709.066          51.000    20740375.625 8  84928415.038 8      -552.519          51.000
G26  20272080.109 8 106530511.279 8       122.527          51.000    20272082.648 8  83010778.120 8        95.476          51.000
G31  23637929.602 6 124218122.993 6     -3238.926          36.000    23637925.570 6  96793360.477 6     -2523.844          36.000
R09  19548873.547 8 104389895.940 8     -1493.676          51.000    19548874.234 8  81192140.725 8     -1161.748          48.000
C27  21514533.156 8 112031925.055 8      -129.180          51.000
C28  24002761.242 5 124988621.981 5     -2382.863          35.000
C30  23816446.914 5 124018501.918 5      2241.914          33.000
E11  22475273.969 8 118108387.954 8      -629.668          48.000    22475273.039 8  90498624.885 8      -482.449          48.000
E24  24838028.438 7 130524690.813 7     -2962.566          43.000    24838047.094 7 100012450.427 7     -2270.021          46.000
E25  23678727.000 8 124432544.852 8      -953.965          51.000    23678729.922 8  95344404.034 8      -730.951          51.000
E36  24493615.828 8 128714818.532 8      1844.379          51.000    24493620.219 8  98625661.998 8      1413.255          51.000
> 2020 05 17 13 30 30.0000000  0 13        .000000000000
G18  20419551.570 8 107305510.752 8      -874.531          51.000    20419550.914 8  83614645.689 8      -681.453          50.000
G20  22651792.562 7 119036000.411 7      2902.281          45.000    22651794.344 6  92755329.614 6      2261.518          40.000
G21  20744472.078 8 109012978.226 8      -725.852          51.000    20744470.031 8  84945180.488 8      -565.599          51.000
G26  20271436.797 8 106527130.523 8       102.254          51.000    20271439.414 8  83008143.767 8        79.678          51.000
G29  23156926.906 5 121690458.492 5     -2733.348          31.000    23156927.148 4  94823744.519 4     -2129.881          29.000
G31  23656443.086 5 124315401.901 5     -3245.656          31.000    23656437.078 5  96869162.211 5     -2529.086          30.000
R09  19557344.250 8 104435129.307 8     -1522.469          51.000    19557344.750 8  81227322.202 8     -1184.145          49.000
C27  21515310.070 8 112035970.154 8      -141.031          51.000
C28  24016509.258 5 125060179.296 5     -2388.520          35.000
E11  22478900.430 8 118127445.376 8      -641.418          48.000    22478899.047 8  90513227.333 8      -491.443          48.000
E24  24854961.805 6 130613678.221 6     -2970.312          39.000    24854980.852 7 100080635.523 7     -2275.972          46.000
E25  23684216.742 8 124461391.382 8      -969.668          51.000    23684219.617 8  95366507.215 8      -743.037          51.000
E36  24483115.883 8 128659640.382 8      1833.559          51.000    24483120.672 8  98583382.640 8      1404.967          51.000
> 2020 05 17 13 31  0.0000000  0 12        .000000000000
G18  20424608.273 8 107332083.323 8      -911.250          51.000    20424607.422 8  83635351.604 8      -710.065          50.000
G20  22635265.875 7 118949149.506 7      2873.426          46.000    22635265.430 6  92687653.642 6      2239.033          37.000
G21  20748670.125 8 109035039.183 8      -759.281          51.000    20748668.039 8  84962370.844 8      -591.648          51.000
G26  20270916.805 8 106524398.166 8        65.383          51.000    20270919.672 8  83006014.646 8        50.948          51.000
G31  23675007.758 5 124412955.992 5     -3271.074          31.000    23675000.656 5  96945178.250 5     -2548.889          32.000
R09  19565984.297 8 104481268.573 8     -1568.199          51.000    19565985.094 8  81263208.282 8     -1219.714          49.000
C27  21516164.227 8 112040416.920 8      -169.586          51.000
C30  23790713.984 5 123884477.309 5      2207.996          32.000
E11  22482603.523 8 118146905.319 8      -670.113          48.000    22482602.234 8  90528138.208 8      -513.541          49.000
E24  24871948.250 6 130702942.129 6     -2994.941          39.000    24871967.672 7 100149032.483 7     -2294.756          47.000
E25  23689805.703 8 124490759.586 8     -1002.473          51.000    23689808.703 8  95389010.109 8      -768.116          51.000
E36  24472686.789 8 128604833.939 8      1805.875          51.000    24472692.023 8  98541388.117 8      1383.695          51.000
> 2020 05 17 13 31 30.0000000  0 10        .000000000000
G18  20429783.672 8 107359279.725 8      -915.984          51.000    20429782.562 8  83656543.601 8      -713.751          50.000
G20  22618814.234 8 118862691.324 8      2876.188          49.000    22618809.055 5  92620283.733 5      2241.188          34.000
G21  20752968.539 8 109057627.973 8      -760.832          51.000    20752966.602 8  84979972.511 8      -592.853          51.000
G26  20270517.359 8 106522298.908 8        60.359          51.000    20270520.273 8  83004378.856 8        47.033          51.000
R09  19574790.711 8 104528295.684 8     -1581.465          50.000    19574792.211 8  81299784.903 8     -1230.028          50.000
C27  21517091.984 8 112045248.894 8      -166.641          51.000
E11  22486379.953 8 118166750.838 8      -667.301          48.000    22486379.117 8  90543344.515 8      -511.237          49.000
E24  24888984.375 6 130792465.238 6     -2987.641          40.000    24889003.938 7 100217628.094 7     -2289.123          47.000
E25  23695490.617 8 124520633.311 8     -1003.398          51.000    23695493.906 8  95411900.350 8      -768.850          51.000
E36  24462325.172 8 128550383.394 8      1809.949          51.000    24462330.820 8  98499666.282 8      1386.853          51.000
> 2020 05 17 13 32  0.0000000  0 12        .000000000000
G18  20434972.469 8 107386547.004 8      -916.098          51.000    20434971.531 8  83677790.843 8      -713.842          49.000
G20  22602332.852 8 118776077.252 8      2883.785          49.000    22602325.000 5  92552792.332 5      2247.108          34.000
G21  20757262.250 8 109080191.820 8      -757.656          51.000    20757260.438 8  84997554.725 8      -590.381          51.000
G26  20270133.688 8 106520282.070 8        59.906          51.000    20270136.406 8  83002807.286 8        46.680          51.000
G29  23203850.422 5 121937110.777 5     -2735.746          35.000    23203846.062 5  95015866.848 5     -2131.753          35.000
R09  19583658.273 8 104575648.713 8     -1589.906          50.000    19583660.438 8  81336615.023 8     -1236.594          50.000
C27  21517988.656 8 112049919.086 8      -158.840          51.000
C30  23765114.656 5 123751213.929 5      2226.512          33.000
E11  22490124.555 8 118186429.375 8      -658.996          48.000    22490123.797 8  90558422.869 8      -504.900          49.000
E24  24905965.086 7 130881694.963 7     -2975.344          42.000    24905984.352 8 100285998.882 8     -2279.818          48.000
E25  23701166.383 8 124550460.912 8      -999.352          51.000    23701170.055 8  95434755.238 8      -765.758          51.000
E36  24451926.219 8 128495737.468 8      1818.867          51.000    24451931.609 8  98457794.748 8      1393.600          51.000
> 2020 05 17 13 32 30.0000000  0 11        .000000000000
G18  20440333.164 8 107414717.963 8      -954.547          50.000    20440332.250 8  83699742.258 8      -743.803          49.000
G20  22585980.852 8 118690144.552 8      2852.586          49.000    22585974.242 6  92485831.856 6      2222.794          37.000
G21  20761709.562 8 109103563.475 8      -792.805          50.000    20761707.867 8  85015766.408 8      -617.770          50.000
G26  20269924.570 8 106519182.621 8        20.965          51.000    20269927.188 8  83001950.570 8        16.336          51.000
R09  19592745.227 8 104624173.740 8     -1637.512          50.000    19592747.914 8  81374356.691 8     -1273.620          50.000
C27  21519013.125 8 112055253.646 8      -189.379          51.000
C30  23752376.055 5 123684958.690 5      2199.844          30.000
E11  22493996.086 8 118206774.360 8      -689.754          48.000    22493995.094 8  90574011.874 8      -528.603          49.000
E24  24923048.648 7 130971464.319 7     -3001.824          43.000    24923067.234 7 100354783.134 7     -2300.030          47.000
E25  23706992.047 8 124581076.549 8     -1034.207          51.000    23706995.867 8  95458213.965 8      -792.459          51.000
E36  24441648.852 8 128441730.632 8      1789.102          51.000    24441653.109 8  98416412.924 8      1370.879          51.000
> 2020 05 17 13 33  0.0000000  0 11        .000000000000
G18  20445781.961 8 107443352.144 8      -959.016          51.000    20445780.977 8  83722054.588 8      -747.285          49.000
G20  22569675.008 8 118604456.867 8      2855.273          48.000    22569670.758 6  92419062.278 6      2224.891          41.000
G21  20766226.750 8 109127302.300 8      -794.180          51.000    20766225.148 8  85034264.198 8      -618.841          50.000
G26  20269806.391 8 106518562.285 8        15.879          51.000    20269809.031 8  83001467.168 8        12.373          51.000
R09  19601967.773 8 104673422.951 8     -1650.375          50.000    19601970.727 8  81412661.612 8     -1283.625          50.000
C27  21520081.328 8 112060816.948 8      -186.137          51.000
C30  23739668.156 4 123618691.018 4      2205.383          28.000
E11  22497910.742 8 118227345.777 8      -686.258          48.000    22497909.773 8  90589774.370 8      -525.831          49.000
E24  24940150.602 7 131061333.023 7     -2994.203          42.000    24940168.539 7 100423643.471 7     -2294.185          47.000
E25  23712884.133 8 124612040.973 8     -1034.680          51.000    23712887.930 8  95481939.936 8      -792.795          51.000
E36  24431409.539 8 128387924.062 8      1793.355          51.000    24431412.438 8  98375184.549 8      1374.168          51.000
> 2020 05 17 13 33 30.0000000  0 12        .000000000000
G18  20451269.867 8 107472192.186 8      -971.910          50.000    20451269.250 8  83744527.343 8      -757.333          49.000
G20  22553367.367 7 118518761.362 7      2849.305          47.000    22553365.656 7  92352286.605 7      2220.240          45.000
G21  20770764.938 8 109151150.962 8      -803.988          51.000    20770763.375 8  85052847.563 8      -626.484          50.000
G26  20269730.906 8 106518165.851 8         2.156          51.000    20269733.336 8  83001158.252 8         1.680          51.000
G31  23768143.523 5 124902478.891 5     -3270.160          34.000    23768142.445 5  97326571.826 5     -2548.177          34.000
R09  19611277.414 8 104723134.606 8     -1672.086          51.000    19611280.109 8  81451326.208 8     -1300.511          50.000
C27  21521144.852 8 112066354.943 8      -191.328          51.000
C28  24099410.898 6 125491932.414 6     -2403.195          36.000
E11  22501819.570 8 118247886.763 8      -691.305          48.000    22501818.805 8  90605513.569 8      -529.779          49.000
E24  24957222.195 7 131151043.966 7     -2995.055          43.000    24957239.414 7 100492382.938 7     -2294.816          46.000
E25  23718793.695 8 124643098.230 8     -1044.020          51.000    23718797.414 8  95505737.051 8      -799.984          51.000
E36  24421159.578 8 128334062.107 8      1789.062          51.000    24421162.117 8  98333913.719 8      1370.816          51.000
> 2020 05 17 13 34  0.0000000  0 14        .000000000000
G18  20456878.992 8 107501669.235 8      -991.754          50.000    20456878.570 8  83767496.468 8      -772.795          49.000
G20  22537141.195 7 118433493.408 7      2836.691          47.000    22537140.867 7  92285844.077 7      2210.409          46.000
G21  20775406.086 8 109175540.867 8      -820.465          50.000    20775404.664 8  85071852.702 8      -639.323          50.000
G26  20269780.586 8 106518426.686 8       -18.102          51.000    20269782.828 8  83001361.486 8       -14.105          51.000
G29  23266707.523 5 122267356.640 5     -2757.844          35.000    23266694.945 5  95273225.024 5     -2148.969          33.000
G31  23786839.562 5 125000710.668 5     -3276.926          32.000    23786834.320 5  97403115.964 5     -2553.455          32.000
R09  19620755.703 8 104773746.647 8     -1700.520          51.000    19620758.109 8  81490691.110 8     -1322.629          50.000
C27  21522286.148 8 112072295.834 8      -203.086          51.000
C28  24113279.367 4 125564133.263 4     -2409.020          29.000
C30  23714291.992 5 123486535.828 5      2195.020          35.000
E11  22505804.812 8 118268829.039 8      -703.320          49.000    22505803.914 8  90621560.244 8      -538.845          49.000
E24  24974346.172 7 131241028.492 7     -3002.301          42.000    24974362.484 7 100561332.053 7     -2300.596          46.000
E25  23724803.078 8 124674680.734 8     -1059.883          51.000    23724806.711 8  95529936.607 8      -812.145          51.000
E36  24410981.734 8 128280577.598 8      1778.223          51.000    24410984.859 8  98292932.077 8      1362.507          51.000
> 2020 05 17 13 34 30.0000000  0 12        .000000000000
G18  20462601.641 8 107531742.900 8     -1016.117          50.000    20462601.406 8  83790930.482 8      -791.780          49.000
G20  22520989.648 8 118348617.256 8      2818.938          48.000    22520990.227 7  92219706.863 7      2196.575          46.000
G21  20780142.703 8 109200431.935 8      -841.762          50.000    20780141.250 8  85091248.337 8      -655.918          50.000
G26  20269947.953 8 106519306.555 8       -43.359          51.000    20269949.930 8  83002047.079 8       -33.790          51.000
G31  23805574.484 5 125099163.296 5     -3289.000          34.000    23805568.172 5  97479832.167 5     -2562.863          34.000
R09  19630394.992 8 104825217.441 8     -1733.750          51.000    19630397.258 8  81530723.942 8     -1348.472          50.000
C27  21523496.969 8 112078600.524 8      -219.914          51.000
C28  24127187.141 4 125636602.704 4     -2420.434          29.000
E11  22509858.820 8 118290132.761 8      -719.699          49.000    22509857.617 8  90637883.877 8      -551.515          49.000
E24  24991514.445 7 131331246.563 7     -3015.035          42.000    24991530.312 7 100630460.084 7     -2310.075          46.000
E25  23730905.219 8 124706749.385 8     -1080.715          51.000    23730908.719 8  95554508.672 8      -828.098          51.000
E36  24400868.867 8 128227431.802 8      1762.176          51.000    24400872.633 8  98252209.982 8      1350.227          51.000
> 2020 05 17 13 35  0.0000000  0 13        .000000000000
G18  20468402.234 8 107562225.475 8     -1024.914          51.000    20468402.211 8  83814683.140 8      -798.634          50.000
G20  22504877.836 7 118263949.526 7      2816.652          47.000    22504878.688 7  92153732.026 7      2194.794          46.000
G21  20784938.820 8 109225636.032 8      -847.328          49.000    20784937.477 8  85110887.897 8      -660.256          49.000
G26  20270197.805 8 106520619.970 8       -53.086          51.000    20270199.492 8  83003070.519 8       -41.366          51.000
G29  23298240.273 5 122433078.199 5     -2763.668          30.000
G31  23824315.016 6 125197647.828 6     -3285.551          39.000    23824308.898 6  97556573.267 6     -2560.172          39.000
R09  19640159.188 8 104877356.380 8     -1751.082          51.000    19640160.922 8  81571276.454 8     -1361.953          49.000
C27  21524741.711 8 112085083.996 8      -221.102          50.000
C28  24141086.062 5 125708986.174 5     -2414.895          32.000
E11  22513945.984 8 118311610.855 8      -721.008          49.000    22513944.609 8  90654341.112 8      -552.467          49.000
E24  25008691.641 6 131421510.732 6     -3011.438          40.000    25008707.359 7 100699623.469 7     -2307.522          45.000
E25  23737064.688 8 124739117.876 8     -1086.004          51.000    23737067.914 8  95579310.505 8      -832.175          51.000
E36  24390785.375 8 128174438.747 8      1761.820          51.000    24390789.219 8  98211604.925 8      1349.972          51.000
> 2020 05 17 13 35 30.0000000  0 13        .000000000000
G18  20474308.719 8 107593264.136 8     -1041.922          51.000    20474308.578 8  83838869.112 8      -811.887          49.000
G20  22488833.867 7 118179641.645 7      2806.105          45.000    22488835.602 7  92088037.575 7      2186.576          45.000
G21  20789822.398 8 109251300.553 8      -861.172          49.000    20789821.430 8  85130886.227 8      -671.043          49.000
G26  20270558.562 8 106522516.243 8       -71.020          51.000    20270560.039 8  83004548.118 8       -55.340          51.000
G31  23843089.617 6 125296310.162 6     -3289.664          40.000    23843082.766 6  97633452.918 6     -2563.378          41.000
R09  19650075.797 8 104930312.523 8     -1776.789          51.000    19650077.398 8  81612464.555 8     -1381.947          49.000
C27  21526049.250 8 112091893.081 8      -230.500          51.000
C28  24155012.367 5 125781515.915 5     -2418.465          34.000
C30  23676527.328 5 123289934.253 5      2176.969          31.000
E11  22518094.453 8 118333410.965 8      -730.121          49.000    22518093.031 8  90671045.094 8      -559.327          49.000
E24  25025906.047 6 131511968.460 6     -3016.496          41.000    25025921.312 7 100768935.124 7     -2311.224          45.000
E25  23743309.578 8 124771934.657 8     -1099.324          51.000    23743312.445 8  95604455.795 8      -842.336          51.000
E36  24380759.133 8 128121747.279 8      1753.277          51.000    24380762.320 8  98171230.962 8      1343.441          51.000
> 2020 05 17 13 36  0.0000000  0 13        .000000000000
G18  20480301.359 8 107624755.681 8     -1058.520          51.000    20480301.203 8  83863407.980 8      -824.820          50.000
G20  22472838.938 7 118095594.943 7      2795.988          43.000    22472841.758 7  92022546.652 7      2178.692          43.000
G21  20794774.031 8 109277322.439 8      -874.449          48.000    20794773.219 8  85151163.017 8      -681.389          48.000
G26  20271011.102 8 106524894.331 8       -88.676          51.000    20271012.414 8  83006401.164 8       -69.098          51.000
G31  23861878.180 6 125395045.756 6     -3293.688          41.000    23861870.977 6  97710389.619 6     -2566.513          36.000
R09  19660125.953 8 104983980.652 8     -1802.156          51.000    19660127.625 8  81654206.427 8     -1401.677          49.000
C27  21527399.797 8 112098926.455 8      -239.418          51.000
C28  24168949.375 5 125854089.801 5     -2420.961          35.000
C30  23664003.234 5 123224684.793 5      2171.441          35.000
E11  22522284.641 8 118355430.423 8      -738.809          49.000    22522283.086 8  90687917.160 8      -566.160          49.000
E24  25043137.609 6 131602516.767 6     -3021.090          39.000    25043152.547 7 100838316.242 7     -2314.921          44.000
E25  23749620.773 8 124805097.844 8     -1112.578          51.000    23749623.398 8  95629866.527 8      -852.471          51.000
E36  24370770.602 8 128069255.902 8      1745.117          51.000    24370772.547 8  98131010.336 8      1337.129          51.000
> 2020 05 17 13 36 30.0000000  0 13        .000000000000
G18  20486393.148 8 107656767.956 8     -1077.883          51.000    20486393.211 8  83888352.608 8      -839.909          50.000
G20  22456908.000 7 118011881.707 7      2782.523          43.000    22456911.188 7  91957315.575 7      2168.200          43.000
G21  20799806.586 7 109303769.760 7      -890.781          47.000    20799805.930 7  85171771.311 7      -694.118          47.000
G26  20271568.734 8 106527824.267 8      -109.090          51.000    20271569.961 8  83008684.227 8       -85.005          51.000
G31  23880693.180 6 125493921.101 6     -3300.152          40.000    23880687.023 6  97787435.184 6     -2571.559          38.000
R09  19670322.625 8 105038429.278 8     -1830.168          51.000    19670323.891 8  81696555.341 8     -1423.464          48.000
C27  21528806.367 8 112106252.392 8      -251.410          51.000
C28  24182907.406 4 125926744.549 4     -2426.688          29.000
C30  23651508.625 5 123159632.076 5      2162.766          34.000
E11  22526529.461 8 118377737.823 8      -750.797          49.000    22526527.836 8  90705009.820 8      -575.271          49.000
E24  25060398.430 6 131693223.937 6     -3028.320          37.000    25060413.766 7 100907819.036 7     -2320.623          43.000
E25  23756011.266 8 124838676.630 8     -1128.477          51.000    23756013.570 8  95655595.707 8      -864.752          51.000
E36  24360832.938 8 128017034.215 8      1734.051          51.000    24360833.695 8  98090996.352 8      1328.619          51.000
> 2020 05 17 13 37  0.0000000  0 12        .000000000000
G18  20492592.641 8 107689346.653 8     -1096.203          51.000    20492592.766 8  83913738.614 8      -854.184          49.000
G20  22441051.078 7 117928552.091 7      2770.148          45.000    22441053.211 7  91892383.427 7      2158.557          43.000
G21  20804928.898 7 109330687.899 7      -906.008          47.000    20804928.266 7  85192746.471 7      -705.983          47.000
G26  20272240.461 8 106531353.888 8      -128.707          51.000    20272241.758 8  83011434.579 8      -100.291          51.000
G31  23899543.094 6 125592980.734 6     -3306.074          40.000    23899538.969 6  97864624.398 6     -2576.168          36.000
R09  19680673.930 8 105093704.506 8     -1857.195          51.000    19680674.633 7  81739547.146 7     -1444.488          47.000
C27  21530278.352 8 112113917.152 8      -262.219          51.000
C30  23639057.781 4 123094776.688 4      2154.949          28.000
E11  22530837.820 8 118400379.305 8      -761.234          48.000    22530836.203 8  90722358.507 8      -583.224          49.000
E24  25077698.133 5 131784135.817 5     -3034.891          35.000    25077713.703 7 100977478.729 7     -2325.430          42.000
E25  23762489.664 8 124872717.975 8     -1143.363          51.000    23762491.578 8  95681679.325 8      -876.081          51.000
E36  24350955.086 8 127965129.617 8      1723.902          51.000    24350956.016 8  98051225.322 8      1320.924          51.000
> 2020 05 17 13 37 30.0000000  0 12        .000000000000
G18  20498857.812 8 107722270.520 8     -1100.242          51.000    20498857.742 8  83939393.575 8      -857.332          50.000
G20  22425226.227 7 117845389.382 7      2772.184          46.000    22425227.438 7  91827581.376 7      2160.146          44.000
G21  20810098.906 8 109357855.817 8      -906.902          48.000    20810098.227 8  85213916.281 8      -706.677          48.000
G26  20272984.578 8 106535264.068 8      -133.742          51.000    20272985.750 8  83014481.465 8      -104.215          51.000
G31  23918385.258 6 125692002.050 6     -3297.105          39.000    23918385.898 6  97941783.705 6     -2569.182          38.000
R09  19691137.789 8 105149580.986 8     -1869.633          51.000    19691138.633 8  81783006.580 8     -1454.159          48.000
C27  21531773.789 8 112121702.541 8      -258.648          51.000
C28  24210878.352 5 126072287.460 5     -2421.777          32.000
E11  22535167.883 8 118423134.314 8      -757.520          49.000    22535166.344 8  90739794.148 8      -580.488          49.000
E24  25094995.445 6 131875031.498 6     -3026.617          38.000    25095009.711 6 101047126.058 6     -2319.186          40.000
E25  23769014.188 8 124907001.980 8     -1144.039          51.000    23769015.922 8  95707948.876 8      -876.547          51.000
E36  24341095.797 8 127913322.575 8      1728.125          51.000    24341097.609 8  98011529.031 8      1324.178          51.000
> 2020 05 17 13 38  0.0000000  0 13        .000000000000
G18  20505259.828 8 107755913.245 8     -1131.090          51.000    20505259.805 8  83965608.685 8      -881.366          50.000
G20  22409505.062 7 117762771.446 7      2747.184          46.000    22409506.305 7  91763203.818 7      2140.663          45.000
G21  20815387.680 8 109385647.780 8      -934.480          48.000    20815386.750 8  85235572.330 8      -728.167          48.000
G26  20273872.703 8 106539930.599 8      -165.746          51.000    20273873.766 8  83018117.710 8      -129.150          51.000
G31  23937290.305 6 125791357.694 6     -3314.785          37.000    23937296.344 6  98019203.546 6     -2582.959          37.000
R09  19701785.641 8 105206438.066 8     -1909.059          51.000    19701786.391 8  81827228.741 8     -1484.823          49.000
C27  21533363.469 8 112129979.838 8      -281.742          51.000
C28  24224916.992 6 126145383.351 6     -2439.465          36.000
C30  23614240.641 6 122965591.210 6      2141.703          36.000
E11  22539590.844 8 118446377.100 8      -780.512          49.000    22539589.422 8  90757603.563 8      -597.998          49.000
E24  25112361.938 6 131966285.053 6     -3045.156          39.000    25112373.773 6 101117047.575 6     -2333.667          39.000
E25  23775656.078 8 124941903.580 8     -1171.316          51.000    23775657.914 8  95734691.661 8      -897.439          51.000
E36  24331326.945 8 127861988.499 8      1705.594          51.000    24331329.211 8  97972195.144 8      1306.890          50.000
> 2020 05 17 13 38 30.0000000  0 13        .000000000000
G18  20511725.055 8 107789888.645 8     -1140.109          51.000    20511725.195 8  83992083.049 8      -888.397          50.000
G20  22393814.500 7 117680316.912 7      2743.699          45.000    22393816.445 7  91698953.565 7      2137.947          45.000
G21  20820721.422 7 109413676.995 7      -940.270          47.000    20820720.375 7  85257413.293 7      -732.678          47.000
G26  20274831.758 8 106544969.580 8      -176.289          51.000    20274832.859 8  83022044.195 8      -137.368          51.000
G31  23956183.781 5 125890660.326 5     -3311.270          34.000    23956194.273 5  98096582.212 5     -2580.207          34.000
R09  19712543.664 8 105263882.925 8     -1926.699          51.000    19712544.359 8  81871908.061 8     -1498.544          50.000
C27  21534974.016 8 112138367.507 8      -283.480          51.000
C28  24238941.031 5 126218408.735 5     -2435.391          35.000
C30  23601877.180 5 122901224.826 5      2143.328          30.000
E11  22544033.250 8 118469722.133 8      -781.789          50.000    22544031.852 8  90775491.314 8      -599.132          49.000
E24  25129723.539 6 132057510.729 6     -3042.258          40.000    25129732.969 6 101186947.664 6     -2331.135          39.000
E25  23782342.109 8 124977038.011 8     -1177.129          51.000    23782344.164 8  95761612.860 8      -901.953          51.000
E36  24321575.477 8 127810743.020 8      1704.684          51.000    24321577.406 8  97932929.140 8      1306.207          50.000
> 2020 05 17 13 39  0.0000000  0 11        .000000000000
G18  20518281.070 8 107824340.478 8     -1159.941          51.000    20518281.070 8  84018928.623 8      -903.850          50.000
G20  22378182.930 7 117598173.597 7      2729.410          46.000    22378185.500 7  91634945.822 7      2126.813          45.000
G21  20826127.773 8 109442087.318 8      -956.906          48.000    20826126.656 8  85279551.202 8      -745.641          48.000
G26  20275889.383 8 106550526.798 8      -197.453          51.000    20275890.547 8  83026374.501 8      -153.860          51.000
G31  23975093.625 5 125990052.425 5     -3318.055          32.000    23975108.781 5  98174030.533 5     -2585.500          32.000
R09  19723438.680 8 105322061.051 8     -1955.133          51.000    19723439.930 8  81917157.707 8     -1520.659          51.000
C27  21536633.461 8 112147009.012 8      -295.801          51.000
E11  22548522.758 8 118493313.888 8      -794.254          50.000    22548520.969 8  90793568.116 8      -608.548          49.000
E24  25147106.938 6 132148852.545 6     -3050.250          40.000    25147114.586 6 101256936.702 6     -2337.001          38.000
E25  23789099.695 8 125012550.345 8     -1193.652          51.000    23789102.258 8  95788823.609 8      -914.617          51.000
E36  24311868.711 8 127759731.588 8      1692.949          51.000    24311870.164 8  97893842.489 8      1297.237          51.000
> 2020 05 17 13 39 30.0000000  0 11        .000000000000
G18  20524897.375 8 107859109.135 8     -1164.355          51.000    20524897.484 8  84046021.087 8      -907.290          51.000
G20  22362581.023 7 117516186.509 7      2730.145          46.000    22362583.867 7  91571059.823 7      2127.388          45.000
G21  20831576.234 8 109470719.561 8      -958.211          48.000    20831575.172 8  85301862.045 8      -746.655          48.000
G26  20277015.508 8 106556444.771 8      -203.461          51.000    20277017.000 8  83030985.902 8      -158.541          51.000
R09  19734440.078 8 105380809.923 8     -1967.859          51.000    19734442.383 8  81962851.270 8     -1530.560          51.000
C27  21538311.648 8 112155747.284 8      -293.004          51.000
C28  24266995.125 4 126364502.164 4     -2431.891          28.000
E11  22553028.977 8 118516993.276 8      -790.754          50.000    22553026.875 8  90811712.076 8      -605.959          49.000
E24  25164481.867 6 132240151.211 6     -3042.820          38.000    25164487.500 5 101326892.721 5     -2331.389          35.000
E25  23795898.797 8 125048282.280 8     -1194.801          51.000    23795902.047 8  95816202.624 8      -915.557          51.000
E36  24302176.312 8 127708796.374 8      1696.383          51.000    24302177.914 8  97854814.234 8      1299.862          51.000
> 2020 05 17 13 40  0.0000000  0 10        .000000000000
G18  20531663.180 8 107894663.588 8     -1187.945          51.000    20531663.492 8  84073725.884 8      -925.672          50.000
G20  22347099.297 8 117434829.259 8      2711.637          48.000    22347101.898 7  91507664.613 7      2112.964          45.000
G21  20837156.320 8 109500043.110 8      -978.645          49.000    20837155.188 8  85324711.602 8      -762.577          49.000
G26  20278299.922 8 106563194.649 8      -228.656          51.000    20278301.672 8  83036245.545 8      -178.171          51.000
R09  19745637.344 8 105440605.315 8     -2000.203          50.000    19745640.453 8  82009358.809 8     -1555.714          50.000
C27  21540097.883 8 112165048.134 8      -309.238          51.000
E11  22557641.109 8 118541230.033 8      -807.117          50.000    22557639.180 8  90830283.097 8      -618.479          49.000
E24  25181937.547 6 132331876.126 6     -3054.414          39.000    25181938.133 4 101397229.388 4     -2340.572          29.000
E25  23802829.273 8 125084704.107 8     -1215.473          51.000    23802833.031 8  95844110.283 8      -931.309          51.000
E36  24292587.781 8 127658408.128 8      1680.711          51.000    24292590.297 8  97816205.080 8      1287.808          51.000
> 2020 05 17 13 40 30.0000000  0 11        .000000000000
G18  20538470.891 8 107930438.320 8     -1200.988          51.000    20538470.867 8  84101602.304 8      -935.835          50.000
G20  22331631.195 8 117353540.629 8      2703.613          50.000    22331632.672 7  91444322.846 7      2106.712          44.000
G21  20842760.398 8 109529492.083 8      -988.641          49.000    20842759.070 8  85347658.851 8      -770.369          49.000
G26  20279635.367 8 106570212.979 8      -243.242          51.000    20279637.477 8  83041714.362 8      -189.539          51.000
R09  19756922.930 8 105500872.089 8     -2021.684          49.000    19756926.328 8  82056232.945 8     -1572.424          48.000
C27  21541884.789 8 112174352.268 8      -315.031          51.000
C30  23552736.180 5 122645293.762 5      2123.586          32.000
E11  22562251.734 8 118565459.311 8      -812.344          49.000    22562250.016 8  90848848.380 8      -622.397          49.000
E24  25199366.297 6 132423462.129 6     -3055.461          37.000
E25  23809783.789 8 125121251.601 8     -1225.191          51.000    23809787.859 8  95872114.242 8      -938.783          51.000
E36  24282995.734 8 127608003.103 8      1675.449          51.000    24282999.219 8  97777583.056 8      1283.810          51.000
> 2020 05 17 13 41  0.0000000  0 11        .000000000000
G18  20545392.578 8 107966811.838 8     -1229.633          51.000    20545392.320 8  84129945.305 8      -958.155          50.000
G20  22316249.281 8 117272703.609 8      2679.840          51.000    22316249.680 7  91381332.988 7      2088.187          45.000
G21  20848460.250 8 109559445.025 8     -1014.066          50.000    20848458.953 8  85370998.819 8      -790.182          49.000
G26  20281094.375 8 106577880.405 8      -273.699          51.000    20281096.734 8  83047688.967 8      -213.272          51.000
R09  19768369.117 8 105561994.199 8     -2058.953          51.000    19768371.648 7  82103772.357 7     -1601.408          47.000
C27  21543744.602 8 112184035.831 8      -336.199          51.000
C30  23540532.469 4 122581771.484 4      2105.848          29.000
E11  22566933.000 8 118590060.205 8      -833.281          49.000    22566931.164 8  90867698.414 8      -638.518          48.000
E24  25216839.766 5 132515288.018 5     -3071.996          35.000    25216841.219 5 101537764.509 5     -2353.813          31.000
E25  23816834.320 8 125158304.661 8     -1250.852          49.000    23816838.516 8  95900505.554 8      -958.364          51.000
E36  24273472.609 8 127557961.550 8      1654.824          51.000    24273476.562 8  97739239.536 8      1268.012          51.000
> 2020 05 17 13 41 30.0000000  0 11        .000000000000
G18  20552420.250 8 108003742.301 8     -1238.445          51.000    20552420.133 8  84158722.305 8      -965.022          50.000
G20  22300946.219 8 117192280.970 8      2675.613          51.000    22300945.945 7  91318666.046 7      2084.897          44.000
G21  20854248.250 8 109589860.634 8     -1019.625          50.000    20854246.758 8  85394699.295 8      -794.513          49.000
G26  20282669.258 8 106586157.191 8      -284.043          51.000    20282671.938 8  83054138.425 8      -221.332          51.000
R09  19779967.773 8 105623928.796 8     -2076.109          51.000    19779968.898 7  82151943.702 7     -1614.752          46.000
C27  21545669.453 8 112194058.543 8      -337.879          51.000
C28  24323370.938 5 126658174.785 5     -2453.426          30.000
E11  22571677.227 8 118614991.707 8      -834.766          50.000    22571675.094 8  90886801.785 8      -639.608          48.000
E24  25234351.516 6 132607312.408 6     -3068.504          36.000    25234357.023 5 101608281.583 5     -2351.518          34.000
E25  23823973.086 8 125195822.802 8     -1256.445          50.000    23823977.484 8  95929253.181 8      -962.749          51.000
E36  24264010.977 8 127508243.467 8      1653.816          50.000    24264014.688 8  97701143.882 8      1267.192          50.000
> 2020 05 17 13 42  0.0000000  0 11        .000000000000
G18  20559533.016 8 108041119.908 8     -1254.672          51.000    20559532.695 8  84187847.715 8      -977.666          50.000
G20  22285701.391 8 117112167.325 8      2664.008          49.000    22285700.648 7  91256239.902 7      2075.853          44.000
G21  20860103.242 8 109620628.977 8     -1032.762          50.000    20860101.703 8  85418674.636 8      -804.746          49.000
G26  20284339.562 8 106594935.648 8      -302.320          50.000    20284342.523 8  83060978.779 8      -235.574          50.000
R09  19791697.828 8 105686563.570 8     -2100.766          51.000    19791698.156 7  82200659.583 7     -1633.932          46.000
C27  21547638.742 8 112204312.743 8      -346.969          51.000
C28  24337490.984 5 126731703.609 5     -2456.082          30.000
E11  22576463.727 8 118640144.678 8      -843.246          50.000    22576461.547 8  90906074.850 8      -646.219          49.000
E24  25251879.891 6 132699425.893 6     -3073.078          37.000    25251886.977 5 101678861.947 5     -2354.813          34.000
E25  23831180.273 8 125233697.484 8     -1269.680          51.000    23831184.422 8  95958274.011 8      -972.871          51.000
E36  24254590.516 8 127458740.802 8      1645.117          49.000    24254593.781 8  97663213.284 8      1260.592          51.000
> 2020 05 17 13 42 30.0000000  0 11        .000000000000
G18  20566717.320 8 108078873.866 8     -1271.508          51.000    20566717.078 8  84217266.394 8      -990.782          50.000
G20  22270501.750 7 117032296.180 7      2651.395          46.000    22270501.172 7  91194002.702 7      2066.022          43.000
G21  20866011.938 8 109651679.273 8     -1046.543          51.000    20866010.656 8  85442869.679 8      -815.488          50.000
G26  20286092.305 8 106604147.025 8      -321.180          50.000    20286095.414 8  83068156.480 8      -250.270          50.000
R09  19803544.859 8 105749825.845 8     -2126.090          50.000    19803545.336 7  82249863.532 7     -1653.625          47.000
C27  21549639.344 8 112214729.328 8      -356.684          51.000
C28  24351625.055 5 126805307.119 5     -2459.840          32.000
E11  22581279.195 8 118665448.998 8      -853.008          50.000    22581277.102 8  90925463.870 8      -653.576          49.000
E24  25269410.758 6 132791558.003 6     -3078.312          37.000    25269421.164 6 101749456.650 6     -2358.854          38.000
E25  23838442.508 8 125271859.224 8     -1283.758          51.000    23838445.977 8  95987514.796 8      -983.662          51.000
E36  24245198.242 8 127409384.477 8      1635.914          50.000    24245201.914 8  97625394.825 8      1253.514          51.000
> 2020 05 17 13 43  0.0000000  0 12        .000000000000
G18  20573964.719 8 108116959.325 8     -1283.129          51.000    20573964.844 8  84246943.387 8      -999.841          50.000
G20  22255339.906 7 116952627.538 7      2644.164          44.000    22255340.227 7  91131923.328 7      2060.391          43.000
G21  20871965.852 8 109682966.889 8     -1054.930          51.000    20871964.688 8  85467249.648 8      -822.023          50.000
G26  20287919.469 8 106613748.516 8      -334.609          51.000    20287922.750 8  83075638.159 8      -260.738          51.000
G31  24126976.594 5 126788122.753 5     -3336.004          33.000    24126975.102 5  98795923.128 5     -2599.484          33.000
R09  19815500.320 8 105813669.386 8     -2145.980          50.000    19815501.742 8  82299519.603 8     -1669.096          48.000
C27  21551662.852 8 112225265.041 8      -361.141          51.000
C28  24365751.625 5 126878847.832 5     -2458.109          34.000
E11  22586115.156 8 118690860.502 8      -856.938          51.000    22586112.969 8  90944935.046 8      -656.561          49.000
E24  25286936.438 6 132883664.308 6     -3077.973          36.000    25286950.859 6 101820031.581 6     -2358.387          40.000
E25  23845751.219 8 125310264.426 8     -1292.227          51.000    23845754.055 8  96016942.138 8      -990.148          51.000
E36  24235826.078 8 127360131.480 8      1631.910          51.000    24235830.578 8  97587655.543 8      1250.401          51.000
> 2020 05 17 13 43 30.0000000  0 11        .000000000000
G18  20581336.688 8 108155699.441 8     -1296.707          51.000    20581336.828 8  84277130.491 8     -1010.421          50.000
G20  22240279.406 7 116873488.818 7      2634.559          46.000    22240280.047 7  91070256.855 7      2052.903          42.000
G21  20878026.484 8 109714815.388 8     -1065.441          51.000    20878025.289 8  85492066.666 8      -830.214          50.000
G26  20289882.914 8 106624065.469 8      -350.328          51.000    20289886.078 8  83083677.334 8      -272.983          51.000
G31  24146034.320 5 126888264.908 5     -3336.676          34.000    24146033.055 6  98873964.746 6     -2600.016          36.000
R09  19827626.211 8 105878421.873 8     -2167.957          51.000    19827628.328 8  82349882.634 8     -1686.189          49.000
C27  21553770.836 8 112236241.304 8      -367.703          51.000
E11  22591032.922 8 118716703.114 8      -863.152          50.000    22591030.719 8  90964736.524 8      -661.344          50.000
E24  25304520.008 6 132976068.675 6     -3079.484          36.000    25304536.727 7 101890834.801 7     -2359.817          42.000
E25  23853167.992 8 125349237.714 8     -1303.145          51.000    23853170.562 8  96046804.763 8      -998.573          51.000
E36  24226535.500 8 127311306.846 8      1625.742          51.000    24226540.555 8  97550244.483 8      1245.711          51.000
> 2020 05 17 13 44  0.0000000  0 14        .000000000000
G18  20588795.172 8 108194894.141 8     -1307.559          51.000    20588795.266 8  84307671.817 8     -1018.877          49.000
G20  22225283.430 8 116794684.701 8      2627.750          48.000    22225284.391 7  91008851.088 7      2047.597          43.000
G21  20884155.734 8 109747024.371 8     -1073.109          51.000    20884154.461 8  85517164.577 8      -836.189          50.000
G26  20291944.867 8 106634899.810 8      -363.176          51.000    20291947.586 8  83092119.665 8      -282.994          51.000
G29  23585535.906 5 123942789.844 5     -2818.402          31.000
G31  24165103.180 6 126988468.964 6     -3334.148          36.000    24165101.422 5  98952045.804 5     -2598.041          35.000
R09  19839884.180 8 105943879.433 8     -2186.977          51.000    19839886.680 8  82400794.040 8     -1700.982          50.000
C27  21555925.469 8 112247461.056 8      -371.555          51.000
C28  24394123.586 5 127026606.097 5     -2456.664          31.000
C30  23468008.445 5 122204101.784 5      2087.102          30.000
E11  22595994.617 8 118742777.476 8      -866.582          50.000    22595992.609 8  90984715.589 8      -664.010          51.000
E24  25322122.742 6 133068571.209 6     -3078.672          37.000    25322140.359 7 101961713.241 7     -2358.812          43.000
E25  23860654.797 8 125388580.266 8     -1310.988          51.000    23860657.211 8  96076950.327 8     -1004.544          51.000
E36  24217288.445 8 127262712.286 8      1622.551          50.000    24217293.273 8  97513009.710 8      1243.280          51.000
> 2020 05 17 13 44 30.0000000  0 12        .000000000000
G18  20596329.859 8 108234489.176 8     -1326.258          51.000    20596330.125 8  84338525.087 8     -1033.448          49.000
G20  22210341.828 8 116716165.154 8      2612.719          49.000    22210342.750 7  90947667.060 7      2035.885          42.000
G21  20890343.266 8 109779539.926 8     -1088.727          51.000    20890342.016 8  85542501.387 8      -848.355          50.000
G26  20294095.375 8 106646199.363 8      -384.129          51.000    20294097.516 8  83100924.504 8      -299.324          51.000
G31  24184171.484 6 127088674.346 6     -3340.145          37.000    24184171.352 6  99030127.854 6     -2602.710          37.000
R09  19852263.883 8 106009986.078 8     -2214.020          51.000    19852266.477 8  82452210.293 8     -1722.015          50.000
C27  21558116.633 8 112258871.703 8      -383.316          51.000
C28  24408315.102 5 127100475.246 5     -2461.863          32.000
E11  22600990.500 8 118769030.140 8      -877.656          50.000    22600988.586 8  91004831.262 8      -672.589          50.000
E24  25339733.391 6 133161199.120 6     -3085.633          38.000    25339751.781 7 102032625.698 7     -2364.089          43.000
E25  23868201.672 8 125428239.152 8     -1327.035          51.000    23868203.758 8  96107338.279 8     -1016.792          51.000
E36  24208075.117 8 127214295.332 8      1611.137          51.000    24208078.781 8  97475911.039 8      1234.531          50.000
> 2020 05 17 13 45  0.0000000  0 12        .000000000000
G18  20603961.602 8 108274594.231 8     -1344.336          50.000    20603962.094 8  84369775.776 8     -1047.534          50.000
G20  22195476.398 8 116638044.380 8      2598.453          50.000    22195476.758 7  90886793.757 7      2024.769          44.000
G21  20896610.070 8 109812472.176 8     -1103.637          51.000    20896608.867 8  85568162.878 8      -859.977          50.000
G26  20296355.664 8 106658075.859 8      -404.422          51.000    20296357.445 8  83110178.898 8      -315.134          51.000
G31  24203260.781 5 127188989.714 5     -3344.883          34.000    24203261.117 5  99108295.666 5     -2606.405          34.000
R09  19864786.055 8 106076852.546 8     -2240.449          51.000    19864788.297 8  82504217.526 8     -1742.572          50.000
C27  21560365.477 8 112270583.101 8      -394.250          51.000
C28  24422526.875 4 127174463.501 4     -2466.723          26.000
E11  22606041.234 8 118795571.564 8      -888.562          49.000    22606039.484 8  91025168.188 8      -680.814          50.000
E24  25357373.906 6 133253900.455 6     -3091.375          40.000    25357392.086 7 102103656.540 7     -2368.761          43.000
E25  23875829.938 8 125468325.370 8     -1342.301          51.000    23875831.703 8  96138053.682 8     -1028.426          51.000
E36  24198917.016 8 127166167.488 8      1600.574          51.000    24198920.156 8  97439033.877 8      1226.432          50.000
> 2020 05 17 13 45 30.0000000  0 12        .000000000000
G18  20611678.125 8 108315144.258 8     -1359.543          51.000    20611678.547 8  84401373.199 8     -1059.384          49.000
G20  22180675.391 8 116560261.888 8      2586.660          50.000    22180675.258 7  90826184.068 7      2015.579          44.000
G21  20902943.703 8 109845756.057 8     -1115.777          50.000    20902942.477 8  85594098.364 8      -869.434          50.000
G26  20298713.711 8 106670466.275 8      -422.023          51.000    20298715.406 8  83119833.754 8      -328.852          51.000
G31  24222358.031 5 127289349.127 5     -3346.566          34.000    24222359.883 5  99186497.723 5     -2607.714          34.000
R09  19877438.133 8 106144411.831 8     -2263.988          51.000    19877439.805 8  82556763.636 8     -1760.880          50.000
C27  21562659.945 8 112282532.024 8      -402.637          51.000
C28  24436752.883 5 127248506.995 5     -2470.066          32.000
E11  22611134.359 8 118822337.453 8      -896.293          49.000    22611132.867 8  91045677.116 8      -686.668          50.000
E24  25375031.938 6 133346691.765 6     -3094.988          40.000    25375048.906 7 102174756.270 7     -2371.350          43.000
E25  23883527.367 8 125508775.180 8     -1354.621          51.000    23883529.062 8  96169047.678 8     -1037.971          51.000
E36  24189801.867 8 127118265.538 8      1592.516          51.000    24189805.633 8  97402329.791 8      1220.305          51.000
> 2020 05 17 13 46  0.0000000  0 11        .000000000000
G18  20619522.641 8 108356367.002 8     -1380.172          50.000    20619522.906 8  84433494.817 8     -1075.459          50.000
G20  22165982.820 8 116483049.980 8      2569.312          50.000    22165982.367 7  90766018.998 7      2002.065          46.000
G21  20909387.664 8 109879619.495 8     -1133.332          50.000    20909386.586 8  85620485.449 8      -883.116          50.000
G26  20301213.062 8 106683600.449 8      -445.148          51.000    20301214.875 8  83130068.149 8      -346.869          51.000
R03  22933239.555 5 122763438.701 5       320.809          34.000    22933243.266 4  95482676.371 4       249.524          26.000
R09  19890263.125 8 106212894.514 8     -2292.801          51.000    19890264.531 8  82610027.953 8     -1783.289          50.000
C27  21565043.703 8 112294945.377 8      -416.512          51.000
E11  22616313.930 8 118849556.356 8      -909.773          50.000    22616312.297 8  91066533.148 8      -697.057          50.000
E24  25392750.312 6 133439801.225 6     -3103.859          39.000    25392766.359 7 102246099.774 7     -2378.336          43.000
E25  23891337.367 8 125549817.705 8     -1372.992          51.000    23891339.438 8  96200495.819 8     -1052.051          51.000
E36  24180773.258 8 127070819.049 8      1579.094          51.000    24180777.875 8  97365974.697 8      1209.931          51.000
> 2020 05 17 13 46 30.0000000  0 13        .000000000000
G18  20627395.070 8 108397736.460 8     -1392.809          51.000    20627395.266 8  84465730.755 8     -1085.305          49.000
G20  22151299.352 8 116405887.028 8      2559.859          50.000    22151298.375 7  90705892.074 7      1994.699          46.000
G21  20915841.867 8 109913536.633 8     -1142.750          49.000    20915840.906 8  85646914.389 8      -890.455          49.000
G26  20303754.156 8 106696954.315 8      -460.230          51.000    20303756.016 8  83140473.745 8      -358.621          51.000
R03  22931462.867 6 122753928.895 6       298.367          36.000    22931465.594 4  95475278.341 4       232.057          27.000
R09  19903160.477 8 106281765.607 8     -2313.660          51.000    19903161.859 8  82663594.363 8     -1799.513          51.000
C27  21567416.852 8 112307303.114 8      -422.258          51.000
C28  24465239.836 5 127396965.858 5     -2477.145          31.000
C30  23408483.188 4 121894116.114 4      2049.492          28.000
E11  22621479.781 8 118876702.994 8      -915.188          50.000    22621478.219 8  91087333.817 8      -701.212          50.000
E24  25410428.883 6 133532703.165 6     -3104.359          39.000    25410444.461 7 102317284.311 7     -2378.895          42.000
E25  23899160.188 8 125590928.165 8     -1382.754          51.000    23899162.836 8  96231996.008 8     -1059.555          51.000
E36  24171731.445 8 127023303.801 8      1573.609          51.000    24171736.492 8  97329566.910 8      1205.824          51.000
> 2020 05 17 13 47  0.0000000  0 11        .000000000000
G18  20635377.062 8 108439681.969 8     -1408.910          50.000    20635377.211 8  84498415.569 8     -1097.849          50.000
G20  22136707.797 8 116329207.149 8      2546.809          50.000    22136706.195 7  90646141.555 7      1984.529          45.000
G21  20922388.000 8 109947936.927 8     -1155.938          50.000    20922386.977 8  85673719.811 8      -900.731          49.000
G26  20306419.133 8 106710959.274 8      -478.801          51.000    20306420.961 8  83151386.706 8      -373.092          51.000
R03  22929850.266 6 122745288.365 6       272.137          37.000    22929852.914 5  95468557.400 5       211.662          33.000
R09  19916212.164 8 106351460.332 8     -2338.043          51.000    19916213.172 8  82717801.349 8     -1818.478          50.000
C27  21569861.289 8 112320031.979 8      -431.641          51.000
E11  22626713.648 8 118904207.529 8      -923.875          50.000    22626712.367 8  91108408.729 8      -707.907          51.000
E24  25428149.281 6 133625827.515 6     -3109.000          38.000    25428165.547 7 102388639.232 7     -2382.352          42.000
E25  23907077.914 8 125632537.267 8     -1396.496          51.000    23907081.195 8  96263878.275 8     -1070.057          51.000
E36  24162758.547 8 126976151.030 8      1564.512          50.000    24162763.266 8  97293436.890 8      1198.806          51.000
> 2020 05 17 13 47 30.0000000  0 13        .000000000000
G18  20643447.164 8 108482090.957 8     -1420.113          50.000    20643447.398 8  84531461.544 8     -1106.579          50.000
G20  22122187.289 8 116252902.086 8      2538.262          49.000    22122185.641 7  90586683.100 7      1977.869          45.000
G21  20929004.797 8 109982708.085 8     -1164.086          51.000    20929003.594 8  85700814.216 8      -907.080          49.000
G26  20309186.867 8 106725504.748 8      -492.598          51.000    20309189.211 8  83162720.831 8      -383.842          51.000
G29  23698796.391 5 124538011.605 5     -2843.680          31.000    23698802.812 5  97042619.542 5     -2215.854          30.000
R03  22928378.359 6 122737405.187 6       251.301          37.000    22928381.391 5  95462426.181 5       195.462          35.000
R09  19929396.734 8 106421863.547 8     -2357.445          51.000    19929397.164 8  82772559.380 8     -1833.569          50.000
C27  21572355.820 8 112333021.607 8      -436.199          51.000
C28  24493791.086 5 127545609.984 5     -2478.410          34.000
E11  22631994.453 8 118931958.201 8      -928.258          51.000    22631993.242 8  91129672.233 8      -711.215          51.000
E24  25445890.547 6 133719062.105 6     -3108.469          38.000    25445907.789 6 102460078.623 6     -2381.901          41.000
E25  23915069.508 8 125674533.737 8     -1405.383          51.000    23915073.227 8  96296057.375 8     -1076.807          51.000
E36  24153833.430 8 126929249.982 8      1560.254          51.000    24153837.758 8  97257499.761 8      1195.546          51.000
> 2020 05 17 13 48  0.0000000  0 13        .000000000000
G18  20651598.094 8 108524924.150 8     -1438.457          50.000    20651598.398 8  84564838.052 8     -1120.876          50.000
G20  22107731.289 8 116176936.825 8      2522.785          48.000    22107730.445 7  90527489.453 7      1965.810          46.000
G21  20935684.672 8 110017810.893 8     -1179.195          51.000    20935683.492 8  85728167.060 8      -918.853          49.000
G26  20312050.250 8 106740553.458 8      -513.691          51.000    20312053.109 8  83174447.083 8      -400.282          51.000
R03  22927041.367 6 122730242.182 6       223.418          36.000    22927043.867 5  95456855.065 5       173.773          32.000
R09  19942705.609 8 106492934.282 8     -2383.781          51.000    19942705.734 7  82827836.595 7     -1854.052          47.000
C27  21574893.227 8 112346234.352 8      -447.734          51.000
C28  24508076.992 5 127620005.549 5     -2484.152          32.000
C30  23373162.805 5 121710215.164 5      2033.090          32.000
E11  22637314.844 8 118959916.511 8      -939.043          50.000    22637313.719 8  91151094.854 8      -719.511          51.000
E24  25463645.383 6 133812368.124 6     -3114.828          36.000    25463663.578 6 102531572.809 6     -2386.932          41.000
E25  23923127.680 8 125716879.536 8     -1420.938          51.000    23923131.570 8  96328504.162 8     -1088.806          51.000
E36  24144949.078 8 126882563.218 8      1548.914          51.000    24144953.820 8  97221726.799 8      1186.833          51.000
> 2020 05 17 13 48 30.0000000  0 13        .000000000000
G18  20659847.914 8 108568277.600 8     -1452.531          50.000    20659848.266 8  84598619.951 8     -1131.846          49.000
G20  22093358.945 7 116101412.238 7      2511.293          47.000    22093358.656 7  90468639.151 7      1956.855          45.000
G21  20942446.031 8 110053341.805 8     -1190.207          50.000    20942444.781 8  85755853.488 8      -927.434          49.000
G26  20315028.133 8 106756203.457 8      -530.379          51.000    20315031.047 8  83186641.881 8      -413.282          51.000
G29  23731317.969 5 124708941.859 5     -2851.859          30.000    23731317.602 4  97175782.626 4     -2222.219          28.000
R03  22925857.461 5 122723899.989 5       198.766          35.000    22925857.719 4  95451922.194 4       154.589          25.000
R09  19956157.234 8 106564769.152 8     -2405.781          50.000    19956156.930 7  82883708.162 7     -1871.163          46.000
C27  21577491.914 8 112359766.692 8      -455.156          51.000
C30  23361461.359 5 121649301.231 5      2027.488          32.000
E11  22642693.055 8 118988179.365 8      -945.793          51.000    22642692.203 8  91172750.812 8      -724.633          51.000
E24  25481432.328 5 133905830.210 5     -3117.348          33.000    25481450.898 6 102603195.693 6     -2388.515          38.000
E25  23931270.883 8 125759672.088 8     -1432.586          51.000    23931274.727 8  96361293.265 8     -1097.708          51.000
E36  24136124.211 8 126836188.610 8      1541.887          51.000    24136129.852 8  97186193.009 8      1181.467          51.000
> 2020 05 17 13 49  0.0000000  0 10        .000000000000
G18  20668194.750 8 108612140.937 8     -1469.898          50.000    20668195.031 8  84632799.177 8     -1145.375          49.000
G20  22079069.320 8 116026322.402 8      2496.582          49.000    22079069.305 7  90410127.639 7      1945.392          43.000
G21  20949286.789 8 110089290.365 8     -1204.504          50.000    20949285.359 8  85783865.372 8      -938.574          49.000
G26  20318118.883 8 106772446.348 8      -550.609          51.000    20318121.625 8  83199298.684 8      -429.046          51.000
R09  19969749.906 8 106637356.831 8     -2431.301          50.000    19969749.539 7  82940165.207 7     -1891.015          47.000
C27  21580150.172 8 112373609.579 8      -465.926          51.000
E11  22648127.398 8 119016737.296 8      -956.355          51.000    22648126.609 8  91194632.869 8      -732.723          51.000
E24  25499250.047 5 133999462.474 5     -3123.316          31.000    25499268.492 6 102674939.784 6     -2392.936          37.000
E25  23939497.352 8 125802902.327 8     -1447.617          51.000    23939501.031 8  96394417.729 8     -1109.204          51.000
E36  24127357.281 8 126790117.678 8      1531.328          51.000    24127363.398 8  97150891.905 8      1173.334          51.000
> 2020 05 17 13 49 30.0000000  0 10        .000000000000
G18  20676604.086 8 108656332.491 8     -1480.004          50.000    20676604.289 8  84667234.130 8     -1153.250          49.000
G20  22064829.156 8 115951490.266 8      2488.562          50.000    22064828.914 7  90351816.915 7      1939.140          42.000
G21  20956172.547 8 110125475.349 8     -1211.656          51.000    20956171.305 8  85812061.465 8      -944.145          50.000
G26  20321288.289 8 106789102.386 8      -563.645          51.000    20321290.852 8  83212277.410 8      -439.204          51.000
R09  19983449.422 8 106710511.900 8     -2449.457          51.000    19983449.836 8  82997063.550 8     -1905.133          49.000
C27  21582833.898 8 112387584.241 8      -469.527          51.000
E11  22653583.453 8 119045409.346 8      -959.000          51.000    22653582.516 8  91216602.370 8      -734.845          50.000
E24                                                                  25517082.133 5 102746666.248 5     -2391.993          34.000
E25  23947772.883 8 125846389.819 8     -1455.375          51.000    23947776.211 8  96427739.316 8     -1115.157          51.000
E36  24118614.031 8 126744170.552 8      1527.969          51.000    24118619.508 8  97115685.668 8      1170.799          51.000
> 2020 05 17 13 50  0.0000000  0 10        .000000000000
G18  20685101.578 8 108700987.850 8     -1495.859          49.000    20685101.828 8  84702030.532 8     -1165.602          48.000
G20  22050665.125 8 115877055.868 8      2474.719          50.000    22050664.492 7  90293816.114 7      1928.352          43.000
G21  20963129.094 8 110162032.345 8     -1224.504          50.000    20963127.969 8  85840547.443 8      -954.159          50.000
G26  20324562.570 8 106806309.204 8      -582.477          51.000    20324565.102 8  83225685.306 8      -453.878          51.000
R09  19997281.125 8 106784370.929 8     -2473.227          51.000    19997282.328 8  83054509.459 8     -1923.621          49.000
C27  21585569.164 8 112401826.429 8      -478.906          51.000
E11  22659087.234 8 119074332.038 8      -968.066          50.000    22659086.250 8  91238763.907 8      -741.741          51.000
E24                                                                  25534917.773 5 102818479.327 5     -2395.289          32.000
E25  23956123.602 8 125890271.551 8     -1469.070          51.000    23956126.461 8  96461362.975 8     -1125.636          51.000
E36  24109920.484 8 126698484.752 8      1518.793          51.000    24109924.383 8  97080679.683 8      1163.786          50.000
> 2020 05 17 13 50 30.0000000  0 10        .000000000000
G18  20693684.773 8 108746092.872 8     -1510.863          49.000    20693684.891 8  84737177.286 8     -1177.296          48.000
G20  22036574.914 8 115803009.557 8      2461.871          51.000    22036574.117 7  90236117.750 7      1918.344          44.000
G21  20970153.672 8 110198947.232 8     -1236.223          50.000    20970152.281 8  85869312.286 8      -963.290          49.000
G26  20327939.422 8 106824054.484 8      -600.277          51.000    20327941.703 8  83239512.791 8      -467.749          51.000
R09  20011241.711 8 106858918.581 8     -2496.277          50.000    20011244.070 8  83112490.954 8     -1941.549          49.000
C27  21588353.180 8 112416323.339 8      -487.289          51.000
E11  22664636.117 8 119103491.947 8      -975.629          51.000    22664635.367 8  91261107.215 8      -747.539          51.000
E24  25552756.227 5 134280636.444 5     -3128.426          32.000    25552772.062 5 102890368.488 5     -2397.279          35.000
E25  23964546.883 8 125934534.538 8     -1481.398          51.000    23964549.258 8  96495278.778 8     -1135.115          51.000
E36  24101274.477 8 126653047.904 8      1510.660          51.000    24101276.570 8  97045864.467 8      1157.486          50.000
> 2020 05 17 13 51  0.0000000  0 12        .000000000000
G18  20702324.328 8 108791493.997 8     -1521.777          48.000    20702324.383 8  84772554.792 8     -1185.801          48.000
G20  22022530.359 8 115729202.387 8      2452.793          51.000    22022529.195 7  90178605.698 7      1911.270          44.000
G21  20977217.336 8 110236067.039 8     -1244.117          50.000    20977215.914 8  85898236.812 8      -969.439          50.000
G26  20331390.008 8 106842186.686 8      -614.223          51.000    20331391.828 8  83253641.788 8      -478.615          51.000
R03  22921991.516 4 122703116.909 4        78.105          29.000    22921992.938 5  95435816.438 5        60.746          30.000
R09  20025302.023 8 106933997.889 8     -2514.910          51.000    20025304.633 8  83170885.988 8     -1956.038          49.000
C27  21591157.062 8 112430924.192 8      -491.797          51.000
C30  23303426.523 5 121347094.314 5      2003.113          34.000
E11  22670201.086 8 119132736.538 8      -979.605          50.000    22670200.484 8  91283515.394 8      -750.550          50.000
E24                                                                  25570616.375 5 102962216.605 5     -2396.615          33.000
E25  23973013.672 8 125979026.663 8     -1490.367          51.000    23973015.844 8  96529370.144 8     -1141.973          51.000
E36  24092647.016 8 126607708.400 8      1506.266          51.000    24092648.406 8  97011123.842 8      1154.098          50.000
> 2020 05 17 13 51 30.0000000  0 12        .000000000000
G18  20711079.977 8 108837505.222 8     -1541.098          49.000    20711080.219 7  84808407.708 7     -1200.855          47.000
G20  22008591.617 8 115655952.773 8      2435.102          51.000    22008590.477 7  90121528.155 7      1897.485          45.000
G21  20984379.773 8 110273705.777 8     -1260.496          50.000    20984378.477 8  85927565.716 8      -982.202          50.000
G26  20334974.422 8 106861021.729 8      -636.770          51.000    20334976.242 8  83268318.427 8      -496.184          51.000
R03  22921644.867 5 122701282.125 5        48.371          32.000    22921649.328 5  95434389.502 5        37.622          30.000
R09  20039521.352 8 107009926.730 8     -2542.227          51.000    20039523.914 8  83229941.759 8     -1977.290          48.000
C27  21594041.016 8 112445941.444 8      -504.758          51.000
C30  23291923.695 5 121287216.702 5      1992.762          31.000
E11  22675842.070 8 119162380.665 8      -992.125          50.000    22675841.406 8  91306229.715 8      -760.218          50.000
E24                                                                  25588510.242 6 103034264.689 6     -2402.741          36.000
E25  23981583.727 8 126024063.145 8     -1507.473          51.000    23981586.242 8  96563878.602 8     -1155.041          51.000
E36  24084097.820 8 126562782.062 8      1493.508          51.000    24084099.430 8  96976699.787 8      1144.349          49.000
> 2020 05 17 13 52  0.0000000  0 11        .000000000000
G18  20719907.422 8 108883893.180 8     -1553.633          49.000    20719907.547 7  84844554.157 7     -1210.623          47.000
G20  21994715.203 8 115583031.694 8      2424.070          49.000    21994714.219 7  90064706.572 7      1888.886          45.000
G21  20991596.586 8 110311630.270 8     -1270.012          50.000    20991595.070 8  85957117.277 8      -989.620          50.000
G26  20338648.461 8 106880328.100 8      -652.512          51.000    20338650.312 8  83283362.343 8      -508.451          51.000
R03  22921435.867 5 122700140.325 5        25.352          33.000    22921436.289 5  95433501.325 5        19.712          30.000
R09  20053854.555 8 107086467.037 8     -2562.574          50.000    20053856.727 7  83289473.089 7     -1993.113          47.000
C27  21596960.828 8 112461145.119 8      -510.961          51.000
E11  22681514.820 8 119192191.696 8      -997.441          50.000    22681514.172 8  91329071.922 8      -764.255          50.000
E24  25606389.703 5 134562492.488 5     -3136.770          31.000    25606409.156 6 103106334.209 6     -2403.735          38.000
E25  23990213.031 8 126069411.846 8     -1517.949          51.000    23990216.203 8  96598626.288 8     -1163.116          51.000
E36  24075582.727 8 126518037.357 8      1487.406          50.000    24075584.367 8  96942414.890 8      1139.644          48.000
> 2020 05 17 13 52 30.0000000  0 12        .000000000000
G18  20728821.359 8 108930735.504 8     -1569.387          49.000    20728821.023 7  84881054.662 7     -1222.899          47.000
G20  21980916.562 8 115510521.470 8      2409.750          48.000    21980916.156 7  90008205.144 7      1877.727          46.000
G21  20998882.664 8 110349918.599 8     -1282.719          51.000    20998880.930 8  85986952.327 8      -999.521          49.000
G26  20342427.281 8 106900185.399 8      -671.441          51.000    20342429.195 8  83298835.552 8      -523.201          51.000
R03  22921368.453 5 122699772.793 5         -.910          32.000    22921368.406 4  95433215.420 4         -.708          29.000
R09  20068316.781 8 107163696.765 8     -2586.258          50.000    20068318.477 7  83349540.596 7     -2011.534          46.000
C27  21599931.547 8 112476613.539 8      -520.418          51.000
C28  24637296.008 5 128292846.794 5     -2501.887          31.000
E11  22687234.367 8 119222248.315 8     -1006.434          51.000    22687233.695 8  91352102.315 8      -771.113          50.000
E24  25624308.148 5 134656646.764 5     -3140.762          32.000    25624327.867 6 103178485.079 6     -2406.662          38.000
E25  23998916.711 8 126115151.749 8     -1531.574          51.000    23998920.461 8  96633673.727 8     -1173.517          51.000
E36  24067117.258 8 126473553.818 8      1478.078          51.000    24067118.023 7  96908330.118 7      1132.470          46.000
> 2020 05 17 13 53  0.0000000  0 13        .000000000000
G18  20737826.219 8 108978056.142 8     -1577.816          49.000    20737825.852 7  84917927.903 7     -1229.464          47.000
G20  21967201.516 8 115438450.791 8      2402.469          48.000    21967201.633 7  89952046.188 7      1872.054          46.000
G21  21006242.617 8 110388594.908 8     -1288.188          51.000    21006240.820 8  86017089.713 8     -1003.782          49.000
G26  20346315.852 8 106920619.440 8      -683.250          51.000    20346317.820 8  83314758.190 8      -532.403          51.000
G31  24509947.695 5 128800617.134 5     -3360.500          33.000    24509934.258 5 100364105.369 5     -2618.574          30.000
R09  20082912.914 8 107241638.938 8     -2602.336          51.000    20082914.141 7  83410162.221 7     -2024.042          47.000
C27  21602957.906 8 112492371.803 8      -522.648          51.000
C28  24651708.914 5 128367961.617 5     -2498.219          31.000
C30  23257613.180 4 121108495.424 4      1981.551          29.000
E11  22693005.484 8 119252575.354 8     -1007.832          51.000    22693004.500 8  91375339.917 8      -772.259          50.000
E24  25642251.906 5 134750942.697 5     -3137.848          32.000    25642271.156 6 103250736.156 6     -2404.265          37.000
E25  24007699.672 8 126161308.078 8     -1537.820          51.000    24007703.516 8  96669040.249 8     -1178.342          51.000
E36  24058706.602 8 126429357.317 8      1475.887          50.000    24058706.336 7  96874465.312 7      1130.802          45.000
> 2020 05 17 13 53 30.0000000  0 11        .000000000000
G18  20746899.195 8 109025734.894 8     -1598.262          49.000    20746899.055 8  84955080.180 8     -1245.399          48.000
G20  21953547.984 7 115366703.620 7      2383.258          46.000    21953549.102 7  89896139.305 7      1857.087          46.000
G21  21013653.508 8 110427539.076 8     -1305.668          51.000    21013651.672 8  86047435.831 8     -1017.404          49.000
G26  20350291.562 8 106941511.852 8      -707.141          51.000    20350293.867 8  83331037.997 8      -551.019          51.000
R03  22921654.547 5 122701394.245 5       -51.781          34.000    22921657.195 4  95434414.782 4       -40.277          28.000
R09  20097619.336 8 107320170.324 8     -2630.613          50.000    20097620.820 7  83471242.141 7     -2046.033          47.000
C27  21606017.125 8 112508302.078 8      -536.898          51.000
E11  22698805.359 8 119283053.379 8     -1021.379          51.000    22698804.102 8  91398693.203 8      -782.591          50.000
E24                                                                  25660216.516 5 103322995.698 5     -2411.257          34.000
E25  24016539.547 8 126207761.840 8     -1556.527          51.000    24016542.977 8  96704634.682 8     -1192.616          51.000
E36  24050327.781 8 126385329.439 8      1461.719          49.000    24050328.758 8  96840729.695 8      1120.000          48.000
> 2020 05 17 13 54  0.0000000  0 11        .000000000000
G18  20756055.680 8 109073852.752 8     -1609.988          49.000    20756055.383 8  84992574.613 8     -1254.536          48.000
G20  21939971.867 7 115295365.413 7      2372.059          43.000    21939974.102 7  89840551.146 7      1848.357          43.000
G21  21021130.805 8 110466832.169 8     -1314.352          51.000    21021128.875 8  86078053.840 8     -1024.170          48.000
G26  20354370.102 8 106962945.569 8      -722.320          50.000    20354372.750 8  83347739.589 8      -562.850          50.000
R03  22922009.023 6 122703275.115 6       -74.367          39.000    22922009.555 4  95435877.603 4       -57.838          29.000
R09  20112451.500 8 107399372.095 8     -2650.020          50.000    20112453.289 7  83532843.502 7     -2061.126          46.000
C27  21609124.984 8 112524486.031 8      -542.523          51.000
E11  22704649.586 8 119313764.435 8     -1026.582          51.000    22704648.414 8  91422225.059 8      -786.623          50.000
E24                                                                  25678179.312 5 103395326.266 5     -2411.637          33.000
E25  24025451.883 8 126254595.314 8     -1566.277          51.000    24025454.594 8  96740520.079 8     -1200.135          51.000
E36  24041996.531 8 126341553.100 8      1456.102          48.000    24042000.141 8  96807186.810 8      1115.843          49.000
> 2020 05 17 13 54 30.0000000  0 12        .000000000000
G18  20765292.133 8 109122390.830 8     -1625.730          49.000    20765291.742 8  85030396.496 8     -1266.800          48.000
G20  21926470.836 7 115224421.677 7      2357.395          44.000    21926473.938 7  89785270.326 7      1836.934          44.000
G21  21028670.984 8 110506455.875 8     -1327.121          51.000    21028668.984 8  86108929.467 8     -1034.120          49.000
G26  20358548.352 8 106984903.527 8      -741.570          50.000    20358551.242 8  83364849.690 8      -577.844          50.000
R03  22922501.234 5 122705905.136 5      -100.816          35.000    22922501.250 5  95437923.222 5       -78.410          30.000
R09  20127405.578 8 107479223.980 8     -2673.387          49.000    20127407.227 7  83594950.510 7     -2079.298          46.000
C27  21612278.219 8 112540906.273 8      -552.082          51.000
C28  24695006.852 5 128593383.982 5     -2509.105          30.000
E11  22710534.805 8 119344690.437 8     -1035.129          51.000    22710533.672 8  91445921.602 8      -793.142          50.000
E24                                                                  25696156.539 5 103467773.641 5     -2414.579          30.000
E25  24034433.102 8 126301790.877 8     -1580.094          51.000    24034435.070 8  96776682.915 8     -1210.721          51.000
E36  24033710.453 8 126298011.229 8      1446.777          48.000    24033715.766 8  96773823.579 8      1108.459          49.000
> 2020 05 17 13 55  0.0000000  0 11        .000000000000
G18  20774635.539 8 109171490.833 8     -1638.383          48.000    20774635.656 8  85068656.227 8     -1276.662          48.000
G20  21913073.352 7 115154019.135 7      2345.555          46.000    21913077.016 7  89730411.251 7      1827.705          46.000
G21  21036301.016 8 110546552.127 8     -1336.727          51.000    21036299.273 8  86140173.330 8     -1041.605          49.000
G26  20362853.797 8 107007529.254 8      -757.633          50.000    20362857.117 8  83382480.125 8      -590.363          50.000
R03  22923160.602 5 122709430.637 5      -124.355          35.000    22923159.688 5  95440665.476 5       -96.721          30.000
R09  20142507.141 7 107559868.777 7     -2693.461          46.000    20142509.750 7  83657674.260 7     -2094.914          47.000
C27  21615503.992 8 112557704.630 8      -558.664          51.000
C30  23212321.070 5 120872676.884 5      1955.406          32.000
E11  22716488.000 8 119375974.053 8     -1041.062          51.000    22716486.648 8  91469892.159 8      -797.637          51.000
E25  24043509.992 8 126349491.496 8     -1590.711          51.000    24043511.781 8  96813232.730 8     -1218.868          51.000
E36  24025496.820 8 126254847.466 8      1440.188          49.000    24025502.078 8  96740750.040 8      1103.580          48.000
> 2020 05 17 13 55 30.0000000  0 13        .000000000000
G10  24071019.711 6 126494066.585 6      3466.996          38.000    24071029.562 6  98566811.427 6      2701.561          37.000
G18  20784019.203 8 109220802.503 8     -1651.516          48.000    20784019.438 8  85107080.912 8     -1286.895          48.000
G20  21899713.648 8 115083811.549 8      2332.652          50.000    21899717.031 7  89675704.027 7      1817.654          45.000
G21  21043954.375 8 110586770.861 8     -1346.988          51.000    21043952.945 8  86171512.607 8     -1049.601          49.000
G26  20367220.156 8 107030474.422 8      -774.488          51.000    20367223.617 8  83400359.450 8      -603.497          51.000
R03  22923922.133 6 122713497.829 6      -149.113          37.000    22923919.023 4  95443828.807 4      -115.980          27.000
R09  20157689.414 7 107640949.220 7     -2714.336          46.000    20157693.953 8  83720736.830 8     -2111.150          48.000
C27  21618736.195 8 112574535.471 8      -565.863          51.000
C28  24723950.406 5 128744061.330 5     -2510.840          33.000
C30  23201070.414 5 120814056.191 5      1950.297          35.000
E11  22722442.633 8 119407266.042 8     -1047.539          51.000    22722441.125 8  91493869.136 8      -802.717          51.000
E25  24052616.148 8 126397348.237 8     -1602.086          48.000    24052618.422 8  96849902.171 8     -1227.521          51.000
E36  24017288.852 8 126211713.501 8      1432.949          48.000    24017293.102 7  96707699.354 7      1098.016          46.000
> 2020 05 17 13 56  0.0000000  0 11        .000000000000
G10  24051252.336 6 126390190.555 6      3457.523          39.000    24051261.602 6  98485869.180 6      2694.174          39.000
G18  20793505.352 8 109270652.265 8     -1672.500          48.000    20793505.414 8  85145924.847 8     -1303.247          48.000
G20  21886454.469 8 115014129.940 8      2312.020          51.000    21886456.625 7  89621406.689 7      1801.574          43.000
G21  21051693.195 8 110627438.562 8     -1364.926          50.000    21051691.727 8  86203201.728 8     -1063.579          49.000
G26  20371709.758 8 107054067.101 8      -799.090          51.000    20371712.898 8  83418743.340 8      -622.667          51.000
R09  20173016.609 8 107722796.123 8     -2742.953          49.000    20173021.422 8  83784395.496 8     -2133.408          49.000
C27  21622037.117 8 112591723.507 8      -580.742          51.000
C28  24738443.648 5 128819509.714 5     -2519.762          32.000
E11  22728461.180 8 119438893.609 8     -1061.676          50.000    22728459.570 8  91518103.232 8      -813.474          51.000
E25  24061814.305 8 126445688.579 8     -1621.348          48.000    24061817.547 8  96886942.193 8     -1242.340          51.000
E36  24009148.664 8 126168937.502 8      1417.949          48.000    24009151.609 7  96674922.961 7      1086.522          47.000
> 2020 05 17 13 56 30.0000000  0 10        .000000000000
G10  24031509.969 6 126286443.872 6      3449.945          39.000    24031517.016 6  98405027.779 6      2688.275          37.000
G18  20803079.930 7 109320966.717 7     -1691.234          47.000    20803080.195 7  85185130.923 7     -1317.845          47.000
G20  21873282.484 8 114944905.306 8      2293.414          51.000    21873282.086 6  89567465.452 6      1787.076          41.000
G21  21059503.609 8 110668482.629 8     -1380.789          51.000    21059501.867 8  86235184.116 8     -1075.940          48.000
G26  20376308.906 8 107078235.843 8      -821.707          51.000    20376311.602 8  83437576.120 8      -640.291          51.000
R09  20188474.312 8 107805333.294 8     -2769.246          51.000    20188477.844 8  83848591.049 8     -2153.858          50.000
C27  21625392.789 8 112609197.516 8      -593.559          51.000
E11  22734529.836 8 119470784.415 8     -1073.922          50.000    22734528.281 8  91542539.037 8      -822.920          51.000
E25  24071091.523 8 126494440.554 8     -1638.168          49.000    24071095.359 8  96924297.607 8     -1255.262          51.000
E36  24001063.289 8 126126448.036 8      1405.184          48.000    24001066.250 8  96642366.138 8      1076.708          49.000
> 2020 05 17 13 57  0.0000000  0 12        .000000000000
G10  24011765.422 6 126182685.293 6      3456.434          39.000    24011770.141 6  98324177.036 6      2693.325          39.000
G18  20812715.055 8 109371599.762 8     -1695.066          48.000    20812715.516 8  85224585.258 8     -1320.831          48.000
G20  21860170.602 8 114875996.047 8      2289.691          51.000    21860167.320 6  89513770.003 6      1784.178          40.000
G21  21067357.812 8 110709756.442 8     -1381.594          51.000    21067355.781 8  86267345.529 8     -1076.567          48.000
G26  20380990.180 8 107102836.299 8      -829.266          51.000    20380992.594 8  83456745.286 8      -646.181          51.000
G31  24663704.000 4 129608623.115 4     -3365.801          29.000
R03  22927111.016 5 122730558.900 5      -226.785          34.000    22927117.156 4  95457150.288 4      -176.388          27.000
R09  20204033.555 8 107888411.348 8     -2780.379          51.000    20204035.711 8  83913207.273 8     -2162.517          50.000
C27  21628775.609 8 112626814.112 8      -591.645          51.000
E11  22740620.742 8 119502793.254 8     -1070.684          49.000    22740619.586 8  91567065.288 8      -820.493          51.000
E25  24080419.836 8 126543459.335 8     -1640.395          50.000    24080423.773 8  96961857.436 8     -1256.935          50.000
E36  23993005.617 8 126084100.886 8      1407.223          48.000    23993009.336 8  96609918.340 8      1078.273          51.000
> 2020 05 17 13 57 30.0000000  0 12        .000000000000
G10  23992048.094 6 126079071.076 6      3453.113          39.000    23992051.469 6  98243438.807 6      2690.741          37.000
G18  20822439.734 8 109422702.918 8     -1709.586          48.000    20822439.938 8  85264405.895 8     -1332.145          48.000
G20  21847148.109 8 114807558.155 8      2275.148          51.000    21847142.781 6  89460441.858 6      1772.846          41.000
G21  21075284.664 8 110751412.105 8     -1393.145          51.000    21075282.664 8  86299804.491 8     -1085.567          49.000
G26  20385782.836 8 107128021.744 8      -847.508          51.000    20385784.750 8  83476370.287 8      -660.396          51.000
R03  22928461.211 6 122737775.689 6      -252.500          36.000
R09  20219722.438 8 107972182.768 8     -2802.004          51.000    20219723.609 8  83978362.802 8     -2179.336          50.000
C27  21632214.906 8 112644724.837 8      -600.203          51.000
C30  23156460.906 5 120581758.544 5      1924.293          33.000
E11  22746763.086 8 119535072.671 8     -1078.852          49.000    22746762.320 8  91591798.863 8      -826.611          51.000
E25  24089827.961 8 126592897.621 8     -1653.285          51.000    24089831.852 8  96999738.685 8     -1266.842          50.000
E36  23985004.266 8 126042049.443 8      1398.480          49.000    23985008.727 8  96577697.117 8      1071.578          51.000
> 2020 05 17 13 58  0.0000000  0 12        .000000000000
G10  23972340.539 6 125975509.025 6      3450.508          38.000    23972344.211 6  98162741.241 6      2688.710          37.000
G18  20832235.312 8 109474179.098 8     -1722.871          48.000    20832235.383 8  85304517.212 8     -1342.497          48.000
G20  21834197.250 8 114739499.141 8      2261.625          51.000    21834191.203 6  89407408.928 6      1762.305          41.000
G21  21083265.656 8 110793352.748 8     -1403.496          50.000    21083263.766 8  86332485.524 8     -1093.633          48.000
G26  20390668.570 8 107153696.888 8      -864.652          51.000    20390669.898 8  83496376.886 8      -673.755          51.000
R03  22929945.945 5 122745709.092 5      -276.992          30.000
R09  20235521.461 8 108056547.603 8     -2822.629          49.000    20235522.984 8  84043979.907 8     -2195.378          50.000
C27  21635692.672 8 112662834.930 8      -607.719          51.000
C30  23145389.750 5 120524092.662 5      1918.812          34.000
E11  22752938.773 8 119567526.510 8     -1085.422          50.000    22752937.977 8  91616666.085 8      -831.714          51.000
E25  24099297.734 8 126642659.512 8     -1664.824          51.000    24099301.469 8  97037867.885 8     -1275.570          51.000
E36  23977040.594 8 126000198.523 8      1390.988          49.000    23977045.719 8  96545629.524 8      1065.765          51.000
> 2020 05 17 13 58 30.0000000  0 11        .000000000000
G10  23952658.070 6 125872079.262 6      3447.820          39.000    23952663.109 6  98082146.747 6      2686.616          39.000
G18  20842116.227 8 109526103.557 8     -1735.750          48.000    20842116.258 8  85344977.816 8     -1352.532          48.000
G20  21821333.078 8 114671898.508 8      2248.105          50.000    21821327.156 7  89354733.150 7      1751.774          43.000
G21  21091315.242 8 110835654.031 8     -1413.531          51.000    21091313.117 8  86365447.563 8     -1101.453          48.000
G26  20395662.125 8 107179938.736 8      -881.691          51.000    20395663.250 8  83516825.064 8      -687.032          51.000
R03  22931573.047 5 122754468.586 5      -301.488          33.000    22931575.922 4  95475744.511 4      -234.488          29.000
R09  20251442.656 7 108141581.109 7     -2843.039          44.000    20251447.492 8  84110117.154 8     -2211.250          49.000
C27  21639223.648 8 112681220.373 8      -614.977          51.000
E11  22759162.305 8 119600230.952 8     -1091.723          50.000    22759161.141 8  91641725.316 8      -836.476          51.000
E25  24108843.758 8 126692821.530 8     -1676.312          51.000    24108846.992 8  97076303.683 8     -1284.462          51.000
E36  23969129.406 8 125958625.319 8      1383.613          50.000    23969135.070 8  96513774.706 8      1060.198          51.000
> 2020 05 17 13 59  0.0000000  0 12        .000000000000
G10  23932989.227 5 125768723.056 5      3440.070          34.000    23932995.828 5  98001609.571 5      2680.580          34.000
G18  20852070.328 8 109578412.768 8     -1753.805          48.000    20852070.219 8  85385738.234 8     -1366.601          48.000
G20  21808544.289 8 114604697.181 8      2229.473          49.000    21808540.125 7  89302368.512 7      1737.254          44.000
G21  21099421.430 8 110878252.568 8     -1428.734          50.000    21099419.336 8  86398641.222 8     -1113.300          49.000
G26  20400751.828 8 107206685.468 8      -903.953          51.000    20400753.453 8  83537666.655 8      -704.379          51.000
R03  22933341.633 4 122763943.841 4      -331.789          29.000    22933340.820 4  95483085.316 4      -258.058          29.000
R09  20267478.922 8 108227217.442 8     -2868.297          48.000    20267484.094 7  84176723.158 7     -2230.901          47.000
C27  21642795.836 8 112699819.669 8      -627.352          51.000
C30  23123353.031 5 120409429.554 5      1903.469          32.000
E11  22765421.570 8 119633123.489 8     -1103.660          50.000    22765420.164 8  91666928.693 8      -845.599          50.000
E25  24118453.953 8 126743321.338 8     -1692.797          51.000    24118456.508 8  97114998.302 8     -1297.126          51.000
E36  23961259.578 8 125917268.108 8      1371.086          49.000    23961264.906 8  96482085.409 8      1050.572          51.000
> 2020 05 17 13 59 30.0000000  0 14        .000000000000
G10  23913351.945 4 125665512.032 4      3439.188          29.000    23913359.805 4  97921201.196 4      2679.892          28.000
G18  20862114.086 8 109631193.556 8     -1764.469          48.000    20862113.781 7  85426866.113 7     -1374.914          47.000
G20  21795848.805 8 114537986.082 8      2218.129          49.000    21795846.289 7  89250385.861 7      1728.412          46.000
G21  21107600.648 8 110921235.468 8     -1436.477          49.000    21107598.891 8  86432134.397 8     -1119.332          49.000
G26  20405954.500 8 107234025.609 8      -918.652          51.000    20405956.477 8  83558970.647 8      -715.833          51.000
R09  20283646.266 8 108313543.450 8     -2886.406          51.000    20283648.250 7  84243865.485 7     -2244.986          45.000
R21  23645561.914 6 126532175.608 6      3198.062          37.000    23645560.750 5  98413917.770 5      2487.382          30.000
C27  21646425.633 8 112718720.257 8      -632.379          51.000
C28  24840168.273 5 129349235.819 5     -2528.980          32.000
C30  23112386.008 5 120352368.421 5      1901.082          31.000
E11  22771733.242 8 119666291.831 8     -1107.426          50.000    22771731.922 8  91692343.402 8      -848.574          50.000
E24  25876773.984 5 135983363.663 5     -3175.551          31.000
E25  24128144.953 8 126794246.948 8     -1701.969          51.000    24128147.164 8  97154019.178 8     -1304.079          51.000
E36  23953447.531 8 125876215.571 8      1366.008          48.000    23953452.312 8  96450629.594 8      1046.639          50.000
