     3.02           OBSERVATION DATA    M (MIXED)           RINEX VERSION / TYPE
SAVERINEX           SC600               20200507 035930 LCL PGM / RUN BY / DATE
       G = GPS       R = GLONASS       C = COMPASS          COMMENT
       S = SBAS      J = QZSS          E = GALILEO          COMMENT
BEAN                                                        MARKER NAME
1                                                           MARKER NUMBER
GEODETIC                                                    MARKER TYPE
Unige DICCA         GTER                                    OBSERVER / AGENCY
SC60291900056       SC600               2.12(191226)        REC # / TYPE / VERS
                    HEMA45          NONE                    ANT # / TYPE
  4509407.8091   693652.4678  4442337.6214                  APPROX POSITION XYZ
        0.0000        0.0000        0.0000                  ANTENNA: DELTA H/E/N
G    8 C1C L1C D1C S1C C2Y L2Y D2Y S2Y                      SYS / # / OBS TYPES
R    8 C1C L1C D1C S1C C2P L2P D2P S2P                      SYS / # / OBS TYPES
C    8 C1I L1I D1I S1I C7I L7I D7I S7I                      SYS / # / OBS TYPES
E    8 C1C L1C D1C S1C C7Q L7Q D7Q S7Q                      SYS / # / OBS TYPES
DBHZ                                                        COMMENT
     30.000                                                 INTERVAL
  2020    05    07    01    00    0.0000000     GPS         TIME OF FIRST OBS
  2020    05    07    01    59   30.0000000     GPS         TIME OF LAST OBS
     0                                                      RCV CLOCK OFFS APPL
G L1C  0.00000                                              SYS / PHASE SHIFT
G L2Y  0.00000                                              SYS / PHASE SHIFT
R L1C  0.00000                                              SYS / PHASE SHIFT
R L2P  0.25000                                              SYS / PHASE SHIFT
C L1I  0.00000                                              SYS / PHASE SHIFT
C L7I  0.00000                                              SYS / PHASE SHIFT
E L1C  0.50000                                              SYS / PHASE SHIFT
E L7Q -0.25000                                              SYS / PHASE SHIFT
 13 R04  6 R05  1 R06 -4 R07  5 R09 -2 R10 -7 R14 -7 R15  0 GLONASS SLOT / FRQ #
    R16 -1 R19  3 R20  2 R21  4 R22 -3                      GLONASS SLOT / FRQ #
 C1C   71.950 C2C   71.950 C2P   71.950                     GLONASS COD/PHS/BIS
    18                                                      LEAP SECONDS
*** Above antenna height is from mark to ANTENNA BOTTOM.    COMMENT
    17     4        0.0000        ANT MEASURE TYPE/HEIGT    COMMENT
    0.0000    0.0000    0.0458    0.0405    0.0000          COMMENT
                    BASE STATION                            COMMENT
                                                            END OF HEADER
> 2020 05 07 01 00  0.0000000  0 16        .000000000000
G04  22716199.703 5 119374441.053 5     -2722.879          33.000
G06  21489371.141 8 112927410.141 8     -1686.422          51.000    21489371.875 8  87995368.946 8     -1314.095          51.000
G07  21316229.836 8 112017528.759 8      1728.176          51.000    21316229.523 8  87286384.508 8      1346.630          51.000
G09  20615987.617 8 108337855.824 8     -1181.203          51.000    20615988.664 8  84419063.365 8      -920.418          51.000
G30  22972529.281 7 120721466.601 7      3361.680          44.000    22972536.117 7  94068693.568 7      2619.491          44.000
R06  20203610.891 4 107810354.298 4     -1523.824          28.000
R09  21965654.750 8 117295355.858 8      4061.559          48.000    21965656.516 8  91229723.247 8      3158.990          51.000
R16  20363515.094 5 108778221.758 5       -83.320          32.000    20363518.578 5  84605306.114 5       -64.802          33.000
R22  21662417.883 5 115635476.762 5     -2521.660          32.000
C05  39774838.453 6 207118020.051 6       -17.871          36.000    39774835.430 6 160156776.762 6       -13.759          38.000
C23  22966022.422 8 119590075.099 8      1598.703          49.000
C25  23937215.922 6 124647349.497 6     -1461.352          36.000
C30  25595292.180 6 133281441.320 6     -2637.219          40.000
E21  27226765.891 6 143077622.030 6      3059.742          40.000    27226767.273 6 109630910.503 6      2344.436          41.000
E30  25932800.391 6 136277793.070 6     -1163.391          37.000    25932797.352 6 104420626.625 6      -891.411          40.000
E33  26307143.633 6 138245048.757 6     -2898.770          39.000    26307147.781 6 105927973.018 6     -2220.848          38.000
> 2020 05 07 01 00 30.0000000  0 16        .000000000000
G06  21499066.594 8 112978357.260 8     -1707.422          51.000    21499067.336 8  88035067.974 8     -1330.459          51.000
G07  21306423.828 8 111965997.486 8      1709.875          51.000    21306423.469 8  87246230.276 8      1332.370          51.000
G09  20622776.922 8 108373533.612 8     -1194.586          51.000    20622777.977 8  84446864.247 8      -930.846          51.000
G30  22953376.102 7 120620814.882 7      3351.000          47.000    22953382.445 7  93990263.640 7      2611.169          46.000
R06  20212220.867 4 107856271.657 4     -1537.176          29.000
R07  20080950.719 5 107494878.491 5      1449.652          32.000
R09  21942881.094 7 117173746.500 7      4048.445          47.000    21942883.508 8  91135138.169 8      3148.791          51.000
R16  20364076.172 5 108781230.659 5      -114.941          35.000    20364078.250 5  84607646.342 5       -89.399          33.000
R22  21676678.438 6 115711533.880 6     -2545.711          40.000
C05  39774957.602 6 207118640.461 6       -20.770          36.000    39774954.531 6 160157256.498 6       -15.982          38.000
C23  22956871.203 8 119542423.123 8      1580.645          50.000
C25  23945705.062 5 124691510.029 5     -1480.078          31.000
C30  25610515.445 6 133360714.609 6     -2645.574          39.000
E21  27209319.797 6 142985942.556 6      3054.895          41.000    27209321.461 7 109560662.560 7      2340.802          42.000
E30  25939496.516 6 136312987.084 6     -1180.047          37.000    25939495.469 6 104447593.505 6      -904.425          40.000
E33  26323725.523 6 138332179.503 6     -2907.172          39.000    26323726.844 6 105994735.536 6     -2227.349          37.000
> 2020 05 07 01 01  0.0000000  0 15        .000000000000
G04  22747360.711 5 119538155.835 5     -2729.727          32.000
G06  21508852.648 8 113029782.147 8     -1719.734          51.000    21508853.664 8  88075139.320 8     -1340.053          51.000
G07  21296692.641 8 111914858.970 8      1700.383          51.000    21296691.875 8  87206382.074 8      1324.974          51.000
G09  20629613.172 8 108409457.902 8     -1199.305          51.000    20629614.203 8  84474857.198 8      -934.523          51.000
G30  22934255.016 8 120520329.569 8      3348.941          48.000    22934260.180 8  93911963.428 8      2609.565          48.000
R06  20220880.930 5 107902471.630 5     -1541.125          31.000
R09  21920151.625 7 117052375.824 7      4044.129          46.000    21920154.805 8  91040738.688 8      3145.431          51.000
R16  20364787.602 5 108785026.820 5      -137.387          33.000    20364789.508 6  84610598.811 6      -106.856          36.000
R22  21691030.336 6 115788145.353 6     -2560.551          41.000    21691034.242 5  90057483.673 5     -1991.543          31.000
C05  39775065.164 6 207119201.172 6       -14.973          36.000    39775062.242 6 160157690.089 6       -12.055          38.000
C23  22947795.266 8 119495160.537 8      1571.145          50.000
C30  25625756.266 6 133440079.284 6     -2644.809          39.000
E21  27191873.398 7 142894259.135 7      3058.414          42.000    27191874.969 7 109490411.635 7      2343.472          43.000
E30  25946258.641 6 136348531.010 6     -1188.395          38.000    25946259.344 6 104474828.423 6      -910.393          39.000
E33  26340327.102 6 138419409.179 6     -2906.953          40.000    26340322.594 6 106061573.837 6     -2227.463          36.000
> 2020 05 07 01 01 30.0000000  0 15        .000000000000
G06  21518749.594 8 113081792.144 8     -1747.523          50.000    21518750.812 8  88115666.611 8     -1361.704          50.000
G07  21287056.930 8 111864223.024 8      1675.441          51.000    21287055.883 8  87166925.510 8      1305.539          51.000
G09  20636516.938 8 108445736.914 8     -1219.180          51.000    20636517.891 8  84503126.540 8      -950.010          51.000
G30  22915186.945 8 120420122.086 8      3331.574          48.000    22915188.406 7  93833879.760 7      2596.035          43.000
R06  20229606.273 4 107949030.331 4     -1561.926          29.000
R09  21897488.117 7 116931358.916 7      4024.105          46.000    21897492.164 8  90946614.384 8      3129.860          49.000
R16  20365666.297 5 108789720.710 5      -175.637          34.000    20365668.648 5  84614249.695 5      -136.609          35.000
R22  21705504.711 7 115865417.439 7     -2590.867          42.000    21705504.398 5  90117584.016 5     -2015.128          32.000
C05  39775182.055 6 207119810.340 6       -25.078          36.000    39775179.188 6 160158161.129 6       -19.416          38.000
C23  22938814.852 8 119448396.819 8      1546.422          50.000
C25  23962873.422 4 124780968.382 4     -1513.934          28.000
C30  25641034.922 6 133519641.016 6     -2659.199          39.000
E21  27174447.445 7 142802682.993 7      3046.684          42.000    27174449.211 7 109420242.913 7      2334.400          44.000
E30  25953108.188 6 136384532.955 6     -1211.703          39.000    25953109.562 6 104502414.290 6      -928.457          38.000
E33  26356968.391 6 138506844.982 6     -2922.320          40.000    26356956.172 5 106128570.040 5     -2239.348          34.000
> 2020 05 07 01 02  0.0000000  0 14        .000000000000
G06  21528745.352 8 113134320.711 8     -1754.211          50.000    21528746.789 8  88156597.976 8     -1366.918          50.000
G07  21277504.703 8 111814025.740 8      1671.258          51.000    21277503.539 8  87127810.757 8      1302.279          51.000
G09  20643475.695 8 108482304.989 8     -1218.387          51.000    20643476.500 8  84531621.136 8      -949.392          51.000
G30  22896159.695 7 120320130.056 7      3334.750          45.000    22896155.164 7  93755964.021 7      2598.510          44.000
R06  20238381.539 5 107995907.146 5     -1559.887          31.000
R09  21874880.016 7 116810634.127 7      4024.672          47.000    21874883.516 7  90852717.363 7      3130.300          44.000
R16  20366700.789 5 108795246.498 5      -193.586          31.000    20366701.945 5  84618547.580 5      -150.564          35.000
R22  21720089.828 7 115943280.382 7     -2599.852          43.000    21720087.914 5  90178143.990 5     -2022.107          32.000
C05  39775296.047 6 207120402.923 6       -14.102          36.000    39775293.203 6 160158620.120 6       -10.768          38.000
C23  22929918.258 8 119402069.315 8      1542.242          51.000
C30  25656338.930 6 133599333.094 6     -2653.238          39.000
E21  27157030.008 7 142711151.509 7      3055.785          42.000    27157032.250 7 109350108.407 7      2341.341          44.000
E30  25960033.008 6 136420927.335 6     -1214.469          39.000    25960034.703 6 104530300.833 6      -930.492          37.000
E33  26373636.219 6 138594420.135 6     -2916.070          40.000    26373617.234 5 106195629.049 5     -2234.802          32.000
> 2020 05 07 01 02 30.0000000  0 15        .000000000000
G06  21538832.359 8 113187327.705 8     -1777.031          50.000    21538834.156 8  88197902.125 8     -1384.700          51.000
G07  21268028.930 8 111764229.976 8      1651.043          51.000    21268027.859 8  87089008.873 8      1286.527          51.000
G09  20650481.898 8 108519122.904 8     -1233.539          51.000    20650482.641 8  84560310.409 8      -961.199          51.000
G30  22877165.742 6 120220317.452 6      3321.902          40.000    22877160.391 6  93678188.002 6      2588.495          40.000
R06  20247211.812 5 108042987.328 5     -1576.762          32.000
R09  21852320.734 7 116690167.194 7      4009.047          46.000    21852320.766 6  90759021.034 6      3118.154          41.000
R16  20367883.930 5 108801564.719 5      -226.016          34.000    20367884.688 6  84623461.744 6      -175.793          36.000
R22  21734777.477 7 116021691.707 7     -2625.145          42.000    21734777.234 5  90239130.473 5     -2041.785          30.000
C05  39775399.750 6 207120943.022 6       -19.066          36.000    39775396.922 6 160159037.774 6       -14.879          38.000
C23  22921098.828 8 119356141.543 8      1522.129          51.000
C25  23980424.359 5 124872349.084 5     -1537.398          31.000
C30  25671660.781 6 133679115.070 6     -2662.812          41.000
E21  27139613.922 6 142619628.469 6      3048.496          41.000    27139616.938 7 109279980.358 7      2335.789          44.000
E30  25967025.500 6 136457674.866 6     -1232.699          38.000    25967027.938 6 104558458.019 6      -944.886          37.000
E33  26390322.188 6 138682094.415 6     -2926.031          40.000    26390299.117 5 106262802.943 5     -2241.952          32.000
> 2020 05 07 01 03  0.0000000  0 16        .000000000000
G04  22809941.008 5 119867048.709 5     -2749.203          34.000
G06  21549030.289 8 113240918.593 8     -1794.832          50.000    21549032.570 8  88239661.224 8     -1398.573          49.000
G07  21258650.273 8 111714944.633 8      1635.504          51.000    21258649.227 8  87050604.716 8      1274.419          51.000
G09  20657555.891 8 108556297.082 8     -1243.867          51.000    20657556.766 8  84589277.304 8      -969.247          51.000
G30  22858224.891 6 120120793.924 6      3313.805          40.000    22858223.180 6  93600637.146 6      2582.182          40.000
R06  20256110.547 5 108090458.391 5     -1587.672          31.000
R07  20040901.594 4 107280514.254 4      1406.105          28.000
R09  21829830.906 7 116570071.455 7      3998.301          45.000    21829831.531 7  90665613.316 7      3109.793          46.000
R16  20369235.219 5 108808784.335 5      -254.266          31.000    20369237.078 6  84629077.105 6      -197.759          36.000
R22  21749586.555 6 116100756.203 6     -2644.715          38.000    21749596.578 4  90300605.238 4     -2056.997          28.000
C05  39775513.711 5 207121536.171 5       -19.832          35.000    39775510.805 6 160159496.414 6       -15.175          38.000
C23  22912376.781 8 119310721.161 8      1506.777          51.000
C30  25687020.258 7 133759090.868 7     -2667.887          42.000
E21  27122219.758 6 142528223.291 6      3045.977          41.000    27122223.977 7 109209942.613 7      2333.852          44.000
E30  25974105.414 6 136494881.977 6     -1246.980          36.000    25974108.586 6 104586967.341 6      -955.338          37.000
E33  26407046.016 6 138769973.155 6     -2931.660          39.000    26407021.656 5 106330132.562 5     -2246.220          31.000
> 2020 05 07 01 03 30.0000000  0 15        .000000000000
G06  21559319.305 8 113294989.167 8     -1815.383          49.000    21559321.609 8  88281794.125 8     -1414.584          49.000
G07  21249349.430 8 111666068.641 8      1617.402          51.000    21249348.508 8  87012519.509 8      1260.310          51.000
G09  20664678.062 8 108593724.278 8     -1256.707          51.000    20664679.062 8  84618441.349 8      -979.252          51.000
G30  22839321.406 7 120021459.358 7      3302.863          43.000    22839322.109 7  93523233.549 7      2573.660          43.000
R06  20265055.500 5 108138189.520 5     -1601.352          31.000
R09  21807391.812 7 116450247.008 7      3984.414          45.000    21807394.141 8  90572416.469 8      3098.986          49.000
R16  20370735.766 5 108816801.536 5      -285.980          35.000    20370737.672 6  84635312.720 6      -222.429          36.000
R22  21764496.984 6 116180366.097 6     -2667.645          38.000    21764515.023 4  90362523.687 4     -2074.826          29.000
C05  39775618.336 6 207122081.907 6       -22.387          36.000    39775615.398 6 160159917.630 6       -17.169          38.000
C23  22903733.023 8 119265708.280 8      1488.730          51.000
C25  23998329.672 5 124965573.844 5     -1570.195          32.000
C30  25702396.992 7 133839156.563 7     -2675.352          42.000
E21  27104828.664 7 142436835.779 7      3040.996          43.000    27104833.984 7 109139918.390 7      2330.039          43.000
E30  25981253.102 6 136532445.448 6     -1263.180          36.000    25981256.844 6 104615749.742 6      -967.663          37.000
E33  26423787.641 6 138857952.109 6     -2939.449          36.000    26423799.672 5 106397678.278 5     -2252.135          33.000
> 2020 05 07 01 04  0.0000000  0 15        .000000000000
G06  21569723.539 8 113349665.866 8     -1831.215          48.000    21569725.797 8  88324399.335 8     -1426.921          48.000
G07  21240150.719 8 111617731.067 8      1603.695          49.000    21240150.492 8  86974853.869 8      1249.633          49.000
G09  20671872.594 8 108631531.939 8     -1265.078          51.000    20671873.617 8  84647901.868 8      -985.775          51.000
G30  22820479.836 7 119922444.344 7      3296.531          44.000    22820481.172 7  93446078.981 7      2568.726          45.000
R06  20274072.117 6 108186310.884 6     -1608.867          36.000
R09  21785028.859 7 116330828.905 7      3975.387          47.000    21785032.086 8  90479535.667 8      3091.964          50.000
R16  20372409.344 5 108825745.870 5      -312.223          35.000    20372412.383 6  84642269.448 6      -242.840          36.000
R22  21779535.273 6 116260648.013 6     -2685.465          40.000    21779554.836 5  90424965.356 5     -2088.692          32.000
C05  39775738.117 5 207122706.021 5       -20.480          35.000    39775735.250 6 160160399.873 6       -16.024          38.000
C23  22895192.391 8 119221231.447 8      1475.012          51.000
C25  24007404.242 5 125012864.833 5     -1583.703          30.000
C30  25717814.805 6 133919436.755 6     -2678.121          41.000
E21  27087464.891 7 142345588.415 7      3040.211          43.000    27087471.805 7 109070022.658 7      2329.408          42.000
E30  25988492.734 5 136570492.629 5     -1274.820          35.000    25988497.070 6 104644902.826 6      -976.813          37.000
E33  26440571.281 5 138946140.503 5     -2942.031          31.000    26440584.672 5 106465264.233 5     -2254.769          34.000
> 2020 05 07 01 04 30.0000000  0 15        .000000000000
G06  21580215.906 8 113404805.634 8     -1847.715          48.000    21580218.523 8  88367365.342 8     -1439.781          48.000
G07  21231027.805 8 111569791.790 8      1589.293          50.000    21231028.258 8  86937498.587 8      1238.410          50.000
G09  20679112.500 8 108669577.964 8     -1274.211          51.000    20679113.266 8  84677548.126 8      -992.892          51.000
G30  22801672.727 7 119823609.962 7      3289.254          46.000    22801674.141 7  93369065.194 7      2563.055          46.000
R06  20283137.109 6 108234679.303 6     -1618.402          36.000
R09  21762716.562 8 116211677.830 8      3965.070          50.000    21762719.352 8  90386862.591 8      3083.944          50.000
R16  20374229.422 5 108835473.463 5      -339.531          35.000    20374233.078 5  84649835.451 5      -264.080          35.000
R22  21794672.570 6 116341454.442 6     -2704.406          39.000    21794693.234 6  90487814.849 6     -2103.427          36.000
C05  39775846.164 6 207123268.196 6       -19.648          36.000    39775843.328 6 160160834.964 6       -15.206          38.000
C23  22886727.930 8 119177152.075 8      1460.637          51.000
C25  24016537.000 4 125060474.096 4     -1597.730          28.000
C30  25733246.352 6 133999789.159 6     -2681.777          41.000
E21  27070104.398 7 142254357.033 7      3038.891          44.000    27070112.281 7 109000122.840 7      2328.480          42.000
E30                                                                  25995801.797 5 104674317.629 5      -986.358          35.000
E33                                                                  26457384.016 5 106532914.035 5     -2257.352          35.000
> 2020 05 07 01 05  0.0000000  0 14        .000000000000
G06  21590807.414 8 113460465.053 8     -1863.551          49.000    21590810.219 8  88410736.308 8     -1452.117          49.000
G07  21221992.422 8 111522311.010 8      1575.461          51.000    21221992.930 8  86900500.578 8      1227.632          51.000
G09  20686408.734 8 108707920.027 8     -1282.746          51.000    20686409.109 8  84707425.064 8      -999.542          51.000
G30  22782911.500 7 119725017.086 7      3282.730          47.000    22782913.109 7  93292239.586 7      2557.972          47.000
R06  20292259.266 6 108283353.859 6     -1627.238          37.000
R09  21740466.414 8 116092857.780 8      3955.484          51.000    21740468.070 8  90294446.968 8      3076.488          49.000
R16  20376208.383 6 108846043.911 6      -365.988          38.000    20376212.438 5  84658056.901 5      -284.658          35.000
R22  21809918.094 6 116422840.890 6     -2722.199          38.000    21809938.875 5  90551115.451 5     -2117.263          35.000
C05  39775953.688 6 207123827.980 6       -18.180          36.000    39775950.828 6 160161267.822 6       -14.133          38.000
C23  22878351.102 8 119133529.569 8      1446.836          51.000
C30  25748702.531 6 134080269.294 6     -2684.270          41.000
E21  27052757.477 7 142163199.387 7      3037.855          45.000    27052765.961 6 108930272.486 6      2327.612          41.000
E30                                                                  26003181.680 5 104704038.275 5      -995.407          31.000
E33                                                                  26474211.188 6 106600671.129 6     -2259.890          36.000
> 2020 05 07 01 05 30.0000000  0 17        .000000000000
G02  22414105.375 5 117786934.499 5       435.188          32.000
G06  21601494.227 8 113516624.377 8     -1882.180          51.000    21601497.211 8  88454496.800 8     -1466.634          51.000
G07  21213041.062 8 111475271.625 8      1558.723          50.000    21213041.195 8  86863846.524 8      1214.589          50.000
G09  20693757.742 8 108746539.373 8     -1293.801          51.000    20693757.898 8  84737518.058 8     -1008.156          51.000
G30  22764193.062 7 119626650.170 7      3273.328          46.000    22764194.906 7  93215590.054 7      2550.645          46.000
R06  20301434.055 6 108332316.877 6     -1638.879          39.000
R07  20002160.547 5 107073024.637 5      1359.754          31.000    20002145.445 4  83279038.117 4      1057.574          25.000
R09  21718275.375 8 115974354.864 8      3942.801          51.000    21718276.094 8  90202278.035 8      3066.626          48.000
R16  20378341.383 5 108857437.939 5      -395.078          35.000    20378345.812 5  84666919.030 5      -307.277          32.000
R22  21825268.398 6 116504763.184 6     -2742.629          37.000    21825282.914 5  90614849.294 5     -2133.156          33.000
C05  39776057.125 5 207124366.268 5       -19.309          35.000    39776054.531 6 160161684.875 6       -15.115          38.000
C23  22870058.570 8 119090347.608 8      1430.188          51.000
C25  24035109.070 5 125157100.080 5     -1626.676          32.000
C30  25764179.320 6 134160856.938 6     -2689.949          41.000
E21  27035420.656 7 142072092.742 7      3034.227          46.000    27035430.359 6 108860463.494 6      2324.735          38.000
E30  26010633.039 5 136686797.841 5     -1313.723          31.000    26010635.727 5 104734050.405 5     -1006.783          31.000
E33  26491062.266 5 139211475.681 5     -2955.641          34.000    26491060.859 5 106668520.333 5     -2264.640          34.000
> 2020 05 07 01 06  0.0000000  0 17        .000000000000
G02  22411660.328 5 117774066.147 5       419.293          32.000
G04  22904484.656 5 120363870.341 5     -2769.188          31.000
G06  21612281.398 8 113573309.565 8     -1897.238          51.000    21612283.938 8  88498667.066 8     -1478.371          51.000
G07  21204179.336 8 111428702.733 8      1545.531          51.000    21204178.992 8  86827559.065 8      1204.310          51.000
G09  20701164.648 8 108785463.061 8     -1301.500          51.000    20701164.875 8  84767848.225 8     -1014.153          51.000
G30  22745523.266 7 119528539.441 7      3267.090          46.000    22745524.859 7  93139140.149 7      2545.784          46.000
R06  20310669.562 7 108381596.761 7     -1646.895          42.000
R09  21696149.805 8 115856201.608 8      3933.562          51.000    21696149.789 8  90110381.050 8      3059.438          48.000
R16  20380634.312 5 108869683.989 5      -421.453          35.000    20380637.695 4  84676443.693 4      -327.800          29.000
R22  21840730.234 6 116587301.675 6     -2759.488          37.000    21840738.305 5  90679031.008 5     -2146.266          32.000
C05  39776162.078 6 207124912.962 6       -17.414          36.000    39776159.508 6 160162107.578 6       -13.490          38.000
C23  22861856.141 8 119047635.183 8      1416.879          51.000
C25  24044520.922 5 125206069.059 5     -1637.949          31.000
C30  25779681.547 6 134241577.293 6     -2691.809          41.000
E21  27018099.727 7 141981070.152 7      3033.641          46.000    27018111.500 6 108790718.865 6      2324.454          36.000
E30                                                                  26018167.656 5 104764375.720 5     -1015.427          31.000
E33  26507939.391 6 139300163.808 6     -2957.969          36.000    26507938.000 5 106736481.506 5     -2266.549          33.000
> 2020 05 07 01 06 30.0000000  0 15        .000000000000
G02  22409337.148 5 117761814.876 5       398.117          35.000
G06  21623177.234 8 113630565.144 8     -1918.668          51.000    21623179.008 8  88543281.792 8     -1495.066          51.000
G07  21195416.320 8 111382651.982 8      1525.707          51.000    21195415.781 8  86791675.357 8      1188.863          51.000
G09  20708638.148 8 108824736.718 8     -1315.555          51.000    20708638.633 8  84798451.078 8     -1025.108          51.000
G30  22726911.336 7 119430733.657 7      3254.285          46.000    22726912.469 7  93062927.854 7      2535.807          46.000
R06  20319973.664 6 108431240.709 6     -1661.562          39.000
R09  21674099.078 8 115738449.891 8      3917.602          51.000    21674099.086 7  90018796.361 7      3047.020          46.000
R16  20383094.680 5 108882828.037 5      -453.715          34.000    20383098.039 4  84686661.500 4      -352.886          28.000
R22  21856307.750 6 116670442.461 6     -2782.777          38.000    21856310.336 4  90743702.658 4     -2164.385          29.000
C05  39776277.180 6 207125512.076 6       -21.953          36.000    39776274.805 6 160162571.622 6       -16.667          39.000
C23  22853752.859 8 119005439.686 8      1397.184          51.000
C25  24054027.016 4 125255526.394 4     -1657.203          29.000
C30  25795217.094 6 134322474.045 6     -2700.039          40.000
E21  27000803.391 7 141890180.224 7      3026.785          45.000    27000815.773 6 108721075.862 6      2319.339          36.000
E33  26524850.641 6 139389049.603 6     -2966.887          37.000    26524850.602 5 106804588.775 5     -2273.089          35.000
> 2020 05 07 01 07  0.0000000  0 15        .000000000000
G02  22407101.727 5 117750048.238 5       392.668          33.000
G06  21634161.547 8 113688287.049 8     -1923.820          51.000    21634162.867 8  88588259.885 8     -1499.084          51.000
G07  21186732.539 8 111337018.555 8      1522.105          49.000    21186732.258 8  86756116.859 8      1186.056          49.000
G09  20716158.625 8 108864257.345 8     -1313.441          51.000    20716159.258 8  84829246.379 8     -1023.461          51.000
G30  22708338.352 8 119333132.953 8      3257.891          48.000    22708339.586 8  92986875.382 8      2538.616          48.000
R06  20329324.891 6 108481145.268 6     -1659.609          39.000
R09  21652104.102 8 115621000.084 8      3918.051          51.000    21652104.750 7  89927446.491 7      3047.373          43.000
R16  20385704.234 5 108896766.218 5      -469.598          30.000    20385708.266 4  84697501.955 4      -365.227          24.000
R22  21871985.445 7 116754111.986 7     -2789.383          43.000    21871982.742 4  90808783.900 4     -2169.526          28.000
C05  39776383.242 5 207126064.606 5       -10.270          35.000    39776380.969 6 160162998.869 6        -7.585          38.000
C23  22845728.828 8 118963661.296 8      1393.578          50.000
C25  24063601.680 4 125305486.279 4     -1659.234          29.000
C30  25810765.500 6 134403443.464 6     -2692.180          38.000
E21  26983512.961 7 141799323.049 7      3035.809          44.000    26983523.602 6 108651457.982 6      2326.172          38.000
E33  26541768.609 5 139477926.078 5     -2959.500          35.000    26541774.875 5 106872723.509 5     -2267.699          35.000
> 2020 05 07 01 07 30.0000000  0 14        .000000000000
G04  22952019.977 5 120613668.699 5     -2779.184          31.000    22952021.516 5  93984690.896 5     -2165.598          30.000
G06  21645226.258 8 113746432.926 8     -1946.605          50.000    21645227.609 8  88633568.331 8     -1516.835          50.000
G07  21178120.562 8 111291762.803 8      1500.801          48.000    21178120.602 8  86720852.644 8      1169.455          48.000
G09  20723718.234 8 108903983.735 8     -1328.973          51.000    20723718.812 8  84860201.997 8     -1035.563          51.000
G30  22689797.297 8 119235699.272 8      3243.664          48.000    22689799.367 8  92910953.038 8      2527.530          48.000
R06  20338718.805 6 108531269.239 6     -1675.855          38.000
R09  21630158.633 8 115503815.736 8      3900.316          51.000    21630159.781 6  89836303.143 6      3033.579          41.000
R16  20388455.406 5 108911456.929 5      -503.785          32.000
R22  21887750.688 7 116838254.105 7     -2814.059          43.000    21887747.406 5  90874200.646 5     -2188.718          34.000
C05  39776472.531 6 207126530.104 6       -15.562          36.000    39776470.227 6 160163358.460 6       -11.871          38.000
C23  22837777.648 8 118922261.307 8      1372.363          51.000
C30  25826318.805 5 134484443.097 5     -2702.000          35.000
E21  26966221.492 7 141708460.387 7      3027.434          43.000    26966230.562 6 108581835.930 6      2319.770          39.000
E33  26558711.727 5 139566942.856 5     -2969.387          35.000    26558704.492 6 106940931.235 6     -2275.433          36.000
> 2020 05 07 01 08  0.0000000  0 14        .000000000000
G04  22967922.156 5 120697244.090 5     -2789.941          31.000
G06  21656414.945 8 113805230.063 8     -1970.496          51.000    21656416.477 8  88679384.264 8     -1535.452          51.000
G07  21169624.336 8 111247115.067 8      1478.316          49.000    21169624.492 8  86686062.199 8      1151.935          49.000
G09  20731360.422 8 108944144.325 8     -1345.707          51.000    20731361.000 8  84891495.947 8     -1048.606          51.000
G30  22671332.227 8 119138664.200 8      3228.062          49.000    22671335.070 8  92835341.292 8      2515.373          48.000
R06  20348195.664 6 108581845.863 6     -1693.262          36.000
R09  21608307.086 8 115387134.109 8      3881.215          51.000    21608308.102 7  89745550.885 7      3018.726          43.000
R16  20391390.625 5 108927132.131 5      -537.812          30.000    20391397.023 4  84721148.173 4      -418.289          24.000
R22  21903645.719 6 116923097.776 6     -2839.730          40.000    21903642.609 5  90940190.095 5     -2208.679          35.000
C05  39776588.758 5 207127134.952 5       -22.531          35.000    39776586.414 6 160163826.161 6       -17.181          39.000
C23  22829943.336 8 118881468.284 8      1349.816          50.000
C30  25841921.648 5 134565697.680 5     -2712.637          34.000
E21  26948973.352 7 141617823.711 7      3017.660          44.000    26948980.969 6 108512387.001 6      2312.260          39.000
E33                                                                  26575690.398 6 107009347.079 6     -2283.984          36.000
> 2020 05 07 01 08 30.0000000  0 14        .000000000000
G04  22983844.055 5 120780901.614 5     -2787.520          32.000
G06  21667698.438 8 113864524.874 8     -1982.199          51.000    21667700.367 8  88725587.988 8     -1544.571          51.000
G07  21161215.133 8 111202924.791 8      1468.039          49.000    21161215.297 8  86651628.198 8      1143.923          49.000
G09  20739056.234 8 108984586.639 8     -1350.219          51.000    20739056.836 8  84923009.415 8     -1052.119          51.000
G30  22652914.656 8 119041878.432 8      3224.652          49.000    22652917.414 8  92759923.803 8      2512.716          49.000
R06  20357729.117 6 108632720.802 6     -1698.582          36.000
R09  21586521.422 8 115270805.481 8      3874.340          48.000    21586523.367 7  89655073.084 7      3013.375          46.000
R16  20394480.484 5 108943652.462 5      -561.953          32.000
R22  21919638.812 6 117008484.444 6     -2852.496          39.000    21919638.938 6  91006601.950 6     -2218.611          37.000
C05  39776703.047 5 207127729.996 5       -16.582          35.000    39776700.531 6 160164285.939 6       -13.448          38.000
C23  22822196.781 8 118841133.216 8      1339.398          51.000
C30  25857546.047 5 134647054.509 5     -2710.781          34.000
E21  26931740.078 7 141527263.559 7      3019.910          44.000    26931745.664 6 108442996.688 6      2314.026          39.000
E33                                                                  26592702.219 5 107077853.451 5     -2282.691          35.000
> 2020 05 07 01 09  0.0000000  0 13        .000000000000
G06  21679066.430 8 113924263.593 8     -2000.508          51.000    21679068.758 8  88772137.612 8     -1558.837          51.000
G07  21152883.359 8 111159141.662 8      1450.812          48.000    21152883.469 8  86617511.470 8      1130.503          48.000
G09  20746795.656 8 109025258.169 8     -1361.402          51.000    20746796.406 8  84954701.502 8     -1060.833          51.000
G30  22634535.172 8 118945292.535 8      3214.316          50.000    22634537.234 8  92684662.075 8      2504.662          50.000
R06  20367308.953 6 108683841.749 6     -1709.719          37.000
R09  21564792.188 7 115154781.617 7      3860.383          47.000    21564796.273 7  89564832.290 7      3002.520          47.000
R16  20397716.008 6 108960934.490 6      -590.582          36.000    20397727.781 4  84747404.340 4      -459.336          27.000
R22  21935725.516 6 117094358.024 6     -2872.355          39.000    21935725.594 6  91073392.489 6     -2234.057          37.000
C05                                                                  39776802.930 6 160164698.241 6       -14.284          38.000
C23  22814529.086 8 118801206.180 8      1322.277          51.000
C30  25873181.406 6 134728460.014 6     -2716.098          36.000
E21  26914512.141 7 141436730.359 7      3015.555          44.000    26914515.328 6 108373627.033 6      2310.671          40.000
E33                                                                  26609727.414 5 107146409.264 5     -2287.145          34.000
> 2020 05 07 01 09 30.0000000  0 13        .000000000000
G06  21690531.430 8 113984512.241 8     -2015.895          51.000    21690534.211 8  88819084.608 8     -1570.827          51.000
G07  21144642.328 8 111115834.776 8      1436.445          48.000    21144642.125 8  86583765.859 8      1119.308          48.000
G09  20754591.547 8 109066226.097 8     -1369.637          51.000    20754592.438 8  84986624.549 8     -1067.252          51.000
G30  22616207.156 8 118848976.844 8      3206.828          51.000    22616208.414 8  92609610.915 8      2498.830          51.000
R06  20376947.766 6 108735278.139 6     -1718.789          36.000
R09  21543134.523 7 115039136.325 7      3849.332          46.000    21543139.820 8  89474885.917 8      2993.925          48.000
R16  20401109.469 5 108979061.750 5      -617.219          34.000    20401117.711 4  84761503.407 4      -480.056          26.000
R22  21951916.273 6 117180783.918 6     -2888.902          37.000    21951917.406 6  91140612.496 6     -2246.927          38.000
C05  39776909.016 5 207128802.616 5       -17.328          35.000    39776906.617 6 160165115.347 6       -13.254          39.000
C23  22806953.195 8 118761755.889 8      1307.906          51.000
C30  25888839.766 6 134809979.321 6     -2718.301          38.000
E21  26897302.773 7 141346294.429 7      3013.793          43.000    26897304.180 7 108304331.907 7      2309.258          42.000
E33                                                                  26626778.594 5 107215065.189 5     -2289.447          35.000
> 2020 05 07 01 10  0.0000000  0 14        .000000000000
G06  21702090.969 8 114045258.191 8     -2033.012          51.000    21702093.812 8  88866419.156 8     -1584.165          51.000
G07  21136489.953 8 111072994.224 8      1420.414          49.000    21136489.438 8  86550383.618 8      1106.819          49.000
G09  20762441.773 8 109107479.051 8     -1379.664          51.000    20762442.648 8  85018769.694 8     -1075.063          51.000
G30  22597929.047 8 118752923.122 8      3197.504          51.000    22597929.570 8  92534763.885 8      2491.561          51.000
R06  20386643.930 6 108787019.096 6     -1729.699          36.000
R09  21521546.531 7 114923862.926 7      3836.254          45.000    21521552.789 8  89385228.853 8      2983.756          48.000
R16  20404658.711 5 108998022.411 5      -646.137          34.000    20404658.797 4  84776241.599 4      -502.551          26.000
R22  21968208.141 6 117267746.544 6     -2907.684          38.000    21968208.430 6  91208250.077 6     -2261.535          37.000
C05  39777011.773 5 207129337.922 5       -17.469          35.000    39777009.438 6 160165529.291 6       -13.586          38.000
C23  22799467.180 8 118722773.122 8      1291.664          51.000
C25  24122756.672 5 125613458.716 5     -1753.102          30.000
C30  25904517.250 6 134891599.396 6     -2722.402          38.000
E21  26880109.703 7 141255947.384 7      3010.242          42.000    26880110.773 7 108235104.904 7      2306.462          43.000
E33                                                                  26643853.148 5 107283811.685 5     -2292.907          35.000
> 2020 05 07 01 10 30.0000000  0 14        .000000000000
G06  21713746.617 8 114106509.583 8     -2049.629          51.000    21713749.375 8  88914147.540 8     -1597.110          51.000
G07  21128428.523 8 111030631.399 8      1404.574          49.000    21128427.711 8  86517373.643 8      1094.473          49.000
G09  20770348.086 8 109149026.406 8     -1389.410          51.000    20770348.875 8  85051144.234 8     -1082.657          51.000
G30  22579703.008 8 118657143.735 8      3188.461          50.000    22579702.961 8  92460130.636 8      2484.515          50.000
R06  20396399.828 5 108839075.604 5     -1739.922          34.000
R09  21500030.984 7 114808976.206 7      3823.711          45.000    21500037.781 8  89295872.538 8      2973.997          48.000
R16  20408365.867 6 109017825.966 6      -673.625          37.000    20408366.109 4  84791644.411 4      -523.934          29.000
R22  21984601.336 6 117355252.353 6     -2925.430          40.000    21984600.664 5  91276310.191 5     -2275.337          35.000
C05                                                                  39777113.414 6 160165947.896 6       -13.502          38.000
C23  22792073.320 8 118684269.193 8      1275.891          51.000
C25  24132901.945 4 125666277.771 4     -1766.352          29.000
C30  25920213.922 6 134973327.868 6     -2725.496          39.000
E21  26862935.242 7 141165701.523 7      3006.875          42.000    26862937.391 7 108165955.411 7      2304.080          44.000
E33  26660966.352 6 140104322.472 6     -2996.730          36.000    26660952.008 6 107352655.063 6     -2295.951          36.000
> 2020 05 07 01 11  0.0000000  0 14        .000000000000
G06  21725497.062 8 114168259.501 8     -2066.875          49.000    21725499.641 8  88962264.367 8     -1610.552          49.000
G07  21120457.461 8 110988742.375 8      1388.074          51.000    21120456.203 8  86484732.864 8      1081.616          51.000
G09  20778309.258 8 109190862.452 8     -1399.688          51.000    20778310.016 8  85083743.742 8     -1090.666          51.000
G30  22561528.344 8 118561636.190 8      3178.641          48.000    22561527.969 7  92385709.196 7      2476.863          47.000
R06  20406212.773 4 108891442.094 4     -1750.234          29.000
R09  21478588.594 7 114694475.581 7      3809.938          46.000    21478595.688 8  89206816.517 8      2963.285          50.000
R16  20412229.516 5 109038466.615 5      -702.605          35.000    20412230.203 4  84807698.270 4      -546.471          27.000
R22  22001092.469 5 117443292.223 5     -2943.473          35.000    22001093.312 4  91344785.660 4     -2289.368          29.000
C05  39777219.898 5 207130421.040 5       -18.090          35.000    39777217.633 6 160166367.591 6       -14.154          38.000
C23  22784770.828 8 118646240.540 8      1259.375          51.000
C25  24143125.688 5 125719593.497 5     -1782.094          31.000
C30  25935929.133 6 135055157.553 6     -2729.832          38.000
E21  26845780.039 7 141075554.212 7      3003.168          44.000    26845783.414 7 108096881.435 7      2300.985          45.000
E33  26678085.906 6 140194288.523 6     -3001.020          36.000    26678073.305 6 107421590.094 6     -2299.300          36.000
> 2020 05 07 01 11 30.0000000  0 14        .000000000000
G06  21737341.578 8 114230504.070 8     -2083.270          48.000    21737344.008 8  89010766.642 8     -1623.327          48.000
G07  21112576.398 8 110947325.860 8      1372.465          51.000    21112574.539 8  86452460.285 8      1069.456          51.000
G09  20786324.844 8 109232984.614 8     -1409.125          51.000    20786325.742 8  85116566.203 8     -1098.019          51.000
G30  22543404.477 7 118466401.040 7      3169.805          45.000    22543404.992 7  92311499.943 7      2469.975          45.000
R06  20416088.039 5 108944156.981 5     -1761.223          33.000
R09  21457219.797 8 114580363.662 8      3797.008          48.000    21457226.281 8  89118062.806 8      2953.228          49.000
R16  20416248.922 5 109059941.445 5      -730.078          34.000    20416249.492 4  84824397.975 4      -567.839          26.000
R22  22017679.648 6 117531860.270 6     -2961.453          38.000    22017678.461 4  91413667.992 4     -2303.362          26.000
C05  39777324.070 6 207130963.587 6       -18.410          36.000    39777321.852 6 160166787.121 6       -14.052          38.000
C23  22777559.188 8 118608686.605 8      1243.664          51.000
C25  24153430.297 5 125773252.561 5     -1795.523          33.000
C30  25951662.305 6 135137084.267 6     -2732.617          37.000
E21  26828644.539 7 140985505.872 7      2999.809          45.000    26828648.789 7 108027883.299 7      2298.522          46.000
E33  26695227.930 6 140284370.623 6     -3004.949          37.000    26695216.391 6 107490614.037 6     -2302.425          37.000
> 2020 05 07 01 12  0.0000000  0 14        .000000000000
G04  23095755.000 5 121368989.932 5     -2798.871          34.000
G06  21749272.922 8 114293204.271 8     -2085.258          48.000    21749275.234 8  89059623.942 8     -1624.876          48.000
G07  21104778.625 8 110906346.811 8      1370.984          51.000    21104776.375 8  86420528.605 8      1068.300          51.000
G09  20794387.672 8 109275355.157 8     -1404.172          51.000    20794388.844 8  85149582.218 8     -1094.160          51.000
G30  22525325.898 7 118371403.588 7      3174.992          45.000    22525327.492 7  92237475.926 7      2474.020          44.000
R09  21435918.266 8 114466607.195 8      3798.539          50.000    21435923.055 8  89029585.544 8      2954.419          49.000
R16  20420418.164 5 109082212.353 5      -743.031          32.000    20420419.867 5  84841717.818 5      -577.907          31.000
R22  22034362.969 7 117620914.898 7     -2964.090          43.000    22034365.711 4  91482941.531 4     -2305.409          27.000
C05  39777421.203 5 207131470.062 5        -4.035          35.000    39777419.047 6 160167178.374 6        -3.229          39.000
C23  22770431.977 8 118571572.053 8      1242.000          51.000
C25  24163806.828 5 125827292.018 5     -1795.344          31.000
C30  25967406.594 6 135219069.052 6     -2721.480          37.000
E21  26811521.719 7 140895521.744 7      3010.605          46.000    26811526.445 7 107958934.412 7      2306.875          47.000
E33  26712385.070 6 140374529.896 6     -2994.129          38.000    26712374.062 6 107559697.105 6     -2294.382          37.000
> 2020 05 07 01 12 30.0000000  0 13        .000000000000
G06  21761299.914 8 114356405.531 8     -2131.840          49.000    21761301.922 8  89108871.651 8     -1661.174          49.000
G07  21097073.258 8 110865853.440 8      1324.992          51.000    21097071.008 8  86388975.353 8      1032.464          51.000
G09  20802506.711 8 109318020.834 8     -1443.828          51.000    20802508.094 8  85182828.202 8     -1125.061          51.000
G30  22507303.055 7 118276693.564 7      3135.535          46.000    22507304.633 7  92163675.920 7      2443.274          46.000
R09  21414693.250 8 114353258.778 8      3754.457          51.000    21414696.477 8  88941425.686 8      2920.136          48.000
R16  20424744.781 5 109105326.421 5      -801.758          35.000    20424747.445 4  84859705.426 4      -623.599          26.000
R22  22051146.328 7 117710500.201 7     -3011.867          44.000    22051150.602 5  91552618.955 5     -2342.566          33.000
C05  39777520.445 5 207131986.077 5       -34.227          35.000    39777518.180 6 160167577.779 6       -26.209          39.000
C23  22763398.211 8 118534945.143 8      1196.180          51.000
C25  24174265.867 5 125881757.346 5     -1839.125          31.000
C30  25983169.758 6 135301156.604 6     -2754.555          36.000
E21  26794420.914 8 140805651.598 8      2976.980          48.000    26794424.859 7 107890072.875 7      2281.183          45.000
E33  26729565.891 6 140464811.988 6     -3028.266          39.000    26729554.812 6 107628874.287 6     -2320.323          37.000
> 2020 05 07 01 13  0.0000000  0 11        .000000000000
G06  21773439.117 8 114420195.008 8     -2129.562          51.000    21773440.266 8  89158577.707 8     -1659.402          51.000
G07  21089477.219 8 110825935.767 8      1327.504          51.000    21089475.133 8  86357870.695 8      1034.419          51.000
G09  20810698.820 8 109361070.123 8     -1434.707          51.000    20810700.234 8  85216373.104 8     -1117.954          51.000
G30  22489352.820 7 118182362.552 7      3144.719          47.000    22489354.086 7  92090171.273 7      2450.433          47.000
R09  21393562.289 8 114240413.794 8      3759.723          51.000    21393563.758 8  88853657.380 8      2924.232          48.000
R22  22068045.664 6 117800702.753 6     -3010.227          41.000    22068052.078 5  91622776.449 5     -2341.287          32.000
C05  39777638.625 5 207132601.858 5       -15.762          35.000    39777636.453 6 160168053.934 6       -12.194          39.000
C23  22756475.141 8 118498895.525 8      1198.520          51.000
C30  25998968.352 6 135383433.010 6     -2738.969          36.000
E21  26777359.305 8 140715986.921 8      2992.074          49.000    26777360.445 7 107821368.788 7      2292.673          43.000
E33  26746786.719 6 140555304.271 6     -3013.246          40.000    26746775.750 6 107698212.547 6     -2308.962          37.000
> 2020 05 07 01 13 30.0000000  0 11        .000000000000
G06  21785652.781 8 114484376.165 8     -2148.969          51.000    21785653.461 8  89208588.970 8     -1674.521          51.000
G07  21081953.859 8 110786400.519 8      1308.270          51.000    21081951.891 8  86327064.007 8      1019.431          51.000
G09  20818926.805 8 109404307.875 8     -1447.605          51.000    20818928.070 8  85250064.867 8     -1128.004          51.000
G30  22471438.109 7 118088218.512 7      3131.859          46.000    22471439.125 7  92016812.317 7      2440.413          46.000
R09  21372489.070 8 114127878.866 8      3742.754          50.000    21372489.586 8  88766130.232 8      2911.034          49.000
R16  20433882.406 5 109154156.182 5      -841.258          30.000    20433883.453 4  84897661.669 4      -654.312          25.000
R22  22085022.766 6 117891320.746 6     -3030.633          41.000    22085025.180 5  91693257.128 5     -2357.162          33.000
C05  39777738.938 5 207133124.359 5       -18.652          35.000    39777736.781 6 160168458.009 6       -14.541          38.000
C23  22749626.297 8 118463231.818 8      1179.246          51.000
E21  26760299.953 8 140626335.575 8      2985.051          49.000    26760297.492 7 107752674.951 7      2287.256          42.000
E33  26764010.219 6 140645810.492 6     -3020.234          39.000    26763999.711 6 107767561.440 6     -2313.873          36.000
> 2020 05 07 01 14  0.0000000  0 11        .000000000000
G06  21797960.039 8 114549050.310 8     -2162.422          51.000    21797960.555 8  89258984.400 8     -1685.004          51.000
G07  21074523.180 8 110747351.943 8      1295.109          51.000    21074521.289 8  86296636.524 8      1009.173          51.000
G09  20827210.203 8 109447836.770 8     -1454.262          51.000    20827211.164 8  85283983.489 8     -1133.191          51.000
G30  22453578.711 7 117994367.207 7      3124.984          45.000    22453579.891 7  91943681.450 7      2435.053          45.000
R07  19880229.414 4 106420420.556 4      1199.176          29.000
R09  21351493.359 7 114015763.491 7      3731.723          47.000    21351494.156 8  88678929.362 8      2902.451          50.000
R22  22102097.047 6 117982455.353 6     -3044.781          39.000    22102095.766 5  91764139.603 5     -2368.163          34.000
C05  39777841.125 5 207133656.520 5       -16.262          35.000    39777838.977 6 160168869.491 6       -12.801          38.000
C23  22742871.195 8 118428057.674 8      1165.910          51.000
E21  26743263.156 8 140536803.180 8      2984.027          51.000    26743257.922 7 107684072.252 7      2286.400          42.000
E33  26781255.773 6 140736432.237 6     -3020.930          37.000    26781244.953 5 107836998.897 5     -2314.969          35.000
> 2020 05 07 01 14 30.0000000  0 10        .000000000000
G06  21810346.477 8 114614142.433 8     -2186.785          51.000    21810347.148 8  89309705.533 8     -1703.988          50.000
G07  21067171.398 8 110708718.167 8      1270.711          50.000    21067169.875 8  86266532.275 8       990.164          50.000
G09  20835534.930 8 109491583.170 8     -1471.840          51.000    20835535.625 8  85318071.579 8     -1146.891          51.000
G30  22435761.164 7 117900738.061 7      3107.141          44.000    22435763.172 7  91870723.653 7      2421.149          43.000
R09  21330561.258 7 113903998.193 7      3709.535          45.000    21330564.469 8  88592000.716 8      2885.191          50.000
R22  22119250.680 5 118074028.285 5     -3070.332          34.000    22119250.508 6  91835362.979 6     -2388.036          36.000
C05  39777931.312 5 207134126.142 5       -24.148          35.000    39777929.188 6 160169232.645 6       -19.120          39.000
C23  22736195.922 8 118393302.070 8      1141.562          50.000
E21  26726235.461 8 140447319.202 8      2971.836          51.000    26726229.625 7 107615506.630 7      2277.139          44.000
E33  26798509.508 5 140827116.855 5     -3032.617          32.000    26798497.727 5 107906467.606 5     -2323.700          35.000
> 2020 05 07 01 15  0.0000000  0 11        .000000000000
G06  21822845.078 8 114679824.805 8     -2195.070          50.000    21822846.477 8  89360886.592 8     -1710.444          50.000
G07  21059931.891 8 110670674.723 8      1262.484          51.000    21059930.633 8  86236888.051 8       983.757          51.000
G09  20843933.961 8 109535720.731 8     -1473.449          51.000    20843934.594 8  85352464.474 8     -1148.142          51.000
G30  22418019.898 7 117807507.653 7      3105.199          46.000    22418022.406 7  91798076.578 7      2419.636          46.000
R07  19866911.797 5 106349114.205 5      1179.551          30.000    19866890.359 4  82715923.955 4       917.413          27.000
R09  21309729.641 8 113792764.118 8      3703.219          48.000    21309733.984 8  88505485.291 8      2880.281          50.000
R22  22136515.023 5 118166212.294 5     -3078.875          34.000    22136520.297 6  91907061.739 6     -2394.678          37.000
C05  39778042.664 5 207134706.218 5       -16.578          35.000    39778040.648 6 160169681.200 6       -13.094          39.000
C23  22729634.828 8 118359138.945 8      1133.027          50.000
E21  26709250.188 8 140358060.151 8      2975.797          51.000    26709245.141 7 107547113.359 7      2280.111          46.000
E33                                                                  26815791.570 5 107976099.790 5     -2320.314          33.000
> 2020 05 07 01 15 30.0000000  0 11        .000000000000
G06  21835422.070 8 114745918.785 8     -2211.645          50.000    21835423.984 8  89412388.403 8     -1723.356          50.000
G07  21052771.539 8 110633045.554 8      1245.750          51.000    21052770.164 8  86207566.626 8       970.714          51.000
G09  20852373.719 8 109580072.233 8     -1483.535          51.000    20852374.383 8  85387024.067 8     -1156.001          51.000
G30  22400322.133 8 117714501.841 8      3094.855          48.000    22400324.320 8  91725604.529 8      2411.576          48.000
R09  21288966.273 8 113681886.762 8      3688.379          50.000    21288969.898 8  88419247.344 8      2868.739          48.000
R22  22153862.531 6 118258824.189 6     -3095.633          39.000    22153868.594 5  91979093.212 5     -2407.714          34.000
C05  39778141.703 5 207135221.645 5       -17.383          35.000    39778139.688 6 160170080.147 6       -13.728          39.000
C23  22723154.281 8 118325394.608 8      1116.207          50.000
C25  24238696.352 4 126217235.139 4     -1904.113          29.000
E21  26692274.258 8 140268851.893 8      2971.090          51.000    26692270.711 8 107478759.014 8      2276.606          48.000
E33                                                                  26833090.703 5 108045736.826 5     -2323.769          31.000
> 2020 05 07 01 16  0.0000000  0 12        .000000000000
G06  21848089.039 8 114812486.033 8     -2226.719          49.000    21848091.766 8  89464258.976 8     -1735.106          49.000
G07  21045702.359 8 110595895.850 8      1230.273          51.000    21045700.820 8  86178618.817 8       958.655          51.000
G09  20860866.203 8 109624700.803 8     -1492.355          50.000    20860866.914 8  85421799.561 8     -1162.877          50.000
G30  22382680.117 8 117621786.786 8      3085.605          50.000    22382681.328 8  91653359.051 8      2404.371          50.000
R06  20507514.008 5 109431967.877 5     -1852.551          35.000
R09  21268282.898 8 113571435.004 8      3674.582          51.000    21268285.125 7  88333340.484 7      2858.011          46.000
R22  22171303.133 7 118351924.381 7     -3111.152          43.000    22171307.055 5  92051504.434 5     -2419.785          32.000
C05  39778240.758 6 207135737.457 6       -17.074          36.000    39778238.648 6 160170478.596 6       -13.360          39.000
C23  22716766.648 8 118292133.433 8      1100.520          50.000
C25  24249716.148 4 126274634.871 4     -1916.934          27.000
E21  26675320.430 8 140179760.505 8      2967.711          51.000    26675318.289 8 107410494.234 8      2273.939          49.000
E33                                                                  26850409.086 5 108115470.195 5     -2325.720          32.000
> 2020 05 07 01 16 30.0000000  0 10        .000000000000
G06  21860846.312 8 114879527.438 8     -2242.473          49.000    21860849.414 8  89516499.045 8     -1747.381          49.000
G07  21038724.891 8 110559229.318 8      1214.363          51.000    21038723.484 8  86150047.529 8       946.257          51.000
G09  20869411.891 8 109669608.779 8     -1501.391          49.000    20869412.773 8  85456792.773 8     -1169.915          49.000
G30  22365094.375 8 117529367.819 8      3075.805          51.000    22365094.594 8  91581344.300 8      2396.731          51.000
R09  21247680.852 8 113461416.512 8      3660.148          51.000    21247680.469 7  88247770.615 7      2846.785          43.000
R22  22188836.164 7 118445512.117 7     -3127.441          43.000    22188837.883 5  92124294.877 5     -2432.454          34.000
C05  39778340.156 5 207136255.343 5       -17.262          35.000    39778338.109 6 160170879.035 6       -13.209          39.000
C23  22710473.094 8 118259359.597 8      1084.512          51.000
E21  26658389.930 8 140090791.369 8      2963.688          51.000    26658388.898 8 107342323.100 8      2270.901          50.000
E33                                                                  26867747.977 5 108185278.827 5     -2328.192          32.000
> 2020 05 07 01 17  0.0000000  0 12        .000000000000
G02  22383605.367 5 117626656.887 5        27.906          32.000
G06  21873684.711 8 114946993.339 8     -2257.824          50.000    21873687.773 8  89569069.869 8     -1759.344          51.000
G07  21031830.516 8 110522999.207 8      1198.473          51.000    21031829.484 8  86121816.304 8       933.875          51.000
G09  20878001.531 8 109714747.935 8     -1510.434          49.000    20878002.664 8  85491966.145 8     -1176.961          49.000
G30  22347556.109 8 117437199.755 8      3066.090          51.000    22347555.594 8  91509525.061 8      2389.161          51.000
R09  21227151.234 8 113351787.330 8      3645.805          51.000    21227149.016 7  88162503.522 7      2835.626          44.000
R16  20470677.422 5 109350682.019 5     -1031.062          31.000    20470683.633 5  85050540.220 5      -801.941          32.000
R22  22206451.750 7 118539534.643 7     -3143.301          44.000    22206451.945 6  92197423.472 6     -2444.789          38.000
C05  39778430.992 5 207136728.832 5       -16.523          35.000    39778429.039 6 160171245.204 6       -13.016          39.000
C23  22704264.641 8 118227027.130 8      1068.520          51.000
E21  26641474.172 8 140001899.206 8      2959.734          51.000    26641474.055 8 107274210.921 8      2267.908          51.000
E33                                                                  26885096.344 5 108255137.925 5     -2330.395          34.000
> 2020 05 07 01 17 30.0000000  0 13        .000000000000
G02  22383489.508 5 117626037.240 5        13.176          34.000
G06  21886614.867 8 115014940.016 8     -2270.340          51.000    21886617.539 8  89622015.318 8     -1769.096          51.000
G07  21025030.445 8 110487265.333 8      1185.371          51.000    21025029.695 8  86093971.739 8       923.666          51.000
G09  20886646.141 8 109760175.980 8     -1516.477          50.000    20886647.516 8  85527364.631 8     -1181.667          50.000
G30  22330076.703 8 117345343.374 8      3059.145          51.000    22330076.133 8  91437948.675 8      2383.749          51.000
R09  21206705.883 8 113242611.364 8      3634.285          51.000    21206704.281 7  88077588.890 7      2826.666          46.000
R16  20476539.727 5 109382007.310 5     -1055.328          32.000    20476541.633 4  85074902.984 4      -820.811          29.000
R22  22224159.109 7 118634047.442 7     -3156.047          44.000    22224159.367 6  92270933.358 6     -2454.706          40.000
C05  39778524.453 5 207137214.275 5       -13.812          35.000    39778522.703 6 160171622.132 6       -10.702          39.000
C23  22698152.117 8 118195195.069 8      1055.176          51.000
C25  24283169.875 5 126448837.214 5     -1954.086          30.000
E21  26624584.516 8 139913144.772 8      2958.727          50.000    26624585.789 8 107206204.282 8      2267.070          51.000
E33                                                                  26902465.367 5 108325064.849 5     -2330.192          35.000
> 2020 05 07 01 18  0.0000000  0 14        .000000000000
G02  22383472.430 4 117625943.796 4        -2.703          29.000
G04  23289698.422 5 122388182.212 5     -2844.340          34.000
G06  21899629.000 8 115083327.305 8     -2283.910          51.000    21899630.953 8  89675304.089 8     -1779.670          51.000
G07  21018317.688 8 110451990.147 8      1171.238          51.000    21018316.695 8  86066484.578 8       912.653          51.000
G09  20895338.414 8 109805854.400 8     -1523.801          49.000    20895339.922 8  85562958.212 8     -1187.377          49.000
G30  22312649.312 8 117253763.022 8      3051.027          50.000    22312649.242 8  91366587.355 8      2377.424          50.000
R09  21186338.008 8 113133854.421 8      3621.262          48.000    21186338.555 7  87993000.118 7      2816.534          47.000
R16  20482558.234 6 109414131.125 6     -1081.086          36.000    20482557.805 5  85099874.924 5      -840.851          30.000
R22  22241949.211 6 118729007.578 6     -3169.625          40.000    22241950.328 6  92344791.239 6     -2465.264          41.000
C05  39778613.570 5 207137678.319 5       -12.199          35.000    39778611.844 6 160171980.966 6        -9.527          39.000
C23  22692128.391 8 118163826.914 8      1040.844          51.000
C25  24294475.477 4 126507703.691 4     -1965.645          29.000
E21  26607714.031 7 139824492.442 7      2956.457          47.000    26607717.055 8 107138275.887 8      2265.337          51.000
E33                                                                  26919845.570 5 108395042.259 5     -2331.170          34.000
> 2020 05 07 01 18 30.0000000  0 10        .000000000000
G06  21912765.773 8 115152359.673 8     -2305.973          51.000    21912767.070 8  89729095.534 8     -1796.862          51.000
G07  21011731.859 8 110417381.538 8      1148.348          51.000    21011730.672 8  86039516.834 8       894.816          51.000
G09  20904117.555 8 109851989.139 8     -1539.648          49.000    20904119.094 8  85598907.369 8     -1199.726          49.000
G30  22295314.008 8 117162667.649 8      3034.176          50.000    22295314.320 8  91295603.962 8      2364.293          50.000
R09  21166088.555 7 113025730.404 7      3599.406          47.000    21166091.680 8  87908903.628 8      2799.538          48.000
R22  22259860.297 6 118824620.668 6     -3192.000          40.000    22259863.344 7  92419157.003 7     -2482.667          42.000
C05  39778737.531 5 207138323.915 5       -18.703          35.000    39778735.883 6 160172480.167 6       -14.583          39.000
C23  22686233.555 8 118133128.584 8      1017.926          51.000
E21  26590902.250 7 139736151.226 7      2945.293          45.000    26590907.062 8 107070585.831 8      2256.774          51.000
E33                                                                  26937276.367 5 108465227.017 5     -2338.569          34.000
> 2020 05 07 01 19  0.0000000  0 14        .000000000000
G02  22383785.219 5 117627594.434 5       -42.863          33.000    22383778.914 5  91657832.312 5       -33.400          30.000
G06  21925957.055 8 115221678.548 8     -2318.516          51.000    21925957.789 8  89783110.232 8     -1806.636          51.000
G07  21005205.180 8 110383083.972 8      1134.973          51.000    21005204.023 8  86012791.462 8       884.394          51.000
G09  20912915.633 8 109898223.039 8     -1545.887          49.000    20912917.070 8  85634933.788 8     -1204.587          49.000
G30  22278003.547 8 117071703.208 8      3026.863          50.000    22278003.977 8  91224722.571 8      2358.595          49.000
R06  20571038.039 4 109770984.577 4     -1913.285          29.000
R09  21145891.258 7 112917882.208 7      3587.156          47.000    21145896.031 7  87825021.695 7      2790.010          47.000
R16  20495075.906 5 109481013.522 5     -1139.121          34.000    20495079.734 4  85151939.590 4      -885.989          27.000
R22  22277824.359 6 118920520.627 6     -3204.512          38.000    22277829.555 7  92493745.839 7     -2492.401          42.000
C05  39778828.734 5 207138799.238 5       -15.766          35.000    39778827.023 6 160172846.946 6       -12.052          39.000
C23  22680399.242 8 118102747.987 8      1004.363          51.000
C25  24317354.078 5 126626849.059 5     -1995.023          32.000
E21  26574081.031 7 139647767.051 7      2943.773          43.000    26574088.234 8 107002862.813 8      2255.619          51.000
E33                                                                  26954690.766 5 108535344.705 5     -2338.246          34.000
> 2020 05 07 01 19 30.0000000  0 15        .000000000000
G02  22384086.031 5 117629170.973 5       -61.590          32.000
G06  21939242.477 8 115291492.454 8     -2335.066          51.000    21939243.078 8  89837510.660 8     -1819.532          51.000
G07  20998777.867 8 110349308.948 8      1117.359          51.000    20998776.555 8  85986473.291 8       870.673          51.000
G09  20921772.633 8 109944766.449 8     -1556.375          49.000    20921773.922 8  85671201.385 8     -1212.760          49.000
G30  22260758.234 8 116981082.770 8      3015.195          48.000    22260759.234 8  91154109.221 8      2349.503          48.000
R06  20581823.008 5 109828548.809 5     -1925.102          31.000
R07  19809742.031 5 106043088.630 5      1087.008          34.000    19809748.234 4  82477995.683 4       845.457          24.000
R09  21125787.117 8 112810527.972 8      3570.418          48.000    21125791.938 7  87741524.017 7      2776.995          47.000
R16  20501555.750 5 109515626.017 5     -1167.781          30.000    20501561.836 4  85178860.339 4      -908.277          27.000
R22  22295881.469 5 119016917.206 5     -3221.551          35.000    22295888.273 7  92568721.044 7     -2505.645          42.000
C05  39778927.125 5 207139311.424 5       -17.449          35.000    39778925.414 6 160173243.012 6       -13.405          39.000
C23  22674666.117 8 118072895.082 8       986.633          51.000
C25  24328896.086 5 126686941.264 5     -2009.812          34.000
E21  26557293.273 7 139559552.880 7      2937.902          45.000    26557301.094 8 106935270.117 8      2251.090          51.000
E33                                                                  26972127.719 5 108605555.537 5     -2341.652          31.000
> 2020 05 07 01 20  0.0000000  0 11        .000000000000
G06  21952613.812 8 115361760.571 8     -2350.621          49.000    21952614.883 8  89892265.047 8     -1831.653          49.000
G07  20992442.930 8 110316018.275 8      1100.820          51.000    20992441.297 8  85960532.496 8       857.785          51.000
G09  20930681.062 8 109991579.950 8     -1565.738          50.000    20930682.039 8  85707679.419 8     -1220.056          50.000
G30  22243571.539 8 116890769.984 8      3004.477          48.000    22243573.562 8  91083735.589 8      2341.148          48.000
R07  19803679.281 5 106010629.942 5      1076.090          35.000
R09  21105769.367 8 112703632.922 8      3554.695          49.000    21105773.828 8  87658383.494 8      2764.763          49.000
R16  20508186.883 5 109551050.772 5     -1194.949          32.000    20508195.883 4  85206405.736 4      -929.405          28.000
R22  22314026.398 6 119113767.016 6     -3236.492          38.000    22314031.406 7  92644048.764 7     -2517.269          42.000
C05  39779025.359 5 207139823.431 5       -17.797          35.000    39779023.750 6 160173638.931 6       -13.686          39.000
C23  22669026.992 8 118043532.649 8       969.844          51.000
E21  26540532.438 8 139471472.404 8      2932.988          48.000    26540538.953 8 106867779.914 8      2247.343          50.000
> 2020 05 07 01 20 30.0000000  0 10        .000000000000
G06  21966068.477 7 115432470.568 7     -2363.688          47.000    21966071.000 7  89947363.778 7     -1841.831          47.000
G07  20986198.531 8 110283203.409 8      1086.473          51.000    20986197.094 8  85934962.482 8       846.602          51.000
G09  20939638.781 8 110038652.833 8     -1572.906          49.000    20939639.422 8  85744359.576 8     -1225.641          49.000
G30  22226442.703 8 116800757.064 8      2995.980          50.000    22226444.930 8  91013595.634 8      2334.527          50.000
R09  21085836.828 8 112597191.285 8      3540.988          49.000    21085840.961 8  87575595.560 8      2754.102          50.000
R16  20514967.773 5 109587269.758 5     -1219.766          35.000
R22  22332254.047 6 119211055.918 6     -3249.371          40.000    22332256.742 7  92719717.890 7     -2527.292          42.000
C05  39779121.688 5 207140324.567 5       -15.434          35.000    39779120.188 6 160174027.244 6       -12.421          39.000
C23  22663480.242 8 118014651.727 8       955.227          51.000
E21  26523796.039 8 139383517.936 8      2930.297          49.000    26523800.680 8 106800386.304 8      2245.245          50.000
> 2020 05 07 01 21  0.0000000  0 12        .000000000000
G02  22385582.633 6 117637064.475 6      -120.137          36.000
G06  21979598.227 8 115503571.901 8     -2384.805          48.000    21979601.797 8  90002767.430 8     -1858.289          48.000
G07  20980035.430 8 110250816.441 8      1064.191          51.000    20980034.289 8  85909725.931 8       829.243          51.000
G09  20948636.438 8 110085936.129 8     -1587.840          48.000    20948636.844 8  85781203.680 8     -1237.278          48.000
G30  22209362.648 8 116710997.910 8      2979.520          51.000    22209364.578 8  90943653.462 8      2321.707          51.000
R07  19791700.477 5 105946497.792 5      1051.422          32.000
R09  21065980.703 8 112491158.169 8      3519.281          48.000    21065984.617 8  87493125.354 8      2737.222          51.000
R22  22350551.969 6 119308730.263 6     -3270.586          41.000    22350553.844 7  92795686.738 7     -2543.789          42.000
C05  39779207.078 5 207140769.800 5       -22.664          35.000    39779205.586 6 160174371.089 6       -16.939          39.000
C23  22658017.148 8 117986205.452 8       932.801          51.000
C25  24363943.672 5 126869433.457 5     -2052.895          35.000
E21  26507074.938 8 139295643.421 8      2919.699          50.000    26507078.156 8 106733053.934 8      2237.160          51.000
> 2020 05 07 01 21 30.0000000  0 14        .000000000000
G02  22386269.422 6 117640671.210 6      -132.242          37.000
G04  23403951.992 5 122988615.367 5     -2869.281          32.000
G06  21993205.641 8 115575077.867 8     -2394.348          51.000    21993209.117 8  90058486.355 8     -1865.725          51.000
G07  20973956.828 8 110218873.664 8      1053.270          51.000    20973955.625 8  85884835.476 8       820.730          51.000
G09  20957676.852 7 110133444.708 7     -1591.352          47.000    20957677.289 7  85818223.338 7     -1240.014          47.000
G30  22192334.375 8 116621510.445 8      2974.371          51.000    22192335.820 8  90873922.997 8      2317.692          51.000
R06  20625520.039 4 110061726.310 4     -1965.809          28.000
R07  19785795.906 5 105914864.171 5      1045.934          34.000
R09  21046204.195 7 112385553.998 7      3508.809          45.000    21046208.445 8  87410988.759 8      2729.070          50.000
R22  22368924.164 7 119406801.651 7     -3279.648          45.000    22368925.336 7  92871964.417 7     -2550.841          42.000
C05  39779284.414 5 207141172.145 5       -16.652          35.000    39779282.906 6 160174682.640 6       -12.943          39.000
C23  22652640.641 8 117958210.281 8       921.629          51.000
C25  24375763.094 5 126930960.881 5     -2060.391          33.000
E21  26490372.383 8 139207866.808 8      2920.227          49.000    26490375.133 8 106665796.561 8      2237.546          51.000
> 2020 05 07 01 22  0.0000000  0 12        .000000000000
G02  22387106.688 5 117645062.298 5      -149.691          35.000
G06  22006945.141 8 115647277.207 8     -2408.398          51.000    22006947.859 8  90114745.559 8     -1876.677          51.000
G07  20968018.102 8 110187666.762 8      1037.812          49.000    20968017.125 8  85860518.415 8       808.685          49.000
G09  20966815.477 7 110181469.002 7     -1599.480          46.000    20966815.969 7  85855644.856 7     -1246.348          46.000
G30  22175413.578 8 116532587.903 8      2964.508          51.000    22175414.531 8  90804632.757 8      2310.009          51.000
R06  20636630.062 5 110121010.846 5     -1974.746          30.000
R07  19779994.344 5 105883798.961 5      1036.191          34.000
R09  21026562.750 7 112280678.271 7      3493.512          42.000    21026568.070 8  87329418.651 8      2717.173          48.000
R22  22387425.680 7 119505561.527 7     -3293.453          45.000    22387425.688 7  92948777.624 7     -2561.575          43.000
C05  39779409.234 5 207141821.924 5       -15.852          35.000    39779407.680 6 160175185.086 6       -12.514          39.000
C23  22647406.672 8 117930955.523 8       905.906          51.000
E21  26473743.789 8 139120481.393 8      2916.047          48.000    26473746.945 8 106598838.940 8      2234.383          51.000
> 2020 05 07 01 22 30.0000000  0 12        .000000000000
G02  22388003.414 5 117649751.023 5      -169.375          34.000
G06  22020729.812 8 115719714.548 8     -2425.445          51.000    22020731.633 8  90171190.224 8     -1889.957          51.000
G07  20962133.344 8 110156743.608 8      1019.082          49.000    20962132.914 8  85836422.455 8       794.090          49.000
G09  20975966.102 7 110229555.383 7     -1610.754          46.000    20975966.547 7  85893114.772 7     -1255.133          45.000
G30  22158514.250 8 116443779.587 8      2951.422          50.000    22158514.758 8  90735431.506 8      2299.809          50.000
R06  20647749.852 5 110180364.722 5     -1986.535          33.000
R09  21006974.109 7 112176075.439 7      3475.184          47.000    21006978.539 7  87248060.836 7      2702.918          47.000
R22  22405968.562 7 119604545.307 7     -3310.281          45.000    22405968.438 7  93025764.990 7     -2574.663          43.000
C05  39779495.289 5 207142270.400 5       -18.172          35.000    39779493.695 6 160175531.501 6       -14.583          39.000
C23  22642229.133 8 117903993.289 8       886.988          51.000
C25  24399670.266 5 127055481.641 5     -2087.289          33.000
E21  26457103.805 8 139033036.456 8      2908.754          49.000    26457107.211 8 106531835.690 8      2228.785          51.000
> 2020 05 07 01 23  0.0000000  0 13        .000000000000
G02  22389015.875 6 117655058.540 6      -183.594          36.000
G06  22034610.461 8 115792657.443 8     -2436.082          51.000    22034612.344 8  90228028.829 8     -1898.246          51.000
G07  20956354.164 8 110126375.020 8      1006.863          49.000    20956354.133 8  85812758.622 8       784.569          49.000
G09  20985179.766 7 110277973.022 7     -1615.633          46.000    20985180.477 7  85930842.818 7     -1258.935          46.000
G30  22141687.680 7 116355357.604 7      2944.734          47.000    22141688.188 7  90666531.285 7      2294.598          47.000
R06  20658940.711 5 110240065.539 5     -1992.945          32.000
R09  20987489.812 8 112072023.786 8      3462.941          51.000    20987492.672 7  87167131.806 7      2693.402          47.000
R16  20551109.883 5 109780341.766 5     -1351.777          30.000
R22  22424602.812 7 119704022.887 7     -3320.332          42.000    22424603.727 7  93103136.439 7     -2582.480          43.000
C05  39779593.969 5 207142783.823 5       -14.445          35.000    39779592.352 6 160175928.876 6       -11.270          39.000
C23  22637159.188 8 117877591.947 8       874.387          51.000
C25  24411730.711 6 127118259.125 6     -2096.477          36.000
E21  26440504.445 8 138945804.160 8      2907.898          49.000    26440507.703 8 106464995.348 8      2228.175          51.000
> 2020 05 07 01 23 30.0000000  0 12        .000000000000
G02  22390125.523 6 117660858.070 6      -202.523          38.000
G06  22048563.164 8 115865979.939 8     -2451.664          51.000    22048566.211 8  90285163.230 8     -1910.388          51.000
G07  20950657.266 8 110096437.896 8       989.434          50.000    20950657.078 8  85789430.987 8       770.987          50.000
G09  20994432.711 7 110326597.552 7     -1625.562          45.000    20994433.852 7  85968732.072 7     -1266.669          45.000
G30  22124910.461 7 116267200.545 7      2932.871          46.000    22124912.219 7  90597837.451 7      2285.351          45.000
R07  19762832.570 5 105791987.730 5      1004.488          33.000    19762841.008 4  82282673.907 4       781.275          29.000
R09  20968086.125 8 111968402.057 8      3445.539          51.000    20968087.875 8  87086537.170 8      2679.867          49.000
R22  22443304.758 7 119803864.540 7     -3335.285          42.000    22443307.938 7  93180791.061 7     -2594.111          44.000
C05  39779681.742 5 207143241.340 5       -15.133          35.000    39779680.172 6 160176282.665 6       -12.028          39.000
C23  22632173.148 8 117851629.849 8       856.820          51.000
C25  24423852.062 5 127181356.165 5     -2109.742          34.000
E21  26423922.383 8 138858663.148 8      2901.895          49.000    26423925.680 8 106398224.992 8      2223.527          51.000
> 2020 05 07 01 24  0.0000000  0 12        .000000000000
G02  22391339.070 6 117667227.003 6      -220.895          36.000
G06  22062605.344 8 115939772.289 8     -2466.434          51.000    22062609.297 8  90342663.780 8     -1921.896          51.000
G07  20945060.492 8 110067025.034 8       972.832          51.000    20945059.883 8  85766511.864 8       758.051          51.000
G09  21003742.555 7 110375521.009 7     -1634.699          46.000    21003743.930 7  86006854.254 7     -1273.792          46.000
G30  22108202.484 8 116179403.194 8      2921.789          48.000    22108205.359 8  90529423.899 8      2276.719          48.000
R07  19757241.133 5 105762032.306 5       993.762          30.000    19757240.594 4  82259375.228 4       772.923          28.000
R09  20948781.000 8 111865308.536 8      3428.688          51.000    20948782.305 8  87006353.343 8      2666.757          49.000
R22  22462092.117 7 119904159.921 7     -3349.723          42.000    22462097.445 7  93258798.537 7     -2605.340          44.000
C05  39779776.422 5 207143733.620 5       -16.230          35.000    39779774.914 6 160176664.084 6       -12.345          39.000
C23  22627289.258 8 117826199.685 8       839.863          51.000
C25  24436049.422 4 127244862.969 4     -2122.188          29.000
E21  26407375.625 8 138771708.332 8      2896.473          50.000    26407379.188 8 106331597.294 8      2219.369          51.000
> 2020 05 07 01 24 30.0000000  0 11        .000000000000
G06  22076729.859 8 116013997.261 8     -2481.285          51.000    22076734.344 8  90400501.457 8     -1933.469          51.000
G07  20939557.164 8 110038102.869 8       955.879          51.000    20939556.258 8  85743975.118 8       744.844          51.000
G09  21013102.477 7 110424707.858 7     -1643.883          46.000    21013103.672 7  86045181.684 7     -1280.945          46.000
G30  22091557.648 8 116091932.867 8      2910.328          49.000    22091561.000 8  90461265.211 8      2267.788          49.000
R07  19751709.750 5 105732399.074 5       982.266          33.000    19751705.820 4  82236333.574 4       763.981          24.000
R09  20929568.719 8 111762711.932 8      3411.605          51.000    20929569.383 8  86926555.970 8      2653.471          48.000
R16  20574585.938 5 109905739.493 5     -1433.211          32.000    20574587.562 4  85482251.304 4     -1114.723          27.000
R22  22480958.352 7 120004869.222 7     -3363.727          43.000    22480964.133 7  93337127.998 7     -2616.232          43.000
C05  39779871.422 5 207144228.196 5       -16.855          35.000    39779869.852 6 160177046.553 6       -12.886          39.000
C23  22622501.469 8 117801267.811 8       822.770          51.000
E21  26390858.000 8 138684907.142 8      2890.836          50.000    26390861.703 8 106265087.291 8      2215.062          51.000
> 2020 05 07 01 25  0.0000000  0 11        .000000000000
G06  22090943.148 8 116088688.078 8     -2494.047          51.000    22090947.633 8  90458702.093 8     -1943.413          51.000
G07  20934153.914 8 110009707.300 8       941.070          51.000    20934152.672 8  85721848.729 8       733.302          51.000
G09  21022519.297 7 110474193.044 7     -1651.184          47.000    21022520.445 7  86083741.589 7     -1286.634          47.000
G30  22074982.469 8 116004827.360 8      2900.805          49.000    22074985.867 8  90393390.801 8      2260.367          49.000
R06  20704282.297 5 110482012.622 5     -2034.355          34.000
R09  20910456.688 8 111660652.694 8      3396.395          51.000    20910456.133 7  86847176.575 7      2641.640          44.000
R16  20582716.023 6 109949167.027 6     -1458.000          36.000    20582721.633 5  85516028.237 5     -1134.000          30.000
R22  22499908.602 7 120106024.503 7     -3375.801          46.000    22499913.750 7  93415804.310 7     -2625.623          43.000
C05  39779973.469 5 207144759.692 5       -14.816          35.000    39779971.977 6 160177457.528 6       -11.551          39.000
C23  22617816.281 8 117776870.339 8       807.691          51.000
E21  26374376.930 8 138598297.445 8      2887.082          51.000    26374380.383 8 106198724.018 8      2212.201          51.000
> 2020 05 07 01 25 30.0000000  0 12        .000000000000
G06  22105225.680 8 116163742.091 8     -2509.066          51.000    22105229.203 8  90517185.722 8     -1955.117          51.000
G07  20928831.992 8 109981738.523 8       923.887          51.000    20928830.273 8  85700054.877 8       719.912          51.000
G09  21031973.711 7 110523875.635 7     -1660.695          46.000    21031974.820 7  86122455.294 7     -1294.051          46.000
G30  22058457.961 8 115917988.615 8      2888.891          49.000    22058461.070 8  90325724.259 8      2251.084          49.000
R06  20715747.297 6 110543229.345 6     -2045.703          38.000
R07  19740802.562 4 105674060.393 4       961.172          29.000
R09  20891426.867 8 111559033.243 8      3378.750          51.000    20891423.281 6  86768139.261 6      2627.917          39.000
R16  20590981.078 5 109993317.484 5     -1484.730          32.000    20590985.797 4  85550367.546 4     -1154.784          28.000
R22  22518922.594 7 120207519.258 7     -3390.082          47.000    22518927.109 7  93494744.679 7     -2636.730          43.000
C05  39780063.602 5 207145228.938 5       -15.703          35.000    39780062.102 6 160177820.390 6       -12.112          39.000
C23  22613214.797 8 117752908.763 8       790.223          51.000
E21  26357913.664 8 138511781.259 8      2880.984          51.000    26357916.625 8 106132432.385 8      2207.564          51.000
> 2020 05 07 01 26  0.0000000  0 11        .000000000000
G06  22119590.391 8 116239228.746 8     -2523.324          50.000    22119592.750 8  90576006.454 8     -1966.230          50.000
G07  20923604.781 8 109954269.055 8       907.344          51.000    20923603.102 8  85678650.118 8       707.021          51.000
G09  21041479.172 7 110573826.857 7     -1669.398          46.000    21041480.133 7  86161378.342 7     -1300.830          46.000
G30  22041997.945 8 115831490.700 8      2877.648          48.000    22042000.242 8  90258323.298 8      2242.323          49.000
R06  20727276.430 6 110604761.093 6     -2056.133          38.000
R09  20872493.492 8 111457930.859 8      3361.441          51.000    20872487.617 6  86689504.142 6      2614.454          40.000
R16  20599394.742 6 110038262.174 6     -1511.676          36.000    20599395.719 4  85585324.468 4     -1175.751          29.000
R22  22538012.719 7 120309422.315 7     -3403.551          47.000    22538016.922 7  93574002.645 7     -2647.203          44.000
C05  39780155.375 5 207145707.948 5       -15.980          35.000    39780153.977 6 160178190.400 6       -12.460          39.000
C23  22608711.141 8 117729455.090 8       773.355          51.000
E21  26341482.180 8 138425432.674 8      2875.504          51.000    26341484.273 8 106066269.180 8      2203.272          49.000
> 2020 05 07 01 26 30.0000000  0 11        .000000000000
G06  22134034.719 8 116315134.969 8     -2536.938          49.000    22134037.094 8  90635154.141 8     -1976.834          49.000
G07  20918470.594 8 109927289.456 8       891.488          51.000    20918468.992 8  85657627.068 8       694.666          51.000
G09  21051033.430 7 110624035.411 7     -1677.355          44.000    21051034.289 7  86200501.888 7     -1307.030          44.000
G30  22025600.773 8 115745325.166 8      2866.992          48.000    22025601.625 8  90191181.324 8      2234.017          48.000
R06  20738864.227 6 110666598.166 6     -2065.922          40.000
R09  20853655.352 8 111357338.964 8      3344.863          51.000    20853649.945 7  86611265.991 7      2601.557          43.000
R16  20607954.898 5 110083988.088 5     -1537.047          34.000    20607956.656 5  85620889.102 5     -1195.481          31.000
R22  22557176.438 7 120411718.267 7     -3415.945          46.000    22557180.086 7  93653566.161 7     -2656.846          44.000
C05                                                                  39780245.703 6 160178559.568 6       -12.043          39.000
C23  22604303.188 8 117706499.606 8       757.262          51.000
E21  26325080.664 8 138339243.382 8      2870.691          51.000    26325081.531 7 106000228.034 7      2199.597          47.000
> 2020 05 07 01 27  0.0000000  0 12        .000000000000
G06  22148558.430 8 116391459.274 8     -2550.133          48.000    22148561.469 8  90694627.607 8     -1987.116          48.000
G07  20913429.938 8 109900800.911 8       875.734          51.000    20913428.180 8  85636986.659 8       682.390          51.000
G09  21060636.695 7 110674501.672 7     -1685.605          44.000    21060637.836 7  86239826.229 7     -1313.459          44.000
G30  22009267.602 8 115659495.106 8      2856.414          49.000    22009267.188 8  90124300.777 8      2225.780          49.000
R06  20750509.688 6 110728741.398 6     -2075.758          38.000
R09  20834913.344 8 111257262.509 8      3328.129          49.000    20834910.016 7  86533428.714 7      2588.545          46.000
R16  20616660.531 6 110130494.076 6     -1562.500          37.000    20616662.133 5  85657060.465 5     -1215.278          32.000
R22  22576413.188 8 120514404.295 8     -3428.391          48.000    22576415.742 7  93733433.059 7     -2666.526          43.000
C05  39780338.812 5 207146662.494 5       -15.152          35.000    39780337.430 6 160178928.893 6       -11.551          39.000
C23  22599991.078 8 117684044.039 8       741.074          51.000
C25  24510705.062 5 127633666.545 5     -2194.754          30.000
E21  26308709.859 8 138253216.591 8      2865.734          50.000    26308707.703 7 105934311.434 7      2195.751          42.000
> 2020 05 07 01 27 30.0000000  0 12        .000000000000
G02  22402643.203 6 117726649.402 6      -344.371          36.000
G06  22163150.633 8 116468143.274 8     -2564.254          48.000    22163153.500 8  90754381.353 8     -1998.123          49.000
G07  20908471.938 8 109874747.664 8       859.070          51.000    20908470.344 8  85616685.454 8       669.405          51.000
G09  21070278.258 7 110725168.889 7     -1694.520          43.000    21070279.859 7  86279307.204 7     -1320.405          43.000
G30  21992988.469 8 115573946.646 8      2844.637          51.000    21992988.047 8  90057639.658 8      2216.600          51.000
R06  20762202.336 6 110791133.992 6     -2086.031          38.000
R09  20816257.883 8 111157648.799 8      3310.379          48.000    20816257.070 8  86455951.378 8      2574.739          48.000
R16  20625501.695 6 110177721.171 6     -1588.406          36.000    20625504.102 5  85693792.605 5     -1235.430          32.000
R22  22595711.344 7 120617418.903 7     -3441.441          47.000    22595712.055 7  93813555.510 7     -2676.680          42.000
C05  39780419.930 5 207147085.071 5       -15.285          35.000    39780418.625 6 160179255.675 6       -11.983          39.000
C23  22595764.078 8 117662033.689 8       724.070          51.000
E21  26292359.891 8 138167298.624 8      2860.000          49.000    26292351.609 6 105868478.241 6      2191.327          39.000
> 2020 05 07 01 28  0.0000000  0 10        .000000000000
G06  22177840.820 8 116545341.343 8     -2580.855          50.000    22177842.359 8  90814535.689 8     -2011.056          50.000
G07  20903626.688 8 109849287.222 8       839.633          51.000    20903625.242 8  85596846.167 8       654.259          51.000
G09  21079987.875 7 110776193.405 7     -1705.840          43.000    21079989.320 7  86319066.599 7     -1329.223          43.000
G30  21976793.367 8 115488838.822 8      2830.547          51.000    21976793.602 8  89991321.877 8      2205.621          51.000
R09  20797719.922 8 111058661.523 8      3289.988          48.000    20797721.117 8  86378961.301 8      2558.883          48.000
R16  20634506.734 6 110225826.709 6     -1617.180          37.000    20634509.312 5  85731208.066 5     -1257.806          33.000
R22  22615099.750 8 120720917.114 8     -3456.949          48.000    22615098.969 7  93894054.093 7     -2688.738          42.000
C05  39780520.375 5 207147607.274 5       -18.047          35.000    39780519.125 6 160179660.235 6       -14.091          39.000
C23  22591652.469 8 117640624.764 8       704.504          51.000
E21  26276060.672 7 138081648.584 7      2851.402          47.000    26276048.930 6 105802850.316 6      2184.981          38.000
> 2020 05 07 01 28 30.0000000  0 10        .000000000000
G06  22192590.852 8 116622852.608 8     -2595.758          51.000    22192591.242 8  90874934.073 8     -2022.668          51.000
G07  20898856.711 8 109824222.122 8       822.262          51.000    20898855.484 8  85577314.920 8       640.723          51.000
G09  21089727.758 7 110827376.134 7     -1715.379          44.000    21089728.852 7  86358949.245 7     -1336.659          44.000
G30  21960644.680 8 115403975.393 8      2817.914          51.000    21960645.664 8  89925194.509 8      2195.777          51.000
R09  20779262.375 8 110960103.077 8      3271.270          50.000    20779264.898 7  86302304.758 7      2544.324          47.000
R16  20643638.844 6 110274607.009 6     -1643.750          36.000    20643642.109 5  85769148.234 5     -1278.472          32.000
R22  22634540.391 8 120824692.897 8     -3470.586          48.000    22634539.617 7  93974768.566 7     -2699.345          44.000
C05  39780602.539 5 207148035.724 5       -19.691          35.000    39780601.156 6 160179990.753 6       -14.937          39.000
C23  22587618.922 8 117619621.375 8       686.684          51.000
E21  26259775.086 7 137996070.355 7      2844.699          46.000    26259765.047 6 105737277.409 6      2179.600          41.000
> 2020 05 07 01 29  0.0000000  0 11        .000000000000
G06  22207431.977 8 116700841.589 8     -2604.262          51.000    22207432.289 8  90935704.697 8     -2029.295          51.000
G07  20894193.859 8 109799719.324 8       810.633          51.000    20894193.062 8  85558221.838 8       631.662          51.000
G09  21099529.562 7 110878883.318 7     -1719.066          44.000    21099529.953 7  86399084.691 7     -1339.532          44.000
G30  21944574.344 8 115319525.415 8      2811.207          49.000    21944575.570 8  89859389.326 8      2190.551          49.000
R06  20797664.711 5 110980342.186 5     -2115.875          32.000
R09  20760918.391 8 110862147.266 8      3258.320          50.000    20760920.969 7  86226116.927 7      2534.252          45.000
R16  20652928.109 5 110324235.109 5     -1664.668          35.000    20652930.781 5  85807743.283 5     -1294.742          32.000
R22  22654063.734 7 120928911.628 7     -3477.965          47.000    22654063.953 7  94055827.542 7     -2705.087          44.000
C05  39780697.938 5 207148532.036 5       -14.562          35.000    39780696.648 6 160180375.324 6       -11.215          39.000
C23  22583695.102 8 117599189.629 8       674.684          51.000
E21  26243535.469 7 137910733.131 7      2843.723          46.000    26243529.617 7 105671889.134 7      2178.929          45.000
> 2020 05 07 01 29 30.0000000  0 12        .000000000000
G02  22411305.406 6 117772202.220 6      -415.539          36.000
G06  22222339.555 8 116779179.257 8     -2619.184          51.000    22222340.266 8  90996747.040 8     -2040.922          51.000
G07  20889614.109 8 109775652.944 8       792.801          51.000    20889613.586 8  85539468.839 8       617.767          51.000
G09  21109368.875 7 110930587.910 7     -1728.746          43.000    21109368.734 7  86439373.933 7     -1347.078          44.000
G30  21928558.641 8 115235364.480 8      2798.297          49.000    21928559.953 8  89793809.361 8      2180.491          48.000
R06  20809584.109 5 111043976.722 5     -2127.551          34.000
R09  20742664.516 8 110764669.471 8      3239.145          49.000    20742665.922 7  86150300.874 7      2519.335          45.000
R16  20662350.594 6 110374568.584 6     -1691.051          36.000    20662353.727 5  85846891.546 5     -1315.262          32.000
R22  22673644.828 7 121033440.287 7     -3491.531          46.000    22673646.570 7  94137127.605 7     -2715.635          45.000
C05                                                                  39780781.617 6 160180717.255 6       -12.418          39.000
C23  22579857.047 8 117579204.885 8       656.613          51.000
E21  26227318.281 7 137825512.688 7      2836.539          45.000    26227316.438 8 105606590.316 8      2173.431          48.000
> 2020 05 07 01 30  0.0000000  0 12        .000000000000
G02  22413724.109 6 117784906.317 6      -432.238          37.000
G06  22237327.023 8 116857937.634 8     -2632.066          51.000    22237328.352 8  91058117.216 8     -2050.961          51.000
G07  20885131.898 8 109752098.095 8       776.875          51.000    20885131.312 8  85521114.427 8       605.360          51.000
G09  21119259.828 7 110982563.710 7     -1736.820          44.000    21119259.148 7  86479874.527 7     -1353.366          44.000
G30  21912612.312 8 115151569.216 8      2787.344          48.000    21912614.047 8  89728514.332 8      2171.956          48.000
R06  20821569.602 6 111107935.626 6     -2137.066          36.000
R09  20724515.102 8 110667749.809 8      3221.582          49.000    20724515.984 7  86074918.897 7      2505.672          46.000
R16  20671919.586 5 110425686.523 5     -1716.457          32.000    20671922.523 5  85886649.932 5     -1335.019          32.000
R22  22693297.164 7 121138350.321 7     -3503.012          45.000    22693300.555 7  94218724.287 7     -2724.565          46.000
C05  39780871.266 5 207149435.318 5       -15.703          35.000    39780870.250 6 160181073.783 6       -11.964          39.000
C23  22576119.406 8 117559741.669 8       640.320          51.000
E21  26211137.828 7 137740485.729 7      2831.230          44.000    26211139.297 8 105541439.767 8      2169.277          49.000
> 2020 05 07 01 30 30.0000000  0 14        .000000000000
G02  22416243.273 6 117798137.809 6      -448.215          38.000
G06  22252390.289 8 116937095.280 8     -2643.711          51.000    22252392.422 8  91119798.508 8     -2060.034          51.000
G07  20880743.438 8 109729035.892 8       762.012          51.000    20880742.773 8  85503143.903 8       593.775          51.000
G09  21129198.508 7 111034791.229 7     -1743.512          44.000    21129198.109 7  86520571.277 7     -1358.581          45.000
G30  21896732.719 8 115068122.802 8      2777.277          48.000    21896734.562 8  89663491.130 8      2164.112          48.000
R06  20833611.938 5 111172200.148 5     -2145.402          35.000
R07  19689971.477 5 105401990.640 5       853.246          31.000    19689976.531 5  81979319.231 5       663.642          31.000
R09  20706467.062 8 110571372.890 8      3205.168          50.000    20706468.406 8  85999959.061 8      2492.908          48.000
R16  20681631.398 6 110477567.562 6     -1740.488          36.000    20681634.562 5  85927001.873 5     -1353.713          32.000
R22  22713017.141 7 121243617.914 7     -3513.246          46.000    22713021.172 7  94300599.092 7     -2732.525          46.000
C05  39780959.898 5 207149896.817 5       -14.016          35.000    39780958.852 6 160181430.653 6       -10.883          39.000
C23  22572478.586 8 117540781.899 8       625.090          51.000
C25  24600910.031 5 128103364.929 5     -2277.055          34.000
E21  26194990.477 7 137655635.612 7      2826.875          43.000    26194994.375 8 105476424.713 8      2166.083          49.000
> 2020 05 07 01 31  0.0000000  0 14        .000000000000
G02  22418859.594 5 117811878.310 5      -467.195          35.000
G06  22267525.523 8 117016631.245 8     -2657.984          51.000    22267527.930 8  91181774.597 8     -2071.157          51.000
G07  20876445.273 8 109706448.548 8       744.301          51.000    20876444.453 8  85485543.398 8       579.978          51.000
G09  21139181.125 6 111087251.384 6     -1753.082          41.000    21139181.758 6  86561449.312 6     -1366.038          41.000
G30  21880916.891 8 114985008.899 8      2764.414          49.000    21880918.172 8  89598727.060 8      2154.092          50.000
R06  20845708.656 5 111236751.180 5     -2156.586          35.000
R07  19685221.117 5 105376583.263 5       841.125          32.000    19685227.844 5  81959557.934 5       654.205          30.000
R09  20688518.297 8 110475524.044 8      3185.512          51.000    20688519.469 8  85925409.995 8      2477.623          48.000
R16  20691482.352 6 110530190.751 6     -1767.379          36.000    20691485.602 5  85967931.035 5     -1374.628          31.000
R22  22732800.102 7 121349220.185 7     -3526.176          45.000    22732804.328 7  94382734.165 7     -2742.584          46.000
C05  39781045.258 5 207150340.703 5       -14.988          35.000    39781044.086 6 160181773.894 6       -11.756          39.000
C23  22568930.836 8 117522307.933 8       607.145          51.000
C25  24614066.766 5 128171858.289 5     -2289.074          32.000
E21  26178874.297 7 137570946.217 7      2819.879          43.000    26178879.617 8 105411532.802 8      2160.576          50.000
> 2020 05 07 01 31 30.0000000  0 14        .000000000000
G02  22421578.117 4 117826164.111 4      -485.055          29.000
G06  22282739.383 8 117096580.156 8     -2671.191          50.000    22282741.391 8  91244072.468 8     -2081.448          50.000
G07  20872244.703 8 109684373.581 8       727.836          51.000    20872243.711 8  85468342.143 8       567.145          51.000
G09  21149214.875 6 111139980.738 6     -1761.578          41.000    21149216.375 6  86602537.110 6     -1372.655          41.000
G30  21865172.047 8 114902266.785 8      2752.363          51.000    21865171.898 8  89534252.711 8      2144.699          50.000
R06  20857867.125 5 111301626.732 5     -2167.008          31.000
R07  19680541.523 6 105351533.625 6       829.449          36.000    19680548.797 4  81940074.859 4       645.127          29.000
R09  20670676.219 8 110380245.179 8      3167.008          51.000    20670676.883 8  85851304.252 8      2463.231          48.000
R16  20701479.227 6 110583591.319 6     -1792.359          36.000    20701481.820 5  86009464.729 5     -1394.057          33.000
R22  22752652.023 7 121455190.544 7     -3537.773          45.000    22752656.438 7  94465155.528 7     -2751.602          45.000
C05  39781134.180 5 207150804.053 5       -15.152          35.000    39781133.078 6 160182132.181 6       -11.874          39.000
C23  22565483.688 8 117504357.261 8       590.188          51.000
C25  24627290.594 5 128240716.328 5     -2300.488          30.000
E21  26162796.727 7 137486456.878 7      2813.676          44.000    26162802.875 8 105346794.247 8      2155.832          50.000
> 2020 05 07 01 32  0.0000000  0 13        .000000000000
G02  22424396.938 5 117840995.841 5      -502.012          32.000
G06  22298027.000 8 117176918.253 8     -2683.680          48.000    22298028.922 8  91306673.609 8     -2091.176          48.000
G07  20868137.477 8 109662790.191 8       711.984          50.000    20868136.430 8  85451523.946 8       554.793          50.000
G09  21159295.734 6 111192957.464 6     -1769.164          41.000    21159297.641 6  86643817.652 6     -1378.569          41.000
G30  21849494.414 8 114819877.248 8      2741.184          51.000    21849493.242 8  89470053.108 8      2135.990          51.000
R07  19675926.617 5 105326821.549 5       818.617          33.000    19675931.312 4  81920854.291 4       636.696          26.000
R09  20652937.297 8 110285518.519 8      3149.137          51.000    20652937.766 8  85777627.997 8      2449.332          49.000
R16  20711617.094 5 110637744.968 5     -1817.531          31.000    20711621.648 5  86051584.319 5     -1413.629          33.000
R22  22772568.180 7 121561502.861 7     -3548.688          46.000    22772571.914 7  94547842.889 7     -2760.087          45.000
C05  39781222.859 5 207151266.093 5       -14.902          35.000    39781221.812 6 160182489.460 6       -11.366          39.000
C23  22562133.383 8 117486909.406 8       573.941          51.000
C25  24640580.602 5 128309967.237 5     -2311.754          30.000
E21  26146754.156 7 137402148.650 7      2807.930          47.000    26146760.195 8 105282194.466 8      2151.647          50.000
> 2020 05 07 01 32 30.0000000  0 12        .000000000000
G06  22313386.133 7 117257635.493 7     -2701.871          45.000    22313388.695 7  91369570.187 7     -2105.351          46.000
G07  20864122.438 8 109641691.488 8       690.254          50.000    20864121.297 8  85435083.408 8       537.860          51.000
G09  21169422.125 6 111246173.374 6     -1782.891          41.000    21169424.094 6  86685284.612 6     -1389.262          41.000
G30  21833882.727 8 114737834.875 8      2724.012          51.000    21833881.812 8  89406124.014 8      2122.607          51.000
R07  19671374.250 6 105302440.881 6       802.066          36.000    19671371.812 4  81901856.517 4       623.823          26.000
R09  20635301.055 8 110191340.549 8      3125.086          51.000    20635301.289 8  85704378.481 8      2430.622          49.000
R16  20721893.672 6 110692642.279 6     -1847.156          36.000    20721898.484 5  86094282.235 5     -1436.680          32.000
R22  22792546.461 7 121668145.174 7     -3565.246          47.000    22792549.531 7  94630786.906 7     -2772.969          45.000
C05  39781309.977 5 207151719.615 5       -20.152          35.000    39781308.914 6 160182840.145 6       -15.354          39.000
C23  22558878.109 8 117469957.544 8       551.887          51.000
C25  24653935.250 4 128379499.680 4     -2327.578          29.000
E21  26130745.266 8 137318016.292 8      2796.434          49.000    26130750.188 8 105217729.424 8      2142.779          49.000
> 2020 05 07 01 33  0.0000000  0 12        .000000000000
G02  22430331.008 5 117872183.753 5      -534.730          34.000
G06  22328818.227 7 117338734.674 7     -2707.434          46.000    22328820.750 7  91432764.388 7     -2109.689          46.000
G07  20860200.758 8 109621083.125 8       680.934          50.000    20860199.781 8  85419024.934 8       530.598          50.000
G09  21179595.047 6 111299633.337 6     -1783.980          40.000    21179596.695 6  86726941.705 6     -1390.118          40.000
G30  21818338.109 8 114656147.160 8      2719.047          51.000    21818338.008 8  89342471.241 8      2118.738          50.000
R07  19666884.641 6 105278398.398 6       797.719          37.000    19666887.031 4  81883177.930 4       620.451          29.000
R09  20617769.211 8 110097721.020 8      3113.438          51.000    20617769.844 8  85631563.286 8      2421.559          50.000
R16  20732311.031 5 110748285.683 5     -1865.055          33.000    20732314.289 5  86137560.382 5     -1450.598          31.000
R22  22812586.961 7 121775118.673 7     -3569.223          47.000    22812589.898 7  94713988.500 7     -2776.065          46.000
C05  39781396.516 5 207152170.275 5       -12.801          35.000    39781395.461 6 160183188.621 6        -9.787          39.000
C23  22555719.242 8 117453507.624 8       542.082          51.000
E21  26114771.188 8 137234067.478 8      2797.309          50.000    26114775.305 8 105153405.039 8      2143.353          49.000
> 2020 05 07 01 33 30.0000000  0 11        .000000000000
G06  22344324.977 7 117420222.826 7     -2727.641          47.000    22344326.469 7  91496261.641 7     -2125.437          47.000
G07  20856374.219 8 109600975.127 8       656.879          50.000    20856373.617 8  85403356.386 8       511.854          50.000
G09  21189816.453 6 111353346.158 6     -1799.641          38.000    21189817.914 6  86768795.853 6     -1402.317          38.000
G30  21802862.680 8 114574825.553 8      2699.453          50.000    21802863.672 8  89279103.737 8      2103.470          50.000
R07  19662459.578 5 105254705.456 5       778.859          35.000    19662462.289 5  81864750.087 5       605.780          30.000
R09  20600343.844 8 110004673.342 8      3086.922          51.000    20600345.000 8  85559192.884 8      2400.939          49.000
R16  20742868.406 5 110804682.485 5     -1897.141          34.000    20742872.172 5  86181424.612 5     -1475.551          30.000
R22  22832690.305 7 121882428.739 7     -3587.746          45.000    22832692.859 7  94797451.902 7     -2790.469          46.000
C05  39781484.234 5 207152627.230 5       -20.023          35.000    39781483.297 6 160183542.399 6       -15.834          39.000
C23  22552658.414 8 117437569.590 8       517.828          51.000
E21  26098834.125 8 137150313.941 8      2783.488          51.000    26098837.445 8 105089230.275 8      2132.758          48.000
> 2020 05 07 01 34  0.0000000  0 11        .000000000000
G06  22359895.805 8 117502046.523 8     -2736.270          48.000    22359896.523 8  91560020.320 8     -2132.158          48.000
G07  20852633.305 8 109581316.775 8       644.574          51.000    20852632.562 8  85388038.202 8       502.266          51.000
G09  21200076.133 6 111407260.474 6     -1804.043          39.000    21200077.000 6  86810807.018 6     -1405.748          40.000
G30  21787447.852 8 114493821.416 8      2691.562          51.000    21787448.508 8  89215983.619 8      2097.321          51.000
R07  19658090.344 6 105231311.772 6       771.465          37.000    19658092.977 5  81846554.999 5       600.028          31.000
R09  20583016.211 8 109912149.735 8      3071.961          49.000    20583017.617 8  85487230.070 8      2389.303          48.000
R16  20753557.562 5 110861778.575 5     -1918.102          35.000    20753560.656 4  86225832.660 4     -1491.860          29.000
R22  22852845.945 7 121990018.997 7     -3594.246          45.000    22852848.422 7  94881133.227 7     -2795.522          46.000
C05  39781563.719 5 207153040.900 5       -16.883          35.000    39781562.789 6 160183862.593 6       -12.602          40.000
C23  22549686.141 8 117422093.634 8       504.938          51.000
E21  26082924.672 8 137066707.081 8      2781.137          51.000    26082926.875 7 105025167.893 7      2131.007          47.000
> 2020 05 07 01 34 30.0000000  0 13        .000000000000
G04  23834539.656 5 125251350.596 5     -2933.316          31.000
G06  22375551.508 8 117584316.636 8     -2751.113          49.000    22375552.492 8  91624126.879 8     -2143.725          48.000
G07  20848999.820 8 109562221.744 8       625.844          51.000    20848998.703 8  85373158.957 8       487.670          51.000
G09  21210395.594 6 111461489.099 6     -1814.301          37.000    21210396.289 6  86853063.106 6     -1413.741          38.000
G30  21772115.789 8 114413250.143 8      2677.125          51.000    21772114.344 8  89153200.852 8      2086.074          51.000
R06  20931999.383 5 111697132.930 5     -2231.836          32.000
R07  19653798.117 6 105208334.381 6       757.820          36.000    19653801.320 5  81828683.632 5       589.413          30.000
R09  20565809.414 8 109820269.847 8      3050.668          49.000    20565810.469 7  85415767.923 7      2372.742          47.000
R16  20764398.406 5 110919686.784 5     -1945.320          34.000    20764402.203 5  86270872.418 5     -1513.024          30.000
R22  22873074.578 7 122098000.607 7     -3607.223          46.000    22873076.836 7  94965118.942 7     -2805.618          45.000
C05  39781656.492 5 207153524.285 5       -18.523          35.000    39781655.648 6 160184236.395 6       -14.160          40.000
C23  22546824.094 8 117407192.720 8       485.789          51.000
E21  26067064.633 8 136983362.627 8      2772.488          51.000    26067066.102 7 104961306.570 7      2124.467          45.000
> 2020 05 07 01 35  0.0000000  0 14        .000000000000
G02  22443392.648 5 117940812.792 5      -606.051          34.000
G06  22391271.555 8 117666926.245 8     -2759.117          49.000    22391273.492 8  91688497.986 8     -2149.961          48.000
G07  20845453.711 8 109543585.957 8       613.652          51.000    20845452.438 8  85358637.588 8       478.171          51.000
G09  21220755.102 6 111515927.271 6     -1818.031          38.000    21220755.297 6  86895482.391 6     -1416.648          39.000
G30  21756846.719 8 114333009.418 8      2669.238          51.000    21756843.469 8  89090675.660 8      2079.929          51.000
R06  20944553.992 5 111764121.752 5     -2237.672          33.000
R07  19649564.688 6 105185668.622 6       750.363          37.000    19649566.234 4  81811054.637 4       583.616          29.000
R09  20548704.445 8 109728931.225 8      3035.758          50.000    20548705.016 7  85344726.742 7      2361.145          46.000
R16  20775371.281 5 110978298.212 5     -1965.070          34.000    20775372.375 4  86316464.077 4     -1528.388          26.000
R22  22893356.016 7 122206263.046 7     -3613.305          46.000    22893357.719 7  95049323.060 7     -2810.348          45.000
C05  39781742.828 5 207153972.941 5       -14.887          35.000    39781742.023 6 160184584.099 6       -10.931          39.000
C23  22544052.570 8 117392763.924 8       473.172          51.000
C25  24721660.945 5 128732151.767 5     -2377.906          35.000
E21  26051234.828 8 136900178.505 8      2770.262          51.000    26051235.133 7 104897568.097 7      2122.671          45.000
> 2020 05 07 01 35 30.0000000  0 13        .000000000000
G02  22446887.867 5 117959197.492 5      -625.938          31.000
G06  22407049.484 8 117749839.553 8     -2773.941          50.000    22407051.992 8  91753105.752 8     -2161.513          50.000
G07  20841988.664 8 109525376.371 8       594.719          51.000    20841987.250 8  85344448.327 8       463.417          51.000
G09  21231147.938 6 111570540.982 6     -1828.387          41.000    21231148.211 7  86938038.569 7     -1424.717          42.000
G30  21741634.461 8 114253068.125 8      2654.406          51.000    21741631.492 8  89028383.755 8      2068.369          51.000
R07  19645383.555 6 105163282.127 6       736.133          38.000    19645384.859 4  81793642.894 4       572.545          29.000
R09  20531695.352 8 109638103.923 8      3013.680          50.000    20531696.008 7  85274083.293 7      2343.976          47.000
R16  20786468.133 5 111037576.595 5     -1992.137          32.000    20786468.531 4  86362563.446 4     -1549.440          29.000
R22  22913682.586 7 122314768.264 7     -3625.984          46.000    22913684.641 7  95133715.994 7     -2820.210          45.000
C05  39781816.438 5 207154356.199 5       -16.613          34.000    39781815.602 6 160184880.489 6       -13.161          39.000
C23  22541365.883 8 117378774.860 8       453.824          51.000
C25  24735385.141 6 128803619.152 6     -2391.441          37.000
E21  26035429.406 8 136817123.739 8      2761.125          50.000    26035428.703 7 104833928.733 7      2115.664          46.000
> 2020 05 07 01 36  0.0000000  0 13        .000000000000
G02  22450497.383 5 117978168.768 5      -640.836          32.000
G06  22422910.234 8 117833188.141 8     -2783.891          50.000    22422912.953 8  91818052.688 8     -2169.265          50.000
G07  20838630.414 8 109507727.642 8       580.484          51.000    20838628.539 8  85330696.074 8       452.325          51.000
G09  21241599.594 7 111625463.877 7     -1834.367          43.000    21241599.812 7  86980835.652 7     -1429.377          43.000
G30  21726504.773 8 114173562.440 8      2644.477          50.000    21726503.188 8  88966431.254 8      2060.631          50.000
R07  19641280.359 6 105141312.989 6       726.785          37.000    19641282.195 4  81776555.803 4       565.283          29.000
R09  20514808.555 8 109547928.382 8      2996.477          51.000    20514809.039 7  85203946.767 7      2330.593          47.000
R16  20797715.000 5 111097655.656 5     -2014.152          33.000    20797717.102 4  86409291.652 4     -1566.566          28.000
R22  22934079.078 7 122423648.233 7     -3633.973          46.000    22934082.008 7  95218400.409 7     -2826.423          45.000
C05  39781902.906 5 207154807.225 5       -14.441          35.000    39781902.008 6 160185228.492 6       -11.345          39.000
C23  22538789.695 8 117365358.957 8       439.215          51.000
C25  24749185.977 6 128875480.498 6     -2400.207          37.000
E21  26019674.492 8 136734334.745 8      2756.738          49.000    26019674.242 8 104770493.036 8      2112.258          48.000
> 2020 05 07 01 36 30.0000000  0 13        .000000000000
G02  22454203.164 6 117997620.541 6      -652.711          36.000
G06  22438836.336 8 117916881.039 8     -2791.449          49.000    22438839.188 8  91883267.913 8     -2175.155          49.000
G07  20835361.906 8 109490551.864 8       568.789          51.000    20835359.859 8  85317312.363 8       443.212          51.000
G09  21252092.891 6 111680607.153 6     -1837.523          40.000    21252093.344 6  87023804.427 6     -1431.839          40.000
G30  21711441.438 8 114094405.997 8      2636.699          50.000    21711441.266 8  88904750.879 8      2054.571          50.000
R07  19637238.336 6 105119672.864 6       720.145          36.000    19637240.820 4  81759724.595 4       560.115          27.000
R09  20498027.891 8 109458318.692 8      2981.695          51.000    20498028.656 7  85134250.356 7      2319.096          47.000
R16  20809094.500 4 111158446.502 4     -2033.395          29.000    20809096.188 4  86456578.590 4     -1581.532          26.000
R22  22954528.227 7 122532808.860 7     -3639.129          46.000    22954531.453 7  95303303.122 7     -2830.434          43.000
C05                                                                  39781984.492 6 160185560.644 6        -7.576          39.000
C23  22536306.891 8 117352429.141 8       426.891          51.000
C25  24763045.258 5 128947646.605 5     -2407.156          35.000
E21  26003954.172 8 136651725.452 8      2754.688          50.000    26003954.930 8 104707195.008 8      2110.648          50.000
> 2020 05 07 01 37  0.0000000  0 12        .000000000000
G02  22457975.141 5 118017437.829 5      -677.734          33.000
G06  22454798.945 8 118000767.214 8     -2810.730          48.000    22454802.148 8  91948633.762 8     -2190.180          48.000
G07  20832155.062 8 109473700.931 8       544.902          51.000    20832153.367 8  85304181.786 8       424.599          51.000
G09  21262599.891 6 111735821.775 6     -1853.070          39.000    21262600.242 6  87066828.757 6     -1443.954          38.000
G30  21696417.094 8 114015452.353 8      2617.129          51.000    21696417.891 8  88843228.545 8      2039.321          51.000
R07  19633227.719 6 105098212.044 6       700.445          36.000    19633230.328 4  81743032.921 4       544.791          28.000
R09  20481325.711 8 109369127.982 8      2954.574          51.000    20481326.414 7  85064879.818 7      2298.002          47.000
R22  22975000.906 7 122642094.835 7     -3656.355          46.000    22975003.656 7  95388303.315 7     -2843.835          42.000
C05  39782035.938 5 207155500.182 5       -16.695          35.000    39782034.914 6 160185763.544 6       -13.324          39.000
C23  22533889.391 8 117339838.797 8       402.844          51.000
C25  24776934.211 5 129019968.635 5     -2424.457          34.000
E21  25988240.484 8 136569149.644 8      2740.609          50.000    25988242.898 8 104643922.655 8      2099.965          51.000
> 2020 05 07 01 37 30.0000000  0 12        .000000000000
G06  22470879.586 7 118085273.506 7     -2813.629          47.000    22470883.258 7  92014482.859 7     -2192.438          47.000
G07  20829091.812 8 109457604.167 8       537.590          51.000    20829090.375 8  85291638.853 8       418.901          51.000
G09  21273202.055 6 111791536.492 6     -1851.691          41.000    21273202.094 6  87110242.799 6     -1442.876          41.000
G30  21681513.875 8 113937132.962 8      2613.801          51.000    21681514.812 8  88782200.452 8      2036.728          51.000
R07  19629333.883 5 105077369.685 5       698.574          33.000    19629335.797 5  81726822.181 5       543.339          31.000
R09  20464783.859 8 109280796.244 8      2943.895          51.000    20464784.727 8  84996177.400 8      2289.696          48.000
R16  20832252.219 5 111282150.769 5     -2080.512          31.000    20832257.906 4  86552807.734 4     -1618.176          28.000
R22  22995578.133 7 122751938.275 7     -3656.746          46.000    22995580.297 7  95473737.066 7     -2844.136          43.000
C05  39782135.914 5 207156020.555 5        -7.500          34.000    39782134.891 6 160186166.329 6        -6.189          39.000
C23  22531618.602 8 117328013.912 8       394.934          51.000
C25  24790934.281 5 129092870.266 5     -2426.152          35.000
E21  25972615.867 8 136487039.053 8      2742.914          50.000    25972619.305 8 104581006.773 8      2101.806          51.000
> 2020 05 07 01 38  0.0000000  0 12        .000000000000
G04  23951882.180 5 125867968.344 5     -2938.023          30.000
G06  22487026.828 8 118170126.787 8     -2826.551          49.000    22487030.609 8  92080602.310 8     -2202.507          49.000
G07  20826120.609 8 109441991.352 8       519.723          51.000    20826119.195 8  85279473.033 8       404.979          51.000
G09  21283847.953 6 111847480.289 6     -1861.129          40.000    21283847.328 6  87153835.333 6     -1450.230          40.000
G30  21666680.266 8 113859179.189 8      2599.867          51.000    21666680.797 8  88721457.284 8      2025.871          51.000
R07  19625504.859 6 105056871.598 6       685.074          37.000    19625504.336 4  81710879.182 4       532.836          29.000
R09  20448352.273 8 109193052.552 8      2922.531          51.000    20448353.492 8  84927932.330 8      2273.080          49.000
R22  23016207.703 7 122862059.840 7     -3667.609          46.000    23016210.383 7  95559387.142 7     -2852.585          43.000
C05  39782234.219 5 207156532.217 5        -9.406          35.000    39782233.156 6 160186561.956 6        -7.255          40.000
C23  22529443.555 8 117316686.787 8       376.668          51.000
C25  24804993.383 5 129166081.757 5     -2438.129          34.000
E21  25957028.883 8 136405125.364 8      2734.617          50.000    25957032.570 8 104518241.742 8      2095.371          51.000
> 2020 05 07 01 38 30.0000000  0 14        .000000000000
G02  22469993.086 5 118080599.950 5      -716.902          32.000
G04  23968680.102 5 125956257.823 5     -2936.863          34.000
G06  22503212.664 8 118255181.984 8     -2834.520          50.000    22503216.219 8  92146879.077 8     -2208.717          50.000
G07  20823214.508 8 109426720.491 8       507.254          51.000    20823213.016 8  85267573.670 8       395.263          51.000
G09  21294510.320 6 111903510.134 6     -1865.520          41.000    21294509.477 6  87197494.971 6     -1453.652          40.000
G30  21651889.289 8 113781450.617 8      2591.094          51.000    21651889.344 8  88660889.593 8      2019.034          51.000
R06  21033979.430 5 112241313.394 5     -2298.613          30.000
R07  19621713.875 6 105036574.118 6       677.125          39.000    19621710.461 4  81695092.284 4       526.653          29.000
R09  20432004.594 8 109105755.764 8      2906.438          51.000    20432006.055 8  84860034.829 8      2260.562          51.000
R22  23036861.703 7 122972310.364 7     -3673.086          44.000    23036865.117 7  95645137.567 7     -2856.845          43.000
C05  39782303.609 5 207156893.171 5        -5.359          35.000    39782302.609 6 160186841.464 6        -4.401          39.000
C23  22527337.109 8 117305716.666 8       363.594          51.000
C25  24819083.969 5 129239460.086 5     -2444.098          31.000
E21  25941452.445 8 136323268.338 8      2731.523          50.000    25941456.227 8 104455520.118 8      2093.048          51.000
> 2020 05 07 01 39  0.0000000  0 13        .000000000000
G04  23985505.672 5 126044676.571 5     -2945.961          35.000
G06  22519483.891 8 118340685.673 8     -2853.484          51.000    22519486.531 8  92213505.292 8     -2223.497          51.000
G07  20820421.039 8 109412040.759 8       483.555          51.000    20820419.570 8  85256134.927 8       376.796          51.000
G09  21305236.211 7 111959874.718 7     -1880.246          42.000    21305235.180 7  87241415.392 7     -1465.127          42.000
G30  21637188.594 8 113704198.465 8      2571.352          51.000    21637188.641 8  88600693.135 8      2003.651          51.000
R07  19618006.938 6 105016732.735 6       657.484          36.000    19618004.688 4  81679660.044 4       511.374          28.000
R09  20415788.891 8 109019163.240 8      2878.777          51.000    20415790.570 8  84792685.091 8      2239.049          51.000
R10  22939429.539 6 122280069.238 6      4545.410          36.000
R22  23057586.078 7 123082938.730 7     -3689.797          43.000    23057589.742 6  95731181.848 6     -2869.842          41.000
C05  39782391.602 5 207157352.175 5       -12.805          35.000    39782390.641 6 160187196.010 6        -9.956          39.000
C23  22525346.344 8 117295350.881 8       339.531          51.000
E19  24044761.656 5 126356076.186 5       621.344          32.000    24044759.375 5  96818279.182 5       475.741          33.000
E21  25925934.320 8 136241719.492 8      2717.109          49.000    25925938.227 8 104393034.616 8      2081.908          51.000
> 2020 05 07 01 39 30.0000000  0 13        .000000000000
G04  24002333.211 5 126133104.793 5     -2948.340          35.000
G06  22535812.109 8 118426489.841 8     -2865.715          51.000    22535813.516 8  92280365.647 8     -2233.025          51.000
G07  20817712.383 8 109397806.947 8       466.473          51.000    20817711.156 8  85245043.660 8       363.485          51.000
G09  21315998.008 7 112016428.188 7     -1888.785          43.000    21315997.492 7  87285482.999 7     -1471.781          42.000
G30  21622551.000 8 113627279.303 8      2557.898          51.000    21622551.492 8  88540756.140 8      1993.168          51.000
R07  19614357.836 6 104997201.043 6       645.141          37.000    19614354.320 4  81664468.789 4       501.776          28.000
R09  20399677.875 8 108933130.846 8      2857.812          51.000    20399679.820 8  84725771.005 8      2222.743          51.000
R10  22913869.742 6 122143815.799 6      4539.703          37.000
R22  23078352.367 7 123193793.075 7     -3699.480          42.000    23078355.180 6  95817401.912 6     -2877.371          39.000
C05  39782470.586 5 207157763.083 5       -13.305          35.000    39782469.766 6 160187514.521 6       -10.376          39.000
C23  22523444.305 8 117285445.821 8       321.934          51.000
E19  24041245.562 5 126337597.277 5       614.590          33.000    24041235.695 5  96804093.092 5       470.896          32.000
E21  25910447.234 8 136160335.673 8      2709.520          49.000    25910451.227 8 104330675.551 8      2076.182          51.000
> 2020 05 07 01 40  0.0000000  0 14        .000000000000
G04  24019173.359 6 126221597.504 6     -2951.277          37.000
G06  22552207.164 8 118512647.243 8     -2877.934          50.000    22552208.125 8  92347501.255 8     -2242.546          50.000
G07  20815099.250 8 109384074.685 8       449.281          51.000    20815098.148 8  85234343.218 8       350.089          51.000
G09  21326805.938 6 112073225.320 6     -1897.051          41.000    21326805.898 7  87329740.522 7     -1478.221          42.000
G30  21607987.578 8 113550750.480 8      2544.355          51.000    21607988.891 8  88481123.281 8      1982.615          50.000
R07  19610776.836 5 104978036.740 5       632.520          34.000    19610775.672 4  81649563.279 4       491.963          29.000
R09  20383682.555 8 108847718.699 8      2836.496          49.000    20383685.398 8  84659339.357 8      2206.164          51.000
R10  22888339.750 6 122007719.672 6      4533.605          39.000
R22  23099171.078 7 123304925.081 7     -3709.137          45.000    23099172.117 6  95903837.876 6     -2884.887          38.000
C05                                                                  39782550.586 6 160187839.599 6       -11.046          40.000
C23  22521641.547 8 117276056.692 8       304.266          51.000
E12  24068498.672 6 126480808.269 6     -1826.367          41.000
E19                                                                  24037744.258 5  96790034.809 5       466.307          33.000
E21  25895002.586 8 136079174.550 8      2701.496          50.000    25895006.367 8 104268487.131 8      2070.073          51.000
> 2020 05 07 01 40 30.0000000  0 14        .000000000000
G02  22487347.375 5 118171807.203 5      -793.719          30.000
G04  24036021.758 5 126310133.928 5     -2952.816          32.000
G06  22568664.789 8 118599134.730 8     -2888.977          50.000    22568666.523 8  92414894.076 8     -2251.151          49.000
G07  20812577.828 8 109370823.522 8       433.039          51.000    20812576.852 8  85224017.647 8       337.433          51.000
G09  21337655.961 6 112130245.164 6     -1904.758          41.000    21337656.219 6  87374171.598 6     -1484.227          41.000
G30  21593494.945 8 113474593.431 8      2531.816          51.000    21593497.070 8  88421780.100 8      1972.841          50.000
R09  20367799.516 8 108762909.543 8      2816.359          48.000    20367803.602 8  84593376.681 8      2190.502          50.000
R10  22862835.602 6 121871764.195 6      4528.855          39.000
R22  23120037.961 7 123416309.670 7     -3717.531          47.000    23120037.516 6  95990470.308 6     -2891.416          39.000
C05                                                                  39782629.164 6 160188155.774 6       -10.910          39.000
C23  22519933.750 8 117267163.476 8       287.582          51.000
E12  24078954.727 6 126535756.013 6     -1837.672          40.000    24078958.516 6  96955968.975 6     -1407.964          36.000
E19                                                                  24034281.586 5  96776091.125 5       462.521          33.000
E21  25879596.906 8 135998217.768 8      2694.516          49.000    25879600.039 8 104206455.308 8      2064.623          50.000
> 2020 05 07 01 41  0.0000000  0 13        .000000000000
G02  22491956.586 5 118196028.834 5      -813.188          33.000
G06  22585206.031 8 118686061.084 8     -2901.930          50.000    22585209.023 8  92482628.893 8     -2261.244          49.000
G07  20810169.031 8 109358164.955 8       414.895          51.000    20810168.391 8  85214153.861 8       323.294          51.000
G09  21348569.531 7 112187598.521 7     -1914.535          42.000    21348570.016 7  87418862.552 7     -1491.843          42.000
G30  21579095.094 8 113398921.490 8      2517.133          51.000    21579097.539 8  88362814.935 8      1961.402          51.000
R09  20352050.844 7 108678820.477 7      2793.867          47.000    20352055.867 8  84527974.011 8      2173.008          49.000
R10  22837380.141 6 121736067.212 6      4521.816          39.000
R22  23140972.516 7 123528055.647 7     -3727.898          46.000    23140972.422 6  96077383.817 6     -2899.477          40.000
C05  39782727.383 5 207159099.906 5       -15.730          34.000    39782726.648 6 160188548.622 6       -12.194          39.000
C23  22518342.469 8 117258876.931 8       268.910          51.000
E12  24089494.688 6 126591144.759 6     -1850.848          40.000    24089500.266 5  96998409.715 5     -1418.029          35.000
E19  24030868.664 5 126283065.995 5       596.168          34.000    24030868.141 5  96762346.805 5       456.966          33.000
E21  25864251.664 8 135917579.053 8      2685.477          49.000    25864254.102 8 104144667.208 8      2057.721          48.000
> 2020 05 07 01 41 30.0000000  0 13        .000000000000
G06  22601788.281 8 118773201.996 8     -2909.551          49.000    22601792.461 8  92550530.903 8     -2267.182          49.000
G07  20807830.953 8 109345877.317 8       402.117          51.000    20807830.422 8  85204579.078 8       313.338          51.000
G09  21359504.664 7 112245063.232 7     -1918.664          42.000    21359505.188 7  87463640.270 7     -1495.060          42.000
G30  21564745.883 8 113323514.874 8      2507.820          51.000    21564748.383 8  88304056.549 8      1954.146          51.000
R07  19600447.562 5 104922737.850 5       598.039          32.000    19600454.094 5  81606599.147 5       465.138          31.000
R09  20336396.422 8 108595229.848 8      2776.777          49.000    20336401.000 7  84462959.075 7      2159.716          47.000
R10  22811932.109 6 121600407.879 6      4519.855          39.000
R22  23161930.484 7 123639933.358 7     -3732.719          43.000    23161932.219 6  96164399.811 6     -2903.226          39.000
C05  39782801.758 5 207159488.253 5       -12.023          35.000    39782801.164 6 160188848.552 6        -9.533          39.000
C23  22516825.422 8 117250977.723 8       255.598          51.000
E12  24100075.977 6 126646751.414 6     -1858.449          41.000    24100081.008 6  97041017.500 6     -1423.905          36.000
E19  24027463.688 6 126265167.511 6       594.602          36.000    24027461.609 5  96748631.401 5       455.544          33.000
E21  25848925.227 8 135837038.971 8      2681.641          50.000    25848926.250 7 104082954.688 7      2054.823          46.000
> 2020 05 07 01 42  0.0000000  0 13        .000000000000
G06  22618441.414 8 118860713.463 8     -2922.445          49.000    22618446.172 8  92618721.672 8     -2277.230          49.000
G07  20805593.648 8 109334119.876 8       383.820          51.000    20805593.281 8  85195417.457 8       299.081          51.000
G09  21370491.188 6 112302797.538 6     -1928.742          37.000    21370491.898 6  87508628.019 6     -1502.919          37.000
G30  21550477.688 8 113248534.212 8      2492.906          50.000    21550480.047 8  88245630.087 8      1942.524          50.000
R07  19597139.359 5 104905026.587 5       584.113          35.000    19597145.242 5  81592823.710 5       454.310          32.000
R09  20320867.281 8 108512302.687 8      2753.848          51.000    20320870.539 7  84398460.208 7      2141.885          46.000
R10  22786521.750 6 121464950.925 6      4512.613          37.000
R22  23182941.180 7 123752099.888 7     -3743.152          42.000    23182945.461 6  96251640.480 6     -2911.338          39.000
C05  39782883.484 5 207159912.994 5       -14.367          34.000    39782882.734 6 160189177.338 6       -10.977          39.000
C23  22515413.070 8 117243623.390 8       236.727          51.000
E12  24110728.156 6 126702733.299 6     -1871.566          39.000    24110732.648 5  97083912.744 5     -1434.006          34.000
E19  24024095.734 5 126247467.215 5       587.473          34.000    24024092.641 5  96735068.821 5       449.953          32.000
E21  25833648.172 8 135756758.461 8      2672.332          50.000    25833647.383 7 104021441.084 7      2047.637          45.000
> 2020 05 07 01 42 30.0000000  0 16        .000000000000
G02  22506254.523 4 118271181.389 4      -856.410          29.000
G04  24103517.125 5 126664838.094 5     -2953.059          33.000
G06  22635140.938 8 118948467.213 8     -2927.352          49.000    22635145.617 8  92687101.235 8     -2281.053          49.000
G07  20803433.219 8 109322766.957 8       373.438          51.000    20803433.141 8  85186571.055 8       290.993          51.000
G09  21381505.211 6 112360675.188 6     -1929.492          39.000    21381505.289 6  87553727.466 6     -1503.500          39.000
G30  21536266.898 8 113173855.790 8      2485.922          50.000    21536269.125 8  88187439.121 8      1937.082          50.000
R07  19593882.055 5 104887591.038 5       578.484          34.000    19593890.148 5  81579262.746 5       449.926          32.000
R09  20305439.758 8 108429914.739 8      2738.871          51.000    20305441.258 7  84334380.728 7      2130.236          46.000
R10  22761125.953 6 121329573.643 6      4512.773          37.000
R22  23203982.477 7 123864423.273 7     -3744.668          44.000    23203988.109 6  96339003.133 6     -2912.520          40.000
C05  39782948.531 5 207160251.311 5        -7.777          34.000    39782947.711 6 160189438.993 6        -6.518          40.000
C23  22514081.570 8 117236689.666 8       225.805          51.000
C25  24934047.047 5 129838059.790 5     -2529.668          30.000
E12  24121427.164 6 126758963.359 6     -1876.539          37.000    24121431.641 5  97126998.188 5     -1438.077          35.000
E19  24020741.117 5 126229845.854 5       587.969          33.000    24020737.508 5  96721556.123 5       450.357          33.000
E21  25818397.055 8 135676614.098 8      2670.875          49.000    25818394.828 7 103960031.807 7      2046.401          44.000
> 2020 05 07 01 43  0.0000000  0 15        .000000000000
G02  22511210.453 5 118297240.461 5      -886.359          35.000    22511201.078 4  92179604.565 4      -690.670          27.000
G06  22651918.148 8 119036629.578 8     -2952.324          49.000    22651922.422 8  92755799.184 8     -2300.512          49.000
G07  20801381.961 8 109311987.473 8       342.891          51.000    20801381.914 8  85178171.457 8       267.188          51.000
G09  21392578.391 6 112418864.770 6     -1951.188          40.000    21392579.047 6  87599069.980 6     -1520.406          40.000
G30  21522145.719 8 113099650.512 8      2458.895          49.000    21522147.758 8  88129616.812 8      1916.022          49.000
R07  19590709.664 5 104870605.211 5       551.551          35.000    19590716.633 5  81566051.577 5       428.987          32.000
R09  20290146.055 8 108348241.620 8      2703.480          51.000    20290146.398 7  84270857.217 7      2102.710          47.000
R10  22735777.828 5 121194451.444 5      4492.633          34.000
R22  23225085.602 7 123977070.980 7     -3767.184          46.000    23225092.688 6  96426617.995 6     -2930.035          41.000
C05  39783029.133 5 207160671.632 5       -22.199          34.000    39783028.273 6 160189763.222 6       -17.166          40.000
C23  22512862.742 8 117230344.312 8       194.902          51.000
C25  24948680.609 4 129914257.644 4     -2553.113          29.000
E12  24132205.102 5 126815609.308 5     -1901.953          35.000    24132208.805 5  97170402.146 5     -1457.158          30.000
E19  24017433.242 5 126212463.116 5       569.414          32.000    24017429.273 5  96708235.385 5       435.341          34.000
E21  25803204.320 8 135596777.092 8      2649.410          49.000    25803202.281 7 103898858.035 7      2029.969          46.000
> 2020 05 07 01 43 30.0000000  0 14        .000000000000
G02  22516279.008 6 118323876.865 6      -890.727          39.000
G06  22668762.328 8 119125144.805 8     -2950.246          49.000    22668766.094 8  92824772.095 8     -2298.893          49.000
G07  20799429.508 8 109301728.456 8       339.418          51.000    20799429.547 8  85170177.430 8       264.482          50.000
G09  21403700.828 6 112477312.622 6     -1946.379          38.000    21403701.570 6  87644613.763 6     -1516.659          38.000
G30  21508104.586 8 113025867.202 8      2458.492          49.000    21508106.273 8  88072123.306 8      1915.708          49.000
R07  19587610.484 5 104854016.374 5       552.223          33.000    19587618.578 5  81553149.057 5       429.507          31.000
R09  20274976.320 8 108267232.924 8      2695.387          51.000    20274976.125 8  84207850.467 8      2096.412          48.000
R22  23246238.789 7 124089984.555 7     -3761.949          47.000    23246246.945 7  96514439.631 7     -2925.964          42.000
C05                                                                  39783114.289 6 160190109.530 6        -6.962          40.000
C23  22511747.023 8 117224534.987 8       190.828          51.000
C25  24963376.422 5 129990780.740 5     -2550.141          31.000
E12  24143052.055 6 126872616.567 6     -1900.031          36.000
E19  24014161.102 5 126195267.541 5       575.977          33.000    24014158.539 5  96695060.285 5       441.476          34.000
E21  25788060.719 8 135517196.603 8      2654.570          49.000    25788060.172 8 103837880.811 8      2034.024          48.000
> 2020 05 07 01 44  0.0000000  0 15        .000000000000
G02  22521438.062 6 118350985.853 6      -910.812          37.000
G06  22685661.609 8 119213951.040 8     -2964.289          48.000    22685665.102 8  92893971.772 8     -2309.836          48.000
G07  20797564.836 8 109291930.871 8       319.594          50.000    20797565.172 8  85162542.946 8       249.034          50.000
G09  21414861.516 6 112535959.123 6     -1957.777          40.000    21414861.227 6  87690312.243 6     -1525.541          40.000
G30  21494133.422 8 112952448.532 8      2441.973          50.000    21494134.727 8  88014913.963 8      1902.836          50.000
R06  21180094.203 5 113021055.154 5     -2415.359          31.000
R07  19584576.328 6 104837765.769 6       536.836          36.000    19584581.859 5  81540509.720 5       417.536          30.000
R09  20259920.188 8 108186832.083 8      2670.551          51.000    20259919.922 8  84145316.479 8      2077.095          49.000
R22  23267429.859 8 124203099.632 8     -3772.938          48.000    23267437.656 6  96602417.987 6     -2934.510          41.000
C05  39783195.367 5 207161537.220 5       -12.984          34.000    39783194.594 6 160190432.915 6        -9.772          40.000
C23  22510722.867 8 117219203.282 8       170.504          51.000
C25  24978123.453 5 130067568.633 5     -2563.078          34.000
E12  24153956.141 5 126929924.530 5     -1914.504          34.000
E19  24010913.523 5 126178203.399 5       567.637          34.000    24010913.227 5  96681985.952 5       434.859          35.000
E21  25772955.172 8 135437815.674 8      2643.441          49.000    25772956.500 8 103777056.482 8      2025.518          50.000
> 2020 05 07 01 44 30.0000000  0 16        .000000000000
G02  22526688.602 6 118378581.174 6      -922.898          36.000    22526693.117 5  92243046.732 5      -719.142          33.000
G04  24171185.609 5 127020419.361 5     -2960.191          33.000
G06  22702618.578 8 119303060.487 8     -2970.422          49.000    22702621.523 8  92963407.717 8     -2314.614          49.000
G07  20795790.773 8 109282609.569 8       307.645          49.000    20795791.461 8  85155279.594 8       239.723          49.000
G09  21426062.625 6 112594818.538 6     -1960.426          41.000    21426061.477 6  87736176.688 6     -1527.605          36.000
G30  21480235.312 8 112879411.232 8      2433.191          51.000    21480236.742 8  87958001.794 8      1895.993          51.000
R07  19581609.094 6 104821870.167 6       529.027          39.000    19581611.727 5  81528146.531 5       411.469          30.000
R09  20244981.148 8 108107057.838 8      2653.676          51.000    20244981.180 8  84083269.848 8      2063.970          49.000
R16  21009236.781 4 112227571.015 4     -2405.867          28.000
R22  23288660.609 7 124316427.096 7     -3775.949          47.000    23288666.984 6  96690561.552 6     -2936.849          41.000
C05                                                                  39783272.086 6 160190744.969 6        -6.201          40.000
C23  22509793.398 8 117214364.154 8       157.961          51.000
C25  24992923.438 5 130144634.352 5     -2568.520          35.000
E12  24164920.719 5 126987546.661 5     -1921.004          35.000
E19  24007694.422 6 126161287.104 6       566.449          36.000    24007695.406 5  96669024.115 5       434.335          34.000
E21  25757890.836 8 135358651.464 8      2640.191          50.000    25757893.742 8 103716398.188 8      2023.091          51.000
> 2020 05 07 01 45  0.0000000  0 16        .000000000000
G02  22532021.008 6 118406603.070 6      -945.590          37.000    22532026.578 5  92264882.058 5      -736.823          35.000
G04  24188106.281 5 127109355.492 5     -2968.113          34.000
G06  22719621.523 8 119392411.637 8     -2986.402          49.000    22719623.359 8  93033031.963 8     -2327.067          49.000
G07  20794096.102 8 109273705.453 8       285.738          49.000    20794096.773 8  85148341.304 8       222.650          49.000
G09  21437292.266 6 112653831.611 6     -1973.941          37.000    21437292.250 6  87782160.881 6     -1538.133          36.000
G30  21466399.070 8 112806698.281 8      2414.293          51.000    21466400.602 8  87901342.376 8      1881.267          51.000
R06  21207373.359 5 113166578.230 5     -2436.883          31.000
R07  19578695.711 6 104806271.524 6       510.590          38.000    19578696.547 5  81516014.355 5       397.132          30.000
R09  20230148.984 8 108027854.138 8      2626.453          51.000    20230149.250 8  84021666.947 8      2042.797          49.000
R22  23309918.672 7 124429902.781 7     -3789.184          47.000    23309924.539 7  96778820.408 7     -2947.143          43.000
C05  39783336.430 5 207162271.167 5       -13.754          35.000    39783335.602 6 160191000.858 6       -10.762          40.000
C23  22508947.406 8 117209959.463 8       135.543          51.000
C25  25007764.422 5 130221917.775 5     -2583.707          35.000
E12  24175935.008 6 127045393.807 6     -1937.578          37.000    24175934.984 5  97346469.934 5     -1484.587          32.000
E19  24004492.828 6 126144459.469 6       555.277          37.000    24004493.859 5  96656130.223 5       425.529          34.000
E21  25742856.859 8 135279647.292 8      2626.750          49.000    25742861.055 8 103655862.525 8      2012.696          51.000
> 2020 05 07 01 45 30.0000000  0 14        .000000000000
G02  22537479.773 5 118435284.117 5      -962.730          35.000    22537483.477 5  92287230.974 5      -750.186          34.000
G06  22736714.211 7 119482235.091 7     -2997.672          47.000    22736714.734 8  93103024.213 8     -2335.848          48.000
G07  20792525.477 8 109265451.853 8       268.656          50.000    20792525.859 8  85141909.919 8       209.343          50.000
G09  21448594.484 6 112713231.183 6     -1982.082          36.000    21448596.172 5  87828446.238 5     -1544.480          35.000
G30  21452669.047 8 112734544.858 8      2400.031          51.000    21452670.633 8  87845118.940 8      1870.154          51.000
R07  19575880.500 6 104791208.722 6       497.492          37.000    19575881.008 5  81504298.885 5       386.938          31.000
R09  20215468.195 8 107949460.941 8      2603.973          51.000    20215468.469 8  83960694.453 8      2025.312          49.000
R22  23331248.016 7 124543759.224 7     -3797.090          46.000    23331254.094 7  96867375.428 7     -2953.292          44.000
C05                                                                  39783429.648 6 160191379.550 6       -11.318          40.000
C23  22508229.305 8 117206220.550 8       117.855          51.000
C25  25022691.156 5 130299648.343 5     -2594.434          35.000
E12  24187042.258 6 127103755.784 6     -1949.066          39.000    24187045.094 5  97391192.800 5     -1493.545          34.000
E19  24001352.891 6 126127954.345 6       549.246          36.000    24001352.891 5  96643502.436 5       420.800          33.000
E21  25727898.039 8 135201038.691 8      2618.070          49.000    25727902.766 8 103595629.920 8      2005.964          51.000
> 2020 05 07 01 46  0.0000000  0 14        .000000000000
G02  22543011.578 5 118464348.856 5      -976.410          34.000    22543012.117 5  92309878.889 5      -760.827          32.000
G06  22753843.703 7 119572253.890 7     -3005.148          44.000    22753843.508 7  93173168.680 7     -2341.674          44.000
G07  20791026.688 8 109257574.940 8       255.031          51.000    20791026.750 8  85135772.066 8       198.726          51.000
G09  21459918.695 6 112772742.415 6     -1986.562          39.000    21459920.156 6  87874818.728 6     -1547.971          38.000
G30  21438993.234 8 112662678.538 8      2389.520          51.000    21438995.219 8  87789119.232 8      1861.963          51.000
R07  19573113.305 6 104776404.254 6       487.621          37.000    19573115.711 5  81492784.292 5       379.258          33.000
R09  20200887.766 8 107871603.373 8      2585.000          51.000    20200888.273 8  83900138.599 8      2010.556          49.000
R22  23352595.992 7 124657713.691 7     -3801.344          47.000    23352602.055 7  96956006.688 7     -2956.598          43.000
C05                                                                  39783502.047 6 160191671.112 6        -9.077          39.000
C23  22507587.148 8 117202875.824 8       103.656          51.000
C25  25037651.547 5 130377552.467 5     -2600.602          32.000
E12  24198189.516 6 127162327.907 6     -1957.113          41.000    24198193.258 6  97436072.693 6     -1499.415          37.000
E19  23998222.023 6 126111497.986 6       546.398          36.000    23998221.094 5  96630893.010 5       418.388          33.000
E21  25712962.773 8 135122553.626 8      2612.820          49.000    25712967.922 8 103535491.973 8      2002.091          51.000
> 2020 05 07 01 46 30.0000000  0 14        .000000000000
G02  22548639.719 5 118493920.670 5      -994.184          35.000    22548638.375 5  92332904.760 5      -774.692          33.000
G06  22771033.266 7 119662589.327 7     -3016.719          43.000    22771033.562 7  93243559.930 7     -2350.690          43.000
G07  20789623.180 8 109250198.540 8       237.234          51.000    20789622.906 8  85130024.231 8       184.858          51.000
G09  21471288.195 6 112832489.097 6     -1996.000          40.000    21471291.086 6  87921374.568 6     -1555.325          39.000
G30  21425395.758 8 112591225.243 8      2374.461          50.000    21425398.266 8  87733441.344 8      1850.229          50.000
R07  19570419.398 6 104761985.988 6       473.738          38.000    19570422.750 5  81481570.027 5       368.463          34.000
R09  20186432.156 8 107794411.244 8      2561.539          51.000    20186432.500 8  83840100.297 8      1992.308          48.000
R22  23373984.609 7 124771887.981 7     -3809.898          45.000    23373990.422 7  97044808.899 7     -2963.254          42.000
C05  39783577.336 5 207163525.672 5       -13.383          35.000    39783576.414 6 160191970.901 6       -10.409          40.000
C23  22507044.430 8 117200048.385 8        85.191          51.000
C25  25052668.930 4 130455751.424 4     -2610.719          29.000
E12  24209399.797 6 127221232.823 6     -1969.562          41.000    24209403.547 6  97481207.637 6     -1509.208          38.000
E19  23995123.453 5 126095214.986 5       539.633          34.000    23995122.828 5  96618416.471 5       412.928          35.000
E21  25698075.125 8 135044318.369 8      2603.191          50.000    25698080.211 8 103475545.468 8      1994.710          51.000
> 2020 05 07 01 47  0.0000000  0 13        .000000000000
G02  22554361.773 5 118523987.707 5     -1010.730          35.000    22554359.750 5  92356333.638 5      -787.573          34.000
G06  22788281.062 7 119753227.974 7     -3026.461          45.000    22788282.305 7  93314187.432 7     -2358.281          45.000
G07  20788312.906 8 109243311.578 8       221.188          51.000    20788312.156 8  85124657.784 8       172.354          51.000
G09  21482700.547 6 112892459.795 6     -2003.145          40.000    21482704.078 6  87968104.943 6     -1560.895          39.000
G30  21411875.180 8 112520175.973 8      2361.203          50.000    21411878.023 8  87678078.254 8      1839.899          50.000
R07  19567796.594 6 104747944.260 6       461.395          40.000    19567799.859 5  81470648.679 5       358.862          35.000
R09  20172099.594 8 107717876.535 8      2539.918          51.000    20172099.906 8  83780573.317 8      1975.492          48.000
R22  23395411.148 7 124886266.661 7     -3816.363          44.000    23395416.203 6  97133770.098 6     -2968.283          40.000
C05  39783651.758 5 207163914.017 5       -12.949          35.000    39783650.961 6 160192270.825 6       -10.321          39.000
C23  22506598.648 8 117197727.563 8        68.633          51.000
E12  24220670.703 6 127280458.112 6     -1979.637          41.000    24220673.500 6  97526588.069 6     -1516.936          39.000
E19  23992055.070 5 126079095.162 5       534.703          35.000    23992055.938 6  96606064.892 6       409.513          36.000
E21  25683233.672 8 134966324.282 8      2595.555          49.000    25683237.773 8 103415783.759 8      1988.844          50.000
> 2020 05 07 01 47 30.0000000  0 15        .000000000000
G04  24272912.883 5 127555023.716 5     -2971.848          34.000
G06  22805573.078 7 119844096.284 7     -3033.105          45.000    22805575.352 7  93384993.860 7     -2363.462          45.000
G07  20787082.281 8 109236843.386 8       208.195          51.000    20787080.969 8  85119617.641 8       162.230          51.000
G09  21494142.258 6 112952583.208 6     -2007.375          39.000    21494143.250 6  88014954.401 6     -1564.188          38.000
G30  21398418.461 8 112449461.604 8      2351.000          50.000    21398421.156 8  87622976.114 8      1831.945          51.000
R06  21276555.375 5 113535793.481 5     -2483.273          30.000
R07  19565228.836 6 104734208.653 6       452.367          36.000    19565233.977 5  81459965.419 5       351.838          35.000
R09  20157877.258 8 107641931.011 8      2521.195          51.000    20157878.133 8  83721504.605 8      1960.930          50.000
R10  22509178.055 5 119986557.540 5      4446.988          32.000
R22  23416861.938 7 125000773.618 7     -3819.484          43.000    23416866.062 6  97222831.071 6     -2970.707          40.000
C05  39783712.859 5 207164231.617 5        -9.562          34.000    39783712.125 6 160192516.795 6        -7.859          40.000
C23  22506236.766 8 117195843.302 8        55.059          51.000
E12  24231988.523 6 127339931.535 6     -1987.188          41.000    24231990.062 6  97572158.623 6     -1522.501          38.000
E19  23989004.977 5 126063068.161 5       532.453          35.000    23989006.266 6  96593784.419 6       407.945          37.000
E21  25668424.992 8 134888502.688 8      2590.738          51.000    25668428.055 8 103356154.265 8      1985.054          50.000
> 2020 05 07 01 48  0.0000000  0 16        .000000000000
G04  24289898.633 5 127644278.895 5     -2980.805          31.000
G06  22822933.188 7 119935323.107 7     -3049.562          43.000    22822936.727 7  93456079.680 7     -2376.286          42.000
G07  20785956.305 8 109230925.403 8       185.211          51.000    20785954.742 8  85115006.245 8       144.320          51.000
G09  21505637.711 6 113012990.513 6     -2021.027          38.000    21505638.852 6  88062025.024 6     -1574.827          38.000
G30  21385051.219 8 112379215.564 8      2330.809          51.000    21385052.930 8  87568238.932 8      1816.214          51.000
R07  19562743.281 5 104720914.735 5       432.863          35.000    19562750.234 5  81449625.733 5       336.674          35.000
R09  20143790.711 8 107566711.668 8      2492.340          51.000    20143792.477 8  83663000.716 8      1938.487          50.000
R10  22484183.430 5 119853335.469 5      4433.059          33.000
R16  21107093.086 4 112750251.630 4     -2568.422          29.000
R22  23438361.500 7 125115538.260 7     -3832.547          44.000    23438364.664 6  97312092.421 6     -2980.870          40.000
C05  39783785.672 5 207164611.284 5       -16.113          34.000    39783784.992 6 160192809.973 6       -12.720          40.000
C23  22505983.758 8 117194526.160 8        31.617          51.000
C25  25098031.578 5 130692007.867 5     -2642.695          33.000
E12  24243378.203 6 127399783.261 6     -2004.195          40.000    24243378.562 6  97618019.035 6     -1535.643          39.000
E19  23985998.000 6 126047266.090 6       519.902          37.000    23985999.180 6  96581676.294 6       398.540          37.000
E21  25653674.828 8 134810987.469 8      2575.875          51.000    25653676.328 8 103296759.506 8      1973.725          51.000
> 2020 05 07 01 48 30.0000000  0 16        .000000000000
G02  22572084.492 5 118617106.471 5     -1054.008          32.000
G04  24306907.961 5 127733658.793 5     -2972.840          32.000
G06  22840364.625 6 120026927.012 6     -3050.738          41.000    22840369.406 6  93527459.413 6     -2377.196          41.000
G07  20784939.055 8 109225578.953 8       177.457          51.000    20784937.180 8  85110840.203 8       138.278          51.000
G09  21517190.508 5 113073702.522 5     -2020.254          35.000    21517193.727 5  88109333.042 5     -1574.224          34.000
G30  21371777.820 8 112309460.957 8      2325.742          51.000    21371778.203 8  87513884.719 8      1812.270          51.000
R07  19560347.211 6 104708085.668 6       428.668          37.000    19560354.102 6  81439647.496 6       333.408          36.000
R09  20129845.133 8 107492243.622 8      2478.613          51.000    20129846.992 8  83605081.096 8      1927.810          50.000
R10  22459244.875 5 119720413.666 5      4434.457          31.000
R22  23459912.742 6 125230577.885 6     -3830.160          41.000    23459914.930 6  97401567.666 6     -2979.016          40.000
C05  39783874.383 5 207165073.917 5        -8.332          34.000    39783873.609 6 160193166.906 6        -6.080          39.000
C23  22505843.609 8 117193797.303 8        23.109          51.000
C25  25113281.664 5 130771396.707 5     -2643.418          34.000
E12  24254843.438 6 127460033.148 6     -2006.160          38.000    24254843.039 6  97664184.523 6     -1537.080          38.000
E19  23983038.172 6 126031711.041 6       523.152          39.000    23983039.258 6  96569757.478 6       400.971          37.000
E21  25638987.281 8 134733802.121 8      2576.160          51.000    25638987.750 8 103237617.514 8      1973.995          51.000
> 2020 05 07 01 49  0.0000000  0 14        .000000000000
G02  22578181.219 5 118649152.386 5     -1075.781          34.000
G06  22857839.898 7 120118760.397 7     -3064.941          42.000    22857845.258 7  93599017.954 7     -2388.263          42.000
G07  20784002.852 8 109220659.003 8       156.914          51.000    20784000.234 8  85107006.498 8       122.274          51.000
G09  21528773.578 5 113134573.787 5     -2032.477          35.000    21528779.359 5  88156765.190 5     -1583.745          34.000
G30  21358570.727 8 112240054.568 8      2307.699          51.000    21358570.414 8  87459801.850 8      1798.210          51.000
R07  19558011.258 6 104695575.832 6       411.555          37.000    19558018.422 6  81429917.582 6       320.095          37.000
R09  20116012.930 8 107418382.669 8      2451.898          49.000    20116015.359 8  83547633.664 8      1907.029          50.000
R22  23481487.227 7 125345741.096 7     -3840.551          42.000    23481488.938 6  97491139.057 6     -2987.095          40.000
C05  39783951.273 5 207165473.572 5       -11.895          34.000    39783950.617 6 160193476.782 6        -9.488          39.000
C23  22505788.930 8 117193513.116 8         2.164          51.000
C25  25128569.055 5 130850998.426 5     -2656.520          31.000
E12  24266355.562 6 127520534.679 6     -2020.805          37.000    24266355.789 6  97710542.876 6     -1548.436          38.000
E19  23980097.703 6 126016258.553 6       513.238          39.000    23980098.758 6  96557917.252 6       393.512          36.000
E21  25624335.086 8 134656803.861 8      2563.441          51.000    25624335.094 8 103178618.857 8      1964.121          51.000
> 2020 05 07 01 49 30.0000000  0 15        .000000000000
G02  22584368.203 5 118681664.495 5     -1092.641          34.000
G06  22875366.688 7 120210861.680 7     -3075.645          44.000    22875371.492 7  93670785.212 7     -2396.606          44.000
G07  20783155.484 8 109216206.246 8       139.484          51.000    20783152.758 8  85103536.823 8       108.689          51.000
G09  21540394.281 5 113195644.923 5     -2039.949          35.000    21540399.297 5  88204353.118 5     -1589.568          34.000
G30  21345437.906 8 112171039.330 8      2292.816          51.000    21345437.523 8  87406023.755 8      1786.610          51.000
R06  21332909.062 4 113836492.766 4     -2525.879          29.000
R07  19555743.633 6 104683428.223 6       397.738          40.000    19555749.617 6  81420469.435 6       309.349          37.000
R09  20102303.094 8 107345174.151 8      2428.254          50.000    20102306.141 8  83490693.689 8      1888.639          51.000
R22  23503091.922 6 125461065.403 6     -3847.746          41.000    23503094.133 6  97580835.726 6     -2992.694          40.000
C05  39784024.422 5 207165854.073 5       -13.535          34.000    39784023.812 6 160193771.332 6       -10.327          39.000
C23  22505827.578 8 117193714.442 8       -15.906          51.000
C25  25143902.273 5 130930852.197 5     -2667.344          31.000
E12  24277923.148 6 127581327.583 6     -2032.633          36.000    24277924.398 6  97757124.513 6     -1557.337          38.000
E19  23977184.477 6 126000950.496 6       506.777          39.000    23977185.789 6  96546187.755 6       388.172          36.000
E21  25609726.258 8 134580036.001 8      2553.977          50.000    25609726.414 8 103119796.731 8      1956.931          51.000
> 2020 05 07 01 50  0.0000000  0 15        .000000000000
G02  22590649.195 5 118714661.076 5     -1108.723          33.000
G06  22892947.039 7 120303243.631 7     -3084.582          45.000    22892950.539 7  93742771.135 7     -2403.570          45.000
G07  20782399.930 8 109212236.362 8       123.742          51.000    20782397.438 8  85100443.436 8        96.426          51.000
G09  21552056.414 5 113256820.068 5     -2046.523          32.000    21552058.727 5  88252108.602 5     -1594.687          31.000
G30  21332382.523 8 112102432.419 8      2279.516          51.000    21332382.453 8  87352563.823 8      1776.246          51.000
R06  21347130.078 5 113912363.658 5     -2535.000          32.000
R07  19553546.562 7 104671660.576 7       385.207          42.000    19553551.664 6  81411316.798 6       299.605          38.000
R09  20088719.109 8 107272636.930 8      2406.164          48.000    20088722.414 8  83434275.813 8      1871.458          51.000
R22  23524728.539 6 125576562.166 6     -3853.297          39.000    23524732.297 6  97670666.525 6     -2997.012          40.000
C05                                                                  39784096.117 6 160194062.675 6       -10.267          39.000
C23  22505962.328 8 117194416.637 8       -32.297          51.000
C25  25159287.070 5 131010971.228 5     -2675.707          32.000
E12  24289549.555 6 127642425.881 6     -2042.320          37.000    24289550.812 6  97803940.082 6     -1564.889          39.000
E19  23974301.508 6 125985802.746 6       501.605          39.000    23974303.508 6  96534581.081 6       384.296          37.000
E21  25595164.758 8 134503516.226 8      2545.930          50.000    25595164.969 8 103061164.698 8      1950.702          50.000
> 2020 05 07 01 50 30.0000000  0 15        .000000000000
G02  22597020.312 5 118748134.928 5     -1124.523          31.000
G06  22910579.422 7 120395899.369 7     -3093.258          44.000    22910581.203 7  93814970.398 7     -2410.331          44.000
G07  20781735.422 8 109208744.968 8       108.277          51.000    20781732.805 8  85097722.876 8        84.372          51.000
G09  21563758.930 5 113318316.692 5     -2053.621          34.000    21563761.344 5  88300028.011 5     -1600.230          33.000
G30  21319404.297 8 112034231.473 8      2266.297          51.000    21319404.453 8  87299420.225 8      1765.946          51.000
R06  21361406.180 5 113988543.354 5     -2544.301          33.000
R07  19551419.836 7 104660269.962 7       373.281          42.000    19551423.422 6  81402457.408 6       290.330          38.000
R09  20075260.375 8 107200770.251 8      2384.059          49.000    20075263.875 8  83378379.490 8      1854.268          49.000
R22  23546395.742 6 125692222.776 6     -3858.270          37.000    23546400.977 6  97760624.798 6     -3000.876          38.000
C05  39784167.492 5 207166599.627 5       -12.523          34.000    39784166.945 6 160194347.869 6        -9.620          39.000
C23  22506192.719 8 117195615.611 8       -48.434          51.000
C25  25174721.648 5 131091349.990 5     -2684.578          30.000
E12  24301233.305 6 127703823.920 6     -2051.918          37.000    24301234.461 6  97850985.315 6     -1572.404          38.000
E19  23971448.469 6 125970811.934 6       496.605          39.000    23971450.969 6  96523094.648 6       380.537          38.000
E21  25580649.758 8 134427242.558 8      2538.105          49.000    25580650.047 8 103002721.247 8      1944.671          49.000
> 2020 05 07 01 51  0.0000000  0 15        .000000000000
G06  22928263.898 7 120488829.578 7     -3102.164          43.000    22928263.789 7  93887383.548 7     -2417.271          43.000
G07  20781162.695 8 109205735.403 8        92.289          51.000    20781160.148 8  85095377.758 8        71.914          51.000
G09  21575502.281 6 113380026.730 6     -2060.867          39.000    21575504.633 6  88348113.723 6     -1605.874          39.000
G30  21306504.305 8 111966441.644 8      2252.750          51.000    21306504.648 8  87246596.999 8      1755.390          51.000
R06  21375736.688 5 114065012.827 5     -2553.160          31.000
R07  19549363.781 7 104649261.524 7       360.332          43.000    19549365.125 6  81393895.295 6       280.255          38.000
R09  20061929.180 8 107129580.761 8      2361.598          51.000    20061931.688 7  83323009.905 7      1836.798          47.000
R10  22335108.914 4 119058703.063 4      4390.949          27.000
R22  23568094.078 6 125808046.868 6     -3863.203          38.000    23568099.719 6  97850710.241 6     -3004.714          36.000
C05                                                                  39784236.938 6 160194629.807 6        -9.367          40.000
C23  22506519.070 8 117197314.786 8       -65.027          51.000
C25  25190206.539 4 131172015.374 4     -2692.027          29.000
E12  24312974.297 6 127765523.594 6     -2061.473          36.000    24312975.539 6  97898261.673 6     -1579.797          39.000
E19  23968626.023 6 125955981.839 6       491.812          39.000    23968628.641 6  96511731.340 6       376.670          39.000
E21  25566182.562 8 134351220.669 8      2529.691          48.000    25566183.414 8 102944470.695 8      1938.329          50.000
> 2020 05 07 01 51 30.0000000  0 13        .000000000000
G06  22946001.023 6 120582037.339 6     -3111.008          39.000    22945999.484 6  93960012.994 6     -2424.159          39.000
G07  20780682.734 8 109203213.242 8        76.406          51.000    20780680.398 8  85093412.442 8        59.537          51.000
G09  21587287.398 6 113441955.566 6     -2067.602          40.000    21587289.297 6  88396369.933 6     -1611.118          40.000
G30  21293683.961 8 111899070.406 8      2239.328          51.000    21293684.633 8  87194099.961 8      1744.934          51.000
R07  19547380.164 7 104638642.669 7       348.020          45.000    19547380.203 6  81385636.169 6       270.685          38.000
R09  20048726.758 8 107059077.399 8      2339.105          51.000    20048728.164 7  83268174.016 7      1819.304          47.000
R22  23589824.000 6 125924035.971 6     -3868.492          41.000    23589828.898 5  97940923.992 5     -3008.827          35.000
C05  39784307.945 5 207167330.721 5       -11.574          34.000    39784307.312 6 160194913.207 6        -8.983          40.000
C20  23255789.703 6 121098984.346 6      2081.809          36.000
C23  22506942.586 8 117199519.861 8       -81.441          51.000
E12  24324773.062 5 127827529.146 5     -2071.402          35.000    24324774.508 6  97945772.408 6     -1587.026          38.000
E19  23965835.492 6 125941319.181 6       486.570          40.000    23965838.109 6  96500496.277 6       372.797          40.000
E21  25551764.625 8 134275458.484 8      2521.559          48.000    25551766.719 8 102886419.143 8      1932.079          50.000
> 2020 05 07 01 52  0.0000000  0 12        .000000000000
G06  22963788.109 5 120675512.560 5     -3122.094          35.000    22963788.141 5  94032850.873 5     -2432.797          35.000
G07  20780294.133 8 109201170.845 8        58.477          51.000    20780291.953 8  85091820.954 8        45.566          51.000
G09  21599112.398 6 113504095.370 6     -2076.340          40.000    21599113.242 6  88444790.521 6     -1617.930          38.000
G30  21280942.219 8 111832112.204 8      2223.438          51.000    21280942.859 8  87141924.764 8      1732.549          51.000
R07  19545467.148 7 104628407.756 7       333.133          43.000    19545467.352 6  81377675.687 6       259.100          38.000
R09  20035652.062 8 106989256.041 8      2314.359          51.000    20035652.727 8  83213868.556 8      1800.057          49.000
R22  23611582.906 6 126040178.386 6     -3875.441          40.000    23611586.383 5  98031256.939 5     -3014.235          31.000
C05  39784377.227 5 207167691.187 5       -13.449          34.000    39784376.719 6 160195192.730 6       -10.635          40.000
C23  22507461.719 8 117202223.523 8      -100.004          51.000
E12  24336628.352 5 127889831.830 5     -2083.348          35.000    24336628.867 6  97993510.795 6     -1596.254          38.000
E19  23963075.594 6 125926816.908 6       479.137          41.000    23963078.250 6  96489384.124 6       367.209          40.000
E21  25537396.125 8 134199950.868 8      2511.070          51.000    25537398.609 8 102828562.637 8      1924.037          51.000
> 2020 05 07 01 52 30.0000000  0 15        .000000000000
G02  22623417.352 4 118886857.775 4     -1187.004          28.000    22623420.664 4  92639111.000 4      -924.938          28.000
G06  22981631.344 6 120769287.673 6     -3128.949          36.000    22981636.102 6  94105922.493 6     -2438.139          36.000
G07  20780003.570 8 109199643.459 8        44.219          51.000    20780001.383 8  85090630.783 8        34.456          51.000
G09  21610984.031 6 113566481.221 6     -2081.852          39.000    21610983.547 6  88493402.653 6     -1622.228          37.000
G30  21268285.945 8 111765603.944 8      2211.289          51.000    21268286.539 8  87090100.160 8      1723.082          51.000
R06  21419062.484 4 114296220.239 4     -2583.219          28.000
R07  19543633.477 7 104618593.935 7       321.965          44.000    19543633.031 6  81370042.736 6       250.417          38.000
R09  20022712.297 8 106920155.541 8      2293.203          51.000    20022712.789 8  83160123.741 8      1783.605          50.000
R16  21241601.945 5 113468776.497 5     -2754.438          33.000
R22  23633375.766 6 126156505.716 6     -3878.645          37.000    23633377.523 5  98121733.703 5     -3016.724          30.000
C05  39784452.297 5 207168082.774 5       -11.734          34.000    39784451.867 6 160195495.532 6        -9.071          40.000
C23  22508083.430 8 117205460.696 8      -114.934          51.000
E12  24348547.008 5 127952465.420 5     -2091.586          35.000    24348545.258 6  98041502.702 6     -1602.647          38.000
E19  23960353.469 6 125912511.077 6       475.465          41.000    23960355.664 6  96478422.503 6       364.314          40.000
E21  25523084.148 8 134124735.181 8      2504.145          51.000    25523086.328 8 102770929.847 8      1918.763          51.000
> 2020 05 07 01 53  0.0000000  0 15        .000000000000
G02  22630239.531 6 118922699.457 6     -1203.375          36.000    22630240.625 5  92667039.466 5      -937.698          33.000
G06  22999515.773 7 120863270.949 7     -3138.078          42.000    22999525.742 6  94179156.223 6     -2445.253          41.000
G07  20779793.992 8 109198541.531 8        27.691          51.000    20779791.820 8  85089772.134 8        21.578          51.000
G09  21622885.430 6 113629023.066 6     -2089.254          39.000    21622884.266 6  88542136.538 6     -1627.987          39.000
G30  21255698.328 8 111699458.064 8      2196.961          51.000    21255699.242 8  87038557.911 8      1711.915          51.000
R07  19541862.008 7 104609112.062 7       308.555          44.000    19541861.797 6  81362667.928 6       239.987          40.000
R09  20009891.070 8 106851688.377 8      2269.727          51.000    20009891.328 8  83106871.492 8      1765.343          51.000
R16  21257127.266 4 113551702.340 4     -2774.605          29.000
R22  23655184.297 5 126272923.238 5     -3883.938          34.000    23655186.484 5  98212280.607 5     -3020.843          31.000
C05  39784516.398 5 207168416.908 5       -12.461          34.000    39784515.938 6 160195753.515 6        -9.412          40.000
C20  23219971.125 5 120912482.861 5      2063.867          30.000
C23  22508790.461 8 117209142.864 8      -132.082          51.000
E12  24360511.672 6 128015338.987 6     -2101.621          36.000    24360508.766 6  98089678.518 6     -1610.599          39.000
E19  23957651.914 6 125898312.990 6       469.520          41.000    23957653.625 6  96467543.452 6       359.744          40.000
E21  25508811.367 8 134049724.330 8      2494.973          51.000    25508813.133 8 102713454.026 8      1911.711          51.000
> 2020 05 07 01 53 30.0000000  0 14        .000000000000
G02  22637161.773 6 118959069.234 6     -1218.312          40.000    22637161.078 6  92695379.558 6      -949.334          38.000
G06  23017460.773 7 120957569.199 7     -3145.547          44.000    23017475.328 7  94252635.381 7     -2451.072          42.000
G07  20779686.039 8 109197974.044 8        12.746          51.000    20779684.125 8  85089329.946 8         9.932          51.000
G09  21634837.297 6 113691830.408 6     -2095.301          41.000    21634837.297 6  88591077.248 6     -1632.702          39.000
G30  21243200.617 8 111633785.916 8      2183.785          50.000    21243202.117 8  86987384.781 8      1701.651          50.000
R07  19540173.516 7 104600075.815 7       296.500          45.000    19540174.117 6  81355639.733 6       230.611          40.000
R09  19997209.742 8 106783969.288 8      2247.539          51.000    19997210.141 8  83054201.089 8      1748.086          51.000
R10  22212113.188 5 118403064.845 5      4352.055          32.000
R22  23677028.852 5 126389537.890 5     -3886.969          31.000    23677033.328 5  98302980.904 5     -3023.198          32.000
C05  39784590.328 5 207168801.074 5       -10.719          34.000    39784589.820 6 160196050.979 6        -8.382          40.000
C23  22509603.672 8 117213378.590 8      -147.855          51.000
E12  24372542.445 5 128078560.743 5     -2110.961          34.000    24372539.875 6  98138121.116 6     -1617.202          39.000
E19  23954991.812 6 125884332.974 6       465.008          41.000    23954993.477 6  96456831.509 6       356.170          41.000
E21  25494598.492 8 133975030.210 8      2487.207          51.000    25494600.086 8 102656220.883 8      1905.770          51.000
> 2020 05 07 01 54  0.0000000  0 13        .000000000000
G02  22644165.742 6 118995869.683 6     -1235.395          41.000    22644164.594 5  92724055.220 5      -962.648          35.000
G06  23035446.930 7 121052083.978 7     -3155.406          43.000    23035465.852 7  94326283.245 7     -2458.758          42.000
G07  20779661.703 8 109197846.017 8        -4.602          51.000    20779659.805 8  85089230.190 8        -3.586          51.000
G09  21646821.266 6 113754806.948 6     -2103.457          39.000    21646823.188 6  88640149.877 6     -1639.060          40.000
G30  21230775.391 8 111568493.404 8      2168.551          50.000    21230777.227 8  86936507.465 8      1689.780          50.000
R07  19538549.906 7 104591388.422 7       282.266          45.000    19538551.500 6  81348882.846 6       219.540          40.000
R09  19984650.500 8 106716903.972 8      2223.098          51.000    19984651.188 8  83002039.197 8      1729.076          50.000
C05  39784655.977 5 207169142.360 5       -11.879          34.000    39784655.336 6 160196314.899 6        -9.406          40.000
C20  23196256.828 5 120789005.382 5      2051.621          30.000
C23  22510504.977 8 117218072.937 8      -165.602          51.000
E12                                                                  24384619.039 6  98186756.029 6     -1625.439          39.000
E19  23952354.930 6 125870476.056 6       458.301          40.000    23952357.008 6  96446213.869 6       351.121          41.000
E21  25480427.453 8 133900559.227 8      2477.102          51.000    25480429.203 8 102599158.713 8      1898.042          51.000
> 2020 05 07 01 54 30.0000000  0 14        .000000000000
G02  22651261.625 6 119033160.023 6     -1251.102          39.000    22651260.430 6  92753112.576 6      -974.884          37.000
G06  23053485.094 7 121146872.920 7     -3164.043          42.000    23053508.445 6  94400144.747 6     -2465.485          38.000
G07  20779732.141 8 109198217.110 8       -20.461          51.000    20779730.414 8  85089519.372 8       -15.944          51.000
G09  21658849.000 6 113818012.781 6     -2110.094          38.000    21658851.188 6  88689401.179 6     -1644.229          38.000
G30  21218434.719 8 111503642.592 8      2154.590          50.000    21218436.508 8  86885974.351 8      1678.901          50.000
R07  19537003.461 7 104583113.645 7       269.164          45.000    19537005.562 6  81342446.929 6       209.350          41.000
R09  19972225.570 8 106650556.665 8      2199.801          51.000    19972226.406 8  82950435.752 8      1710.956          49.000
R10  22163228.875 5 118142475.058 5      4333.270          32.000
C05                                                                  39784724.078 6 160196591.695 6        -9.186          40.000
C20  23184455.125 5 120727552.378 5      2045.445          34.000
C23  22511505.812 8 117223285.666 8      -182.223          51.000
E12  24396757.133 5 128205820.764 5     -2131.156          34.000    24396757.531 6  98235628.331 6     -1632.706          39.000
E19  23949753.023 6 125856803.175 6       452.812          39.000    23949755.438 6  96435737.241 6       346.936          41.000
E21  25466310.086 8 133826373.922 8      2468.281          51.000    25466312.406 8 102542315.449 8      1891.280          51.000
> 2020 05 07 01 55  0.0000000  0 14        .000000000000
G02  22658446.719 6 119070922.200 6     -1266.535          38.000    22658445.219 6  92782537.619 6      -986.914          37.000
G06  23071571.438 6 121241916.284 6     -3171.930          39.000    23071600.633 6  94474204.528 6     -2471.634          37.000
G07  20779894.250 8 109199069.950 8       -36.207          51.000    20779892.891 8  85090183.941 8       -28.213          51.000
G09  21670916.625 5 113881430.528 5     -2117.066          35.000    21670918.469 5  88738817.635 5     -1649.662          35.000
G30  21206175.367 8 111439218.033 8      2140.387          50.000    21206176.891 8  86835773.412 8      1667.837          50.000
R07  19535531.648 7 104575235.506 7       256.223          46.000    19535533.883 6  81336319.481 6       199.284          41.000
R09  19959932.352 8 106584913.301 8      2176.512          51.000    19959933.633 8  82899379.833 8      1692.845          50.000
R10  22138867.914 5 118012616.092 5      4324.562          33.000
C05  39784793.461 5 207169859.012 5       -11.738          34.000    39784792.859 6 160196868.653 6        -9.074          40.000
C20  23172688.320 5 120666285.083 5      2039.488          31.000
C23  22512603.094 8 117228999.745 8      -198.684          51.000
E12  24408950.547 6 128269894.511 6     -2140.543          36.000    24408951.570 6  98284723.821 6     -1640.300          39.000
E19  23947182.930 6 125843297.790 6       447.488          40.000    23947185.281 7  96425388.956 7       342.842          42.000
E21  25452244.078 8 133752459.480 8      2459.441          51.000    25452246.711 8 102485679.715 8      1884.480          51.000
> 2020 05 07 01 55 30.0000000  0 15        .000000000000
G02  22665722.453 6 119109163.747 6     -1281.977          37.000    22665721.812 5  92812336.251 5      -998.943          35.000
G06  23089707.547 6 121337220.597 6     -3180.785          40.000    23089743.141 6  94548467.712 6     -2478.531          37.000
G07  20780149.586 8 109200413.479 8       -52.344          51.000    20780148.594 8  85091230.864 8       -40.784          51.000
G09  21683026.164 6 113945069.043 6     -2124.496          37.000    21683026.766 6  88788406.069 6     -1655.448          37.000
G30  21193999.227 8 111375230.668 8      2126.184          51.000    21194000.211 8  86785913.152 8      1656.769          51.000
R06  21507176.203 4 114766414.505 4     -2641.477          28.000
R07  19534136.188 7 104567764.870 7       242.777          47.000    19534138.562 7  81330508.974 7       188.827          42.000
R09  19947772.961 8 106519986.077 8      2152.945          50.000    19947775.117 8  82848880.895 8      1674.513          50.000
R10  22114556.227 5 117883038.624 5      4315.250          34.000
C05  39784864.234 5 207170227.388 5       -11.719          34.000    39784863.555 6 160197153.117 6        -9.134          40.000
C23  22513798.531 8 117235224.216 8      -215.422          51.000
C25  25331806.258 5 131909360.508 5     -2768.902          33.000
E12  24421201.070 6 128334267.171 6     -2150.066          39.000    24421202.906 6  98334048.295 6     -1647.456          39.000
E19  23944646.664 6 125829969.868 6       442.207          40.000    23944648.742 7  96415176.664 7       338.565          42.000
E21  25438231.734 8 133678827.219 8      2450.277          51.000    25438234.484 8 102429260.224 8      1877.521          50.000
> 2020 05 07 01 56  0.0000000  0 14        .000000000000
G02  22673082.711 6 119147848.835 6     -1297.457          37.000    22673082.672 5  92842480.545 5     -1011.002          35.000
G06  23107886.625 6 121432748.363 6     -3188.246          38.000    23107925.250 5  94622904.975 5     -2484.335          33.000
G07  20780491.570 8 109202212.602 8       -67.855          50.000    20780490.953 8  85092632.781 8       -52.874          50.000
G09  21695171.578 5 114008893.094 5     -2131.246          35.000    21695172.062 5  88838139.121 5     -1660.711          35.000
G30  21181899.789 8 111311647.441 8      2112.496          49.000    21181900.539 8  86736367.826 8      1646.104          49.000
R07  19532810.727 7 104560668.321 7       230.180          47.000    19532813.195 7  81324989.453 7       179.029          43.000
R09  19935740.492 7 106455742.786 7      2129.918          46.000    19935744.305 8  82798913.852 8      1656.600          50.000
R10  22090293.578 5 117753711.603 5      4306.516          35.000
C05  39784930.133 5 207170570.900 5       -11.516          34.000    39784929.500 6 160197418.762 6        -8.705          40.000
C23  22515085.297 8 117241924.569 8      -231.461          51.000
C25  25347775.055 5 131992518.994 5     -2775.652          34.000
E12  24433501.586 6 128398902.555 6     -2159.164          40.000    24433504.289 6  98383574.111 6     -1654.460          38.000
E19  23942138.070 6 125816785.507 6       436.965          41.000    23942139.648 7  96405074.338 7       334.805          43.000
E21  25424267.227 8 133605444.623 8      2441.738          51.000    25424269.172 8 102373032.021 8      1870.903          51.000
> 2020 05 07 01 56 30.0000000  0 14        .000000000000
G02  22680532.820 6 119187000.491 6     -1312.664          38.000    22680532.688 6  92872988.303 6     -1022.855          36.000
G06  23126112.469 6 121528521.131 6     -3196.145          37.000    23126150.938 5  94697533.036 5     -2490.514          30.000
G07  20780924.688 8 109204491.471 8       -83.719          49.000    20780924.867 8  85094408.542 8       -65.235          49.000
G09  21707356.727 5 114072926.461 5     -2137.344          31.000    21707357.734 5  88888035.263 5     -1665.463          32.000
G30  21169881.266 7 111248494.172 7      2098.047          45.000    21169883.195 7  86687157.479 7      1634.842          45.000
R07  19531560.469 7 104553972.067 7       216.648          47.000    19531562.305 7  81319781.257 7       168.504          43.000
R09  19923841.094 7 106392211.024 7      2105.984          46.000    19923846.805 8  82749500.203 8      1637.985          50.000
R10  22066084.000 5 117624664.247 5      4296.805          35.000
C05  39784996.141 5 207170913.397 5       -11.395          34.000    39784995.477 6 160197684.402 6        -9.059          40.000
C23  22516468.016 8 117249124.581 8      -248.129          51.000
C25  25363790.125 5 132075920.002 5     -2784.020          34.000
E12  24445856.078 6 128463823.279 6     -2168.480          41.000    24445859.109 6  98433318.546 6     -1661.680          38.000
E19  23939661.633 6 125803769.523 6       431.207          41.000    23939662.742 7  96395101.034 7       330.474          43.000
E21  25410355.625 8 133532338.040 8      2432.363          51.000    25410356.930 8 102317015.320 8      1863.786          51.000
> 2020 05 07 01 57  0.0000000  0 14        .000000000000
G02  22688067.516 6 119226592.382 6     -1336.406          41.000    22688066.953 6  92903839.076 6     -1041.359          38.000
G06  23144379.898 5 121624511.212 5     -3212.809          35.000    23144414.297 5  94772510.499 5     -2503.493          33.000
G07  20781444.352 8 109207225.003 8      -108.375          48.000    20781445.258 8  85096538.557 8       -84.448          49.000
G09  21719576.031 5 114137149.150 5     -2153.527          35.000    21719576.984 6  88938037.007 6     -1678.070          37.000
G30  21157939.727 7 111185747.532 7      2075.176          45.000    21157943.555 7  86638263.961 7      1617.020          45.000
R07  19530380.414 7 104547652.160 7       194.520          47.000    19530381.719 7  81314865.786 7       151.293          43.000
R09  19912072.812 8 106329368.271 8      2073.367          49.000    19912078.547 8  82700622.517 8      1612.619          51.000
R10  22041923.820 6 117495875.273 6      4278.879          37.000
C05  39785057.469 5 207171234.053 5       -19.895          34.000    39785056.742 6 160197931.186 6       -15.598          40.000
C23  22517942.055 8 117256799.376 8      -273.301          51.000
C25  25379847.047 5 132159536.971 5     -2800.371          35.000
E12  24458259.891 6 128529002.882 6     -2186.715          40.000    24458262.500 6  98483261.319 6     -1675.565          38.000
E19  23937212.273 6 125790897.422 6       417.082          41.000    23937213.195 7  96385238.009 7       319.513          43.000
E21  25396492.391 8 133459484.702 8      2414.535          51.000    25396493.000 8 102261192.644 8      1850.059          51.000
> 2020 05 07 01 57 30.0000000  0 16        .000000000000
G02  22695699.914 7 119266697.243 7     -1342.707          43.000    22695698.484 6  92935089.608 6     -1046.265          38.000
G06  23162702.469 6 121720789.900 6     -3211.215          36.000    23162736.766 5  94847532.655 5     -2502.254          31.000
G07  20782064.680 7 109210486.545 7      -114.871          47.000    20782065.891 7  85099080.001 7       -89.510          47.000
G09  21731845.328 5 114201624.612 5     -2151.699          34.000    21731846.555 5  88988277.697 5     -1676.649          35.000
G30  21146091.664 8 111123483.114 8      2070.129          49.000    21146095.281 8  86589746.236 8      1613.087          50.000
R06  21566998.820 5 115085655.113 5     -2678.180          32.000
R07  19529284.547 8 104541785.309 8       190.621          48.000    19529285.422 7  81310302.694 7       148.261          44.000
R09  19900448.695 8 106267292.700 8      2059.176          51.000    19900453.562 8  82652341.547 8      1601.581          50.000
R10  22017828.273 6 117367424.445 6      4278.500          40.000
C05                                                                  39785127.516 6 160198216.185 6        -8.180          40.000
C20  23114391.773 5 120362687.517 5      2009.383          30.000
C23  22519521.352 8 117265022.226 8      -280.582          51.000
C25  25395959.891 5 132243441.753 5     -2799.305          34.000
E12  24470726.273 6 128594513.896 6     -2186.191          38.000    24470727.648 6  98533458.045 6     -1675.589          39.000
E19  23934804.227 6 125778244.094 6       420.875          40.000    23934804.992 7  96375542.588 7       322.459          43.000
E21  25382691.711 8 133386960.848 8      2414.582          51.000    25382691.906 8 102205622.442 8      1850.137          51.000
> 2020 05 07 01 58  0.0000000  0 15        .000000000000
G02  22703414.234 7 119307233.324 7     -1358.844          44.000    22703412.078 6  92966676.157 6     -1058.839          38.000
G06  23181065.352 6 121817274.291 6     -3220.117          36.000    23181057.594 6  94922554.849 6     -2509.185          36.000
G07  20782770.414 8 109214195.671 8      -131.543          48.000    20782771.758 8  85101970.245 8      -102.501          48.000
G09  21744147.648 5 114266277.280 5     -2158.301          35.000    21744149.961 5  89038656.397 5     -1681.790          35.000
G30  21134320.977 8 111061622.206 8      2054.930          51.000    21134323.367 8  86541542.946 8      1601.244          51.000
R07  19528258.289 7 104536291.942 7       176.520          47.000    19528258.930 7  81306030.091 7       137.293          44.000
R09  19888953.867 8 106205905.476 8      2034.211          51.000    19888956.977 8  82604595.942 8      1582.164          50.000
R10  21993782.383 6 117239234.740 6      4268.207          38.000
C05  39785193.250 5 207171941.335 5       -11.062          34.000    39785192.547 6 160198478.131 6        -8.826          40.000
C20  23102845.359 5 120302540.338 5      2001.949          30.000
C23  22521190.609 8 117273713.294 8      -297.898          51.000
C25  25412112.711 5 132327552.928 5     -2808.832          32.000
E12  24483239.969 6 128660274.469 6     -2196.398          38.000    24483240.172 6  98583845.941 6     -1683.065          41.000
E19  23932422.578 6 125765729.923 6       414.582          41.000    23932423.086 7  96365953.807 7       317.523          43.000
E21  25368938.602 8 133314688.255 8      2404.477          51.000    25368938.250 8 102150244.745 8      1842.427          51.000
> 2020 05 07 01 58 30.0000000  0 16        .000000000000
G02  22711210.586 7 119348200.726 7     -1373.039          44.000    22711207.914 6  92998598.836 6     -1069.901          39.000
G06  23199467.469 6 121913962.982 6     -3226.574          38.000    23199456.828 6  94997896.670 6     -2514.214          39.000
G07  20783561.891 8 109218353.859 8      -146.656          49.000    20783563.055 8  85105210.392 8      -114.278          49.000
G09  21756484.914 5 114331108.206 5     -2163.797          35.000    21756487.812 5  89089174.058 5     -1686.075          33.000
G30  21122627.656 8 111000167.902 8      2041.234          51.000    21122628.641 8  86493656.491 8      1590.572          51.000
R07  19527302.047 7 104531174.575 7       163.812          47.000    19527302.773 7  81302049.914 7       127.413          44.000
R09  19877588.727 8 106145210.922 8      2011.098          51.000    19877590.070 8  82557389.075 8      1564.187          49.000
R10  21969786.711 6 117111311.331 6      4259.230          37.000
R16  21435351.273 4 114503797.560 4     -2990.293          29.000
C05  39785252.922 5 207172251.569 5       -10.262          35.000    39785252.211 6 160198718.383 6        -7.980          40.000
C20  23091328.719 5 120242559.632 5      1996.164          31.000
C23  22522949.984 8 117282873.850 8      -313.621          51.000
C25  25428304.930 5 132411855.667 5     -2814.555          30.000
E12  24495800.883 6 128726284.439 6     -2204.680          38.000    24495800.602 7  98634424.998 7     -1689.420          42.000
E19  23930067.984 6 125753357.127 6       409.773          41.000    23930068.016 7  96356473.349 7       313.919          43.000
E21  25355233.891 8 133242670.547 8      2395.895          51.000    25355233.812 8 102095062.355 8      1835.854          51.000
> 2020 05 07 01 59  0.0000000  0 15        .000000000000
G02  22719104.430 7 119389680.160 7     -1388.848          44.000    22719101.297 6  93030920.495 6     -1082.219          38.000
G06  23217922.984 6 122010935.375 6     -3234.848          36.000    23217910.203 5  95073459.492 5     -2520.664          35.000
G07  20784454.352 8 109223042.095 8      -162.809          49.000    20784455.141 8  85108863.576 8      -126.864          49.000
G09  21768871.625 6 114396199.251 6     -2172.094          38.000    21768874.625 6  89139894.355 6     -1692.541          38.000
G30  21111027.109 8 110939203.707 8      2026.191          51.000    21111027.305 8  86446151.955 8      1578.853          51.000
R06  21612431.367 4 115328073.850 4     -2708.035          28.000
R07  19526432.023 7 104526518.675 7       149.672          47.000    19526433.008 7  81298428.665 7       116.411          45.000
R09  19866369.062 8 106085295.355 8      1986.297          51.000    19866369.570 8  82510788.097 8      1544.898          50.000
R10  21945856.281 6 116983742.539 6      4248.691          37.000
C05                                                                  39785322.141 6 160199000.148 6        -8.566          40.000
C20  23079858.023 5 120182875.439 5      1989.266          31.000
C23  22524815.016 8 117292584.909 8      -330.727          51.000
E12  24508424.539 6 128792624.271 6     -2214.750          39.000    24508424.484 7  98685256.804 7     -1696.816          43.000
E19  23927756.164 7 125741208.434 7       403.383          42.000    23927755.742 7  96347164.611 7       309.154          43.000
E21  25341593.477 8 133170991.822 8      2385.816          51.000    25341594.578 8 102040139.715 8      1828.120          51.000
> 2020 05 07 01 59 30.0000000  0 14        .000000000000
G02  22727077.336 7 119431576.144 7     -1404.797          42.000    22727073.484 6  93063566.720 6     -1094.647          41.000
G06  23236413.102 5 122108094.592 5     -3243.258          34.000    23236402.625 5  95149167.604 5     -2527.220          33.000
G07  20785429.812 8 109228166.260 8      -179.406          51.000    20785429.867 8  85112856.436 8      -139.797          50.000
G09  21781289.898 6 114461455.599 6     -2179.402          37.000    21781292.953 6  89190743.523 6     -1698.236          37.000
G30  21099501.445 8 110878637.104 8      2011.004          50.000    21099501.664 8  86398957.197 8      1567.016          50.000
R07  19525631.000 7 104522229.897 7       135.402          47.000    19525632.758 7  81295092.937 7       105.313          46.000
R09  19855277.203 8 106026065.547 8      1961.562          51.000    19855277.812 8  82464720.485 8      1525.663          50.000
R10  21921973.195 6 116856437.070 6      4237.805          39.000
C05  39785385.336 5 207172941.460 5       -11.516          34.000    39785384.555 6 160199251.487 6        -9.056          40.000
C23  22526767.820 8 117302752.887 8      -347.848          51.000
C25  25460833.047 5 132581240.748 5     -2831.754          30.000
E12  24521092.961 6 128859198.255 6     -2224.281          39.000    24521092.984 7  98736268.032 7     -1704.242          43.000
E19  23925469.305 7 125729190.253 7       397.152          43.000    23925468.820 7  96337955.864 7       304.374          44.000
E21  25328000.383 8 133099560.074 8      2375.688          51.000    25328002.406 8 101985406.290 8      1820.353          51.000
