     3.02           OBSERVATION DATA    M (MIXED)           RINEX VERSION / TYPE
SAVERINEX           SC600               20200509 085931 LCL PGM / RUN BY / DATE
       G = GPS       R = GLONASS       C = COMPASS          COMMENT
       S = SBAS      J = QZSS          E = GALILEO          COMMENT
BEAN                                                        MARKER NAME
1                                                           MARKER NUMBER
GEODETIC                                                    MARKER TYPE
Unige DICCA         GTER                                    OBSERVER / AGENCY
SC60291900056       SC600               2.12(191226)        REC # / TYPE / VERS
                    HEMA45          NONE                    ANT # / TYPE
  4509407.8091   693652.4678  4442337.6214                  APPROX POSITION XYZ
        0.0000        0.0000        0.0000                  ANTENNA: DELTA H/E/N
G    8 C1C L1C D1C S1C C2Y L2Y D2Y S2Y                      SYS / # / OBS TYPES
R    8 C1C L1C D1C S1C C2P L2P D2P S2P                      SYS / # / OBS TYPES
C    8 C1I L1I D1I S1I C7I L7I D7I S7I                      SYS / # / OBS TYPES
E    8 C1C L1C D1C S1C C7Q L7Q D7Q S7Q                      SYS / # / OBS TYPES
DBHZ                                                        COMMENT
     30.000                                                 INTERVAL
  2020    05    09    06    00    0.0000000     GPS         TIME OF FIRST OBS
  2020    05    09    06    59   30.0000000     GPS         TIME OF LAST OBS
     0                                                      RCV CLOCK OFFS APPL
G L1C  0.00000                                              SYS / PHASE SHIFT
G L2Y  0.00000                                              SYS / PHASE SHIFT
R L1C  0.00000                                              SYS / PHASE SHIFT
R L2P  0.25000                                              SYS / PHASE SHIFT
C L1I  0.00000                                              SYS / PHASE SHIFT
C L7I  0.00000                                              SYS / PHASE SHIFT
E L1C  0.50000                                              SYS / PHASE SHIFT
E L7Q -0.25000                                              SYS / PHASE SHIFT
 14 R01  1 R02 -4 R03  5 R04  6 R08  6 R10 -5 R11  0 R12 -1 GLONASS SLOT / FRQ #
    R13 -2 R14 -7 R15  0 R21  4 R22 -3 R23  3               GLONASS SLOT / FRQ #
 C1C   71.950 C2C   71.950 C2P   71.950                     GLONASS COD/PHS/BIS
    18                                                      LEAP SECONDS
*** Above antenna height is from mark to ANTENNA BOTTOM.    COMMENT
    17     4        0.0000        ANT MEASURE TYPE/HEIGT    COMMENT
    0.0000    0.0000    0.0458    0.0405    0.0000          COMMENT
                    BASE STATION                            COMMENT
                                                            END OF HEADER
> 2020 05 09 06 00  0.0000000  0 14        .000000000000
G13  20679799.414 8 108673067.134 8     -1676.961          51.000    20679798.508 8  84680291.528 8     -1306.723          50.000
G15  20319605.156 8 106780240.069 8      -183.953          51.000    20319604.672 8  83205386.516 8      -143.340          51.000
G19  23497014.148 7 123477660.232 7      3154.723          45.000    23497017.242 7  96216344.468 7      2458.222          43.000
G28  22176097.906 6 116536160.463 6     -2476.594          39.000    22176095.883 4  90807404.899 4     -1929.801          29.000
R02  23091304.734 5 123219624.412 5     -4515.738          30.000    23091316.898 5  95837550.594 5     -3512.244          33.000
R03  19787392.125 8 105923459.923 8     -2165.379          51.000    19787393.203 7  82384901.735 7     -1684.187          46.000
R14  20593144.891 6 109773110.019 6      2111.836          37.000    20593154.000 5  85379055.540 5      1642.539          33.000
C05  39768481.523 5 207084918.504 5        24.371          34.000    39768478.172 6 160131181.124 6        18.586          36.000
C23  21946004.141 8 114278630.925 8       360.398          50.000
C25  23327547.008 6 121472647.210 6     -2066.168          36.000
E02  23760383.461 8 124861635.839 8      1247.590          51.000    23760384.789 8  95673266.406 8       955.913          51.000
E03  24117755.922 8 126739658.391 8     -1754.703          51.000    24117758.836 8  97112208.940 8     -1344.495          51.000
E05  27938185.680 6 146816139.046 6     -3067.203          36.000    27938187.508 6 112495510.622 6     -2350.054          38.000
E25  24026672.039 8 126261079.132 8     -1364.090          51.000    24026674.789 8  96745484.987 8     -1045.218          51.000
> 2020 05 09 06 00 30.0000000  0 14        .000000000000
G13  20689415.375 8 108723599.052 8     -1691.211          51.000    20689414.750 8  84719667.041 8     -1317.827          50.000
G15  20320707.859 8 106786033.668 8      -201.719          51.000    20320707.266 8  83209901.014 8      -157.183          51.000
G19  23479027.516 7 123383137.424 7      3147.254          47.000    23479028.805 6  96142690.370 6      2452.409          41.000
G28  22190262.750 6 116610597.242 6     -2485.695          39.000    22190260.039 5  90865404.483 5     -1936.918          32.000
R02  23116705.781 5 123355161.821 5     -4519.770          34.000    23116715.273 5  95942968.537 5     -3515.376          33.000
R03  19799594.328 8 105988777.772 8     -2188.570          51.000    19799595.516 8  82435704.485 8     -1702.221          48.000
R12  22964270.641 5 122670929.574 5     -3492.172          31.000    22964272.016 4  95410764.947 4     -2716.137          28.000
R14  20581298.219 6 109709958.765 6      2099.234          36.000    20581305.352 4  85329937.845 4      1632.738          29.000
C05                                                                  39768337.773 5 160130615.895 5        19.135          35.000
C23  21943954.367 8 114267956.940 8       351.766          50.000
C25  23339463.016 6 121534693.372 6     -2069.898          39.000
E02  23753287.539 8 124824347.901 8      1238.859          51.000    23753288.820 8  95644695.125 8       949.253          51.000
E03  24127803.781 8 126792459.445 8     -1764.867          51.000    24127806.641 8  97152666.881 8     -1352.277          51.000
E25  24034480.070 8 126302110.220 8     -1370.746          51.000    24034482.711 8  96776924.382 8     -1050.297          51.000
> 2020 05 09 06 01  0.0000000  0 14        .000000000000
G13  20699111.219 8 108774552.160 8     -1705.543          51.000    20699110.898 8  84759370.766 8     -1328.995          49.000
G15  20321910.562 8 106792353.084 8      -219.523          51.000    20321909.711 8  83214825.236 8      -171.057          51.000
G19  23461082.922 8 123288834.373 8      3139.559          48.000    23461080.969 6  96069207.566 6      2446.412          40.000
G28  22204477.000 6 116685293.327 6     -2494.043          40.000    22204474.039 3  90923609.233 3     -1943.416          20.000
R02  23142127.219 6 123490810.933 6     -4523.367          37.000    23142134.852 5  96048473.386 5     -3518.174          33.000
R03  19811924.609 8 106054783.585 8     -2211.707          50.000    19811926.109 8  82487042.362 8     -1720.214          48.000
R12  22983879.812 5 122775695.476 5     -3492.547          32.000    22983884.086 4  95492249.515 4     -2716.422          27.000
R14  20569519.836 5 109647173.489 5      2087.055          34.000
C05  39768196.000 5 207083432.064 5        25.637          34.000    39768192.742 5 160130031.669 5        19.724          35.000
C23  21941952.961 8 114257535.240 8       343.176          50.000
C25  23351401.898 6 121596856.969 6     -2074.008          37.000
E02  23746241.352 8 124787320.477 8      1229.797          51.000    23746242.641 8  95616323.452 8       942.267          51.000
E03  24137908.797 8 126845562.408 8     -1775.176          51.000    24137911.594 8  97193356.154 8     -1360.212          51.000
E25  24042326.477 8 126343343.179 8     -1377.957          51.000    24042329.211 8  96808518.461 8     -1055.861          51.000
> 2020 05 09 06 01 30.0000000  0 15        .000000000000
G13  20708892.633 8 108825955.901 8     -1720.949          51.000    20708892.633 8  84799425.631 8     -1340.999          48.000
G15  20323218.875 8 106799227.587 8      -238.461          51.000    20323218.078 8  83220181.993 8      -185.814          51.000
G17  22787512.867 5 119749185.758 5      1536.402          35.000    22787509.633 5  93311055.933 5      1197.200          35.000
G19  23443186.227 7 123194783.438 7      3130.719          47.000    23443183.062 7  95995921.199 7      2439.524          42.000
G28  22218745.633 6 116760275.360 6     -2504.219          40.000    22218743.297 3  90982036.697 3     -1951.358          21.000
R02  23167575.062 6 123626598.135 6     -4528.668          37.000    23167580.852 5  96154085.664 5     -3522.300          32.000
R03  19824388.945 8 106121504.732 8     -2235.965          51.000    19824390.258 8  82538936.628 8     -1739.081          48.000
R12  23003492.602 4 122880475.084 4     -3492.930          29.000
R14  20557814.492 5 109584783.961 5      2072.660          33.000
C05  39768051.727 5 207082680.703 5        24.316          34.000    39768048.398 5 160129450.602 5        19.310          35.000
C23  21940005.328 8 114247394.132 8       333.391          49.000
C25  23363369.000 6 121659165.919 6     -2079.500          38.000
E02  23739249.797 8 124750582.370 8      1219.730          51.000    23739251.906 8  95588173.488 8       934.575          51.000
E03  24148076.422 8 126898995.557 8     -1786.676          51.000    24148079.477 8  97234298.407 8     -1369.023          51.000
E25  24050216.508 8 126384805.722 8     -1385.895          51.000    24050219.242 8  96840288.444 8     -1061.931          51.000
> 2020 05 09 06 02  0.0000000  0 14        .000000000000
G13  20718760.219 8 108877811.860 8     -1735.750          51.000    20718760.523 8  84839832.843 8     -1352.532          48.000
G15  20324633.156 8 106806659.829 8      -256.828          51.000    20324632.742 8  83225973.332 8      -200.126          51.000
G17  22778785.125 6 119703320.581 6      1521.477          36.000    22778782.930 5  93275316.938 5      1185.572          32.000
G19  23425338.391 7 123100990.834 7      3122.305          46.000    23425336.062 7  95922836.084 7      2432.965          44.000
G28  22233069.008 6 116835543.716 6     -2513.734          38.000    22233066.164 4  91040687.490 4     -1958.742          29.000
R02  23193048.750 6 123762522.160 6     -4532.789          37.000    23193052.812 5  96259804.295 5     -3525.506          33.000
R03  19836987.188 8 106188940.904 8     -2259.500          51.000    19836988.016 8  82591386.995 8     -1757.392          49.000
R14  20546183.352 5 109522792.572 5      2059.504          34.000
C05  39767908.727 5 207081935.986 5        24.645          34.000    39767905.281 5 160128874.728 5        19.365          35.000
C23  21938111.742 8 114237535.734 8       324.258          48.000
C25  23375364.414 6 121721621.962 6     -2083.957          37.000
E02  23732313.320 8 124714136.036 8      1210.305          51.000    23732316.695 8  95560247.092 8       927.451          51.000
E03  24158307.172 8 126952760.667 8     -1797.391          51.000    24158310.625 8  97275495.030 8     -1377.200          51.000
E25  24058150.523 8 126426499.222 8     -1393.363          51.000    24058152.961 8  96872235.398 8     -1067.624          51.000
> 2020 05 09 06 02 30.0000000  0 13        .000000000000
G13  20728712.930 8 108930113.837 8     -1750.734          51.000    20728713.180 8  84880587.617 8     -1364.209          48.000
G15  20326152.555 8 106814644.504 8      -275.355          51.000    20326152.188 8  83232195.139 8      -214.563          51.000
G19  23407538.836 7 123007454.094 7      3113.773          46.000    23407537.844 7  95849950.321 7      2426.317          45.000
G28  22247444.953 6 116911090.301 6     -2523.039          36.000    22247438.758 5  91099541.774 5     -1966.004          32.000
R02  23218545.977 5 123898574.228 5     -4537.184          34.000    23218549.133 5  96365622.495 5     -3528.927          34.000
R03  19849717.008 8 106257084.294 8     -2283.125          51.000    19849718.047 8  82644387.369 8     -1775.767          49.000
R14  20534627.898 6 109461193.784 6      2046.934          39.000
C05  39767765.977 5 207081192.293 5        25.105          34.000    39767762.398 5 160128299.671 5        19.196          35.000
C23  21936271.234 7 114227954.025 7       314.812          47.000
C25  23387386.477 6 121784218.517 6     -2088.672          37.000
E02  23725431.922 8 124677975.747 8      1200.605          51.000    23725435.602 8  95532539.853 8       919.953          51.000
E03  24168599.844 8 127006851.357 8     -1808.363          51.000    24168603.859 8  97316941.134 8     -1385.644          51.000
E25  24066127.234 8 126468416.790 8     -1400.863          51.000    24066129.422 8  96904354.034 8     -1073.404          51.000
> 2020 05 09 06 03  0.0000000  0 14        .000000000000
G13  20738747.305 8 108982844.875 8     -1765.016          51.000    20738747.227 8  84921676.729 8     -1375.334          48.000
G15  20327774.203 8 106823166.054 8      -293.051          51.000    20327773.688 8  83238835.302 8      -228.351          51.000
G19  23389786.195 8 122914160.883 8      3105.707          48.000    23389785.195 7  95777254.294 7      2420.028          44.000
G28  22261870.188 6 116986897.015 6     -2531.207          39.000
R02  23244062.805 5 124034734.768 5     -4540.668          33.000    23244065.297 5  96471525.028 5     -3531.634          31.000
R03  19862574.633 8 106325916.052 8     -2305.910          50.000    19862576.062 8  82697923.149 8     -1793.489          48.000
R14  20523144.195 6 109399971.878 6      2034.355          37.000
C05  39767620.414 5 207080434.975 5        26.188          34.000    39767616.750 5 160127712.287 5        19.809          35.000
C23  21934481.094 8 114218632.886 8       306.371          48.000
C25  23399431.023 6 121846939.131 6     -2092.527          37.000
E02  23718602.320 8 124642085.473 8      1191.844          51.000    23718605.477 8  95505039.500 8       913.291          51.000
E03  24178951.023 8 127061251.033 8     -1818.469          50.000    24178956.047 8  97358624.002 8     -1393.357          51.000
E25  24074143.266 8 126510541.362 8     -1407.637          51.000    24074145.625 8  96936631.290 8     -1078.546          51.000
E30  26376876.125 7 138611416.367 7      2679.945          42.000    26376878.633 7 106208760.008 7      2053.420          43.000
> 2020 05 09 06 03 30.0000000  0 14        .000000000000
G13  20748866.070 8 109036019.052 8     -1779.961          51.000    20748865.703 8  84963111.153 8     -1386.983          49.000
G15  20329500.672 8 106832238.860 8      -311.711          51.000    20329500.320 8  83245905.007 8      -242.892          51.000
G19  23372083.633 8 122821128.988 8      3096.656          49.000    23372081.523 7  95704761.915 7      2412.982          42.000
G28  22276347.453 6 117062976.201 6     -2540.633          40.000    22276350.070 4  91217922.478 4     -1979.711          26.000
R02  23269601.594 6 124171014.713 6     -4544.535          37.000    23269603.008 5  96577520.476 5     -3534.638          30.000
R03  19875563.188 8 106395448.699 8     -2329.387          50.000    19875564.789 7  82752004.075 7     -1811.745          47.000
R14  20511733.359 6 109339141.727 6      2021.098          36.000
C05  39767474.602 5 207079675.444 5        25.113          34.000    39767470.906 5 160127125.703 5        19.184          35.000
C23  21932743.805 8 114209586.282 8       296.785          48.000
C25  23411501.648 4 121909797.259 4     -2098.137          29.000
E02  23711826.898 8 124606479.616 8      1181.988          51.000    23711829.195 8  95477757.108 8       905.697          51.000
E03  24189363.328 8 127115973.475 8     -1829.586          48.000    24189369.500 8  97400554.211 8     -1401.897          51.000
E25  24082201.250 8 126552886.225 8     -1415.219          51.000    24082203.898 8  96969077.344 8     -1084.379          51.000
E30  26361589.055 6 138531082.971 6      2675.641          41.000    26361591.078 7 106147205.853 7      2050.277          42.000
> 2020 05 09 06 04  0.0000000  0 16        .000000000000
G13  20759070.430 8 109089641.826 8     -1794.500          51.000    20759069.695 8  85004895.135 8     -1398.312          48.000
G15  20331333.125 8 106841869.449 8      -329.949          51.000    20331332.992 8  83253409.330 8      -257.103          51.000
G17  22744753.859 5 119524479.846 5      1459.543          31.000    22744758.000 5  93135972.170 5      1137.306          31.000
G19  23354432.500 8 122728367.418 8      3087.867          50.000    23354428.562 6  95632480.200 6      2406.133          40.000
G28  22290877.508 6 117139331.661 6     -2549.402          37.000    22290879.562 4  91277420.273 4     -1986.532          28.000
R02  23295163.672 5 124307416.801 5     -4548.527          35.000    23295162.188 4  96683570.957 4     -3537.743          29.000
R03  19888683.812 8 106465685.522 8     -2352.508          50.000    19888685.031 7  82806632.719 7     -1829.728          47.000
R13  19671521.258 4 105044814.955 4     -1408.215          29.000    19671522.555 4  81701530.530 4     -1095.278          29.000
R14  20500395.609 5 109278709.887 5      2007.852          34.000
C05  39767330.031 5 207078922.468 5        25.656          34.000    39767326.359 5 160126543.454 5        19.464          35.000
C23  21931060.453 8 114200819.774 8       287.926          48.000
C25  23423595.766 6 121972798.045 6     -2102.000          38.000
E02  23705107.086 8 124571164.051 8      1172.824          51.000    23705108.234 8  95450697.141 8       898.669          51.000
E03  24199838.508 8 127171023.943 8     -1840.059          49.000    24199844.922 8  97442735.738 8     -1409.861          51.000
E25  24090302.094 8 126595456.205 8     -1422.340          51.000    24090304.750 8  97001695.892 8     -1089.833          51.000
E30  26346324.570 7 138450868.990 7      2672.379          42.000    26346326.305 7 106085743.165 7      2047.685          43.000
> 2020 05 09 06 04 30.0000000  0 14        .000000000000
G13  20769357.688 8 109143699.704 8     -1809.207          51.000    20769356.562 8  85047018.142 8     -1409.772          48.000
G15  20333269.406 8 106852044.943 8      -348.320          51.000    20333269.148 8  83261338.274 8      -271.418          51.000
G19  23336830.828 8 122635867.193 8      3078.855          51.000    23336825.289 6  95560402.158 6      2399.111          38.000
G28  22305457.508 5 117215948.169 5     -2558.781          33.000    22305458.109 4  91337122.364 4     -1993.859          28.000
R02  23320745.414 5 124443923.764 5     -4552.070          33.000    23320744.297 4  96789742.939 4     -3540.502          29.000
R03  19901933.258 8 106536610.725 8     -2375.668          51.000    19901934.453 7  82861796.772 7     -1847.742          47.000
R14  20489132.023 5 109218662.793 5      1995.188          35.000
C05  39767184.070 5 207078162.246 5        25.336          33.000
C23  21929428.703 8 114192319.986 8       278.918          49.000
C25  23435718.508 5 122035927.684 5     -2106.301          32.000
E02  23698440.188 8 124536125.597 8      1163.281          51.000    23698440.406 8  95423849.498 8       891.315          51.000
E03  24210374.203 8 127226388.647 8     -1850.832          51.000    24210379.383 8  97485158.036 8     -1418.131          51.000
E25  24098443.031 8 126638237.002 8     -1429.535          51.000    24098445.391 8  97034475.968 8     -1095.370          51.000
E30  26331080.203 6 138370761.992 6      2668.328          41.000    26331082.047 7 106024362.480 7      2044.593          43.000
> 2020 05 09 06 05  0.0000000  0 14        .000000000000
G13  20779729.250 8 109198201.096 8     -1823.859          51.000    20779728.180 7  85089486.709 7     -1421.192          47.000
G15  20335311.203 8 106862774.681 8      -366.699          51.000    20335310.641 8  83269699.103 8      -285.740          51.000
G19  23319281.023 8 122543640.766 8      3069.820          50.000    23319274.711 6  95488537.466 6      2392.071          40.000
G28  22320088.250 5 117292832.679 5     -2567.090          34.000
R02  23346347.680 5 124580542.617 5     -4555.539          31.000    23346347.141 4  96896007.920 4     -3543.197          28.000
R03  19915312.656 8 106608231.520 8     -2398.641          51.000    19915313.914 7  82917501.821 7     -1865.609          47.000
R14  20477942.172 6 109159010.529 6      1982.086          37.000    20477950.188 5  84901419.717 5      1541.619          33.000
C05                                                                  39767033.664 5 160125365.289 5        19.899          33.000
C23  21927849.906 8 114184095.845 8       269.699          49.000
C25  23447866.711 5 122099194.674 5     -2111.285          33.000
E02  23691827.617 8 124501373.490 8      1153.922          51.000    23691827.469 8  95397221.247 8       884.189          51.000
E03  24220972.008 8 127282076.183 8     -1861.457          51.000    24220974.898 8  97527827.695 8     -1426.311          50.000
E25  24106625.531 8 126681236.812 8     -1436.727          51.000    24106627.695 8  97067423.857 8     -1100.850          51.000
E30  26315858.102 7 138290771.874 7      2664.703          42.000    26315859.969 7 105963071.345 7      2041.624          43.000
> 2020 05 09 06 05 30.0000000  0 14        .000000000000
G13  20790183.758 8 109253138.556 8     -1838.488          51.000    20790182.438 7  85132295.041 7     -1432.591          47.000
G15  20337457.211 8 106874052.169 8      -384.969          51.000    20337456.477 8  83278486.744 8      -299.976          51.000
G19  23301782.242 8 122451685.166 8      3060.770          49.000    23301776.492 7  95416883.820 7      2385.018          43.000
G24  21702374.516 5 114046747.632 5      2294.543          30.000
G28  22334768.117 6 117369976.556 6     -2575.605          36.000
R02  23371967.336 5 124717262.164 5     -4559.176          30.000    23371969.062 4  97002345.265 4     -3546.032          26.000
R03  19928820.430 8 106680538.235 8     -2421.605          51.000    19928821.742 7  82973740.353 7     -1883.474          47.000
R14  20466824.984 5 109099746.278 5      1969.266          35.000    20466833.188 5  84855325.297 5      1531.648          33.000
C23  21926322.227 8 114176140.427 8       260.766          48.000
C25  23460039.516 6 122162591.827 6     -2115.574          39.000
E02  23685268.000 8 124466901.032 8      1144.461          51.000    23685267.422 8  95370807.264 8       876.931          51.000
E03  24231629.914 8 127338079.222 8     -1871.895          51.000    24231630.805 8  97570739.084 8     -1434.336          49.000
E25  24114848.172 8 126724447.883 8     -1443.777          51.000    24114850.484 8  97100533.631 8     -1106.304          51.000
E30  26300657.328 7 138210892.656 7      2660.836          42.000    26300659.242 7 105901865.201 7      2038.897          43.000
> 2020 05 09 06 06  0.0000000  0 13        .000000000000
G13  20800721.977 8 109308516.576 8     -1852.918          51.000    20800720.086 7  85175446.690 7     -1443.835          46.000
G15  20339708.438 8 106885882.537 8      -403.215          51.000    20339707.469 8  83287705.205 8      -314.193          51.000
G19  23284336.109 8 122360008.427 8      3051.434          49.000    23284331.992 7  95345447.444 7      2377.740          43.000
G28  22349497.930 5 117447382.363 5     -2584.613          33.000
R02  23397607.477 5 124854084.397 5     -4561.629          32.000    23397609.352 4  97108762.598 4     -3547.934          26.000
R03  19942456.969 8 106753533.600 8     -2444.266          51.000    19942458.320 7  83030514.505 7     -1901.095          46.000
R14  20455781.688 5 109040875.478 5      1955.992          34.000    20455788.898 4  84809536.883 4      1521.324          28.000
C23  21924846.391 8 114168458.253 8       251.793          48.000
C25  23472240.352 6 122226122.824 6     -2119.734          39.000
E02  23678762.430 8 124432712.957 8      1135.191          51.000    23678761.070 8  95344611.199 8       869.819          51.000
E03  24242348.445 8 127394401.927 8     -1882.355          51.000    24242347.617 8  97613895.384 8     -1442.315          48.000
E25  24123111.781 8 126767873.934 8     -1450.766          51.000    24123114.422 8  97133808.133 8     -1111.626          51.000
E30  26285479.273 6 138131129.888 6      2657.133          41.000    26285480.867 7 105840748.267 7      2036.054          44.000
> 2020 05 09 06 06 30.0000000  0 12        .000000000000
G13  20811343.578 8 109364334.726 8     -1867.836          50.000    20811341.859 7  85218941.318 7     -1455.457          47.000
G15  20342064.938 8 106898266.384 8      -421.875          51.000    20342063.867 8  83297354.946 8      -328.734          51.000
G19  23266943.211 7 122268614.220 7      3041.871          46.000    23266941.305 7  95274231.207 7      2370.292          46.000
G28  22364276.453 5 117525048.236 5     -2592.984          33.000
R03  19956221.812 8 106827215.161 8     -2467.395          51.000    19956223.031 7  83087822.347 7     -1919.085          46.000
R14  20444812.781 6 108982398.455 6      1943.297          36.000    20444820.227 4  84764085.392 4      1511.459          25.000
C23  21923423.570 8 114161049.221 8       242.566          49.000
C25  23484468.836 5 122289787.692 5     -2124.223          35.000
E02  23672310.922 8 124398809.534 8      1125.492          51.000    23672308.945 8  95318633.265 8       862.375          51.000
E03  24253127.367 8 127451043.884 8     -1893.203          51.000    24253125.594 8  97657296.305 8     -1450.648          49.000
E25  24131416.164 8 126811514.181 8     -1458.051          51.000    24131419.031 8  97167246.756 8     -1117.232          51.000
E30  26270324.156 6 138051484.552 6      2652.961          40.000    26270325.086 7 105779721.316 7      2032.821          44.000
> 2020 05 09 06 07  0.0000000  0 14        .000000000000
G13  20822041.047 7 109420555.346 7     -1876.562          47.000    20822040.609 7  85262749.597 7     -1462.253          47.000
G15  20344519.570 8 106911166.545 8      -434.457          51.000    20344518.656 8  83307407.001 8      -338.538          51.000
G17  22696393.570 5 119270347.365 5      1369.652          35.000    22696399.344 5  92937937.411 5      1067.262          33.000
G19  23249597.789 7 122177468.620 7      3038.281          47.000    23249597.672 7  95203208.647 7      2367.489          46.000
G24  21663290.531 5 113841332.668 5      2276.285          34.000    21663288.641 5  88707528.540 5      1773.729          32.000
G28  22379097.555 6 117602935.193 6     -2595.383          36.000
R03  19970106.961 8 106901542.172 8     -2484.086          51.000    19970107.977 7  83145632.204 7     -1932.067          46.000
R14  20433909.953 5 108924277.958 5      1935.766          32.000
C23  21922046.352 8 114153876.250 8       239.266          49.000
C25  23496714.750 5 122353548.792 5     -2122.730          35.000
E02  23665906.164 8 124365153.536 8      1121.855          51.000    23665904.414 8  95292844.911 8       859.636          51.000
E03  24263959.539 8 127507967.257 8     -1897.953          51.000    24263957.938 8  97700912.847 8     -1454.330          49.000
E25  24139753.938 8 126855330.359 8     -1459.312          51.000    24139756.852 8  97200820.179 8     -1118.160          51.000
E30  26255184.172 6 137971920.108 6      2654.941          41.000    26255185.000 7 105718756.328 7      2034.315          44.000
> 2020 05 09 06 07 30.0000000  0 15        .000000000000
G13  20832830.188 8 109477257.009 8     -1897.238          50.000    20832830.859 8  85306932.748 8     -1478.367          48.000
G15  20347087.773 8 106924662.689 8      -458.980          51.000    20347086.836 8  83317923.469 8      -357.647          51.000
G17  22688653.594 6 119229682.318 6      1347.426          36.000    22688657.914 6  92906250.462 6      1049.942          36.000
G19  23232316.000 7 122086654.776 7      3022.422          47.000    23232317.039 7  95132444.633 7      2355.134          46.000
G28  22393975.930 5 117681120.139 5     -2609.871          30.000
R03  19984126.492 8 106976593.090 8     -2512.812          48.000    19984128.359 7  83204005.112 7     -1954.410          46.000
R12  23238898.078 5 124137996.847 5     -3491.984          33.000
R14  20423088.508 6 108866594.601 6      1916.887          38.000    20423104.578 5  84674025.542 5      1490.915          30.000
R22  22854418.734 5 121998434.437 5      1090.543          32.000    22854424.641 5  94887701.034 5       848.197          32.000
C23  21920729.234 8 114147017.642 8       224.180          49.000
C25  23508993.523 6 122417483.822 6     -2133.258          39.000
E02  23659563.352 8 124331824.202 8      1106.375          51.000    23659562.547 8  95267306.879 8       847.715          51.000
E03  24274860.312 8 127565250.623 8     -1914.621          51.000    24274859.133 8  97744805.251 8     -1466.975          51.000
E25  24148140.094 8 126899400.667 8     -1472.480          51.000    24148143.055 8  97234588.333 8     -1128.246          51.000
E30  26240074.320 7 137892516.550 7      2644.852          43.000    26240075.578 7 105657914.631 7      2026.599          45.000
> 2020 05 09 06 08  0.0000000  0 14        .000000000000
G13  20843691.109 8 109534330.112 8     -1911.492          51.000    20843691.477 8  85351405.308 8     -1489.474          49.000
G15  20349748.508 8 106938645.587 8      -477.082          51.000    20349747.422 8  83328819.236 8      -371.752          51.000
G17  22680994.922 6 119189436.664 6      1331.445          37.000    22680993.758 5  92874889.997 5      1037.484          35.000
G19  23215077.711 8 121996067.146 8      3012.852          48.000    23215079.039 7  95061856.879 7      2347.677          45.000
R03  19998258.875 7 107052254.293 7     -2535.090          47.000    19998262.312 7  83262852.722 7     -1971.737          45.000
R12  23258498.008 6 124242698.819 6     -3491.297          36.000    23258503.391 4  96633250.432 4     -2715.456          25.000
R14  20412330.109 6 108809237.851 6      1903.359          39.000    20412344.133 5  84629414.649 5      1480.391          32.000
R22  22848344.258 5 121966001.007 5      1066.988          32.000    22848350.148 5  94862475.034 5       829.880          32.000
C23  21919451.797 8 114140364.983 8       215.453          49.000
C25  23521284.430 5 122481484.250 5     -2137.633          31.000
E02  23653261.844 8 124298712.411 8      1097.238          51.000    23653262.297 8  95241935.528 8       840.747          51.000
E03  24285808.812 8 127622784.211 8     -1924.848          51.000    24285808.297 8  97788889.421 8     -1474.916          51.000
E25  24156553.836 8 126943614.978 8     -1478.988          51.000    24156556.953 8  97268466.833 8     -1133.260          51.000
E30  26224974.250 7 137813165.476 7      2641.312          45.000    26224976.070 7 105597113.167 7      2023.857          45.000
> 2020 05 09 06 08 30.0000000  0 13        .000000000000
G12  24198708.539 6 127165076.711 6      3827.715          36.000    24198714.844 5  99089683.421 5      2982.629          35.000
G13  20854649.148 8 109591911.114 8     -1926.105          51.000    20854648.773 8  85396273.607 8     -1500.861          49.000
G15  20352527.773 8 106953252.599 8      -495.551          49.000    20352526.664 8  83340201.309 8      -386.140          49.000
G19  23197909.461 8 121905846.200 8      3002.949          48.000    23197910.289 7  94991554.851 7      2339.963          46.000
R03  20012532.305 8 107128662.476 8     -2557.551          50.000    20012535.242 7  83322281.296 7     -1989.209          44.000
R12  23278110.781 5 124347463.151 5     -3491.340          34.000
R14  20401658.141 5 108752347.115 5      1890.539          34.000    20401669.789 5  84585166.149 5      1470.416          30.000
C23  21918239.977 8 114134053.842 8       206.434          49.000
C25  23533612.430 6 122545685.069 6     -2141.625          37.000
E02  23647027.789 8 124265955.201 8      1087.746          51.000    23647029.438 8  95216835.852 8       833.414          51.000
E03  24296830.750 8 127680704.394 8     -1935.473          51.000    24296831.523 8  97833269.807 8     -1483.010          51.000
E25  24165020.938 8 126988109.312 8     -1486.176          51.000    24165024.211 8  97302559.896 8     -1138.785          51.000
E30  26209910.523 7 137734004.638 7      2637.258          47.000    26209912.812 7 105536457.491 7      2020.711          45.000
> 2020 05 09 06 09  0.0000000  0 14        .000000000000
G12  24176860.992 5 127050275.245 5      3822.316          30.000    24176865.742 4  99000227.711 4      2978.431          29.000
G13  20865680.828 8 109649879.744 8     -1941.117          51.000    20865679.984 8  85441443.927 8     -1512.559          49.000
G15  20355403.383 8 106968364.183 8      -514.492          50.000    20355402.000 8  83351976.553 8      -400.903          50.000
G19  23180788.820 8 121815875.887 8      2992.348          48.000    23180789.094 7  94921448.160 7      2331.703          44.000
G28  22438880.039 6 117917113.736 6     -2635.449          36.000
R03  20026923.367 8 107205693.267 8     -2580.418          51.000    20026924.609 7  83382194.120 7     -2006.992          45.000
R12  23297711.953 6 124452166.813 6     -3490.965          36.000
R22  22836620.539 5 121903439.012 5      1016.777          31.000    22836632.961 5  94813801.012 5       790.836          31.000
C23  21917070.383 8 114127965.342 8       196.883          48.000
C25  23545956.750 6 122609967.198 6     -2146.559          40.000
E02  23640838.672 8 124233432.852 8      1077.809          51.000    23640841.094 8  95191916.128 8       825.862          51.000
E03  24307903.008 8 127738890.820 8     -1946.312          51.000    24307905.062 8  97877854.211 8     -1491.309          51.000
E25  24173518.336 8 127032762.901 8     -1493.348          51.000    24173521.508 8  97336774.982 8     -1144.229          51.000
E30  26194860.492 8 137654915.048 8      2632.883          48.000    26194863.453 7 105475856.412 7      2017.317          46.000
> 2020 05 09 06 09 30.0000000  0 14        .000000000000
G13  20876809.562 8 109708359.221 8     -1953.863          51.000    20876808.312 8  85487012.295 8     -1522.491          48.000
G15  20358398.844 8 106984104.869 8      -531.145          51.000    20358397.156 8  83364242.035 8      -413.879          51.000
G19  23163740.125 8 121726283.645 8      2984.062          48.000    23163740.000 7  94851636.041 7      2325.244          44.000
G28  22453954.922 5 117996329.822 5     -2641.707          35.000
R03  20041453.688 8 107283470.327 8     -2600.934          51.000    20041454.242 7  83442687.356 7     -2022.948          46.000
R12  23317324.758 5 124556935.104 5     -3489.402          35.000
R14  20380532.414 6 108639707.328 6      1865.301          36.000
R22  22830984.734 5 121873331.611 5       994.043          35.000    22830993.352 5  94790384.089 5       773.145          33.000
C23  21915967.273 8 114122222.283 8       189.645          49.000
C25  23558341.453 6 122674452.824 6     -2148.867          37.000
E02  23634718.391 8 124201269.471 8      1070.168          51.000    23634721.008 8  95167271.468 8       819.981          51.000
E03  24319049.281 8 127797466.984 8     -1955.008          51.000    24319051.859 8  97922737.238 8     -1498.032          51.000
E25  24182069.484 8 127077698.914 8     -1498.629          51.000    24182072.312 8  97371206.473 8     -1148.318          51.000
E30  26179847.906 8 137576021.624 8      2630.547          48.000    26179851.719 7 105415405.622 7      2015.572          46.000
> 2020 05 09 06 10  0.0000000  0 15        .000000000000
G13  20888006.188 8 109767197.074 8     -1969.094          51.000    20888004.820 7  85532859.929 7     -1534.359          47.000
G15  20361485.023 8 107000322.568 8      -550.363          50.000    20361483.359 8  83376879.197 8      -428.858          50.000
G17  22651330.461 6 119033549.352 6      1266.680          36.000    22651329.320 5  92753405.708 5       987.017          35.000
G19  23146734.953 7 121636921.328 7      2972.988          47.000    23146734.648 7  94782003.103 7      2316.614          44.000
G28  22469061.172 5 118075714.238 5     -2650.578          35.000    22469072.305 4  92007094.183 4     -2065.386          29.000
R03  20056093.375 8 107361836.335 8     -2623.848          51.000    20056094.227 7  83503638.655 7     -2040.770          46.000
R12  23336920.656 5 124661612.487 5     -3489.629          35.000
R14  20370076.734 5 108583949.584 5      1852.113          32.000
R22  22825472.125 6 121843893.339 6       968.086          36.000    22825476.562 5  94767487.739 5       752.956          30.000
C23  21914901.938 8 114116673.927 8       179.820          50.000
C25  23570735.078 5 122738991.243 5     -2153.660          35.000
E02  23628637.727 8 124169313.159 8      1059.918          51.000    23628640.383 8  95142785.490 8       812.103          51.000
E03  24330240.688 8 127856280.343 8     -1966.348          51.000    24330243.352 8  97967802.017 8     -1506.670          51.000
E25  24190645.336 8 127122764.446 8     -1506.160          51.000    24190647.875 8  97405737.205 8     -1154.107          51.000
E30  26164843.867 8 137497173.207 8      2625.652          48.000    26164848.516 7 105354989.330 7      2011.860          46.000
> 2020 05 09 06 10 30.0000000  0 14        .000000000000
G13  20899288.289 8 109826486.226 8     -1983.602          51.000    20899287.359 7  85579059.252 7     -1545.664          47.000
G15  20364679.781 8 107017110.831 8      -568.926          51.000    20364678.219 8  83389960.938 8      -443.319          51.000
G19  23129791.969 7 121547885.929 7      2962.445          46.000    23129791.328 7  94712624.896 7      2308.402          44.000
G28  22484217.234 6 118155358.511 6     -2659.215          37.000
R03  20070859.664 8 107440883.402 8     -2646.062          51.000    20070861.062 7  83565119.689 7     -2058.049          46.000
R12  23356516.836 5 124766292.826 5     -3489.094          35.000
R14  20359692.945 6 108528614.590 6      1838.543          36.000
R22  22820101.461 5 121815221.192 5       943.184          35.000    22820104.664 4  94745187.249 4       733.590          29.000
C23  21913891.773 8 114111412.556 8       170.805          50.000
C25  23583156.836 6 122803673.988 6     -2157.855          37.000
E02  23622614.242 8 124137657.303 8      1050.395          51.000    23622616.820 8  95118529.723 8       804.845          51.000
E03  24341495.055 8 127915423.576 8     -1976.676          51.000    24341497.750 8  98013119.542 8     -1514.608          51.000
E25  24199263.344 8 127168051.900 8     -1513.145          51.000    24199265.875 8  97440437.972 8     -1159.434          51.000
E30  26149866.039 7 137418463.868 7      2621.465          47.000    26149871.203 7 105294679.587 7      2008.715          46.000
> 2020 05 09 06 11  0.0000000  0 14        .000000000000
G13  20910647.438 8 109886181.176 8     -1995.961          51.000    20910646.984 8  85625574.784 8     -1555.294          48.000
G15  20367974.680 8 107034425.123 8      -585.320          51.000    20367973.320 8  83403452.585 8      -456.094          51.000
G17  22637054.523 5 118958525.720 5      1235.707          35.000    22637071.055 5  92695002.455 5       962.892          33.000
G19  23112903.117 7 121459135.862 7      2954.258          45.000    23112902.273 7  94643469.042 7      2302.019          44.000
R03  20085744.320 8 107520563.146 8     -2665.898          51.000    20085745.734 7  83627092.809 7     -2073.477          46.000
R12  23376105.023 5 124870929.494 5     -3486.488          34.000
R14  20349382.852 6 108473635.742 6      1827.199          37.000
R22  22814865.617 5 121787271.713 5       919.484          31.000    22814867.906 5  94723448.836 5       715.158          33.000
C23  21912927.969 8 114106393.398 8       163.863          50.000
C25  23595597.945 6 122868456.154 6     -2160.625          38.000
E02  23616639.406 8 124106256.929 8      1043.059          51.000    23616641.547 8  95094469.699 8       799.236          51.000
E03  24352803.938 8 127974851.104 8     -1985.008          51.000    24352806.531 8  98058654.893 8     -1520.968          51.000
E25  24207914.766 8 127213515.288 8     -1517.586          51.000    24207917.320 8  97475273.552 8     -1162.847          51.000
E30  26134905.766 7 137339849.404 7      2619.551          45.000    26134910.906 7 105234442.548 7      2007.119          46.000
> 2020 05 09 06 11 30.0000000  0 14        .000000000000
G12  24068033.672 5 126478375.741 5      3800.844          34.000    24068029.898 5  98554564.540 5      2961.693          34.000
G13  20922091.797 8 109946322.078 8     -2012.387          51.000    20922091.258 8  85672437.834 8     -1568.094          48.000
G15  20371377.570 8 107052306.143 8      -605.781          51.000    20371376.297 8  83417385.845 8      -472.037          51.000
G17  22630057.195 5 118921756.373 5      1216.145          31.000    22630052.141 5  92666284.651 5       947.642          31.000
G19  23096076.977 7 121370715.798 7      2941.488          43.000    23096076.102 7  94574570.316 7      2292.069          42.000
R03  20100755.148 8 107600914.820 8     -2689.934          51.000    20100756.227 7  83689588.531 7     -2092.171          47.000
R12  23395692.930 5 124975562.779 5     -3487.953          32.000
R22  22809773.375 5 121760088.592 5       892.902          33.000    22809775.750 5  94702306.374 5       694.480          35.000
C23  21912018.500 8 114101656.849 8       152.902          50.000
C25  23608066.070 4 122933394.724 4     -2166.352          28.000
E02  23610720.812 8 124075152.982 8      1031.531          51.000    23610722.406 8  95070636.783 8       790.379          51.000
E03  24364174.859 8 128034603.190 8     -1997.512          51.000    24364177.500 8  98104438.931 8     -1530.579          51.000
E25  24216607.211 8 127259194.617 8     -1526.625          51.000    24216609.758 8  97510274.597 8     -1169.785          51.000
E30  26119971.148 7 137261371.541 7      2613.242          45.000    26119975.234 7 105174310.169 7      2002.417          45.000
> 2020 05 09 06 12  0.0000000  0 13        .000000000000
G12  24046352.492 6 126364445.913 6      3795.895          36.000    24046349.516 6  98465788.150 6      2957.846          37.000
G13  20933624.383 8 110006925.534 8     -2026.613          51.000    20933623.781 8  85719661.284 8     -1579.179          49.000
G15  20374891.594 8 107070771.219 8      -623.977          51.000    20374890.305 8  83431774.214 8      -486.216          51.000
G19  23079317.555 7 121282646.204 7      2931.195          44.000    23079316.586 7  94505944.701 7      2284.048          42.000
R03  20115894.211 8 107681952.835 8     -2711.332          51.000    20115895.312 8  83752618.063 8     -2108.817          48.000
R12  23415283.500 5 125080209.449 5     -3487.621          32.000
R22  22804829.062 4 121733725.621 4       868.117          28.000    22804830.180 5  94681775.448 5       675.199          33.000
C23  21911166.531 8 114097219.765 8       144.277          50.000
C25  23620561.898 6 122998468.352 6     -2170.438          36.000
E02  23604861.469 8 124044362.695 8      1022.312          51.000    23604862.867 8  95047044.202 8       783.357          51.000
E03  24375610.680 8 128094696.388 8     -2007.477          51.000    24375613.555 8  98150484.344 8     -1538.247          51.000
E25  24225343.852 8 127305106.117 8     -1532.898          51.000    24225346.406 8  97545453.536 8     -1174.600          51.000
E30  26105066.148 7 137183048.173 7      2609.414          46.000    26105068.492 7 105114296.171 7      1999.520          45.000
> 2020 05 09 06 12 30.0000000  0 13        .000000000000
G12  24024696.633 5 126250650.735 5      3790.480          32.000    24024694.516 5  98377116.579 5      2953.618          33.000
G13  20945236.641 8 110067947.262 8     -2040.887          51.000    20945235.828 8  85767210.657 8     -1590.301          49.000
G15  20378508.344 8 107089777.012 8      -642.445          51.000    20378507.219 8  83446583.907 8      -500.607          51.000
G19  23062617.773 7 121194887.148 7      2920.203          47.000    23062615.289 6  94437560.997 6      2275.483          39.000
R03  20131152.617 8 107763630.315 8     -2733.098          51.000    20131153.539 7  83816144.956 7     -2125.743          47.000
R14  20318904.328 5 108311173.394 5      1785.652          33.000    20318903.086 5  84242028.622 5      1388.838          30.000
R22  22800023.164 5 121708070.413 5       842.902          34.000    22800024.242 5  94661823.040 5       655.597          33.000
C23  21910363.711 8 114093038.733 8       135.242          51.000
C25  23633081.656 6 123063657.994 6     -2174.656          37.000
E02  23599053.398 8 124013842.414 8      1013.062          51.000    23599054.570 8  95023658.539 8       776.177          51.000
E03  24387102.836 8 128155086.440 8     -2017.820          51.000    24387105.836 8  98196757.213 8     -1546.083          51.000
E25  24234116.266 8 127351205.290 8     -1539.668          51.000    24234118.820 8  97580776.259 8     -1179.722          51.000
E30  26090182.898 7 137104836.459 7      2605.281          47.000    26090183.711 7 105054367.747 7      1996.317          46.000
> 2020 05 09 06 13  0.0000000  0 13        .000000000000
G12  24003067.906 5 126136993.681 5      3786.281          31.000    24003067.453 5  98288552.642 5      2950.352          32.000
G13  20956928.742 8 110129388.288 8     -2054.707          51.000    20956927.297 8  85815086.767 8     -1601.070          48.000
G15  20382228.188 8 107109325.103 8      -660.324          51.000    20382227.086 8  83461816.165 8      -514.535          51.000
G19  23045978.414 7 121107444.001 7      2909.734          47.000    23045974.484 6  94369423.484 6      2267.325          40.000
R03  20146530.188 8 107845945.776 8     -2754.129          51.000    20146530.570 7  83880168.080 7     -2142.100          46.000
R14  20308890.734 4 108257814.727 4      1773.617          29.000
R22  22795357.805 5 121683164.873 5       817.922          35.000    22795357.602 5  94642452.021 5       636.161          33.000
C23  21909610.188 8 114089115.165 8       126.883          50.000
C25  23645623.141 5 123128961.016 5     -2178.922          35.000
E02  23593297.234 8 123983593.814 8      1004.109          51.000    23593297.688 8  95000481.051 8       769.371          51.000
E03  24398651.359 8 128215774.268 8     -2027.645          51.000    24398654.625 8  98243258.270 8     -1553.593          51.000
E25  24242924.469 8 127397492.743 8     -1545.656          51.000    24242927.023 8  97616243.257 8     -1184.340          51.000
E30  26075321.766 8 137026738.780 8      2601.664          48.000    26075321.625 7 104994526.698 7      1993.564          46.000
> 2020 05 09 06 13 30.0000000  0 12        .000000000000
G12  23981469.180 5 126023470.912 5      3782.422          31.000    23981470.461 4  98200110.465 4      2947.336          26.000
G13  20968703.508 8 110191264.167 8     -2067.785          51.000    20968701.758 8  85863301.718 8     -1611.261          48.000
G15  20386054.453 8 107129431.705 8      -677.605          51.000    20386053.117 8  83477483.639 8      -528.004          51.000
G17  22603029.773 5 118779730.485 5      1152.324          32.000
G19  23029402.930 7 121020336.133 7      2899.871          46.000    23029399.047 7  94301547.253 7      2259.643          42.000
R03  20162028.773 8 107928912.936 8     -2774.320          50.000    20162029.438 7  83944698.073 7     -2157.805          47.000
R22  22790834.508 6 121659025.150 6       793.566          37.000    22790835.359 5  94623676.641 5       617.218          32.000
C23  21908909.203 8 114085464.780 8       119.129          51.000
E02  23587595.539 8 123953632.925 8       995.945          51.000    23587595.391 8  94977524.001 8       763.124          51.000
E03  24410258.906 8 128276775.243 8     -2036.488          51.000    24410262.758 8  98289999.263 8     -1560.435          51.000
E25  24251771.336 8 127443983.600 8     -1551.051          51.000    24251773.812 8  97651866.102 8     -1188.473          51.000
E30  26060485.852 8 136948771.954 8      2598.793          49.000    26060485.141 7 104934785.906 7      1991.274          46.000
> 2020 05 09 06 14  0.0000000  0 13        .000000000000
G12  23959892.148 5 125910086.122 5      3775.293          33.000    23959894.719 5  98111755.833 5      2941.790          31.000
G13  20980550.039 8 110253517.906 8     -2084.094          51.000    20980547.922 8  85911811.103 8     -1623.969          48.000
G15  20389976.352 8 107150040.532 8      -698.008          51.000    20389974.797 8  83493542.462 8      -543.902          51.000
G19  23012881.008 7 120933511.285 7      2886.648          46.000    23012877.375 7  94233891.559 7      2249.339          43.000
R03  20177637.703 8 108012471.777 8     -2797.926          49.000    20177639.312 7  84009688.285 7     -2176.161          47.000
R14  20289067.664 5 108152155.175 5      1746.051          35.000
R22  22786444.523 5 121635596.200 5       766.176          35.000    22786446.719 5  94605454.149 5       595.914          33.000
C23  21908250.211 8 114082031.874 8       108.133          51.000
C25  23670768.414 5 123259877.967 5     -2187.332          33.000
E02  23581937.562 8 123923903.685 8       984.434          50.000    23581937.234 8  94954744.433 8       754.303          51.000
E03  24421915.172 8 128338032.666 8     -2048.887          51.000    24421919.453 8  98336936.755 8     -1569.932          51.000
E25  24260646.086 8 127490620.854 8     -1559.738          51.000    24260648.469 8  97687601.128 8     -1195.070          51.000
E30  26045664.453 8 136870880.666 8      2592.430          48.000    26045663.578 7 104875102.993 7      1986.389          46.000
> 2020 05 09 06 14 30.0000000  0 15        .000000000000
G12  23938349.102 6 125796872.017 6      3772.477          36.000    23938352.500 5  98023537.039 5      2939.592          34.000
G13  20992483.367 8 110316228.426 8     -2096.199          51.000    20992480.969 7  85960676.446 7     -1633.402          47.000
G15  20394008.773 8 107171231.401 8      -714.301          51.000    20394007.250 8  83510054.823 8      -556.598          51.000
G17  22590087.867 5 118711701.269 5      1117.695          34.000    22590096.930 5  92502635.107 5       870.931          34.000
G19  22996428.617 7 120847052.291 7      2877.605          45.000    22996425.586 7  94166520.966 7      2242.290          44.000
G28  22607054.930 5 118800875.308 5     -2718.520          31.000
R03  20193371.898 8 108096700.350 8     -2816.965          50.000    20193374.227 7  84075199.397 7     -2190.973          47.000
R14  20279278.555 6 108099947.730 6      1735.426          36.000
R22  22782203.773 5 121612960.981 5       743.305          31.000    22782206.250 5  94587848.960 5       578.123          33.000
C23  21907647.805 8 114078895.099 8       101.336          50.000
C25  23683380.844 5 123325533.222 5     -2189.566          35.000
E02  23576339.070 8 123894485.658 8       977.090          51.000    23576338.875 8  94932203.331 8       748.673          51.000
E03  24433635.867 8 128399625.407 8     -2057.086          51.000    24433639.797 8  98384131.186 8     -1576.191          51.000
E25  24269563.734 8 127537483.157 8     -1564.191          51.000    24269566.234 8  97723508.600 8     -1198.476          51.000
E30  26030872.609 8 136793145.243 8      2590.277          48.000    26030872.000 7 104815539.509 7      1984.701          46.000
> 2020 05 09 06 15  0.0000000  0 13        .000000000000
G12  23916837.117 6 125683816.241 6      3766.359          37.000    23916843.039 5  97935441.607 5      2934.822          34.000
G13  21004498.031 8 110379367.212 8     -2111.031          51.000    21004495.719 7  86009875.501 7     -1644.959          46.000
G15  20398146.508 8 107192976.279 8      -733.469          51.000    20398145.336 8  83526998.870 8      -571.534          51.000
G19  22980040.875 7 120760934.773 7      2865.336          45.000    22980038.875 7  94099416.441 7      2232.729          43.000
G28  22622603.602 5 118882579.648 5     -2726.395          34.000
R03  20209225.773 8 108181567.567 8     -2838.879          51.000    20209228.078 7  84141207.204 7     -2208.017          47.000
R22  22778107.023 5 121591092.952 5       717.012          35.000    22778110.586 5  94570840.493 5       557.679          35.000
C23  21907096.531 8 114076026.482 8        91.820          51.000
C25  23696017.828 4 123391311.213 4     -2194.707          28.000
E02  23570795.016 8 123865350.789 8       967.070          51.000    23570795.133 8  94909879.213 8       741.002          51.000
E03  24445415.547 8 128461524.747 8     -2067.820          51.000    24445418.648 8  98431560.528 8     -1584.383          51.000
E25  24278518.781 8 127584541.563 8     -1571.219          51.000    24278521.578 8  97759566.330 8     -1203.939          51.000
E30  26016104.859 7 136715538.376 7      2585.363          47.000    26016104.844 7 104756074.517 7      1981.038          47.000
> 2020 05 09 06 15 30.0000000  0 12        .000000000000
G12  23895357.031 6 125570930.107 6      3760.426          39.000    23895370.164 5  97847478.226 5      2930.202          32.000
G13  21016595.711 8 110442942.041 8     -2126.148          51.000    21016593.508 7  86059414.315 7     -1656.739          45.000
G15  20402391.516 8 107215283.974 8      -752.617          51.000    20402390.414 8  83544381.481 8      -586.455          51.000
G19  22963720.281 7 120675171.155 7      2853.102          45.000    22963719.430 7  94032587.654 7      2223.196          45.000
G28  22638196.969 5 118964521.100 5     -2734.652          34.000
R03  20225200.336 8 108267079.103 8     -2860.742          51.000    20225201.984 7  84207716.126 7     -2225.022          46.000
R14  20259912.828 5 107996735.238 5      1707.570          32.000
C23  21906598.586 8 114073434.585 8        82.086          51.000
E02  23565306.742 8 123836507.850 8       956.852          51.000    23565307.141 8  94887778.795 8       733.109          51.000
E03  24457255.297 8 128523738.804 8     -2078.703          51.000    24457257.781 8  98479231.020 8     -1592.868          51.000
E25  24287512.555 8 127631803.933 8     -1578.512          51.000    24287515.594 8  97795780.338 8     -1209.500          51.000
E30  26001363.016 7 136638069.657 7      2580.188          46.000    26001363.648 7 104696715.390 7      1977.009          47.000
> 2020 05 09 06 16  0.0000000  0 13        .000000000000
G12  23873898.156 6 125458157.251 6      3757.441          39.000    23873913.383 5  97759603.307 5      2927.876          35.000
G13  21028765.555 8 110506894.899 8     -2138.195          51.000    21028763.188 7  86109247.687 7     -1666.126          43.000
G15  20406732.703 8 107238096.865 8      -768.945          51.000    20406731.711 8  83562157.758 8      -599.178          51.000
G19  22947456.875 7 120589707.294 7      2843.695          45.000    22947456.742 7  93965992.422 7      2215.866          43.000
R03  20241284.188 8 108353173.817 8     -2879.629          51.000    20241284.586 7  84274678.642 7     -2239.711          46.000
R14  20250329.242 4 107945697.140 4      1695.809          28.000
R22  22770338.188 5 121549584.006 5       666.363          31.000    22770344.594 5  94538582.462 5       518.286          34.000
C23  21906142.945 8 114071062.369 8        75.348          51.000
C25  23721334.320 5 123523214.870 5     -2200.906          31.000
E02  23559862.852 8 123807899.452 8       949.676          51.000    23559863.703 8  94865858.080 8       727.623          51.000
E03  24469143.789 8 128586209.480 8     -2086.812          51.000    24469145.859 8  98527098.120 8     -1598.923          51.000
E25  24296533.984 8 127679211.923 8     -1582.805          51.000    24296536.922 8  97832105.941 8     -1212.822          51.000
E30  25986636.242 7 136560682.381 7      2578.023          45.000    25986637.312 7 104637418.653 7      1975.470          47.000
> 2020 05 09 06 16 30.0000000  0 13        .000000000000
G12  23852473.555 6 125345567.865 6      3749.277          39.000    23852490.844 6  97671871.268 6      2921.512          37.000
G13  21041019.898 8 110571291.767 8     -2154.523          51.000    21041017.289 7  86159426.976 7     -1678.852          43.000
G15  20411182.633 8 107261481.373 8      -789.605          51.000    20411181.820 8  83580379.446 8      -615.277          51.000
G17  22565367.633 5 118581810.428 5      1047.750          35.000    22565376.352 5  92401424.157 5       816.422          34.000
G19  22931263.906 7 120504613.729 7      2829.406          43.000    22931263.930 7  93899685.761 7      2204.732          42.000
G28  22669492.469 4 119128986.878 4     -2748.465          27.000
R03  20257488.656 8 108439916.308 8     -2902.758          51.000    20257488.617 7  84342145.016 7     -2257.701          46.000
C23  21905742.141 8 114068975.617 8        64.199          51.000
C25  23734034.242 6 123589336.634 6     -2207.145          36.000
E02  23554476.055 8 123779592.193 8       937.867          51.000    23554477.406 8  94844168.106 8       718.658          51.000
E03  24481093.438 8 128649002.682 8     -2099.102          51.000    24481095.234 8  98575212.358 8     -1608.397          51.000
E25  24305595.617 8 127726831.253 8     -1591.344          51.000    24305598.188 8  97868593.471 8     -1219.401          51.000
E30  25971937.312 7 136483443.926 7      2571.477          45.000    25971938.758 7 104578235.961 7      1970.373          46.000
> 2020 05 09 06 17  0.0000000  0 12        .000000000000
G12  23831079.266 5 125233143.584 5      3746.082          33.000    23831099.047 5  97584267.916 5      2919.028          32.000
G13  21053354.898 8 110636111.808 8     -2166.109          51.000    21053352.266 7  86209936.035 7     -1687.880          44.000
G15  20415737.430 8 107285417.975 8      -805.477          51.000    20415737.109 8  83599031.312 8      -627.644          51.000
G19  22915138.242 7 120419874.086 7      2820.457          43.000    22915137.867 6  93833654.948 6      2197.762          39.000
R03  20273809.492 8 108527283.370 8     -2920.973          51.000    20273809.297 7  84410097.202 7     -2271.865          47.000
R22  22763153.414 5 121511207.783 5       615.297          32.000    22763153.859 5  94508721.777 5       478.564          34.000
C23  21905392.617 8 114067154.372 8        57.863          51.000
C25  23746757.523 5 123655577.195 5     -2208.574          31.000
E02  23549142.969 8 123751566.031 8       931.117          51.000    23549144.672 8  94822693.515 8       713.438          51.000
E03  24493100.164 8 128712097.660 8     -2106.523          51.000    24493101.773 8  98623557.825 8     -1614.059          51.000
E25  24314693.539 8 127774640.988 8     -1595.277          51.000    24314695.820 8  97905226.887 8     -1222.346          51.000
E30  25957262.641 7 136406334.986 7      2569.699          45.000    25957264.586 7 104519152.496 7      1969.041          46.000
> 2020 05 09 06 17 30.0000000  0 12        .000000000000
G13  21065773.148 8 110701371.492 8     -2183.695          50.000    21065771.375 7  86260787.713 7     -1701.584          45.000
G15  20420400.570 8 107309923.226 8      -827.363          51.000    20420400.438 8  83618126.275 8      -644.699          51.000
G17  22553595.844 5 118519936.624 5      1012.059          33.000
G19  22899084.000 7 120335509.254 7      2804.859          42.000    22899082.875 6  93767916.152 6      2185.605          41.000
R03  20290250.000 8 108615289.541 8     -2945.246          51.000    20290249.516 8  84478546.440 8     -2290.750          48.000
R22  22759779.125 6 121493193.603 6       586.461          38.000    22759780.008 5  94494710.741 5       456.136          34.000
C23  21905097.133 8 114065615.514 8        45.566          51.000
C25  23759502.961 5 123721953.305 5     -2215.285          32.000
E02  23543866.719 8 123723838.193 8       918.238          51.000    23543868.852 8  94801447.496 8       703.606          51.000
E03  24505167.227 8 128775510.964 8     -2120.152          51.000    24505168.742 8  98672147.220 8     -1624.529          51.000
E25  24323830.789 8 127822657.456 8     -1605.000          51.000    24323833.086 8  97942018.706 8     -1229.727          51.000
E30  25942616.367 7 136329373.604 7      2561.773          46.000    25942618.641 7 104460182.082 7      1962.998          45.000
> 2020 05 09 06 18  0.0000000  0 13        .000000000000
G12  23788387.523 5 125008820.119 5      3733.969          30.000
G13  21078269.273 8 110767044.008 8     -2195.273          49.000    21078269.344 7  86311961.114 7     -1710.603          47.000
G15  20425167.211 8 107334971.184 8      -843.250          51.000    20425166.625 8  83637644.164 8      -657.078          51.000
G19  22883096.391 6 120251496.183 6      2795.199          41.000    22883095.547 6  93702451.472 6      2178.080          40.000
G28  22716790.047 5 119377528.088 5     -2769.777          33.000
R03  20306804.109 8 108703905.392 8     -2963.281          51.000    20306803.922 8  84547469.863 8     -2304.774          48.000
R22  22756547.953 5 121475946.375 5       562.574          33.000    22756548.234 5  94481296.130 5       437.552          31.000
C23  21904850.438 8 114064333.065 8        39.133          50.000
C25  23772270.289 5 123788438.614 5     -2217.438          34.000
E02  23538641.961 8 123696382.560 8       911.402          51.000    23538644.688 8  94780410.064 8       698.335          51.000
E03  24517289.398 8 128839215.742 8     -2127.648          51.000    24517291.195 8  98720959.966 8     -1630.267          51.000
E25  24333002.266 8 127870853.698 8     -1608.883          51.000    24333004.750 8  97978948.293 8     -1232.735          51.000
E30  25927993.961 7 136252534.344 7      2559.992          47.000    25927996.195 7 104401305.257 7      1961.654          45.000
> 2020 05 09 06 18 30.0000000  0 14        .000000000000
G13  21090838.492 8 110833098.573 8     -2208.844          50.000    21090839.508 7  86363432.243 7     -1721.177          47.000
G15  20430031.312 8 107360531.653 8      -861.297          51.000    20430030.273 8  83657561.405 8      -671.140          51.000
G17  22542213.453 5 118460112.587 5       980.215          35.000    22542220.516 5  92306624.290 5       763.804          31.000
G19  22867170.891 7 120167808.373 7      2783.461          42.000    22867170.492 6  93637240.201 6      2168.931          41.000
G28  22732613.305 6 119460697.441 6     -2775.719          36.000
R03  20323465.812 8 108793097.076 8     -2983.277          51.000    20323465.812 7  84616841.165 7     -2320.327          47.000
R14  20203573.961 5 107696416.920 5      1629.316          30.000
R22  22753457.188 5 121459436.688 5       538.164          31.000    22753456.875 5  94468455.025 5       418.563          31.000
C23  21904647.641 8 114063276.851 8        30.840          51.000
C25  23785053.523 6 123855002.681 6     -2220.812          37.000
E02  23533463.367 8 123669168.838 8       902.430          51.000    23533465.992 8  94759558.007 8       691.454          51.000
E03  24529460.742 8 128903181.039 8     -2137.113          50.000    24529463.422 8  98769972.335 8     -1637.564          51.000
E25  24342202.055 8 127919198.536 8     -1614.570          51.000    24342204.672 8  98015991.734 8     -1237.138          51.000
E30  25913389.602 8 136175787.761 8      2555.957          48.000    25913391.617 7 104342499.433 7      1958.491          44.000
> 2020 05 09 06 19  0.0000000  0 13        .000000000000
G13  21103496.805 8 110899616.450 8     -2224.078          51.000    21103497.641 7  86415264.343 7     -1733.048          47.000
G15  20435008.383 8 107386686.252 8      -880.902          51.000    20435007.328 8  83677941.586 8      -686.417          51.000
G17  22536675.438 6 118431014.570 6       962.098          36.000
G19  22851324.273 7 120084531.236 7      2770.133          44.000    22851323.359 6  93572348.926 6      2158.545          39.000
G28  22748486.789 5 119544117.118 5     -2783.898          35.000
R03  20340249.875 8 108882944.843 8     -3004.891          51.000    20340250.273 7  84686722.764 7     -2337.137          46.000
R14  20194446.023 5 107647762.177 5      1614.707          30.000
C23  21904504.078 8 114062528.057 8        20.730          51.000
C25  23797866.719 6 123921726.446 6     -2225.715          38.000
E02  23528346.664 8 123642279.068 8       891.805          51.000    23528348.258 8  94738954.185 8       683.313          51.000
E03  24541696.938 8 128967488.166 8     -2148.312          49.000    24541700.828 8  98819246.646 8     -1646.137          51.000
E25  24351445.516 8 127967773.179 8     -1622.121          51.000    24351448.188 8  98053211.248 8     -1242.918          51.000
E30  25898818.695 8 136099216.655 8      2550.246          49.000    25898820.375 7 104283828.064 7      1954.133          44.000
> 2020 05 09 06 19 30.0000000  0 13        .000000000000
G13  21116225.031 8 110966500.424 8     -2235.742          51.000    21116225.336 7  86467381.706 7     -1742.137          47.000
G15  20440080.320 8 107413339.014 8      -896.855          51.000    20440079.180 8  83698709.948 8      -698.848          51.000
G17  22531229.195 5 118402388.812 5       946.621          34.000
G19  22835538.539 7 120001572.015 7      2759.480          45.000    22835536.648 6  93507705.419 6      2150.248          41.000
R03  20357137.570 8 108973347.878 8     -3022.836          51.000    20357138.367 7  84757036.178 7     -2351.098          46.000
R14  20185381.773 6 107599456.631 6      1604.496          38.000    20185392.773 4  83688505.979 4      1247.938          28.000
R22  22747709.594 6 121428797.223 6       486.500          36.000    22747716.055 5  94444632.476 5       378.389          33.000
C23  21904400.898 8 114061991.163 8        14.285          51.000
C25  23810693.227 6 123988514.049 6     -2227.766          36.000
E02  23523273.211 8 123615617.017 8       884.781          51.000    23523273.578 8  94718524.835 8       677.928          51.000
E03  24553979.922 8 129032040.167 8     -2155.910          49.000    24553985.047 8  98868708.609 8     -1652.009          51.000
E25  24360714.188 8 128016480.476 8     -1625.871          51.000    24360716.867 8  98090532.410 8     -1245.821          51.000
E30  25884262.953 8 136022725.498 8      2548.250          49.000    25884263.969 7 104225217.963 7      1952.507          43.000
> 2020 05 09 06 20  0.0000000  0 12        .000000000000
G13  21129036.734 8 111033823.792 8     -2251.477          51.000    21129036.359 8  86519841.429 8     -1754.400          48.000
G15  20445261.195 8 107440563.526 8      -916.934          51.000    20445259.805 8  83719923.846 8      -714.494          51.000
G19  22819827.867 7 119919008.424 7      2745.664          46.000    22819825.258 6  93443370.193 6      2139.478          40.000
R03  20374142.773 8 109064378.341 8     -3044.730          51.000    20374144.203 7  84827837.572 7     -2368.124          46.000
R14  20176400.680 6 107551569.284 6      1589.418          37.000    20176405.930 4  83651245.776 4      1236.214          24.000
R22  22745058.078 6 121414646.389 6       458.605          37.000    22745064.234 5  94433635.314 5       356.693          31.000
C23  21904352.578 8 114061739.338 8         3.719          51.000
C25  23823545.992 6 124055438.472 6     -2233.375          36.000
E02  23518257.031 8 123589256.637 8       873.688          51.000    23518257.016 8  94698326.616 8       669.452          51.000
E03  24566324.250 8 129096910.344 8     -2167.523          51.000    24566330.000 8  98918414.339 8     -1660.845          51.000
E25  24370022.008 8 128065393.577 8     -1633.934          51.000    24370024.742 8  98128011.263 8     -1251.957          51.000
E30  25869736.641 8 135946389.057 8      2541.945          49.000    25869736.688 7 104166726.413 7      1947.629          43.000
> 2020 05 09 06 20 30.0000000  0 12        .000000000000
G13  21141927.125 8 111101561.618 8     -2263.594          51.000    21141926.164 7  86572624.102 7     -1763.842          47.000
G15  20450546.172 8 107468335.644 8      -933.715          51.000    20450544.453 8  83741564.465 8      -727.570          51.000
G19  22804188.594 7 119836819.820 7      2734.426          47.000    22804185.859 6  93379327.145 6      2130.724          40.000
R03  20391260.078 8 109156008.436 8     -3063.066          50.000    20391262.312 7  84899105.405 7     -2382.385          47.000
R14  20167491.781 5 107504075.535 5      1577.613          33.000    20167506.516 4  83614345.072 4      1227.033          24.000
R22  22742552.797 6 121401271.552 6       434.301          37.000    22742562.461 4  94423238.816 4       337.793          27.000
C23  21904354.516 8 114061748.575 8        -3.477          51.000
C25  23836420.195 6 124122475.383 6     -2235.387          36.000
E02  23513293.648 8 123563173.756 8       866.051          51.000    23513294.117 8  94678341.040 8       663.597          51.000
E03  24578724.844 8 129162073.877 8     -2175.773          51.000    24578730.461 8  98968344.822 8     -1667.166          51.000
E25  24379364.250 8 128114487.478 8     -1638.219          51.000    24379366.977 8  98165628.662 8     -1255.273          51.000
E30  25855235.492 8 135870183.945 8      2539.234          49.000    25855234.312 7 104108335.499 7      1945.644          43.000
> 2020 05 09 06 21  0.0000000  0 12        .000000000000
G13  21154892.133 8 111169692.801 8     -2276.961          51.000    21154891.211 7  86625713.294 7     -1774.255          47.000
G15  20455931.094 8 107496634.670 8      -951.492          51.000    20455929.766 8  83763615.642 8      -741.422          51.000
G19  22788617.117 7 119754989.275 7      2722.227          47.000    22788614.641 6  93315563.130 6      2121.219          41.000
G28  22812336.086 5 119879636.613 5     -2808.023          33.000
R03  20408484.312 8 109248214.606 8     -3082.484          49.000    20408487.641 8  84970821.348 8     -2397.488          48.000
R22  22740187.219 6 121388650.806 6       408.441          38.000    22740191.227 4  94413419.814 4       317.677          26.000
C23  21904402.438 8 114061998.717 8       -11.762          51.000
C25  23849312.617 5 124189604.425 5     -2238.535          30.000
E02  23508379.398 8 123537348.190 8       857.172          51.000    23508380.398 8  94658552.629 8       656.782          51.000
E03  24591177.133 8 129227509.825 8     -2185.164          51.000    24591182.297 8  99018484.002 8     -1674.346          51.000
E25  24388736.906 8 128163741.127 8     -1643.867          51.000    24388739.484 8  98203368.469 8     -1259.572          51.000
E30  25840755.680 8 135794090.693 8      2535.203          48.000    25840753.688 7 104050030.308 7      1942.585          44.000
> 2020 05 09 06 21 30.0000000  0 10        .000000000000
G13  21167928.516 8 111238200.127 8     -2294.164          51.000    21167927.891 7  86679095.600 7     -1787.660          47.000
G15  20461413.289 8 107525444.414 8      -973.219          51.000    20461412.539 8  83786064.783 8      -758.352          51.000
G19  22773110.797 7 119673504.970 7      2705.859          43.000    22773108.430 7  93252068.870 7      2108.462          42.000
R03  20425812.672 8 109340977.153 8     -3105.852          50.000    20425816.305 7  85042970.014 7     -2415.662          47.000
R22  22737963.281 6 121376779.970 6       378.609          39.000    22737966.641 5  94404186.958 5       294.477          34.000
C23  21904493.297 8 114062473.559 8       -23.867          51.000
E02  23503510.875 8 123511763.747 8       844.434          51.000    23503512.086 8  94638948.957 8       647.046          51.000
E03  24603677.953 8 129293201.220 8     -2198.273          51.000    24603682.523 8  99068818.910 8     -1684.364          51.000
E25  24398136.711 8 128213137.523 8     -1653.262          51.000    24398139.062 8  98241217.654 8     -1266.779          51.000
E30  25826294.008 7 135718093.925 7      2527.180          46.000    25826292.250 7 103991799.030 7      1936.512          45.000
> 2020 05 09 06 22  0.0000000  0 12        .000000000000
G13  21181058.078 8 111307197.735 8     -2305.371          51.000    21181057.625 7  86732859.990 7     -1796.390          47.000
G15  20467014.438 8 107554878.961 8      -988.844          51.000    20467013.992 8  83809000.798 8      -770.528          51.000
G19  22757692.320 7 119592483.936 7      2695.707          42.000    22757690.352 6  93188935.657 6      2100.554          40.000
G28  22844484.547 4 120048576.214 4     -2821.547          29.000
R03  20443266.617 8 109434409.494 8     -3122.703          51.000    20443270.117 7  85115639.611 7     -2428.769          47.000
R14  20141200.617 5 107363940.530 5      1537.898          34.000
R22  22735900.961 6 121365772.663 6       355.254          39.000    22735904.945 6  94395625.749 6       276.312          37.000
C23  21904649.195 8 114063286.233 8       -30.039          51.000
E02  23498709.680 8 123486534.627 8       837.816          51.000    23498710.773 8  94619617.532 8       641.987          51.000
E03  24616249.195 8 129359261.562 8     -2205.344          51.000    24616252.953 8  99119436.528 8     -1689.809          51.000
E25  24407585.219 8 128262790.049 8     -1656.566          51.000    24407587.523 8  98279263.087 8     -1269.323          51.000
E30  25811872.180 7 135642308.600 7      2525.309          45.000    25811871.742 7 103933729.755 7      1935.078          46.000
> 2020 05 09 06 22 30.0000000  0 12        .000000000000
G13  21194255.289 8 111376549.333 8     -2318.520          51.000    21194254.867 7  86786900.198 7     -1806.639          47.000
G15  20472708.625 8 107584802.526 8     -1006.473          51.000    20472708.359 8  83832317.867 8      -784.264          51.000
G19  22742337.328 6 119511794.491 6      2683.090          40.000    22742335.445 6  93126060.797 6      2090.719          36.000
G20  23220041.688 5 122022155.176 5      -366.125          35.000
R03  20460819.844 8 109528370.580 8     -3141.746          51.000    20460822.773 7  85188720.425 7     -2443.583          46.000
R14  20132585.844 5 107317986.259 5      1524.797          34.000    20132578.461 5  83469524.136 5      1185.950          33.000
R22  22733975.391 6 121355492.813 6       329.133          36.000    22733979.281 6  94387630.339 6       255.989          37.000
C23  21904844.242 8 114064302.557 8       -38.164          51.000
E02  23493950.344 8 123461525.531 8       829.125          51.000    23493951.227 8  94600454.722 8       635.262          51.000
E03  24628864.719 8 129425554.882 8     -2214.551          51.000    24628867.758 8  99170232.676 8     -1696.852          51.000
E25  24417056.641 8 128312562.635 8     -1662.031          51.000    24417059.117 8  98317400.515 8     -1273.460          51.000
E30  25797464.961 7 135566600.205 7      2521.574          45.000    25797466.180 7 103875719.436 7      1932.043          47.000
> 2020 05 09 06 23  0.0000000  0 11        .000000000000
G13  21207535.289 8 111446334.636 8     -2340.254          51.000    21207534.867 7  86841278.351 7     -1823.571          47.000
G15  20478511.328 8 107615295.837 8     -1032.723          51.000    20478511.117 8  83856078.885 8      -804.719          51.000
G19  22727060.070 5 119431521.505 5      2661.898          35.000    22727060.188 5  93063510.340 5      2074.197          35.000
R03  20478487.023 8 109622939.499 8     -3169.355          51.000    20478488.414 7  85262273.961 7     -2465.057          42.000
R14  20124036.242 5 107272479.854 5      1504.559          33.000    20124038.227 5  83434136.972 5      1170.215          34.000
C23  21905093.812 8 114065602.394 8       -54.852          51.000
C25  23901116.555 5 124459323.163 5     -2261.223          33.000
E02  23489248.531 8 123436817.152 8       811.797          51.000    23489249.086 8  94581522.335 8       621.984          51.000
E03  24641539.609 8 129492161.089 8     -2232.199          51.000    24641542.195 8  99221268.591 8     -1710.392          51.000
E25  24426566.117 8 128362535.108 8     -1675.871          51.000    24426568.812 8  98355691.105 8     -1284.127          51.000
E30  25783088.484 7 135491050.176 7      2508.750          47.000    25783090.852 8 103817830.447 8      1922.337          48.000
> 2020 05 09 06 23 30.0000000  0 14        .000000000000
G12  23555925.703 5 123787224.423 5      3677.973          32.000
G13  21220878.195 8 111516451.010 8     -2337.652          51.000    21220877.875 7  86895914.468 7     -1821.547          47.000
G15  20484403.039 8 107646256.835 8     -1034.750          51.000    20484402.750 8  83880204.322 8      -806.302          51.000
G19  22711844.023 7 119351566.076 7      2664.895          42.000    22711845.820 6  93001207.372 6      2076.544          41.000
G20  23224425.008 5 122045169.840 5      -395.711          32.000
G28  22892949.305 5 120303260.253 5     -2831.738          34.000
R03  20496247.305 8 109718009.024 8     -3172.090          51.000    20496246.992 6  85336216.808 6     -2467.184          41.000
R14  20115551.812 5 107227258.379 5      1507.531          33.000    20115547.188 4  83398923.663 4      1172.524          27.000
C23  21905378.562 8 114067084.712 8       -47.426          51.000
C25  23914108.867 5 124526936.722 5     -2249.121          31.000
E02  23484584.500 8 123412307.615 8       818.746          51.000    23484584.789 8  94562742.303 8       627.378          51.000
E03  24654254.469 8 129558977.605 8     -2225.574          51.000    24654256.984 8  99272465.660 8     -1705.319          51.000
E25  24436094.086 8 128412604.847 8     -1665.609          51.000    24436096.789 8  98394056.220 8     -1276.213          51.000
E30  25768723.352 8 135415557.373 8      2520.543          49.000    25768726.102 8 103759985.336 8      1931.331          49.000
> 2020 05 09 06 24  0.0000000  0 12        .000000000000
G12  23535003.117 5 123677274.905 5      3660.312          35.000    23535000.031 5  96371891.534 5      2852.195          33.000
G13  21234313.312 8 111587053.171 8     -2361.496          51.000    21234312.961 7  86950929.111 7     -1840.124          45.000
G15  20490413.453 8 107677840.802 8     -1063.176          51.000    20490412.875 8  83904815.193 8      -828.449          51.000
G19  22696720.789 7 119272087.300 7      2641.336          45.000    22696721.906 6  92939275.887 6      2058.184          41.000
G28  22909195.023 5 120388622.156 5     -2848.426          33.000
R03  20514129.250 8 109813734.848 8     -3201.750          49.000    20514129.477 7  85410670.179 7     -2490.253          42.000
C23  21905728.047 8 114068903.687 8       -66.230          51.000
C25  23927091.102 5 124594637.050 5     -2262.918          30.000
E02  23479987.688 8 123388152.563 8       799.324          51.000    23479987.898 8  94544233.882 8       612.514          51.000
E03  24667038.672 8 129626159.356 8     -2245.484          51.000    24667041.398 8  99323942.576 8     -1720.542          51.000
E25  24445670.008 8 128462926.705 8     -1681.512          51.000    24445672.469 8  98432614.513 8     -1288.401          51.000
E30  25754399.125 8 135340278.272 8      2505.828          51.000    25754401.219 8 103702303.978 8      1920.047          48.000
> 2020 05 09 06 24 30.0000000  0 13        .000000000000
G12  23514110.891 5 123567473.520 5      3664.672          34.000    23514105.633 5  96286332.008 5      2855.592          35.000
G13  21247815.906 8 111658011.070 8     -2364.387          51.000    21247815.594 7  87006220.949 7     -1842.379          45.000
G15  20496517.805 8 107709918.241 8     -1070.617          51.000    20496516.914 8  83929810.589 8      -834.250          51.000
G19  22681664.562 7 119192959.414 7      2638.598          45.000    22681664.859 7  92877617.816 7      2056.050          43.000
G28  22925454.758 5 120474074.072 5     -2843.746          34.000
R03  20532108.055 8 109909981.795 8     -3209.992          48.000    20532110.172 7  85485528.922 7     -2496.661          44.000
R14  20098838.781 5 107138077.250 5      1482.379          31.000
C23  21906117.461 8 114070930.924 8       -64.320          51.000
C25  23940124.344 5 124662495.191 5     -2256.129          31.000
E02  23475433.891 8 123364222.586 8       800.781          51.000    23475434.141 8  94525897.920 8       613.583          51.000
E03  24679867.156 8 129693576.175 8     -2244.344          49.000    24679870.391 8  99375599.614 8     -1719.641          51.000
E25  24455269.086 8 128513370.463 8     -1676.727          51.000    24455271.328 8  98471266.213 8     -1284.738          51.000
E30  25740091.016 8 135265084.236 8      2511.855          50.000    25740092.031 8 103644687.802 8      1924.713          48.000
> 2020 05 09 06 25  0.0000000  0 13        .000000000000
G12  23493258.375 5 123457880.925 5      3644.293          32.000    23493250.070 5  96200935.203 5      2839.709          31.000
G13  21261398.133 8 111729387.885 8     -2391.074          50.000    21261397.734 7  87061839.199 7     -1863.175          45.000
G15  20502728.031 8 107742552.710 8     -1101.941          51.000    20502726.930 8  83955240.034 8      -858.659          51.000
G19  22666687.312 7 119114249.960 7      2611.609          45.000    22666687.414 7  92816285.845 7      2035.020          43.000
R03  20550196.516 8 110006811.605 8     -3242.305          50.000    20550199.531 7  85560840.999 7     -2521.793          45.000
R14  20090566.336 5 107094077.190 5      1454.789          30.000    20090569.391 4  83295357.232 4      1131.500          28.000
R22  22726553.664 5 121315893.099 5       193.285          34.000    22726551.953 5  94356792.447 5       150.330          33.000
C23  21906559.156 8 114073229.874 8       -86.012          51.000
C25  23953175.570 5 124730474.283 5     -2273.105          32.000
E02  23470935.273 8 123340581.721 8       778.336          51.000    23470935.578 8  94507783.479 8       596.453          51.000
E03  24692752.102 8 129761291.400 8     -2266.922          48.000    24692756.289 8  99427485.276 8     -1736.971          51.000
E25  24464903.453 8 128563999.386 8     -1695.465          51.000    24464905.703 8  98510059.786 8     -1299.075          51.000
E30  25725810.984 8 135190040.082 8      2494.215          48.000    25725811.570 8 103587186.477 8      1911.107          48.000
> 2020 05 09 06 25 30.0000000  0 12        .000000000000
G12  23472453.516 5 123348576.198 5      3649.430          31.000    23472446.742 5  96115745.950 5      2843.708          32.000
G13  21275070.438 8 111801236.849 8     -2393.285          51.000    21275069.812 7  87117825.379 7     -1864.898          45.000
G15  20509054.359 8 107775798.011 8     -1108.707          51.000    20509053.086 8  83981145.454 8      -863.928          51.000
G19  22651800.422 7 119036016.255 7      2609.316          46.000    22651799.961 7  92755324.533 7      2033.234          43.000
R03  20568404.148 8 110104276.769 8     -3249.703          51.000    20568406.766 7  85636647.231 7     -2527.547          45.000
R14  20082397.453 5 107050470.582 5      1453.484          31.000    20082405.234 5  83261494.802 5      1130.491          30.000
C23  21907063.453 8 114075854.111 8       -83.488          51.000
C25  23966264.062 5 124798627.660 5     -2265.059          30.000
E02  23466502.055 8 123317284.099 8       780.441          51.000    23466502.273 8  94489932.050 8       597.965          51.000
E03  24705704.398 8 129829358.417 8     -2265.246          50.000    24705709.203 8  99479640.487 8     -1735.735          51.000
E25  24474583.242 8 128614866.864 8     -1690.129          51.000    24474585.773 8  98549036.154 8     -1294.983          51.000
E30  25711569.188 7 135115200.741 7      2500.895          45.000    25711570.781 8 103529842.060 8      1916.156          48.000
> 2020 05 09 06 26  0.0000000  0 11        .000000000000
G12  23451662.750 5 123239321.642 5      3638.555          30.000    23451656.914 5  96030616.773 5      2835.244          30.000
G13  21288795.562 8 111873362.603 8     -2411.586          51.000    21288795.070 7  87174027.260 7     -1879.158          46.000
G15  20515459.758 8 107809459.154 8     -1131.727          51.000    20515458.578 8  84007374.902 8      -881.865          51.000
G19  22636967.406 7 118958067.914 7      2590.613          46.000    22636966.453 7  92694585.562 7      2018.660          42.000
R03  20586692.953 8 110202175.878 8     -3273.324          51.000    20586694.695 7  85712790.958 7     -2545.919          45.000
C23  21907592.906 8 114078610.845 8       -96.914          51.000
C25  23979380.188 5 124866928.400 5     -2273.441          32.000
E02  23462097.289 8 123294135.216 8       766.324          51.000    23462097.211 8  94472194.600 8       587.163          51.000
E03  24718687.070 8 129897581.956 8     -2279.613          51.000    24718691.938 8  99531915.649 8     -1746.684          51.000
E25  24484271.250 8 128665777.625 8     -1700.492          51.000    24484274.133 8  98588045.692 8     -1302.995          51.000
E30  25697328.828 7 135040371.494 7      2491.246          44.000    25697334.016 7 103472510.128 7      1908.892          47.000
> 2020 05 09 06 26 30.0000000  0 12        .000000000000
G12  23430907.336 5 123130248.282 5      3628.828          30.000    23430902.570 5  95945627.746 5      2827.661          30.000
G13  21302593.773 8 111945874.842 8     -2427.305          51.000    21302594.109 7  87230530.323 7     -1891.403          45.000
G15  20521965.391 8 107843646.973 8     -1152.090          51.000    20521964.203 8  84034014.757 8      -897.732          51.000
G19  22622210.352 7 118880518.958 7      2574.684          45.000    22622208.797 6  92634157.816 6      2006.247          40.000
R03  20605082.711 8 110300617.864 8     -3294.180          50.000    20605084.203 7  85789356.902 7     -2562.143          45.000
R22  22723864.188 6 121301500.232 6       118.523          38.000    22723864.547 4  94345633.399 4        92.188          28.000
C23  21908168.477 8 114081609.562 8      -107.688          51.000
C25  23992482.227 5 124935154.097 5     -2279.602          30.000
E02  23457741.852 8 123271245.636 8       754.898          51.000    23457741.562 8  94454655.851 8       578.402          51.000
E03  24731720.695 8 129966071.852 8     -2291.145          51.000    24731725.289 8  99584394.918 8     -1755.597          51.000
E25  24493988.367 8 128716841.508 8     -1708.570          51.000    24493991.422 8  98627172.553 8     -1309.176          51.000
E30  25683113.938 7 134965675.616 7      2484.395          46.000    25683118.602 8 103415272.981 8      1903.585          48.000
> 2020 05 09 06 27  0.0000000  0 12        .000000000000
G13  21316507.367 8 112018994.449 8     -2441.078          50.000    21316508.367 7  87287506.629 7     -1902.139          45.000
G15  20528613.172 8 107878582.328 8     -1170.520          51.000    20528612.031 8  84061237.116 8      -912.093          51.000
G17  22461629.156 6 118036641.314 6       677.316          36.000    22461614.477 5  91976590.009 5       527.779          31.000
G19  22607571.781 7 118803594.086 7      2560.098          42.000    22607569.320 6  92574216.435 6      1994.887          39.000
G24  21181173.156 5 111307808.381 5      1942.699          32.000
R03  20623615.531 8 110399825.580 8     -3313.125          50.000    20623616.742 7  85866518.392 7     -2576.878          45.000
R22  22723288.586 4 121298459.347 4        91.691          29.000    22723292.156 5  94343263.293 5        71.316          32.000
C23  21908832.945 8 114085069.806 8      -116.711          51.000
E02  23453477.789 8 123248837.002 8       745.332          51.000    23453477.562 8  94437485.597 8       571.066          51.000
E03  24744846.844 8 130035049.011 8     -2301.078          51.000    24744851.367 8  99637247.529 8     -1763.143          51.000
E25  24503776.641 8 128768279.373 8     -1714.414          51.000    24503779.555 8  98666585.974 8     -1313.705          51.000
E30  25668964.086 7 134891316.518 7      2479.344          47.000    25668967.492 8 103358295.025 8      1899.709          50.000
> 2020 05 09 06 27 30.0000000  0 14        .000000000000
G12  23389549.828 6 122912895.589 6      3617.504          36.000    23389561.805 6  95776329.690 6      2818.834          36.000
G13  21330471.781 8 112092378.033 8     -2451.504          51.000    21330472.695 7  87344688.634 7     -1910.266          45.000
G15  20535338.016 8 107913922.601 8     -1185.648          51.000    20535336.812 8  84088774.972 8      -923.882          51.000
G17  22457804.555 5 118016540.529 5       662.543          33.000    22457822.898 5  91961024.714 5       516.273          34.000
G19  22592986.805 6 118726954.212 6      2548.953          41.000    22592984.242 6  92514497.172 6      1986.200          36.000
R03  20642225.961 8 110499446.728 8     -3328.465          49.000    20642226.711 7  85944001.455 7     -2588.806          45.000
R14  20050424.961 5 106880022.236 5      1396.199          33.000    20050420.844 5  83128915.024 5      1085.933          31.000
R22  22722845.211 5 121296070.695 5        68.250          30.000    22722843.195 4  94341372.672 4        53.086          29.000
C23  21909521.031 8 114088652.252 8      -122.395          51.000
C25  24018797.461 5 125072180.775 5     -2283.141          30.000
E02  23449239.953 8 123226566.873 8       739.156          51.000    23449240.039 8  94420421.468 8       566.360          51.000
E03  24758000.359 8 130104170.245 8     -2307.336          50.000    24758005.055 8  99690210.540 8     -1767.977          51.000
E25  24513570.812 8 128819748.075 8     -1717.105          51.000    24513573.352 8  98706023.019 8     -1315.680          51.000
E30  25654814.828 7 134816958.587 7      2477.637          47.000    25654816.211 8 103301319.489 8      1898.422          49.000
> 2020 05 09 06 28  0.0000000  0 11        .000000000000
G12  23368932.625 6 122804547.486 6      3607.602          36.000    23368943.836 6  95691902.644 6      2811.121          36.000
G13  21344519.344 8 112166196.104 8     -2467.855          51.000    21344519.617 7  87402209.204 7     -1923.004          45.000
G15  20542172.508 8 107949838.307 8     -1206.828          51.000    20542171.406 8  84116761.205 8      -940.386          51.000
G19  22578489.078 6 118650774.480 6      2531.988          38.000    22578488.320 6  92455136.363 6      1972.978          38.000
R03  20660944.445 7 110599652.201 7     -3349.879          46.000    20660946.227 7  86021939.054 7     -2605.458          46.000
R14  20042612.656 5 106838413.121 5      1379.934          34.000    20042613.125 4  83096552.529 4      1073.288          25.000
C23  21910264.797 8 114092526.412 8      -134.094          51.000
E02  23445060.883 8 123204606.380 8       726.785          51.000    23445061.570 8  94403594.603 8       556.896          51.000
E03  24771214.016 8 130173605.968 8     -2319.773          51.000    24771218.453 8  99743414.522 8     -1777.474          51.000
E25  24523403.312 8 128871418.019 8     -1725.684          51.000    24523405.531 8  98745614.264 8     -1322.226          51.000
E30  25640698.438 7 134742775.738 7      2469.695          46.000    25640697.688 8 103244478.108 8      1892.439          48.000
> 2020 05 09 06 28 30.0000000  0 13        .000000000000
G12  23348339.547 6 122696327.377 6      3604.668          36.000    23348351.516 6  95607575.368 6      2808.832          36.000
G13  21358627.234 8 112240330.916 8     -2477.023          51.000    21358627.062 7  87459976.569 7     -1930.151          46.000
G15  20549094.367 8 107986212.359 8     -1220.609          51.000    20549093.133 8  84145104.575 8      -951.124          51.000
G17  22450465.312 5 117977987.908 5       627.344          35.000    22450468.781 5  91930919.385 5       488.848          34.000
G19  22564057.984 7 118574941.801 7      2521.305          42.000    22564057.797 6  92396045.886 6      1964.653          38.000
R03  20679748.102 7 110700319.930 7     -3363.742          47.000    20679752.102 7  86100236.204 7     -2616.244          46.000
R14  20034864.180 6 106797114.568 6      1370.930          36.000    20034861.867 4  83064394.916 4      1066.279          27.000
C23  21911042.312 8 114096576.490 8      -138.449          51.000
C25  24045143.375 5 125209351.714 5     -2289.422          35.000
E02  23440918.617 8 123182838.709 8       721.844          51.000    23440919.633 8  94386915.500 8       553.065          51.000
E03  24784465.344 8 130243238.580 8     -2324.902          51.000    24784469.156 8  99796769.369 8     -1781.422          51.000
E25  24533251.734 8 128923171.656 8     -1727.055          51.000    24533253.977 8  98785269.650 8     -1323.346          51.000
E30  25626592.734 7 134668651.918 7      2469.152          46.000    25626590.539 8 103187681.952 8      1892.050          48.000
> 2020 05 09 06 29  0.0000000  0 13        .000000000000
G12  23327787.820 5 122588325.436 5      3597.516          35.000    23327802.750 5  95523417.990 5      2803.250          34.000
G13  21372811.602 8 112314868.942 8     -2490.320          51.000    21372811.117 7  87518058.109 7     -1940.512          47.000
G15  20556120.352 8 108023132.381 8     -1238.773          51.000    20556118.453 8  84173873.404 8      -965.278          51.000
G17  22446942.883 5 117959488.161 5       608.223          34.000    22446940.305 5  91916503.978 5       473.931          33.000
G19  22549711.383 7 118499546.981 7      2506.805          44.000    22549710.500 6  92337296.732 6      1953.354          37.000
R03  20698656.125 8 110801535.945 8     -3381.945          51.000    20698660.445 7  86178959.740 7     -2630.405          46.000
R14  20027190.992 5 106756215.396 5      1357.648          34.000    20027195.922 4  83032597.071 4      1055.955          27.000
C23  21911870.547 8 114100889.291 8      -147.133          51.000
C25  24058365.328 5 125278132.435 5     -2293.898          34.000
E02  23436829.680 8 123161351.480 8       712.609          51.000    23436830.500 8  94370451.259 8       546.064          51.000
E03  24797770.719 8 130313154.928 8     -2334.227          51.000    24797773.617 8  99850341.624 8     -1788.554          51.000
E25  24543132.586 8 128975095.864 8     -1732.594          51.000    24543135.172 8  98825055.735 8     -1327.584          51.000
E30  25612514.844 7 134594675.475 7      2464.469          45.000    25612512.172 7 103130998.749 7      1888.317          47.000
> 2020 05 09 06 29 30.0000000  0 12        .000000000000
G13  21387081.859 8 112389859.412 8     -2505.859          51.000    21387080.961 7  87576492.196 7     -1952.621          45.000
G15  20563259.594 8 108060647.730 8     -1259.020          51.000    20563257.188 8  84203106.142 8      -981.054          51.000
G19  22535458.484 7 118424643.238 7      2489.910          46.000    22535456.430 6  92278930.190 6      1940.190          38.000
R03  20717676.398 8 110903347.793 8     -3402.227          51.000    20717680.055 7  86258146.719 7     -2646.176          47.000
R14  20019601.477 5 106715766.857 5      1342.590          32.000
R22  22722536.266 5 121294414.499 5       -40.789          31.000
C23  21912758.641 8 114105514.309 8      -157.988          51.000
C25  24071605.664 4 125347072.880 4     -2298.020          28.000
E02  23432803.250 8 123140194.694 8       701.090          51.000    23432803.875 8  94354240.204 8       537.202          51.000
E03  24811139.078 8 130383404.294 8     -2345.801          51.000    24811141.219 8  99904169.036 8     -1797.387          51.000
E25  24553055.305 8 129027239.954 8     -1740.352          51.000    24553058.266 8  98865010.302 8     -1333.522          51.000
E30  25598474.188 7 134520897.263 7      2457.508          44.000    25598472.477 8 103074467.406 8      1882.930          48.000
> 2020 05 09 06 30  0.0000000  0 12        .000000000000
G13  21401425.234 8 112465233.820 8     -2513.871          51.000    21401424.242 7  87635225.481 7     -1958.861          45.000
G15  20570498.812 8 108098690.158 8     -1271.727          51.000    20570496.648 8  84232749.581 8      -990.959          51.000
G19  22521286.398 7 118350166.512 7      2480.598          43.000    22521284.133 6  92220896.418 6      1932.933          38.000
R03  20736794.305 8 111005683.134 8     -3414.750          51.000    20736797.461 7  86337740.886 7     -2655.917          47.000
R14  20012082.266 5 106675700.253 5      1334.820          31.000
R22  22722834.734 6 121296020.416 6       -61.617          38.000    22722833.133 4  94341354.603 4       -47.924          26.000
C23  21913693.570 8 114110384.480 8      -161.488          50.000
C25  24084874.141 5 125416228.483 5     -2298.059          32.000
E02  23428826.938 8 123119300.655 8       697.082          51.000    23428827.781 8  94338230.476 8       534.149          51.000
E03  24824557.609 8 130453918.210 8     -2349.875          51.000    24824559.352 8  99958199.150 8     -1800.512          51.000
E25  24563006.844 8 129079535.568 8     -1740.664          51.000    24563010.047 8  98905080.965 8     -1333.777          51.000
E30  25584458.445 7 134447250.374 7      2457.809          44.000    25584458.602 8 103018036.664 8      1883.193          48.000
> 2020 05 09 06 30 30.0000000  0 13        .000000000000
G13  21415828.391 8 112540922.956 8     -2532.242          51.000    21415827.648 7  87694204.022 7     -1973.176          46.000
G15  20577825.133 8 108137190.768 8     -1294.957          51.000    20577823.539 8  84262750.036 8     -1009.057          51.000
G19  22507182.633 7 118276051.862 7      2460.473          42.000    22507180.266 6  92163144.751 6      1917.251          39.000
R03  20755996.102 8 111108469.010 8     -3437.750          50.000    20755999.047 7  86417685.456 7     -2673.806          46.000
R14  20004623.008 5 106635946.428 5      1315.953          32.000    20004631.352 4  82939062.393 4      1023.519          27.000
R22  22723270.852 5 121298348.330 5       -92.895          31.000    22723272.805 5  94343170.781 5       -72.251          32.000
R23  23027701.469 6 123182686.557 6      3450.758          36.000
C23  21914662.922 8 114115432.214 8      -175.238          51.000
C25  24098114.734 6 125485286.350 6     -2306.438          36.000
E02  23424888.031 8 123098601.189 8       682.590          51.000    23424889.195 8  94322369.848 8       523.059          51.000
E03  24838013.195 8 130524627.714 8     -2364.316          51.000    24838014.656 8 100012379.136 8     -1811.661          51.000
E25  24572974.102 8 129131913.804 8     -1751.359          51.000    24572977.344 8  98945214.923 8     -1341.918          51.000
E30  25570455.570 7 134373667.399 7      2447.621          45.000    25570457.305 8 102961654.887 8      1875.438          48.000
> 2020 05 09 06 31  0.0000000  0 13        .000000000000
G12  23246010.805 5 122158604.456 5      3571.180          31.000    23246000.414 5  95188495.467 5      2782.731          31.000
G13  21430308.055 8 112617014.992 8     -2539.980          49.000    21430307.539 7  87753496.501 7     -1979.206          46.000
G15  20585255.672 8 108176238.606 8     -1307.570          51.000    20585254.586 8  84293176.929 8     -1018.886          51.000
G19  22493165.812 7 118202392.138 7      2451.027          43.000    22493163.305 6  92105747.523 6      1909.894          36.000
G28  23139857.516 5 121600750.367 5     -2919.926          32.000
R03  20775297.844 8 111211792.993 8     -3449.969          50.000    20775300.297 7  86498048.559 7     -2683.309          45.000
R14  19997241.805 5 106596596.016 5      1307.828          35.000
C23  21915683.766 8 114120745.785 8      -178.484          51.000
C25  24111393.422 5 125554457.178 5     -2304.117          31.000
E02  23421003.133 8 123078185.409 8       678.895          51.000    23421004.352 8  94306726.586 8       520.225          51.000
E03  24851522.500 8 130595621.142 8     -2368.000          51.000    24851523.664 8 100066776.650 8     -1814.433          51.000
E25  24582973.914 8 129184463.120 8     -1751.395          51.000    24582976.867 8  98985479.977 8     -1341.963          51.000
E30  25556482.617 7 134300238.201 7      2448.250          46.000    25556485.328 8 102905390.956 8      1875.935          49.000
> 2020 05 09 06 31 30.0000000  0 12        .000000000000
G12  23225642.602 5 122051577.581 5      3567.484          32.000    23225633.492 5  95105092.449 5      2779.855          32.000
G13  21444843.703 8 112693401.261 8     -2549.473          49.000    21444843.266 7  87813018.238 7     -1986.602          47.000
G15  20592769.508 8 108215725.579 8     -1321.844          51.000    20592768.977 8  84323945.993 8     -1030.008          51.000
G19  22479215.875 7 118129083.033 7      2439.652          43.000    22479212.336 5  92048623.603 5      1901.031          34.000
G28  23156539.766 5 121688410.560 5     -2920.902          33.000
R03  20794679.070 8 111315541.952 8     -3463.617          51.000    20794680.812 7  86578742.135 7     -2693.924          45.000
R22  22724572.625 6 121305308.482 6      -137.477          36.000
C23  21916735.055 8 114126218.432 8      -183.430          51.000
E02  23417151.516 8 123057945.545 8       673.469          51.000    23417152.523 8  94291218.119 8       516.023          51.000
E03  24865064.961 8 130666789.977 8     -2373.453          51.000    24865065.391 8 100121308.572 8     -1818.608          51.000
E25  24592985.562 8 129237075.044 8     -1752.961          51.000    24592988.109 8  99025792.990 8     -1343.163          51.000
E30  25542518.758 7 134226855.772 7      2447.035          47.000    25542522.180 8 102849162.879 8      1875.004          49.000
> 2020 05 09 06 32  0.0000000  0 14        .000000000000
G12  23205351.953 5 121944946.435 5      3552.168          35.000    23205342.531 5  95022003.295 5      2767.923          34.000
G13  21459487.820 8 112770356.842 8     -2569.703          49.000    21459487.359 7  87872983.644 7     -2002.363          46.000
G15  20600419.070 8 108255927.032 8     -1347.129          51.000    20600419.250 8  84355271.786 8     -1049.714          50.000
G17  22428016.078 5 117860020.540 5       496.934          30.000    22428015.578 4  91838962.658 4       387.224          25.000
G19  22465385.672 7 118056404.045 7      2416.797          42.000    22465381.500 5  91991990.654 5      1883.221          30.000
G28  23173283.039 5 121776405.259 5     -2934.082          34.000
R03  20814192.258 8 111419993.649 8     -3488.402          51.000    20814193.156 7  86659982.275 7     -2713.205          46.000
R22  22725473.617 5 121310117.620 5      -171.605          31.000    22725474.461 4  94352314.572 4      -133.462          28.000
C23  21917868.977 8 114132123.605 8      -199.238          51.000
C25  24138019.031 5 125692997.130 5     -2315.723          31.000
E02  23413385.930 8 123038157.581 8       656.984          51.000    23413386.742 8  94276055.903 8       503.437          51.000
E03  24878693.219 8 130738409.470 8     -2389.902          51.000    24878693.867 8 100176185.806 8     -1831.254          51.000
E25  24603061.562 8 129290024.920 8     -1765.758          51.000    24603063.562 8  99066364.953 8     -1352.986          51.000
E30  25528616.398 7 134153796.885 7      2434.832          47.000    25528620.375 8 102793182.727 8      1865.654          49.000
> 2020 05 09 06 32 30.0000000  0 15        .000000000000
G12  23185089.281 6 121838468.037 6      3544.660          38.000    23185079.758 6  94939033.058 6      2762.070          36.000
G13  21474191.781 8 112847628.521 8     -2583.215          48.000    21474191.352 7  87933195.369 7     -2012.895          46.000
G15  20608156.742 8 108296590.065 8     -1365.434          51.000    20608157.336 8  84386957.250 8     -1063.974          51.000
G17  22425224.914 6 117845355.727 6       478.020          36.000    22425220.633 4  91827544.916 4       372.477          29.000
G19  22451627.336 6 117984106.122 6      2401.523          41.000    22451624.102 6  91935654.667 6      1871.317          36.000
G28  23190041.898 5 121864479.595 5     -2939.621          35.000
R03  20833787.875 8 111524887.558 8     -3506.145          51.000    20833788.391 7  86741566.358 7     -2727.001          47.000
R15  23569594.141 6 125948758.542 6      3214.043          36.000    23569596.430 5  97960151.199 5      2499.808          31.000
R22  22726510.344 6 121315655.078 6      -199.039          36.000    22726513.430 5  94356619.889 5      -154.814          35.000
C23  21919037.805 8 114138211.119 8      -208.176          51.000
C25  24151366.992 4 125762481.629 4     -2318.941          27.000
E02  23409658.461 8 123018569.072 8       647.305          51.000    23409659.102 8  94261046.525 8       495.996          51.000
E03  24892359.547 8 130810226.357 8     -2399.480          51.000    24892360.984 8 100231214.299 8     -1838.530          51.000
E25  24613153.812 8 129343059.587 8     -1771.414          51.000    24613155.406 8  99107001.889 8     -1357.305          51.000
E30  25514727.586 8 134080809.918 8      2429.484          48.000    25514731.695 8 102737257.655 8      1861.526          48.000
> 2020 05 09 06 33  0.0000000  0 14        .000000000000
G12  23164872.383 6 121732233.333 6      3538.762          38.000    23164863.805 6  94856252.757 6      2757.474          39.000
G13  21488972.820 8 112925304.085 8     -2594.320          50.000    21488972.328 7  87993721.831 7     -2021.548          44.000
G15  20615999.086 8 108337802.896 8     -1381.340          51.000    20615999.961 8  84419071.131 8     -1076.372          51.000
G17  22422546.328 6 117831280.784 6       461.539          37.000    22422540.820 5  91816577.564 5       359.638          33.000
G19  22437959.383 7 117912281.429 7      2387.770          42.000    22437957.820 6  91879687.446 6      1860.603          37.000
G28  23206833.328 5 121952720.855 5     -2942.184          32.000
R03  20853481.602 8 111630310.735 8     -3521.305          50.000    20853482.492 7  86823562.121 7     -2738.793          47.000
R15  23551560.031 6 125852389.351 6      3211.109          39.000    23551560.820 4  97885197.463 4      2497.530          29.000
R22  22727699.852 6 121322007.658 6      -223.551          39.000    22727705.234 6  94361560.721 6      -173.876          36.000
C23  21920258.711 8 114144569.196 8      -214.824          51.000
E02  23405985.859 8 122999268.992 8       640.066          51.000    23405986.219 8  94246258.172 8       490.399          51.000
E03  24906080.383 8 130882328.841 8     -2406.535          51.000    24906082.586 8 100286461.647 8     -1844.028          51.000
E25  24623279.062 8 129396267.425 8     -1775.062          51.000    24623280.664 8  99147771.516 8     -1360.080          51.000
E30  25500869.203 8 134007984.630 8      2426.375          48.000    25500873.172 8 102681456.459 8      1859.155          48.000
> 2020 05 09 06 33 30.0000000  0 15        .000000000000
G12  23144694.320 6 121626205.766 6      3530.652          38.000    23144686.523 6  94773633.976 6      2751.161          38.000
G13  21503823.703 8 113003344.056 8     -2607.574          51.000    21503822.984 7  88054532.190 7     -2031.876          44.000
G15  20623938.734 8 108379526.472 8     -1399.480          51.000    20623939.727 8  84451582.980 8     -1090.504          51.000
G17  22419969.477 6 117817740.690 6       442.227          36.000    22419965.914 5  91806026.978 5       344.592          34.000
G19  22424375.672 7 117840894.350 7      2372.070          46.000    22424374.375 6  91824061.187 6      1848.366          38.000
G28  23223648.156 5 122041098.209 5     -2948.145          32.000
R03  20873265.234 8 111736220.489 8     -3538.633          48.000    20873267.406 7  86905936.364 7     -2752.270          46.000
R15  23533551.508 6 125756157.059 6      3205.539          36.000    23533550.992 4  97810347.407 4      2493.197          25.000
R22  22729034.875 6 121329138.243 6      -250.660          37.000    22729040.953 5  94367106.729 5      -194.958          33.000
C23  21921524.180 8 114151159.427 8      -223.707          51.000
E02  23402360.586 8 122980218.585 8       630.637          51.000    23402360.695 8  94231661.119 8       483.251          51.000
E03  24919847.852 8 130954677.396 8     -2415.977          50.000    24919851.117 8 100341897.554 8     -1851.164          51.000
E08  21991694.266 6 115567135.746 6       223.809          40.000    21991697.250 6  88551449.380 6       171.804          40.000
E25  24633429.711 8 129449608.990 8     -1780.367          51.000    24633431.648 8  99188643.610 8     -1364.189          51.000
E30  25487034.297 8 133935283.006 8      2421.035          48.000    25487037.883 8 102625750.043 8      1855.205          48.000
> 2020 05 09 06 34  0.0000000  0 15        .000000000000
G12  23124559.156 6 121520407.959 6      3521.871          39.000    23124552.398 6  94691194.178 6      2744.321          39.000
G13  21518747.766 8 113081767.832 8     -2621.168          51.000    21518746.578 7  88115641.564 7     -2042.469          44.000
G15  20631979.688 8 108421780.382 8     -1417.938          51.000    20631980.430 8  84484508.075 8     -1104.886          51.000
G17  22417498.945 5 117804756.991 5       422.789          32.000    22417497.094 5  91795909.921 5       329.452          32.000
G19  22410879.938 7 117769968.782 7      2355.984          45.000    22410877.625 6  91768794.486 6      1835.829          36.000
R03  20893143.398 8 111842633.630 8     -3556.082          49.000    20893146.141 7  86988702.165 7     -2765.839          45.000
R15  23515572.422 5 125660083.415 5      3199.375          30.000    23515570.094 4  97735616.018 4      2488.406          27.000
R22  22730520.492 6 121337067.977 6      -278.234          38.000    22730525.094 5  94373274.203 5      -216.408          34.000
C23  21922838.188 8 114158001.739 8      -232.906          51.000
C25  24191503.852 4 125971514.232 4     -2328.676          29.000
E02  23398786.648 8 122961437.966 8       620.898          51.000    23398786.734 8  94217270.763 8       475.780          51.000
E03  24933665.156 8 131027291.335 8     -2425.480          49.000    24933669.734 8 100397536.808 8     -1858.470          51.000
E08  21990455.344 6 115560627.579 6       209.285          39.000    21990457.133 6  88546462.592 6       160.526          40.000
E25  24643609.477 8 129503103.786 8     -1786.387          51.000    24643611.797 8  99229633.105 8     -1368.763          51.000
E30  25473227.094 8 133862725.923 8      2415.578          48.000    25473230.062 8 102570154.385 8      1850.883          48.000
> 2020 05 09 06 34 30.0000000  0 15        .000000000000
G12  23104467.922 6 121414839.859 6      3514.941          39.000    23104462.023 6  94608933.446 6      2738.921          37.000
G13  21533744.156 8 113160572.074 8     -2633.320          51.000    21533742.477 7  88177047.405 7     -2051.941          44.000
G15  20640121.141 8 108464561.752 8     -1435.070          51.000    20640121.469 8  84517844.189 8     -1118.237          51.000
G17  22415134.016 5 117792328.909 5       404.750          35.000    22415134.039 5  91786225.688 5       315.390          35.000
G19  22397471.734 7 117699506.295 7      2340.539          43.000    22397468.703 6  91713888.724 6      1823.800          36.000
R03  20913115.898 8 111949545.100 8     -3572.145          51.000    20913117.773 7  87071855.512 7     -2778.338          44.000
R15  23497623.453 5 125564167.246 5      3194.434          32.000    23497630.781 4  97661011.525 4      2484.550          28.000
R22  22732155.758 6 121345795.264 6      -304.422          38.000    22732159.336 6  94380062.140 6      -236.770          36.000
C23  21924200.375 8 114165094.206 8      -240.766          51.000
C25  24204928.398 5 126041388.704 5     -2331.707          32.000
E02  23395263.805 8 122942925.156 8       612.488          51.000    23395264.297 8  94203085.611 8       469.327          51.000
E03  24947532.391 8 131100167.897 8     -2433.801          49.000    24947538.281 8 100453377.293 8     -1864.783          51.000
E08  21989293.797 6 115554529.708 6       196.371          39.000    21989293.375 6  88541790.201 6       150.523          38.000
E25  24653817.789 8 129556749.154 8     -1790.738          51.000    24653820.367 8  99270737.995 8     -1372.142          50.000
E30  25459447.242 8 133790312.214 8      2411.281          48.000    25459449.695 8 102514668.580 8      1847.626          48.000
> 2020 05 09 06 35  0.0000000  0 15        .000000000000
G12  23084413.242 6 121309460.120 6      3509.578          36.000    23084408.148 5  94526819.461 5      2734.742          35.000
G13  21548804.406 8 113239712.059 8     -2643.352          51.000    21548802.586 7  88238714.880 7     -2059.754          44.000
G15  20648354.531 8 108507826.772 8     -1450.043          51.000    20648354.391 8  84551557.182 8     -1129.904          51.000
G19  22384144.023 7 117629466.569 7      2327.965          42.000    22384139.812 5  91659312.362 5      1813.999          34.000
R03  20933173.234 8 112056906.729 8     -3586.004          51.000    20933173.336 7  87155358.950 7     -2789.114          44.000
R14  19940834.516 4 106295882.531 4      1202.898          27.000    19940849.188 4  82674589.406 4       935.591          28.000
R15  23479694.805 5 125468365.261 5      3191.547          31.000    23479706.172 5  97586498.958 5      2482.320          32.000
R22  22733933.391 5 121355276.215 5      -328.609          32.000    22733935.680 5  94387436.207 5      -255.585          33.000
C23  21925602.398 8 114172393.646 8      -246.492          51.000
C25  24218364.273 4 126111375.058 4     -2331.520          29.000
E02  23391783.641 8 122924636.524 8       606.180          51.000    23391784.688 8  94189072.243 8       464.508          51.000
E03  24961441.625 8 131173262.690 8     -2439.887          51.000    24961447.789 8 100509384.978 8     -1869.491          51.000
E08  21988202.789 6 115548799.490 6       185.074          38.000    21988202.320 6  88537399.544 6       141.795          40.000
E25  24664046.352 8 129610500.900 8     -1793.258          51.000    24664048.898 8  99311924.398 8     -1374.043          50.000
E30  25445686.555 8 133717999.056 8      2409.043          49.000    25445688.648 8 102459259.811 8      1845.893          48.000
> 2020 05 09 06 35 30.0000000  0 13        .000000000000
G12  23064411.477 5 121204300.610 5      3499.113          31.000    23064407.844 5  94444920.681 5      2726.582          32.000
G13  21563944.391 8 113319272.537 8     -2659.121          51.000    21563942.984 7  88300710.011 7     -2072.042          45.000
G15  20656696.195 8 108551660.195 8     -1470.645          51.000    20656695.578 8  84585713.094 8     -1145.957          51.000
G19  22370913.023 6 117559938.334 6      2308.980          40.000    22370907.539 6  91605134.557 6      1799.206          37.000
R03  20953330.164 8 112164802.437 8     -3605.434          51.000    20953329.305 7  87239277.793 7     -2804.229          44.000
R15  23461804.258 5 125372765.607 5      3183.105          34.000    23461816.164 5  97512143.588 5      2475.749          32.000
R22  22735868.664 5 121365597.979 5      -358.008          35.000    22735868.289 5  94395464.290 5      -278.451          31.000
C23  21927060.461 8 114179984.864 8      -257.949          51.000
E02  23388362.336 8 122906657.664 8       594.148          51.000    23388363.758 8  94175296.234 8       455.212          51.000
E03  24975409.195 8 131246660.517 8     -2451.652          51.000    24975414.297 8 100565624.849 8     -1878.539          51.000
E08  21987198.719 6 115543523.532 6       168.238          38.000    21987199.273 6  88533356.864 6       129.077          40.000
E25  24674311.359 8 129664443.985 8     -1801.352          51.000    24674313.609 8  99353257.409 8     -1380.238          50.000
E30  25431961.508 8 133645872.812 8      2401.078          49.000    25431963.266 7 102403994.245 7      1839.745          47.000
> 2020 05 09 06 36  0.0000000  0 12        .000000000000
G13  21579159.508 8 113399228.337 8     -2675.617          51.000    21579158.836 7  88363013.196 7     -2084.900          46.000
G15  20665141.336 8 108596037.030 8     -1492.105          51.000    20665140.328 8  84620292.470 8     -1162.680          51.000
G17  22408672.164 5 117758369.338 5       345.117          34.000    22408672.203 5  91759757.576 5       268.919          34.000
G19  22357775.062 6 117490900.862 6      2289.223          39.000    22357769.680 6  91551339.088 6      1783.801          37.000
R03  20973581.070 8 112273203.704 8     -3625.652          51.000    20973580.211 7  87323589.862 7     -2819.952          45.000
R14  19927475.609 5 106224670.688 5      1170.391          33.000    19927469.477 5  82619161.471 5       910.301          31.000
C23  21928569.891 8 114187843.535 8      -270.246          51.000
E02  23384995.445 8 122888964.014 8       581.191          51.000    23384996.797 8  94161738.752 8       445.331          51.000
E03  24989429.891 8 131320335.978 8     -2464.258          51.000    24989433.508 8 100622077.446 8     -1888.177          51.000
E08  21986276.969 6 115538678.117 6       150.586          41.000    21986277.211 6  88529644.122 6       115.387          40.000
E25  24684608.023 8 129718553.205 8     -1810.301          51.000    24684609.859 8  99394717.712 8     -1387.090          49.000
E30  25418267.461 8 133573909.686 8      2392.191          49.000    25418268.945 7 102348853.670 7      1833.053          47.000
> 2020 05 09 06 36 30.0000000  0 13        .000000000000
G12  23024542.672 6 120994790.685 6      3487.930          36.000    23024535.820 6  94281621.803 6      2717.867          36.000
G13  21594437.242 8 113479512.799 8     -2679.801          51.000    21594436.633 7  88425572.505 7     -2088.156          46.000
G15  20673677.055 8 108640891.552 8     -1501.328          51.000    20673675.617 8  84655244.069 8     -1169.866          51.000
G17  22406725.281 5 117748140.876 5       334.488          35.000    22406727.367 6  91751788.843 6       260.637          36.000
G19  22344717.539 6 117422292.007 6      2281.254          38.000    22344714.812 6  91497877.641 6      1777.603          38.000
R03  20993912.500 8 112382040.561 8     -3633.234          51.000    20993912.383 7  87408240.730 7     -2825.849          44.000
R22  22740180.898 6 121388590.865 6      -406.969          37.000    22740181.203 4  94413372.972 4      -316.540          28.000
C23  21930118.266 8 114195905.240 8      -270.348          51.000
E02  23381670.398 8 122871490.485 8       580.547          51.000    23381671.641 8  94148349.930 8       444.826          51.000
E03  25003490.766 8 131394223.229 8     -2464.703          51.000    25003492.594 8 100678692.315 8     -1888.524          51.000
E08  21985424.992 7 115534199.159 7       145.035          42.000    21985424.586 6  88526212.203 6       111.137          41.000
E25  24694923.805 8 129772762.878 8     -1806.840          51.000    24694925.422 8  99436254.989 8     -1384.471          49.000
E30  25404592.102 8 133502045.293 8      2395.641          48.000    25404593.383 7 102293788.771 7      1835.606          47.000
> 2020 05 09 06 37  0.0000000  0 16        .000000000000
G12  23004670.883 6 120890310.973 6      3477.082          38.000    23004650.359 6  94200209.026 6      2709.415          38.000
G13  21609774.312 8 113560110.532 8     -2694.562          51.000    21609773.883 7  88488375.928 7     -2099.659          47.000
G15  20682300.297 8 108686208.353 8     -1520.820          51.000    20682298.844 8  84690555.862 8     -1185.058          51.000
G17  22404872.305 5 117738413.166 5       314.328          35.000    22404874.773 5  91744208.776 5       244.928          34.000
G19  22331739.891 6 117354100.429 6      2263.426          37.000    22331739.414 6  91444741.263 6      1763.705          37.000
G28  23342077.234 5 122663441.624 5     -2978.309          32.000
R03  21014321.320 8 112491294.792 8     -3651.469          49.000    21014321.633 7  87493216.219 7     -2840.031          43.000
R14  19914368.727 5 106154778.572 5      1151.125          34.000    19914359.875 4  82564802.732 4       895.316          27.000
R22  22742546.578 6 121401253.596 6      -435.871          39.000    22742549.766 5  94423205.593 5      -339.008          35.000
C23  21931702.695 8 114204155.407 8      -280.766          51.000
C25  24272289.242 5 126392179.359 5     -2345.207          33.000
E02  23378384.211 8 122854222.333 8       569.391          51.000    23378385.742 8  94135118.493 8       436.280          51.000
E03  25017588.750 8 131468306.723 8     -2475.465          51.000    25017589.539 8 100735457.541 8     -1896.782          51.000
E08  21984640.188 7 115530072.932 7       128.973          43.000    21984640.297 7  88523050.511 7        98.793          42.000
E25  24705255.789 8 129827057.697 8     -1814.055          50.000    24705257.531 8  99477857.486 8     -1389.891          49.000
E30  25390932.617 7 133430265.801 7      2388.449          47.000    25390934.016 7 102238788.910 7      1830.122          47.000
> 2020 05 09 06 37 30.0000000  0 17        .000000000000
G12  22984839.297 6 120786078.443 6      3477.469          38.000    22984816.695 6  94118988.891 6      2709.719          38.000
G13  21625182.625 7 113641087.168 7     -2698.242          46.000    21625183.422 7  88551474.584 7     -2102.526          47.000
G15  20691024.016 8 108732053.126 8     -1529.586          51.000    20691022.844 8  84726279.044 8     -1191.885          51.000
G17  22403128.641 6 117729251.861 6       302.875          36.000    22403129.453 5  91737070.111 5       236.006          35.000
G19  22318855.633 6 117286395.948 6      2256.055          38.000    22318856.562 5  91391984.514 5      1757.962          35.000
G20  23329409.352 5 122596889.717 5      -896.391          33.000
G28  23359087.367 5 122752838.637 5     -2974.715          32.000
R03  21034819.180 7 112601030.192 7     -3658.301          46.000    21034820.492 7  87578565.977 7     -2845.345          43.000
R14  19907925.188 5 106120412.512 5      1146.430          32.000    19907914.531 4  82538067.194 4       891.674          29.000
R22  22745059.445 5 121414674.896 5      -453.812          32.000    22745065.438 6  94433654.243 6      -352.965          37.000
C23  21933335.734 8 114212659.962 8      -280.430          51.000
C25  24285809.352 4 126462539.233 4     -2340.324          29.000
E02  23375149.930 8 122837226.024 8       569.434          51.000    23375151.664 8  94122095.361 8       436.325          51.000
E03  25031736.398 8 131542652.134 8     -2475.070          51.000    25031737.070 8 100792423.462 8     -1896.500          51.000
E08  21983935.852 7 115526366.788 7       123.934          44.000    21983936.164 7  88520210.734 7        94.878          43.000
E25  24715616.516 8 129881503.523 8     -1809.961          49.000    24715618.594 8  99519575.713 8     -1386.922          49.000
E30  25377302.156 7 133358638.434 7      2392.496          47.000    25377303.867 7 102183905.581 7      1833.265          47.000
> 2020 05 09 06 38  0.0000000  0 13        .000000000000
G12  22965053.258 6 120682095.644 6      3463.262          39.000    22965032.219 6  94037963.392 6      2698.645          39.000
G13  21640661.930 7 113722441.572 7     -2716.801          43.000    21640664.695 7  88614867.635 7     -2116.985          43.000
G15  20699848.336 8 108778425.909 8     -1553.133          51.000    20699847.531 8  84762413.670 8     -1210.233          51.000
G17  22401492.812 6 117720658.020 6       278.867          36.000    22401496.352 5  91730373.554 5       217.299          35.000
G19  22306065.734 6 117219181.943 6      2233.469          41.000    22306065.719 6  91339609.925 6      1740.365          37.000
R03  21055405.727 7 112711243.979 7     -3680.340          46.000    21055408.672 7  87664287.819 7     -2862.487          42.000
C23  21935017.695 8 114221419.236 8      -294.797          51.000
C25  24299325.586 5 126532999.479 5     -2348.645          32.000
E02  23371967.797 8 122820501.848 8       554.406          51.000    23371969.219 8  94109280.729 8       424.808          51.000
E03  25045933.945 8 131617258.948 8     -2489.824          51.000    25045934.734 8 100849589.694 8     -1907.763          51.000
E08  21983311.422 7 115523081.947 7       103.930          43.000    21983312.070 7  88517693.788 7        79.622          45.000
E25  24726006.086 8 129936100.052 8     -1820.930          48.000    24726008.461 8  99561409.407 8     -1395.183          48.000
E30  25363701.086 7 133287164.216 7      2381.340          47.000    25363703.266 8 102129139.632 8      1824.657          48.000
> 2020 05 09 06 38 30.0000000  0 13        .000000000000
G12  22945327.086 6 120578429.190 6      3451.086          40.000    22945306.812 6  93957184.376 6      2689.158          40.000
G13  21656226.398 7 113804237.116 7     -2732.871          45.000    21656230.250 7  88678604.434 7     -2129.507          45.000
G15  20708785.047 8 108825390.202 8     -1574.273          51.000    20708784.703 8  84799009.195 8     -1226.710          51.000
G17  22399977.648 4 117712675.968 4       255.570          29.000    22399979.805 4  91724170.178 4       199.149          27.000
G19  22293382.430 7 117152526.531 7      2213.395          44.000    22293382.344 6  91287670.691 6      1724.726          36.000
R03  21076094.578 7 112821998.000 7     -3699.758          47.000    21076097.539 7  87750429.797 7     -2877.589          42.000
C23  21936760.891 8 114230496.936 8      -306.902          51.000
C25  24312871.500 5 126603623.153 5     -2355.820          35.000
E02  23368849.500 8 122804114.046 8       541.727          51.000    23368850.633 8  94096723.841 8       415.113          51.000
E03  25060193.273 8 131692190.571 8     -2502.152          51.000    25060194.523 8 100907004.806 8     -1917.201          51.000
E08  21982778.672 7 115520283.643 7        86.203          42.000    21982780.852 7  88515549.599 7        66.055          45.000
E25  24736436.406 8 129990910.960 8     -1829.539          48.000    24736439.000 8  99603407.387 8     -1401.855          48.000
E30  25350142.047 8 133215896.103 8      2372.641          48.000    25350145.109 8 102074528.829 8      1818.063          48.000
> 2020 05 09 06 39  0.0000000  0 14        .000000000000
G13  21671869.773 8 113886440.866 8     -2751.848          48.000    21671873.125 7  88742659.306 7     -2144.297          45.000
G15  20717827.961 8 108872913.151 8     -1598.262          51.000    20717827.750 8  84836040.010 8     -1245.399          51.000
G17  22398577.664 5 117705318.677 5       230.020          34.000    22398576.047 4  91718432.857 4       179.251          28.000
G19  22280799.930 7 117086400.716 7      2190.527          43.000    22280799.344 5  91236144.214 5      1706.911          33.000
G24  20929487.664 5 109985199.731 5      1718.562          35.000    20929477.492 5  85702715.910 5      1339.140          35.000
R03  21096878.977 8 112933256.152 8     -3721.965          48.000    21096881.508 7  87836963.856 7     -2894.862          43.000
R22  22753534.211 5 121459904.228 5      -549.715          31.000    22753545.664 4  94468829.277 4      -427.553          29.000
C23  21938559.070 8 114239861.318 8      -321.785          51.000
C25  24326451.680 5 126674378.359 5     -2364.289          31.000
E02  23365788.742 8 122788030.530 8       526.199          51.000    23365790.000 8  94084400.114 8       403.189          51.000
E03  25074508.102 8 131767414.112 8     -2517.125          51.000    25074509.727 8 100964643.602 8     -1928.727          51.000
E08  21982333.156 7 115517940.659 7        65.562          45.000    21982335.797 7  88513754.314 7        50.332          46.000
E25  24746901.125 8 130045903.590 8     -1840.875          49.000    24746903.758 7  99645544.582 7     -1410.505          47.000
E30  25336618.648 8 133144829.880 8      2360.926          50.000    25336621.016 8 102020073.220 8      1809.057          49.000
> 2020 05 09 06 39 30.0000000  0 15        .000000000000
G13  21687582.352 8 113969006.069 8     -2754.062          50.000    21687584.391 7  88806995.790 7     -2146.026          45.000
G15  20726968.570 8 108920948.183 8     -1605.516          51.000    20726968.312 8  84873469.858 8     -1251.054          51.000
G17  22397283.781 6 117698516.726 6       221.852          36.000    22397280.680 5  91713132.674 5       172.871          35.000
G19  22268309.875 7 117020761.841 7      2183.840          43.000    22268307.625 5  91184997.124 5      1701.696          34.000
G24  20919667.484 5 109933564.033 5      1719.473          34.000
R03  21117748.328 8 113044968.166 8     -3727.195          48.000    21117750.969 7  87923850.937 7     -2898.933          44.000
R15  23319725.375 5 124613510.807 5      3143.801          34.000
R22  22756674.352 5 121476633.561 5      -566.316          34.000    22756682.633 4  94481840.983 4      -440.468          29.000
C23  21940403.617 8 114249467.108 8      -320.211          51.000
C25  24340049.945 5 126745219.778 5     -2358.109          32.000
E02  23362777.359 8 122772205.555 8       527.270          51.000    23362778.438 8  94072274.480 8       403.997          51.000
E03  25088869.172 8 131842883.036 8     -2515.645          51.000    25088871.367 8 101022470.411 8     -1927.566          51.000
E08  21981965.688 7 115516008.107 7        61.586          45.000    21981968.648 7  88512273.537 7        47.204          46.000
E25  24757391.484 8 130101031.642 8     -1835.801          48.000    24757394.031 7  99687785.541 7     -1406.718          46.000
E30  25323121.742 8 133073903.546 8      2365.949          50.000    25323123.289 8 101965725.344 8      1812.780          48.000
> 2020 05 09 06 40  0.0000000  0 13        .000000000000
G13  21703353.625 8 114051880.287 8     -2770.109          51.000    21703353.852 7  88871573.047 7     -2158.530          44.000
G15  20736197.133 8 108969443.498 8     -1626.781          51.000    20736196.406 8  84911258.371 8     -1267.622          51.000
G17  22396086.414 6 117692221.071 6       198.586          38.000    22396083.938 6  91708227.032 6       154.742          38.000
G19  22255902.273 5 116955561.947 5      2163.258          35.000    22255899.344 5  91134192.086 5      1685.665          35.000
R03  21138692.312 8 113157078.505 8     -3746.176          48.000    21138694.891 7  88011047.823 7     -2913.695          44.000
R14  19876841.695 6 105954764.013 6      1071.027          36.000    19876843.352 5  82409260.015 5       833.027          32.000
C23  21942284.891 8 114259263.708 8      -332.246          51.000
C25  24353657.188 5 126816096.684 5     -2365.281          31.000
E02  23359805.602 8 122756587.959 8       514.586          51.000    23359806.312 8  94060307.747 8       394.284          51.000
E03  25103266.688 8 131918545.337 8     -2527.891          50.000    25103269.742 8 101080445.391 8     -1936.949          51.000
E08  21981666.562 7 115514435.735 7        43.859          45.000    21981670.016 7  88511068.737 7        33.669          46.000
E25  24767897.773 7 130156243.382 7     -1844.336          47.000    24767900.297 7  99730090.611 7     -1413.204          45.000
E30  25309641.906 8 133003067.708 8      2357.215          50.000    25309642.859 8 101911448.560 8      1806.157          48.000
> 2020 05 09 06 40 30.0000000  0 14        .000000000000
G12  22866887.062 6 120166289.229 6      3417.152          37.000    22866866.328 6  93636022.340 6      2662.716          36.000
G13  21719185.883 8 114135075.289 8     -2782.691          51.000    21719184.578 7  88936400.269 7     -2168.331          45.000
G15  20745515.555 8 109018410.534 8     -1644.281          51.000    20745514.094 8  84949414.485 8     -1281.258          51.000
G17  22394988.445 6 117686445.499 6       179.898          38.000    22394986.227 6  91703726.535 6       140.178          38.000
G19  22243578.109 5 116890762.325 5      2145.672          31.000    22243576.211 5  91083725.636 5      1671.952          31.000
R03  21159712.781 8 113269596.405 8     -3761.590          48.000    21159714.492 7  88098561.672 7     -2925.684          44.000
R14  19870833.172 5 105922725.806 5      1058.344          35.000    19870831.055 5  82384341.431 5       823.156          31.000
C23  21944205.164 8 114269263.523 8      -340.887          51.000
C25  24367273.477 5 126887021.212 5     -2368.574          30.000
E02  23356875.445 8 122741190.197 8       505.410          51.000    23356876.164 8  94048509.479 8       387.250          51.000
E03  25117703.141 8 131994412.695 8     -2536.477          51.000    25117706.977 8 101138577.502 8     -1943.504          51.000
E08  21981438.680 7 115513236.979 7        29.582          45.000    21981441.047 7  88510150.227 7        22.706          45.000
E25  24778422.320 7 130211550.737 7     -1849.473          47.000    24778424.883 7  99772468.954 7     -1416.955          45.000
E30  25296182.062 8 132932336.644 8      2351.789          50.000    25296182.586 7 101857252.065 7      1801.996          47.000
> 2020 05 09 06 41  0.0000000  0 14        .000000000000
G12  22847356.094 5 120063663.888 5      3409.879          35.000    22847335.234 5  93556032.222 5      2657.048          35.000
G13  21735059.148 8 114218485.822 8     -2793.105          51.000    21735056.914 7  89001395.454 7     -2176.446          46.000
G15  20754903.742 8 109067744.915 8     -1659.793          51.000    20754902.188 8  84987856.831 8     -1293.345          51.000
G17  22393969.328 5 117681086.851 5       162.039          35.000    22393968.000 6  91699551.023 6       126.267          37.000
G19  22231330.336 6 116826371.757 6      2131.270          40.000    22231322.508 5  91033554.139 5      1660.730          32.000
R03  21180789.133 8 113382412.261 8     -3774.809          49.000    21180789.352 7  88186307.285 7     -2935.962          45.000
R04  19874600.617 6 106427580.267 6       -64.496          37.000    19874596.898 4  82777003.025 4       -50.164          28.000
R15  23266910.484 5 124331296.323 5      3124.719          34.000
C23  21946144.703 8 114279363.654 8      -347.473          51.000
E02  23353967.383 8 122725908.359 8       498.320          51.000    23353968.086 8  94036800.023 8       381.803          51.000
E03  25132158.992 8 132070380.363 8     -2543.074          51.000    25132163.406 8 101196786.485 8     -1948.643          51.000
E08  21981261.961 7 115512308.757 7        17.219          45.000    21981263.195 7  88509438.998 7        13.232          46.000
E25  24788945.242 7 130266849.247 7     -1852.160          47.000    24788947.758 7  99814840.540 7     -1419.188          44.000
E30  25282722.742 8 132861607.192 8      2348.477          50.000    25282723.188 7 101803056.798 7      1799.440          47.000
> 2020 05 09 06 41 30.0000000  0 17        .000000000000
G12  22827902.609 5 119961443.897 5      3402.648          33.000    22827899.859 5  93476435.500 5      2651.417          34.000
G13  21751047.125 8 114302499.816 8     -2803.324          51.000    21751044.555 7  89066860.884 7     -2184.408          46.000
G15  20764435.609 8 109117834.830 8     -1675.094          51.000    20764434.180 8  85026887.898 8     -1305.268          51.000
G17  22393103.586 6 117676535.429 6       145.414          37.000    22393102.586 6  91696004.440 6       113.307          38.000
G19  22219219.680 6 116762727.250 6      2116.285          41.000    22219212.266 5  90983961.091 5      1649.056          32.000
R03  21201993.383 8 113495918.881 8     -3787.754          49.000    21201994.062 7  88274590.191 7     -2946.031          46.000
R04  19875047.961 6 106429976.426 6       -90.848          36.000    19875044.711 5  82778866.720 5       -70.659          31.000
R14  19859015.305 5 105859734.984 5      1035.695          34.000    19859019.359 5  82335356.924 5       805.541          31.000
R15  23249394.625 6 124237677.811 6      3121.059          37.000    23249403.297 4  96629362.729 4      2427.484          26.000
R22  22770628.602 5 121551162.528 5      -673.559          35.000    22770626.312 5  94539766.070 5      -523.882          31.000
C23  21948177.625 8 114289949.507 8      -353.855          51.000
C25  24394602.289 5 127029101.296 5     -2371.898          31.000
E02  23351155.594 8 122711131.284 8       491.363          51.000    23351156.086 8  94025477.321 8       376.499          51.000
E03  25146708.016 8 132146836.353 8     -2549.516          51.000    25146712.594 8 101255369.623 8     -1953.543          51.000
E08  21981210.711 7 115512040.817 7         5.082          45.000    21981211.914 7  88509233.658 7         3.939          46.000
E25  24799540.586 7 130322527.248 7     -1855.105          47.000    24799542.992 7  99857502.894 7     -1421.504          44.000
E30  25269337.789 8 132791268.956 8      2345.262          49.000    25269338.578 8 101749161.297 8      1796.977          48.000
> 2020 05 09 06 42  0.0000000  0 16        .000000000000
G12  22808494.641 6 119859450.002 6      3394.113          36.000    22808491.656 6  93396959.758 6      2644.764          36.000
G13  21767080.094 8 114386752.209 8     -2815.906          51.000    21767077.484 7  89132512.079 7     -2194.216          46.000
G15  20774041.828 8 109168315.625 8     -1692.621          51.000    20774040.523 8  85066223.564 8     -1318.926          51.000
G17  22392321.336 5 117672427.697 5       124.973          34.000    22392321.438 6  91692803.592 6        97.384          36.000
G19  22207181.562 7 116699468.575 7      2098.836          43.000    22207174.773 5  90934668.661 5      1635.454          35.000
R03  21223256.312 8 113609741.889 8     -3802.895          50.000    21223257.664 7  88363119.183 7     -2957.807          46.000
R04  19875628.562 6 106433090.879 6      -119.391          36.000    19875630.367 5  82781288.968 5       -92.865          34.000
R14  19853216.844 4 105828817.832 4      1022.566          28.000
R15  23231886.438 6 124144102.940 6      3115.043          38.000
C23  21950234.648 8 114300660.605 8      -362.598          51.000
C25  24408257.445 5 127100270.009 5     -2375.191          31.000
E02  23348370.445 8 122696495.097 8       482.027          51.000    23348370.984 8  94014262.586 8       369.340          51.000
E03  25161280.773 8 132223415.963 8     -2558.188          51.000    25161285.188 8 101314047.506 8     -1960.176          51.000
E08  21981216.211 7 115512070.169 7        -9.473          47.000    21981216.797 7  88509256.105 7        -7.210          45.000
E25  24810138.820 7 130378220.345 7     -1860.246          46.000    24810141.555 7  99900176.796 7     -1425.261          44.000
E30  25255958.094 8 132720958.875 8      2339.609          49.000    25255959.344 8 101695287.351 8      1792.780          48.000
> 2020 05 09 06 42 30.0000000  0 16        .000000000000
G12  22789145.883 6 119757759.436 6      3387.598          38.000    22789141.117 6  93317720.365 6      2639.690          38.000
G13  21783189.336 8 114471406.938 8     -2825.512          51.000    21783187.141 7  89198476.791 7     -2201.697          47.000
G15  20783753.438 8 109219351.102 8     -1707.363          51.000    20783752.516 8  85105991.451 8     -1330.413          51.000
G17  22391655.117 6 117668929.473 6       109.469          36.000    22391657.031 6  91690077.747 6        85.300          37.000
G19  22195248.297 6 116636763.573 6      2083.875          40.000    22195243.766 6  90885807.732 6      1623.802          39.000
R03  21244609.578 8 113724045.778 8     -3815.051          51.000    21244610.555 7  88452022.159 7     -2967.262          46.000
R04  19876377.000 5 106437092.204 5      -144.879          34.000    19876377.359 5  82784401.100 5      -112.681          32.000
R14  19847496.734 4 105798335.254 4      1013.375          29.000
R15  23214417.555 6 124050740.246 6      3111.621          37.000
R22  22778493.484 5 121593119.852 5      -724.293          33.000    22778493.078 4  94572445.020 4      -563.339          28.000
C23  21952347.039 8 114311660.336 8      -368.441          51.000
E02  23345643.305 8 122682164.633 8       475.621          51.000    23345643.992 8  94003282.111 8       364.440          51.000
E03  25175908.312 8 132300283.225 8     -2563.930          51.000    25175912.469 8 101372945.758 8     -1964.617          51.000
E08  21981309.930 8 115512562.443 8       -21.172          48.000    21981309.328 7  88509633.291 7       -16.142          45.000
E25  24820770.922 7 130434092.813 7     -1862.402          46.000    24820774.453 7  99942988.151 7     -1426.979          44.000
E30  25242615.086 8 132650842.530 8      2337.062          48.000    25242616.781 8 101641561.838 8      1790.676          48.000
> 2020 05 09 06 43  0.0000000  0 16        .000000000000
G12  22769834.484 6 119656276.690 6      3378.578          40.000    22769830.758 6  93238643.001 6      2632.664          39.000
G13  21799355.914 8 114556364.691 8     -2837.785          51.000    21799354.445 7  89264677.631 7     -2211.258          46.000
G15  20793551.742 8 109270843.070 8     -1724.773          50.000    20793551.445 8  85146115.044 8     -1343.979          50.000
G17  22391086.609 6 117665943.974 6        90.656          38.000    22391087.781 6  91687751.342 6        70.635          37.000
G19  22183402.859 6 116574518.250 6      2066.379          38.000    22183399.945 6  90837304.883 6      1610.171          38.000
R03  21266033.477 8 113838727.495 8     -3829.793          51.000    21266033.742 7  88541218.975 7     -2978.731          46.000
R04  19877269.938 5 106441881.494 5      -173.500          32.000    19877272.062 5  82788126.077 5      -134.944          34.000
R14  19841841.570 5 105768182.317 5       999.273          35.000    19841841.609 4  82264140.456 4       777.219          25.000
R15  23196968.414 6 123957491.547 6      3105.453          37.000
R22  22782644.734 5 121615267.193 5      -751.629          33.000    22782648.398 4  94589683.643 4      -584.615          25.000
C23  21954496.352 8 114322852.091 8      -377.051          51.000
E02  23342955.812 8 122668042.238 8       466.520          51.000    23342956.484 8  93992461.055 8       357.454          51.000
E03  25190571.562 8 132377339.624 8     -2572.445          51.000    25190575.578 8 101431988.945 8     -1971.145          51.000
E08  21981473.297 8 115513420.859 8       -35.484          48.000    21981472.602 7  88510291.022 7       -27.171          46.000
E25  24831418.438 7 130490046.499 7     -1867.305          46.000    24831422.555 7  99985861.736 7     -1430.594          43.000
E30  25229290.523 8 132580823.014 8      2331.531          48.000    25229292.695 8 101587910.511 8      1786.525          49.000
> 2020 05 09 06 43 30.0000000  0 14        .000000000000
G12  22750581.453 6 119555101.279 6      3369.211          41.000    22750579.094 6  93159805.063 6      2625.359          41.000
G13  21815598.328 8 114641722.483 8     -2850.328          51.000    21815597.367 7  89331190.199 7     -2221.035          44.000
G15  20803455.203 8 109322887.967 8     -1742.484          49.000    20803455.242 8  85186669.503 8     -1357.780          49.000
G17  22390634.555 5 117663569.409 5        71.012          34.000    22390635.555 5  91685901.022 5        55.337          34.000
G19  22171663.086 5 116512832.537 5      2048.242          32.000    22171661.727 5  90789237.977 5      1596.033          32.000
R03  21287545.930 8 113953882.707 8     -3844.609          51.000    21287545.953 7  88630784.091 7     -2990.252          47.000
R14  19836266.906 5 105738457.787 5       985.285          32.000
R15  23179558.734 5 123864456.669 5      3099.148          33.000
C23  21956701.211 8 114334332.429 8      -385.793          51.000
E02  23340326.477 8 122654225.287 8       457.156          51.000    23340327.172 8  93981874.039 8       350.298          51.000
E03  25205289.148 8 132454681.732 8     -2581.105          50.000    25205293.148 8 101491251.029 8     -1977.745          51.000
E08  21981724.812 8 115514743.663 8       -50.199          48.000    21981724.977 7  88511304.569 7       -38.497          46.000
E25  24842099.961 7 130546178.296 7     -1872.293          45.000    24842103.898 7 100028871.813 7     -1434.587          43.000
E30  25216003.453 8 132510998.493 8      2325.902          49.000    25216005.914 8 101534408.621 8      1782.230          49.000
> 2020 05 09 06 44  0.0000000  0 14        .000000000000
G12  22731371.953 6 119454156.146 6      3359.098          39.000    22731370.969 6  93081146.541 6      2617.479          40.000
G13  21831901.789 8 114727400.135 8     -2863.211          51.000    21831900.398 7  89397951.975 7     -2231.073          43.000
G15  20813448.805 8 109375406.042 8     -1760.340          50.000    20813449.031 8  85227592.694 8     -1371.693          50.000
G17  22390284.219 5 117661727.352 5        50.688          35.000    22390288.062 5  91684465.781 5        39.500          35.000
G19  22160015.281 6 116451630.551 6      2030.102          39.000    22160015.172 5  90741548.163 5      1581.897          35.000
R03  21309130.617 8 114069427.333 8     -3859.844          50.000    21309131.133 7  88720652.111 7     -3002.101          47.000
R14  19830756.141 4 105709081.420 4       970.977          27.000    19830761.172 4  82218201.832 4       755.204          27.000
R22  22791401.336 4 121661947.760 4      -805.559          29.000    22791403.133 5  94626028.612 5      -626.549          30.000
C23  21958946.430 8 114346023.173 8      -395.082          51.000
E02  23337740.195 8 122640634.752 8       447.426          51.000    23337741.016 8  93971460.514 8       342.866          51.000
E03  25220045.906 8 132532229.670 8     -2590.117          50.000    25220049.836 8 101550670.844 8     -1984.704          51.000
E08  21982049.695 8 115516452.640 8       -65.406          48.000    21982050.133 7  88512614.032 7       -50.021          46.000
E25  24852800.156 7 130602408.659 7     -1877.859          45.000    24852803.750 7 100071957.411 7     -1438.846          42.000
E30  25202738.711 8 132441290.714 8      2319.805          49.000    25202741.367 8 101480996.198 8      1777.579          49.000
> 2020 05 09 06 44 30.0000000  0 14        .000000000000
G12  22712219.336 6 119353511.504 6      3352.023          40.000    22712218.859 6  93002722.183 6      2611.966          40.000
G13  21848278.953 8 114813463.975 8     -2872.711          50.000    21848277.141 7  89465014.622 7     -2238.482          43.000
G15  20823545.352 8 109428463.833 8     -1775.047          49.000    20823545.531 8  85268936.468 8     -1383.150          49.000
G17  22390047.789 5 117660486.330 5        33.500          34.000    22390052.125 5  91683498.782 5        26.104          32.000
G19  22148475.234 6 116390983.465 6      2015.262          39.000    22148474.484 6  90694290.661 6      1570.334          37.000
R03  21330799.617 8 114185426.606 8     -3871.566          49.000    21330800.953 7  88810873.762 7     -3011.218          47.000
R04  19880914.281 6 106461360.306 6      -257.445          38.000    19880914.398 4  82803295.180 4      -200.244          29.000
R15  23144812.133 4 123678863.209 4      3088.898          29.000
C23  21961244.836 8 114357991.389 8      -401.051          51.000
E02  23335209.961 8 122627338.232 8       440.848          51.000    23335210.734 8  93961272.275 8       337.771          51.000
E03  25234854.555 8 132610050.194 8     -2596.035          50.000    25234858.305 8 101610299.536 8     -1989.164          51.000
E08  21982461.258 8 115518616.208 8       -77.180          48.000    21982461.414 7  88514271.835 7       -59.159          46.000
E25  24863531.945 7 130658804.699 7     -1880.145          46.000    24863535.414 7 100115169.951 7     -1440.669          42.000
E30  25189509.031 8 132371768.060 8      2316.832          48.000    25189511.930 8 101427725.611 8      1775.157          48.000
> 2020 05 09 06 45  0.0000000  0 15        .000000000000
G12  22693106.812 6 119253076.214 6      3343.121          41.000    22693105.969 6  92924460.924 6      2605.032          41.000
G13  21864712.031 8 114899819.909 8     -2884.531          51.000    21864709.539 7  89532304.898 7     -2247.690          43.000
G15  20833727.047 8 109481967.651 8     -1792.027          51.000    20833727.047 8  85310627.753 8     -1396.385          51.000
G19  22137023.547 6 116330801.090 6      1997.062          40.000    22137022.109 5  90647395.473 5      1556.165          34.000
R03  21352534.633 8 114301782.117 8     -3885.562          49.000    21352537.164 7  88901372.468 7     -3022.104          47.000
R04  19882441.352 6 106469504.941 6      -285.570          39.000    19882432.695 4  82809629.885 4      -222.116          27.000
R14  19819965.602 5 105651559.178 5       948.090          32.000    19819954.789 4  82173393.227 4       737.403          26.000
R15  23127487.188 5 123586275.779 5      3083.016          34.000    23127493.336 4  96122688.025 4      2397.901          26.000
R22  22800734.242 5 121711814.127 5      -856.492          30.000    22800743.062 5  94664786.597 5      -666.170          31.000
C23  21963578.812 8 114370144.944 8      -409.383          51.000
E02  23332718.023 8 122614242.619 8       431.969          51.000    23332718.609 8  93951237.973 8       330.911          51.000
E03  25249697.070 8 132688049.357 8     -2604.172          49.000    25249700.891 8 101670065.116 8     -1995.440          51.000
E08  21982941.977 8 115521142.120 8       -91.492          49.000    21982942.328 7  88516207.248 7       -70.167          47.000
E25  24874277.477 7 130715272.860 7     -1884.770          47.000    24874281.031 6 100158437.735 6     -1444.057          41.000
E30  25176296.773 7 132302338.223 7      2311.516          47.000    25176300.148 8 101374526.126 8      1771.149          49.000
> 2020 05 09 06 45 30.0000000  0 14        .000000000000
G12  22674045.117 6 119152909.706 6      3334.895          41.000    22674044.969 6  92846409.145 6      2598.622          41.000
G13  21881211.594 8 114986523.653 8     -2895.551          51.000    21881209.281 7  89599866.233 7     -2256.273          44.000
G15  20844004.516 8 109535973.804 8     -1808.258          51.000    20844004.328 8  85352710.462 8     -1409.032          51.000
G19  22125671.844 6 116271143.800 6      1979.984          41.000    22125667.086 5  90600909.275 5      1542.848          33.000
R03  21374346.797 8 114418548.573 8     -3898.723          49.000    21374350.164 7  88992190.792 7     -3032.340          47.000
R04  19884121.047 6 106478490.963 6      -313.176          41.000    19884113.969 5  82816618.999 5      -243.581          32.000
R15  23110195.430 6 123493859.737 6      3078.070          38.000    23110221.430 4  96050898.081 4      2394.052          25.000
R22  22805625.680 5 121737903.936 5      -882.293          32.000
C23  21965959.266 8 114382540.547 8      -416.855          51.000
E02  23330275.039 8 122601405.040 8       423.949          51.000    23330275.516 8  93941401.378 8       324.892          51.000
E03  25264584.109 8 132766283.436 8     -2611.402          48.000    25264588.117 8 101730010.699 8     -2000.834          51.000
E08  21983502.945 8 115524088.222 8      -104.867          50.000    21983503.383 8  88518464.635 8       -80.365          48.000
E25  24885047.594 7 130771869.756 7     -1888.355          46.000    24885051.312 6 100201804.149 6     -1446.718          41.000
E30  25163113.102 7 132233059.005 7      2307.262          47.000    25163116.828 8 101321442.073 8      1767.851          48.000
> 2020 05 09 06 46  0.0000000  0 14        .000000000000
G12  22655043.719 6 119053060.899 6      3324.973          41.000    22655044.836 6  92768604.930 6      2590.891          40.000
G13  21897786.062 8 115073621.365 8     -2907.625          51.000    21897784.367 7  89667734.562 7     -2265.682          46.000
G15  20854386.344 8 109590528.039 8     -1825.363          51.000    20854385.750 8  85395220.247 8     -1422.361          51.000
G19  22114428.875 6 116212061.546 6      1962.066          40.000    22114424.039 5  90554871.280 5      1528.886          35.000
R03  21396244.414 8 114535769.955 8     -3912.715          50.000    21396248.312 7  89083362.936 7     -3043.223          47.000
R04  19885965.266 6 106488366.192 6      -341.652          40.000    19885959.273 5  82824299.725 5      -265.730          33.000
R14  19809443.594 5 105595457.912 5       923.473          32.000
R15  23092941.523 5 123401662.021 5      3071.641          34.000    23092960.258 4  95979188.767 4      2389.057          28.000
C23  21968395.102 8 114395224.724 8      -425.438          51.000
E02  23327889.836 8 122588872.299 8       414.891          51.000    23327890.484 8  93931798.366 8       317.930          51.000
E03  25279524.633 8 132844798.402 8     -2619.633          48.000    25279528.547 8 101790171.523 8     -2007.224          50.000
E08  21984152.953 8 115527502.186 8      -119.414          49.000    21984153.125 8  88521080.535 8       -91.451          48.000
E25  24895851.133 7 130828641.749 7     -1893.207          45.000    24895854.922 6 100245304.738 6     -1450.558          41.000
E30  25149967.438 8 132163978.035 8      2301.602          49.000    25149971.102 8 101268509.915 8      1763.625          48.000
> 2020 05 09 06 46 30.0000000  0 14        .000000000000
G12  22636089.102 6 118953454.822 6      3315.480          41.000    22636090.141 6  92690989.751 6      2583.488          41.000
G13  21914420.164 8 115161034.364 8     -2919.812          51.000    21914419.336 7  89735848.577 7     -2275.179          46.000
G15  20864857.492 8 109645552.230 8     -1842.887          51.000    20864856.406 8  85438096.226 8     -1436.016          51.000
G19  22103281.102 6 116153479.894 6      1943.598          41.000    22103277.258 5  90509223.259 5      1514.495          35.000
R03  21418211.914 8 114653364.110 8     -3926.809          49.000    21418215.977 7  89174825.018 7     -3054.188          46.000
R04  19887960.148 6 106499052.299 6      -370.500          37.000    19887955.039 5  82832611.166 5      -288.167          34.000
R14  19804281.664 5 105567980.543 5       909.453          32.000    19804274.141 4  82108384.045 4       707.365          25.000
R15  23075704.641 4 123309567.929 4      3066.176          29.000
C23  21970871.672 8 114408121.036 8      -434.203          51.000
E02  23325548.016 8 122576567.169 8       405.484          51.000    23325548.953 8  93922369.748 8       310.687          51.000
E03  25294503.922 8 132923516.170 8     -2628.207          49.000    25294507.750 8 101850487.714 8     -2013.809          51.000
E08  21984876.898 8 115531307.524 8      -134.234          49.000    21984877.469 8  88523996.297 8      -102.849          49.000
E25  24906673.219 7 130885511.083 7     -1897.945          44.000    24906676.711 6 100288879.940 6     -1454.500          41.000
E30  25136845.352 8 132095018.814 8      2295.762          49.000    25136848.609 8 101215671.067 8      1759.072          49.000
> 2020 05 09 06 47  0.0000000  0 14        .000000000000
G12  22617184.961 7 118854109.985 7      3306.938          45.000    22617184.414 7  92613578.202 7      2576.837          45.000
G13  21931116.844 8 115248777.837 8     -2930.430          49.000    21931117.023 7  89804220.109 7     -2283.452          47.000
G15  20875420.477 8 109701061.968 8     -1858.527          51.000    20875419.195 8  85481350.539 8     -1448.206          51.000
G19  22092232.555 6 116095418.749 6      1926.742          39.000    22092229.836 6  90463980.769 6      1501.358          38.000
R03  21440251.508 8 114771344.142 8     -3939.184          49.000    21440255.594 7  89266587.244 7     -3063.809          45.000
R04  19890109.406 6 106510566.213 6      -397.742          37.000    19890106.141 5  82841566.379 5      -309.355          35.000
R14  19799185.633 5 105540869.978 5       897.602          33.000    19799197.805 4  82087297.755 4       698.141          29.000
C23  21973392.109 8 114421245.880 8      -441.449          51.000
C25  24545891.672 5 127816881.404 5     -2401.730          33.000
E02  23323252.836 8 122564506.036 8       397.836          51.000    23323253.852 8  93913128.090 8       304.826          51.000
E03  25309525.008 8 133002452.325 8     -2634.879          50.000    25309528.891 8 101910971.210 8     -2018.963          51.000
E08  21985678.766 8 115535521.421 8      -147.480          49.000    21985679.500 8  88527225.127 8      -112.939          49.000
E25  24917516.727 7 130942493.801 7     -1901.621          44.000    24917519.867 6 100332541.985 6     -1456.943          41.000
E30  25123749.711 8 132026198.536 8      2291.496          49.000    25123752.539 8 101162938.686 8      1755.849          49.000
> 2020 05 09 06 47 30.0000000  0 13        .000000000000
G12  22598322.531 8 118754983.573 8      3299.020          48.000    22598320.484 8  92536336.882 8      2570.665          48.000
G13  21947867.102 7 115336805.994 7     -2940.605          47.000    21947868.672 7  89872813.528 7     -2291.378          46.000
G15  20886066.945 8 109757011.253 8     -1873.949          51.000    20886065.516 8  85524947.358 8     -1460.220          51.000
G19  22081274.617 6 116037835.823 6      1909.926          39.000    22081273.164 5  90419111.026 5      1488.254          35.000
R03  21462354.344 8 114889660.861 8     -3951.035          49.000    21462358.312 7  89358611.334 7     -3073.030          45.000
R04  19892404.375 6 106522862.386 6      -424.586          36.000    19892400.125 5  82851130.151 5      -330.230          32.000
R22  22826654.703 6 121850157.416 6      -986.336          38.000    22826654.141 3  94772401.363 3      -767.144          23.000
C23  21975947.914 8 114434554.865 8      -448.297          51.000
E02  23320995.539 8 122552643.943 8       390.406          51.000    23320996.586 8  93904038.959 8       299.157          51.000
E03  25324579.172 8 133081561.072 8     -2641.469          51.000    25324583.156 8 101971586.932 8     -2023.965          51.000
E08  21986550.156 8 115540099.720 8      -160.375          49.000    21986550.539 8  88530733.173 8      -122.858          49.000
E25  24928373.164 7 130999544.429 7     -1904.461          43.000    24928376.289 6 100376256.081 6     -1459.077          41.000
E30  25110671.953 8 131957473.029 8      2287.621          49.000    25110674.258 8 101110278.908 8      1752.835          49.000
> 2020 05 09 06 48  0.0000000  0 16        .000000000000
G12  22579521.961 8 118656183.221 8      3288.465          49.000    22579518.977 8  92459349.616 8      2562.443          48.000
G13  21964691.453 8 115425223.148 8     -2953.141          48.000    21964694.156 7  89941710.042 7     -2301.145          46.000
G15  20896817.141 8 109813504.724 8     -1891.656          51.000    20896815.641 8  85568968.243 8     -1474.018          51.000
G17  22391364.578 6 117667396.476 6       -98.773          36.000    22391344.844 6  91688843.925 6       -76.972          36.000
G19  22070428.000 6 115980840.045 6      1890.613          39.000    22070426.711 6  90374698.697 6      1473.208          39.000
R03  21484540.047 8 115008417.888 8     -3965.223          49.000    21484543.570 7  89450977.859 7     -3084.065          44.000
R04  19894865.219 6 106536048.546 6      -453.871          36.000    19894862.430 5  82861386.169 5      -353.014          33.000
R15  23024191.922 5 123034329.235 5      3048.852          35.000
R22  22832277.539 6 121880168.581 6     -1014.008          38.000    22832281.219 4  94795753.030 4      -788.664          26.000
C23  21978559.227 8 114448152.616 8      -457.477          51.000
C25  24573559.148 5 127960949.869 5     -2408.035          32.000
E02  23318796.281 8 122541086.380 8       380.676          51.000    23318797.430 8  93895183.164 8       291.660          51.000
E03  25339686.117 8 133160946.999 8     -2650.359          50.000    25339690.047 8 102032415.051 8     -2030.822          51.000
E08  21987510.812 8 115545148.667 8      -175.715          49.000    21987511.344 8  88534601.851 8      -134.621          49.000
E25  24939262.289 7 131056768.040 7     -1910.055          42.000    24939265.680 6 100420102.726 6     -1463.545          40.000
E30  25097632.125 8 131888948.546 8      2281.262          48.000    25097634.172 8 101057773.144 8      1747.908          49.000
> 2020 05 09 06 48 30.0000000  0 15        .000000000000
G12  22560774.508 8 118557664.805 8      3278.965          49.000    22560772.125 8  92382582.050 8      2555.041          49.000
G13  21981581.984 8 115513981.655 8     -2964.621          51.000    21981584.547 7  90010872.512 7     -2310.094          46.000
G15  20907661.727 8 109870494.880 8     -1908.289          49.000    20907660.414 8  85613376.127 8     -1486.978          50.000
G17  22391983.664 5 117670634.270 5      -118.027          35.000    22391960.320 6  91691366.620 6       -91.978          36.000
G19  22059684.688 6 115924387.875 6      1872.691          39.000    22059684.531 6  90330710.119 6      1459.246          38.000
R03  21506798.102 7 115127564.494 7     -3978.309          45.000    21506801.570 7  89543647.382 7     -3094.240          42.000
R04  19897483.711 6 106550077.842 6      -482.211          37.000    19897480.938 5  82872297.807 5      -375.053          31.000
R14  19784357.047 4 105461759.336 4       859.676          28.000    19784350.062 5  82025789.273 5       668.628          30.000
R22  22838044.859 5 121910964.288 5     -1039.855          31.000    22838051.320 4  94819708.442 4      -808.776          26.000
C23  21981217.203 8 114461993.418 8      -465.770          51.000
E02  23316646.203 8 122529787.033 8       372.078          51.000    23316647.523 8  93886525.223 8       285.105          51.000
E03  25354836.734 8 133240562.878 8     -2657.980          50.000    25354840.625 8 102093419.386 8     -2036.619          51.000
E08  21988552.352 8 115550622.638 8      -189.855          49.000    21988553.117 8  88538796.193 8      -145.477          50.000
E25  24950175.203 6 131114117.771 6     -1914.000          39.000    24950178.914 6 100464046.040 6     -1466.562          39.000
E30  25084621.586 7 131820579.509 7      2276.012          47.000    25084623.844 8 101005386.489 8      1744.047          49.000
> 2020 05 09 06 49  0.0000000  0 14        .000000000000
G12  22542082.609 8 118459438.785 8      3274.172          50.000    22542081.656 8  92306042.302 8      2551.303          50.000
G13  21998539.305 8 115603088.766 8     -2971.098          51.000    21998541.031 7  90080306.581 7     -2315.144          44.000
G15  20918602.188 8 109927989.279 8     -1920.027          51.000    20918601.031 8  85658176.897 8     -1496.125          50.000
G19  22049047.820 6 115868490.635 6      1858.555          38.000    22049047.992 5  90287153.876 5      1448.227          34.000
R03  21529127.609 6 115247105.444 6     -3986.398          41.000    21529131.703 6  89636623.624 6     -3100.532          39.000
R04  19900260.500 5 106564958.251 5      -505.059          31.000    19900259.219 5  82883871.493 5      -392.823          30.000
R22  22843959.219 5 121942564.232 5     -1061.062          35.000
C23  21983923.289 8 114476085.475 8      -469.090          51.000
C25  24601331.867 5 128105599.139 5     -2408.398          31.000
E02  23314546.766 8 122518754.060 8       368.234          51.000    23314547.953 8  93878071.393 8       282.133          51.000
E03  25370032.398 8 133320416.038 8     -2660.820          50.000    25370036.633 8 102154605.565 8     -2038.813          51.000
E08  21989676.609 8 115556530.548 8      -199.301          50.000    21989677.352 8  88543323.041 8      -152.795          50.000
E25  24961113.547 6 131171601.454 6     -1913.387          40.000    24961116.914 6 100508092.009 6     -1466.362          38.000
E30  25071642.352 8 131752374.806 8      2275.652          48.000    25071644.891 8 100953125.756 8      1743.649          49.000
> 2020 05 09 06 49 30.0000000  0 17        .000000000000
G12  22523432.945 8 118361434.478 8      3261.105          49.000    22523432.984 8  92229675.307 8      2541.121          49.000
G13  22015548.844 8 115692470.784 8     -2986.023          51.000    22015549.438 7  90149954.853 7     -2326.775          42.000
G15  20929625.016 8 109985914.509 8     -1940.055          51.000    20929623.562 8  85703313.396 8     -1511.731          51.000
G19  22038502.898 6 115813078.924 6      1836.648          37.000    22038502.695 6  90243975.932 6      1431.155          36.000
G20  23480922.320 5 123393078.625 5     -1299.910          32.000
R03  21551515.570 7 115366963.330 7     -4002.527          42.000    21551520.656 6  89729846.369 6     -3113.077          39.000
R04  19903178.430 5 106580626.318 5      -536.926          30.000    19903181.781 5  82896048.939 5      -417.609          30.000
R14  19774814.719 5 105410832.113 5       835.742          30.000    19774804.688 4  81986210.273 4       650.016          28.000
R15  22972991.461 5 122760700.287 5      3032.156          34.000    22972993.141 5  95480551.720 5      2358.344          34.000
R22  22850012.148 6 121974870.603 6     -1090.758          41.000    22850023.359 4  94869397.695 4      -848.361          28.000
C23  21986663.938 8 114490357.246 8      -480.672          51.000
C25  24615233.859 4 128177982.111 4     -2415.523          29.000
E02  23312484.203 8 122507915.082 8       355.980          51.000    23312485.008 8  93869766.196 8       272.785          51.000
E03  25385259.312 8 133400433.250 8     -2672.023          50.000    25385264.070 8 102215917.446 8     -2047.436          51.000
E08  21990869.875 8 115562800.793 8      -217.105          51.000    21990870.516 8  88548127.498 8      -166.398          50.000
E25  24972063.688 6 131229146.369 6     -1921.270          41.000    24972066.227 6 100552184.852 6     -1472.195          38.000
E30  25058680.977 8 131684262.880 8      2266.758          48.000    25058683.938 8 100900936.111 8      1736.911          50.000
> 2020 05 09 06 50  0.0000000  0 14        .000000000000
G12  22504844.812 8 118263753.376 8      3251.250          50.000    22504844.664 8  92153560.187 8      2533.442          50.000
G13  22032628.875 8 115782225.543 8     -2997.566          51.000    22032628.445 6  90219893.568 6     -2335.769          41.000
G15  20940748.625 8 110044368.400 8     -1956.727          51.000    20940747.055 8  85748861.859 8     -1524.725          51.000
G17  22394444.734 4 117683601.278 4      -175.117          29.000    22394448.914 5  91701519.564 5      -136.449          30.000
G19  22028070.289 6 115758254.604 6      1818.293          38.000    22028070.250 6  90201255.690 6      1416.849          37.000
R03  21573982.977 7 115487235.399 7     -4015.445          42.000    21573988.633 6  89823391.246 6     -3123.124          41.000
R04  19906269.477 4 106597163.008 4      -565.219          29.000    19906274.977 5  82908910.744 5      -439.624          33.000
R22  22856217.836 6 122007994.860 6     -1116.992          37.000    22856222.047 5  94895161.194 5      -868.763          33.000
C23  21989458.117 8 114504906.945 8      -489.145          51.000
E02  23310477.305 8 122497369.078 8       347.195          51.000    23310478.164 8  93861685.491 8       266.009          51.000
E03  25400536.266 8 133480712.651 8     -2679.820          51.000    25400541.367 8 102277430.218 8     -2053.300          51.000
E08  21992151.195 8 115569533.045 8      -231.652          51.000    21992151.594 8  88553285.973 8      -177.464          50.000
E25  24983044.594 6 131286851.010 6     -1925.562          41.000    24983047.070 6 100596400.077 6     -1475.437          39.000
E30  25045756.523 8 131616343.476 8      2261.242          48.000    25045759.820 8 100848893.984 8      1732.691          50.000
> 2020 05 09 06 50 30.0000000  0 15        .000000000000
G12  22486314.062 8 118166372.752 8      3242.074          51.000    22486312.945 8  92077679.214 8      2526.292          51.000
G13  22049774.367 8 115872327.101 8     -3007.973          50.000    22049773.672 6  90290102.522 6     -2343.875          41.000
G15  20951968.031 8 110103325.275 8     -1972.488          51.000    20951966.562 8  85794802.262 8     -1537.004          51.000
G17  22395493.547 6 117689115.678 6      -192.793          36.000    22395491.047 5  91705816.413 5      -150.231          34.000
G19  22017745.484 5 115703995.824 5      1799.930          32.000    22017745.953 5  90158976.110 5      1402.540          31.000
R03  21596524.609 7 115607892.683 7     -4027.105          44.000    21596528.945 6  89917235.774 6     -3132.196          41.000
R04  19909521.000 6 106614552.470 6      -592.719          37.000    19909522.781 5  82922435.845 5      -461.003          31.000
R15  22939011.836 5 122579134.720 5      3020.582          32.000    22939012.883 4  95339343.889 4      2349.345          29.000
R22  22862571.367 6 122041938.823 6     -1142.738          38.000    22862577.195 5  94921534.928 5      -888.793          34.000
C23  21992301.031 8 114519710.035 8      -496.570          51.000
E02  23308521.461 8 122487091.117 8       339.238          51.000    23308522.664 8  93853810.174 8       259.957          51.000
E03  25415858.477 8 133561228.442 8     -2686.695          51.000    25415863.445 8 102339124.124 8     -2058.613          51.000
E08  21993515.758 8 115576703.105 8      -245.172          51.000    21993516.117 8  88558779.903 8      -187.841          50.000
E25  24994051.156 6 131344690.055 6     -1929.203          41.000    24994054.141 6 100640718.269 6     -1478.047          39.000
E30  25032864.047 7 131548592.364 7      2256.500          47.000    25032867.617 8 100796980.796 8      1729.114          49.000
> 2020 05 09 06 51  0.0000000  0 15        .000000000000
G12  22467830.273 8 118069238.877 8      3235.137          50.000    22467828.852 8  92001990.529 8      2520.886          51.000
G13  22066974.742 8 115962718.296 8     -3016.270          49.000    22066974.227 6  90360537.202 6     -2350.340          41.000
G15  20963272.266 8 110162728.252 8     -1985.941          51.000    20963271.281 8  85841090.283 8     -1547.487          51.000
G17  22396644.281 4 117695159.297 4      -209.176          28.000    22396644.500 4  91710524.095 4      -162.988          28.000
R03  21619127.453 7 115728874.435 7     -4036.570          43.000    21619129.438 6  90011332.652 6     -3139.558          40.000
R04  19912917.289 6 106632737.998 6      -618.047          38.000    19912916.914 5  82936580.197 5      -480.700          32.000
R15  22922058.125 4 122488582.187 4      3017.754          29.000    22922057.695 4  95268914.076 4      2347.139          28.000
R22  22869063.227 6 122076601.968 6     -1165.512          40.000    22869073.117 5  94948493.755 5      -906.509          30.000
C23  21995181.992 8 114534711.317 8      -501.848          51.000
C25  24657050.469 4 128395720.895 4     -2420.922          29.000
E02  23306606.078 8 122477025.330 8       333.523          51.000    23306607.250 8  93846097.426 8       255.560          51.000
E03  25431214.938 8 133641923.860 8     -2691.305          51.000    25431219.125 8 102400955.657 8     -2062.198          51.000
E08  21994952.969 8 115584255.774 8      -256.621          51.000    21994953.656 8  88564566.990 8      -196.623          50.000
E25  25005072.477 6 131402607.215 6     -1930.520          39.000    25005075.734 6 100685096.299 6     -1479.053          39.000
E30  25019992.953 7 131480954.451 7      2254.316          46.000    25019996.836 8 100745154.339 8      1727.253          49.000
> 2020 05 09 06 51 30.0000000  0 17        .000000000000
G12  22449392.602 8 117972348.503 8      3227.992          50.000    22449391.773 8  91926491.553 8      2515.319          50.000
G13  22084229.398 8 116053392.968 8     -3024.957          50.000    22084229.055 7  90431192.726 7     -2357.112          42.000
G15  20974659.906 8 110222570.859 8     -1999.621          51.000    20974659.641 8  85887720.875 8     -1558.146          51.000
G17  22397894.586 5 117701720.232 5      -225.176          35.000    22397897.258 5  91715651.140 5      -175.468          33.000
G19  21997385.617 5 115597032.163 5      1768.180          35.000    21997387.164 5  90075625.721 5      1377.805          34.000
G20  23511345.844 5 123552944.817 5     -1359.184          35.000
R03  21641788.742 6 115850172.212 6     -4046.215          39.000    21641788.836 6  90105675.288 6     -3147.059          38.000
R04  19916462.438 6 106651714.096 6      -643.297          39.000    19916461.984 5  82951339.384 5      -500.345          32.000
R14  19756572.195 5 105313670.278 5       790.055          34.000    19756559.273 5  81910557.456 5       614.484          31.000
R15  22905144.508 4 122398146.996 4      3015.320          29.000
R22  22875691.148 6 122111964.348 6     -1188.824          40.000
C23  21998100.133 8 114549905.834 8      -507.344          51.000
E02  23304730.039 8 122467166.550 8       327.562          51.000    23304731.031 8  93838543.288 8       250.989          51.000
E03  25446604.219 8 133722792.880 8     -2696.113          51.000    25446607.320 8 102462920.201 8     -2065.841          51.000
E08  21996462.133 8 115592186.569 8      -268.266          51.000    21996463.195 8  88570643.821 8      -205.605          50.000
E25  25016107.906 6 131460596.903 6     -1932.000          37.000    25016110.297 6 100729529.911 6     -1480.151          38.000
E30  25007141.984 7 131413425.380 7      2251.508          45.000    25007146.484 8 100693411.277 8      1725.172          48.000
> 2020 05 09 06 52  0.0000000  0 16        .000000000000
G12  22431012.836 8 117875762.391 8      3213.230          49.000    22431012.852 8  91851229.639 8      2503.816          49.000
G13  22101549.219 8 116144408.035 8     -3040.797          50.000    22101548.617 6  90502113.506 6     -2369.455          41.000
G15  20986142.055 8 110282910.628 8     -2020.816          51.000    20986142.500 8  85934738.872 8     -1574.662          51.000
G17  22399254.664 6 117708866.093 6      -249.059          37.000    22399263.469 4  91721219.395 4      -194.066          27.000
G19  21987366.727 6 115544368.115 6      1744.828          36.000    21987366.477 6  90034588.796 6      1359.606          36.000
G20  23519169.836 6 123594047.074 6     -1379.258          38.000
G24  20691748.148 4 108735855.416 4      1472.078          28.000
R03  21664517.836 6 115971841.600 6     -4062.926          37.000    21664518.164 6  90200306.987 6     -3160.053          37.000
R04  19920165.188 6 106671540.255 6      -676.445          38.000    19920163.336 4  82966759.647 4      -526.127          27.000
R22  22882465.945 6 122148129.295 6     -1219.676          37.000
C23  22001066.398 8 114565351.622 8      -520.344          51.000
E02  23302904.555 8 122457573.146 8       314.086          51.000    23302905.578 8  93831192.497 8       240.705          51.000
E03  25462037.195 8 133803893.016 8     -2708.484          51.000    25462039.203 8 102525061.824 8     -2075.248          50.000
E08  21998054.594 8 115600554.561 8      -287.449          51.000    21998055.875 8  88577055.644 8      -220.304          51.000
E25  25027167.617 5 131518653.101 5     -1940.730          33.000    25027168.859 6 100774063.553 6     -1487.074          37.000
E30  24994322.516 7 131346064.198 7      2241.410          43.000    24994327.445 7 100641796.859 7      1717.390          46.000
> 2020 05 09 06 52 30.0000000  0 17        .000000000000
G12  22412698.930 8 117779522.600 8      3202.059          50.000    22412699.094 8  91776237.601 8      2495.111          50.000
G13  22118941.117 8 116235802.829 8     -3053.012          49.000    22118940.164 6  90573330.166 6     -2378.973          40.000
G15  20997726.414 8 110343786.411 8     -2038.242          51.000    20997727.039 8  85982174.545 8     -1588.241          51.000
G17  22400731.766 5 117716633.748 5      -268.508          30.000    22400749.273 4  91727272.447 4      -209.209          28.000
G19  21977464.055 6 115492318.561 6      1724.395          36.000    21977462.203 5  89994030.645 5      1343.690          33.000
G20  23527091.484 5 123635669.660 5     -1396.117          34.000
R03  21687321.562 6 116093919.922 6     -4076.406          39.000    21687324.391 6  90295256.794 6     -3170.544          37.000
R04  19924034.586 5 106692256.870 5      -706.137          35.000
R15  22871422.656 5 122217937.984 5      2996.145          32.000
R22  22889393.516 5 122185120.661 5     -1247.199          33.000
C23  22004088.328 8 114581088.447 8      -529.605          51.000
C25  24698993.578 5 128614130.478 5     -2432.117          32.000
E02  23301137.242 8 122448285.130 8       304.344          51.000    23301138.484 8  93824075.705 8       233.180          51.000
E03  25477521.359 8 133885263.335 8     -2717.113          50.000    25477522.312 8 102587410.495 8     -2081.908          49.000
E08  21999738.172 8 115609400.420 8      -303.059          51.000    21999739.258 8  88583833.645 8      -232.241          51.000
E25                                                                  25038260.531 6 100818727.605 6     -1491.229          37.000
E30  24981543.555 7 131278911.739 7      2234.754          46.000    24981547.906 7 100590342.368 7      1712.386          46.000
> 2020 05 09 06 53  0.0000000  0 16        .000000000000
G12  22394443.078 8 117683587.037 8      3193.117          51.000    22394442.305 8  91701482.612 8      2488.143          51.000
G13  22136396.258 7 116327531.590 7     -3062.953          47.000    22136394.922 6  90644807.095 6     -2386.717          41.000
G15  21009404.297 8 110405153.361 8     -2053.344          51.000    21009404.727 8  86029992.925 8     -1600.008          51.000
G17  22402318.680 5 117724979.848 5      -287.422          30.000    22402345.609 4  91733776.472 4      -223.956          29.000
G19  21967669.203 5 115440842.584 5      1706.992          34.000    21967666.883 5  89953919.526 5      1330.127          31.000
R03  21710194.633 6 116216358.791 6     -4086.836          41.000    21710197.227 6  90390487.013 6     -3178.650          37.000
R04  19928060.828 6 106713819.193 6      -732.316          37.000    19928058.320 4  82999656.135 4      -569.582          26.000
R14  19743619.211 5 105244647.257 5       746.984          32.000    19743631.414 5  81856956.167 5       580.994          31.000
R15  22854609.141 5 122128124.186 5      2991.094          34.000    22854632.891 4  94988597.214 4      2326.403          26.000
R22  22896470.664 5 122222892.913 5     -1271.832          31.000
C23  22007157.961 8 114597073.118 8      -536.547          51.000
E02  23299419.547 8 122439258.696 8       296.859          51.000    23299420.914 8  93817159.346 8       227.428          51.000
E03  25493048.305 8 133966859.167 8     -2723.211          49.000    25493047.914 8 102649931.958 8     -2086.700          48.000
E08  22001504.367 8 115618681.003 8      -316.281          51.000    22001505.359 8  88590944.739 8      -242.366          51.000
E25                                                                  25049377.125 6 100863488.139 6     -1493.279          37.000
E30  24968796.883 7 131211924.866 7      2230.555          47.000    24968799.844 7 100539014.802 7      1709.034          44.000
> 2020 05 09 06 53 30.0000000  0 15        .000000000000
G12  22376233.484 8 117587895.659 8      3187.602          49.000    22376232.328 8  91626917.932 8      2483.848          49.000
G13  22153902.648 7 116419530.447 7     -3069.094          47.000    22153901.438 7  90716494.514 7     -2391.499          43.000
G15  21021163.477 8 110466948.016 8     -2064.875          51.000    21021163.586 8  86078144.566 8     -1608.997          51.000
G19  21957970.945 6 115389880.318 6      1692.418          38.000    21957969.188 5  89914208.775 5      1318.770          35.000
R03  21733122.531 6 116339090.751 6     -4093.750          40.000    21733124.469 6  90485945.165 6     -3184.031          38.000
R04  19932232.719 5 106736162.587 5      -755.746          35.000    19932229.516 4  83017031.924 4      -587.799          26.000
R14  19739446.539 5 105222381.323 5       739.531          35.000    19739441.391 4  81839598.059 4       575.191          26.000
R15  22837815.508 5 122038435.522 5      2989.969          30.000    22837837.727 4  94918839.396 4      2325.525          27.000
R22  22903689.469 5 122261433.362 5     -1293.027          33.000    22903682.258 5  95092203.494 5     -1005.688          30.000
C23  22010263.578 8 114613243.641 8      -540.102          51.000
E02  23297739.555 8 122430431.086 8       292.973          51.000    23297740.844 8  93810395.318 8       224.480          51.000
E03  25508606.180 8 134048616.929 8     -2725.875          49.000    25508604.430 7 102712577.479 7     -2088.723          47.000
E08  22003341.250 8 115628334.244 8      -325.961          51.000    22003342.203 8  88598341.351 8      -249.786          51.000
E25  25060505.602 5 131693846.081 5     -1948.703          34.000    25060506.562 6 100908296.908 6     -1492.803          38.000
E30  24956070.094 8 131145041.630 8      2229.773          48.000    24956071.562 7 100487766.627 7      1708.429          44.000
> 2020 05 09 06 54  0.0000000  0 13        .000000000000
G12  22358082.789 8 117492515.387 8      3175.328          48.000    22358082.039 8  91552595.638 8      2474.282          48.000
G13  22171473.484 8 116511863.457 8     -3082.160          49.000    22171472.445 7  90788442.262 7     -2401.683          45.000
G15  21033016.180 8 110529233.793 8     -2083.176          51.000    21033015.828 8  86126678.906 8     -1623.257          51.000
G19  21948384.562 6 115339499.584 6      1670.965          41.000    21948381.398 5  89874951.040 5      1302.057          35.000
R03  21756116.750 6 116462178.433 6     -4107.664          40.000    21756118.773 6  90581680.037 6     -3194.850          38.000
R04  19936561.758 6 106759353.366 6      -786.043          37.000    19936559.727 4  83035067.167 4      -611.361          24.000
R15  22821068.484 5 121948869.313 5      2981.336          31.000
C23  22013417.367 8 114629664.506 8      -550.316          51.000
E02  23296109.859 8 122421867.202 8       282.344          51.000    23296111.195 8  93803833.375 8       216.338          51.000
E03  25524207.219 8 134130600.624 8     -2735.395          48.000    25524204.906 7 102775396.105 7     -2095.973          47.000
E08  22005261.500 8 115638425.644 8      -342.441          51.000    22005262.250 8  88606073.711 8      -262.414          51.000
E25  25071657.117 5 131752446.711 5     -1954.520          33.000    25071660.875 6 100953203.290 6     -1497.505          38.000
E30  24943375.242 7 131078327.693 7      2222.117          47.000    24943376.703 7 100436648.171 7      1702.730          45.000
> 2020 05 09 06 54 30.0000000  0 14        .000000000000
G12  22339984.531 8 117397409.575 8      3165.281          48.000    22339984.133 8  91478487.224 8      2466.453          48.000
G13  22189100.812 8 116604490.947 8     -3092.777          51.000    22189099.258 7  90860619.491 7     -2409.956          45.000
G15  21044954.812 8 110591971.068 8     -2099.137          51.000    21044954.023 8  86175565.084 8     -1635.691          51.000
G19  21938901.633 7 115289664.613 7      1651.875          43.000    21938898.328 6  89836118.673 6      1287.178          37.000
R03  21779169.086 6 116585578.900 6     -4118.957          41.000    21779171.734 6  90677658.199 6     -3203.633          36.000
R04  19941042.539 5 106783351.692 5      -813.410          34.000    19941039.148 4  83053723.532 4      -632.655          27.000
R15  22804343.234 6 121859526.001 6      2975.199          36.000
R22  22918533.531 5 122340657.648 5     -1345.715          32.000    22918532.297 5  95153863.060 5     -1046.667          32.000
C23  22016611.797 8 114646297.825 8      -558.277          51.000
E02  23294523.141 8 122413528.615 8       274.004          51.000    23294524.664 8  93797444.068 8       209.984          51.000
E03  25539843.211 7 134212770.871 7     -2742.426          47.000    25539841.906 8 102838357.691 8     -2101.288          48.000
E08  22007257.922 8 115648917.394 8      -356.523          51.000    22007258.641 8  88614112.838 8      -273.243          51.000
E25  25082827.172 5 131811145.935 5     -1957.551          32.000    25082831.617 6 100998177.571 6     -1500.450          38.000
E30  24930704.922 7 131011745.323 7      2216.957          46.000    24930707.633 7 100385630.542 7      1698.713          45.000
> 2020 05 09 06 55  0.0000000  0 16        .000000000000
G12  22321944.297 8 117302607.098 8      3155.199          50.000    22321943.688 8  91404615.212 8      2458.600          50.000
G13  22206788.961 8 116697439.105 8     -3103.438          51.000    22206787.297 7  90933046.613 7     -2418.263          46.000
G15  21056983.992 8 110655185.660 8     -2114.980          50.000    21056983.250 8  86224823.230 8     -1648.037          50.000
G17  22409710.477 6 117763825.576 6      -361.129          36.000    22409712.930 6  91764030.840 6      -281.402          36.000
G19  21929528.305 7 115240405.173 7      1632.500          43.000    21929523.273 5  89797734.692 5      1272.084          34.000
G28  23967229.680 5 125948638.040 5     -3092.371          34.000
R03  21802284.906 6 116709315.705 6     -4130.230          41.000    21802286.656 5  90773897.948 5     -3212.401          33.000
R04  19945680.281 6 106808184.674 6      -841.316          37.000    19945679.883 4  83073037.505 4      -654.360          29.000
R15  22787658.234 5 121770365.321 5      2969.195          35.000    22787665.914 4  94710292.041 4      2309.377          26.000
R22  22926175.406 6 122381427.071 6     -1371.793          37.000
C23  22019852.031 8 114663170.296 8      -566.324          51.000
E02  23292984.383 8 122405442.096 8       265.422          51.000    23292985.727 8  93791247.910 8       203.378          51.000
E03  25555519.125 7 134295153.567 7     -2749.438          47.000    25555519.852 8 102901482.095 8     -2106.742          50.000
E08  22009335.742 8 115659836.875 8      -370.992          51.000    22009336.719 8  88622479.707 8      -284.273          51.000
E25                                                                  25094023.555 6 101043239.995 6     -1503.240          38.000
E30  24918064.781 7 130945322.078 7      2211.605          47.000    24918068.500 7 100334734.831 7      1694.490          46.000
> 2020 05 09 06 55 30.0000000  0 15        .000000000000
G12  22303951.500 8 117208053.266 8      3156.020          50.000    22303950.328 8  91330936.951 8      2459.239          50.000
G13  22224526.133 8 116790648.434 8     -3102.918          50.000    22224524.938 7  91005677.239 7     -2417.858          45.000
G15  21069092.555 8 110718819.343 8     -2119.707          49.000    21069092.539 8  86274407.938 8     -1651.720          50.000
G19  21920253.305 7 115191666.936 7      1624.332          42.000    21920247.258 5  89759756.857 5      1265.719          32.000
G28  23984877.375 5 126041371.434 5     -3082.617          35.000
R03  21825452.070 6 116833327.234 6     -4129.699          40.000    21825451.094 4  90870384.379 4     -3211.988          25.000
R04  19950463.328 5 106833793.638 5      -858.156          35.000    19950461.812 4  83092955.572 4      -667.455          28.000
R15  22770996.242 5 121681329.537 5      2974.348          33.000    22771008.109 5  94641033.819 5      2313.382          30.000
R22  22933946.812 5 122422917.887 5     -1386.191          35.000
C23  22023127.289 8 114680225.598 8      -563.215          51.000
E02  23291482.719 8 122397550.552 8       268.188          51.000    23291483.539 8  93785201.135 8       205.479          51.000
E03  25571224.930 8 134377690.796 8     -2745.445          48.000    25571227.445 8 102964724.903 8     -2103.644          51.000
E08  22011484.180 8 115671127.609 8      -374.180          51.000    22011485.492 8  88631131.059 8      -286.736          51.000
E25  25105253.820 6 131928932.274 6     -1954.938          36.000    25105225.984 6 101088346.610 6     -1498.050          37.000
E30  24905444.430 7 130879001.608 7      2217.340          47.000    24905448.492 7 100283917.863 7      1698.974          47.000
> 2020 05 09 06 56  0.0000000  0 16        .000000000000
G12  22286014.320 8 117113791.662 8      3137.793          49.000    22286012.773 8  91257486.373 8      2445.033          49.000
G13  22242319.820 7 116884159.706 7     -3121.547          47.000    22242319.445 7  91078543.157 7     -2432.374          43.000
G15  21081289.039 8 110782912.591 8     -2143.547          51.000    21081289.516 8  86324350.725 8     -1670.296          51.000
G17  22414030.438 5 117786528.178 5      -396.258          34.000    22414031.766 5  91781706.268 5      -308.769          34.000
G19  21911085.477 6 115143494.154 6      1596.684          39.000    21911080.930 5  89722219.720 5      1244.181          30.000
G28  24002535.172 6 126134158.753 6     -3092.496          36.000
R03  21848677.203 6 116957652.180 6     -4148.734          37.000
R04  19955399.094 6 106860220.250 6      -893.965          37.000    19955396.797 5  83113520.502 5      -695.309          30.000
R14  19719596.430 5 105116544.913 5       676.699          30.000
R15  22754362.836 5 121592428.755 5      2960.043          33.000    22754391.969 5  94571950.599 5      2302.256          30.000
C23  22026445.500 8 114697505.031 8      -579.137          51.000
E02  23290026.047 8 122389895.497 8       251.719          51.000    23290026.656 8  93779335.583 8       192.848          51.000
E03  25586968.680 8 134460423.131 8     -2760.500          49.000    25586971.938 8 103028117.214 8     -2115.215          51.000
E08  22013711.125 8 115682831.720 8      -396.500          51.000    22013712.672 8  88640099.147 8      -303.851          51.000
E25  25116469.570 5 131987911.965 5     -1966.688          35.000
E30  24892851.734 7 130812826.178 7      2203.895          46.000    24892855.828 7 100233212.046 7      1688.716          47.000
> 2020 05 09 06 56 30.0000000  0 16        .000000000000
G12  22268166.578 7 117020001.834 7      3127.164          47.000    22268165.508 7  91184403.398 7      2436.751          47.000
G13  22260204.336 7 116978149.423 7     -3132.227          46.000    22260205.008 7  91151781.886 7     -2440.696          43.000
G15  21093606.805 8 110847641.629 8     -2159.461          51.000    21093607.516 8  86374788.916 8     -1682.697          51.000
G17  22416383.398 5 117798887.824 5      -415.023          35.000    22416384.000 5  91791337.221 5      -323.398          35.000
G19  21902059.523 6 115096066.851 6      1576.926          41.000    21902055.602 4  89685263.508 4      1228.786          24.000
G28  24020236.250 6 126227176.317 6     -3095.785          36.000
R03  21871993.008 6 117082467.488 6     -4159.320          36.000
R04  19960521.578 6 106887644.774 6      -921.668          36.000    19960516.781 5  83134850.673 5      -716.853          30.000
R14  19715857.547 4 105096589.439 4       664.859          29.000    19715837.531 4  81741761.974 4       517.113          26.000
C23  22029840.477 8 114715184.572 8      -587.320          51.000
C25  24811494.281 5 129199961.279 5     -2448.004          32.000
E02  23288648.125 8 122382654.330 8       243.176          51.000    23288648.875 8  93773787.160 8       186.332          51.000
E03  25602783.352 8 134543527.065 8     -2767.559          51.000    25602786.898 8 103091794.242 8     -2120.582          51.000
E08  22016050.367 8 115695127.194 8      -410.934          51.000    22016052.305 8  88649520.335 8      -314.925          51.000
E25  25127716.562 5 132047041.480 5     -1971.270          31.000    25127717.562 5 101178907.495 5     -1510.022          35.000
E30  24880320.602 7 130746973.920 7      2198.273          44.000    24880324.297 7 100182753.842 7      1684.472          47.000
> 2020 05 09 06 57  0.0000000  0 16        .000000000000
G12  22250335.547 8 116926299.649 8      3113.406          49.000    22250334.727 8  91111388.709 8      2426.031          49.000
G13  22278106.891 8 117072229.607 8     -3145.891          48.000    22278107.766 7  91225091.074 7     -2451.346          42.000
G15  21105971.922 8 110912619.329 8     -2178.508          51.000    21105972.547 8  86425420.850 8     -1697.539          51.000
G17  22418802.273 5 117811595.165 5      -437.809          33.000    22418801.859 5  91801238.964 5      -341.150          33.000
G19  21893102.602 6 115049001.883 6      1554.527          38.000    21893098.367 5  89648589.411 5      1211.311          31.000
G28  24037906.633 5 126320037.066 5     -3100.770          32.000
R03  21895327.883 6 117207376.426 6     -4174.051          36.000    21895324.172 4  91161298.948 4     -3246.484          24.000
R04  19965757.156 6 106915673.184 6      -952.820          39.000    19965750.516 5  83156650.525 5      -741.079          32.000
R22  22958129.617 5 122552029.921 5     -1473.488          31.000
C23  22033238.859 8 114732881.878 8      -598.562          51.000
C25  24825592.594 5 129273374.582 5     -2453.996          30.000
E02  23287275.430 8 122375440.981 8       231.578          51.000    23287276.203 8  93768260.050 8       177.446          51.000
E03  25618595.008 8 134626615.647 8     -2777.824          51.000    25618598.648 8 103155459.510 8     -2128.502          51.000
E08  22018429.141 8 115707628.544 8      -428.566          51.000    22018431.281 8  88659099.272 8      -328.397          51.000
E25  25138966.312 5 132106162.389 5     -1978.215          31.000    25138968.859 5 101224216.386 5     -1515.350          34.000
E30  24867777.336 7 130681059.466 7      2189.660          42.000    24867780.727 7 100132247.985 7      1677.812          47.000
> 2020 05 09 06 57 30.0000000  0 16        .000000000000
G12  22232597.219 8 116833083.782 8      3106.457          49.000    22232596.602 8  91038752.979 8      2420.616          49.000
G13  22296102.695 8 117166796.059 8     -3152.855          49.000    22296102.859 7  91298779.183 7     -2456.770          42.000
G15  21118459.484 8 110978240.805 8     -2190.637          51.000    21118459.602 8  86476554.444 8     -1706.993          51.000
G17  22421361.008 5 117825039.331 5      -453.035          35.000    22421360.109 6  91811737.508 6      -353.017          36.000
G19  21884290.266 6 115002698.760 6      1538.293          37.000    21884286.547 5  89612509.157 5      1198.664          35.000
G28  24055621.734 5 126413136.698 5     -3099.672          32.000
R03  21918757.250 5 117332779.442 5     -4180.719          34.000    21918753.172 4  91258842.047 4     -3251.670          26.000
R04  19971179.398 6 106944708.972 6      -977.375          38.000    19971174.016 5  83179233.976 5      -760.181          34.000
R15  22704719.000 5 121327147.761 5      2942.590          31.000
R22  22966488.578 5 122596613.623 5     -1495.582          31.000    22966488.227 5  95352955.671 5     -1163.230          31.000
C23  22036716.297 8 114750990.250 8      -603.070          51.000
E02  23285983.398 8 122368652.114 8       226.777          51.000    23285984.109 8  93763058.195 8       173.749          51.000
E03  25634478.820 8 134710084.658 8     -2781.176          51.000    25634482.695 8 103219416.252 8     -2131.019          51.000
E08  22020923.031 8 115720732.955 8      -439.340          51.000    22020924.992 8  88669140.314 8      -336.649          51.000
E25                                                                  25150275.250 5 101269744.359 5     -1515.799          33.000
E30  24855297.875 7 130615480.259 7      2187.824          43.000    24855301.242 7 100081999.026 7      1676.439          47.000
> 2020 05 09 06 58  0.0000000  0 17        .000000000000
G12  22214886.164 8 116740011.058 8      3098.094          48.000    22214885.820 8  90966228.807 8      2414.099          48.000
G13  22314125.312 8 117261502.665 8     -3161.246          51.000    22314125.164 7  91372576.490 7     -2463.309          44.000
G15  21131003.531 8 111044160.085 8     -2204.176          51.000    21131002.891 8  86527920.073 8     -1717.540          51.000
G17  22423998.344 4 117838889.998 4      -470.371          28.000    22423996.328 4  91822530.148 4      -366.517          29.000
G19  21875558.383 6 114956814.749 6      1520.457          38.000    21875555.734 5  89576755.348 5      1184.769          33.000
G28  24073316.477 5 126506132.929 5     -3100.512          30.000
R03  21942212.711 5 117458321.322 5     -4189.375          30.000    21942209.109 5  91356485.713 5     -3258.400          31.000
R04  19976721.695 6 106974400.085 6     -1002.285          37.000    19976719.828 6  83202327.054 6      -779.555          36.000
R15  22688219.445 5 121238962.324 5      2937.105          33.000    22688235.914 5  94297031.854 5      2284.421          30.000
R22  22974961.953 5 122641851.478 5     -1518.445          32.000    22974960.469 5  95388126.994 5     -1181.013          33.000
C23  22040207.172 8 114769167.880 8      -609.078          51.000
C25  24853879.531 5 129420642.830 5     -2453.852          32.000
E02  23284706.484 8 122361942.614 8       220.293          51.000    23284707.336 8  93757917.146 8       168.742          51.000
E03  25650368.922 8 134793588.020 8     -2785.980          51.000    25650372.898 8 103283399.311 8     -2134.766          50.000
E08  22023465.977 8 115734095.889 8      -451.766          51.000    22023467.797 8  88679379.450 8      -346.146          51.000
E25                                                                  25161570.984 5 101315226.576 5     -1516.841          33.000
E30  24842816.562 7 130549891.964 7      2184.258          42.000    24842819.852 7 100031743.073 7      1673.793          45.000
> 2020 05 09 06 58 30.0000000  0 15        .000000000000
G12  22197255.125 8 116647359.012 8      3084.293          48.000    22197254.414 8  90894032.413 8      2403.345          48.000
G13  22332226.773 8 117356622.908 8     -3174.613          51.000    22332226.469 7  91446696.133 7     -2473.725          45.000
G15  21143656.234 8 111110651.256 8     -2222.957          51.000    21143655.039 8  86579731.329 8     -1732.174          51.000
G19  21866959.469 6 114911627.735 6      1497.766          36.000    21866958.305 6  89541544.643 6      1167.093          36.000
G28  24091043.562 5 126599287.960 5     -3105.859          30.000
R04  19982438.492 6 107005025.941 6     -1033.445          38.000    19982439.609 6  83226147.221 6      -803.791          37.000
R15  22671767.484 4 121151058.767 4      2928.098          29.000    22671784.062 4  94228671.024 4      2277.409          29.000
R22  22983594.977 5 122687965.689 5     -1547.629          30.000    22983592.352 5  95423962.080 5     -1203.711          30.000
C23  22043763.891 8 114787687.789 8      -620.168          51.000
C25  24868069.031 5 129494440.504 5     -2460.617          30.000
E02  23283497.102 8 122355587.736 8       208.863          51.000    23283498.133 8  93753047.818 8       159.984          51.000
E03  25666317.570 8 134877400.127 8     -2795.988          50.000    25666321.000 8 103347618.910 8     -2142.360          49.000
E08  22026110.484 8 115747993.149 8      -469.238          51.000    22026112.508 8  88690027.995 8      -359.540          51.000
E25                                                                  25172907.844 5 101360873.840 5     -1522.177          33.000
E30  24830385.500 7 130484570.529 7      2175.887          42.000    24830389.188 7  99981691.595 7      1667.181          45.000
> 2020 05 09 06 59  0.0000000  0 14        .000000000000
G12  22179670.664 8 116554952.377 8      3071.703          48.000    22179669.102 7  90822027.245 7      2393.538          47.000
G13  22350372.867 8 117451978.333 8     -3186.840          51.000    22350372.641 7  91520999.032 7     -2483.252          46.000
G15  21156383.539 8 111177535.539 8     -2240.422          49.000    21156382.016 8  86631848.911 8     -1745.783          49.000
G19  21858459.414 5 114866963.167 5      1475.637          35.000    21858460.375 6  89506741.069 6      1149.847          36.000
G28  24108770.867 5 126692450.422 5     -3109.480          33.000
R04  19988296.078 6 107036405.298 6     -1062.996          38.000    19988300.430 6  83250553.390 6      -826.772          38.000
R15  22655342.492 5 121063292.056 5      2918.773          32.000    22655346.820 4  94160371.583 4      2270.157          27.000
C23  22047352.539 8 114806374.439 8      -630.113          51.000
C25  24882246.562 4 129568386.300 4     -2464.113          29.000
E02  23282321.414 8 122349410.132 8       198.508          51.000    23282322.547 8  93748314.329 8       152.109          51.000
E03  25682290.727 8 134961342.673 8     -2804.742          49.000    25682293.539 8 103411938.454 8     -2149.181          49.000
E08  22028822.984 8 115762247.920 8      -485.566          51.000    22028825.383 8  88700950.470 8      -372.069          51.000
E25                                                                  25184252.359 5 101406549.994 5     -1526.487          33.000
E30  24817971.195 6 130419339.389 6      2168.359          39.000    24817976.305 7  99931709.265 7      1661.440          44.000
> 2020 05 09 06 59 30.0000000  0 16        .000000000000
G12  22162150.125 8 116462882.062 8      3066.312          49.000    22162147.688 8  90750284.169 8      2389.334          49.000
G13  22368580.234 8 117547656.749 8     -3191.723          51.000    22368579.992 7  91595553.618 7     -2487.060          46.000
G15  21169202.328 8 111244900.716 8     -2250.539          49.000    21169201.039 8  86684341.233 8     -1753.667          48.000
G19  21850076.805 6 114822912.498 6      1460.711          37.000    21850076.633 6  89472415.777 6      1138.207          37.000
G28  24126512.258 5 126785674.014 5     -3105.840          35.000    24126504.242 4  98794001.290 4     -2420.135          28.000
R03  22012958.477 6 117837055.775 6     -4219.098          36.000    22012949.711 5  91651031.355 5     -3281.520          34.000
R04  19994312.141 6 107068627.994 6     -1085.227          38.000    19994317.734 6  83275615.542 6      -844.065          37.000
R15  22638958.906 5 120975718.259 5      2918.992          35.000    22638961.148 5  94092258.639 5      2270.330          30.000
R22  23001253.242 5 122782186.659 5     -1594.035          34.000    23001257.086 4  95497304.048 4     -1239.805          29.000
C23  22050989.984 8 114825316.077 8      -632.707          51.000
C25  24896439.367 5 129642288.374 5     -2462.637          33.000
E02  23281196.422 8 122343498.609 8       195.504          51.000    23281197.664 8  93743784.717 8       149.817          51.000
E03  25698305.375 8 135045503.554 8     -2805.992          48.000    25698309.102 8 103476425.324 8     -2150.112          51.000
E08  22031620.523 8 115776949.546 8      -494.609          51.000    22031623.031 8  88712215.321 8      -379.004          51.000
E25  25195614.898 5 132403850.731 5     -1990.758          32.000    25195620.539 5 101452322.837 5     -1525.185          34.000
E30  24805591.828 6 130354288.033 6      2168.426          39.000    24805597.820 7  99881864.656 7      1661.386          44.000
