     3.02           OBSERVATION DATA    M (MIXED)           RINEX VERSION / TYPE
SAVERINEX           SC600               20200515 015932 LCL PGM / RUN BY / DATE
       G = GPS       R = GLONASS       C = COMPASS          COMMENT
       S = SBAS      J = QZSS          E = GALILEO          COMMENT
BEAN                                                        MARKER NAME
1                                                           MARKER NUMBER
GEODETIC                                                    MARKER TYPE
Unige DICCA         GTER                                    OBSERVER / AGENCY
SC60291900056       SC600               2.12(191202)        REC # / TYPE / VERS
                    HEMA45          NONE                    ANT # / TYPE
  4509407.8091   693652.4678  4442337.6214                  APPROX POSITION XYZ
        0.0000        0.0000        0.0000                  ANTENNA: DELTA H/E/N
G    8 C1C L1C D1C S1C C2Y L2Y D2Y S2Y                      SYS / # / OBS TYPES
R    8 C1C L1C D1C S1C C2P L2P D2P S2P                      SYS / # / OBS TYPES
C    8 C1I L1I D1I S1I C7I L7I D7I S7I                      SYS / # / OBS TYPES
E    8 C1C L1C D1C S1C C7Q L7Q D7Q S7Q                      SYS / # / OBS TYPES
DBHZ                                                        COMMENT
     30.000                                                 INTERVAL
  2020    05    14    23    00    0.0000000     GPS         TIME OF FIRST OBS
  2020    05    14    23    59   30.0000000     GPS         TIME OF LAST OBS
     0                                                      RCV CLOCK OFFS APPL
G L1C  0.00000                                              SYS / PHASE SHIFT
G L2Y  0.00000                                              SYS / PHASE SHIFT
R L1C  0.00000                                              SYS / PHASE SHIFT
R L2P  0.25000                                              SYS / PHASE SHIFT
C L1I  0.00000                                              SYS / PHASE SHIFT
C L7I  0.00000                                              SYS / PHASE SHIFT
E L1C  0.50000                                              SYS / PHASE SHIFT
E L7Q -0.25000                                              SYS / PHASE SHIFT
 13 R04  6 R05  1 R06 -4 R07  5 R10 -5 R13 -2 R14 -7 R15  0 GLONASS SLOT / FRQ #
    R16 -1 R19  3 R20  2 R21  4 R22 -3                      GLONASS SLOT / FRQ #
 C1C   71.950 C2C   71.950 C2P   71.950                     GLONASS COD/PHS/BIS
    18                                                      LEAP SECONDS
*** Above antenna height is from mark to ANTENNA BOTTOM.    COMMENT
    17     4        0.0000        ANT MEASURE TYPE/HEIGT    COMMENT
    0.0000    0.0000    0.0458    0.0405    0.0000          COMMENT
                    BASE STATION                            COMMENT
                                                            END OF HEADER
> 2020 05 14 23 00  0.0000000  0 16        .000000000000
G03  22242740.203 5 116886386.107 5     -2416.141          33.000    22242744.172 5  91080297.935 5     -1882.704          33.000
G04  20584465.445 8 108172108.195 8     -1291.883          50.000    20584466.156 8  84290004.017 8     -1006.662          50.000
G09  20486483.336 8 107657295.255 8      1044.793          51.000    20486482.820 8  83888796.397 8       814.127          51.000
G17  24058794.594 6 126429794.955 6     -2872.051          38.000    24058794.438 6  98516717.849 6     -2237.965          39.000
G19  23409687.039 7 123018731.862 7     -2677.469          46.000    23409684.906 7  95858721.987 7     -2086.339          43.000
R15  21713181.234 5 116028608.460 5       569.270          30.000    21713165.883 4  90244461.308 4       442.753          26.000
R16  22422263.070 7 119775695.802 7      3730.984          46.000    22422263.055 6  93158901.239 6      2901.880          38.000
R21  20415893.445 8 109249593.301 8     -2301.465          50.000    20415897.172 8  84971886.802 8     -1790.028          49.000
C14  22828949.008 6 118876326.593 6     -1757.820          36.000    22828946.516 7  91922806.898 7     -1359.473          43.000
C24  24092024.906 5 125453533.209 5      1702.082          32.000
C26  24627890.273 5 128243886.421 5      -967.859          32.000
C28  24033149.328 7 125146890.866 7     -2679.637          44.000
E03  23543625.820 8 123722598.662 8       528.777          50.000    23543628.977 8  94800520.530 8       405.149          51.000
E05  24723565.898 6 129923231.440 6     -1732.535          36.000    24723567.992 6  99551621.303 6     -1327.533          41.000
E08  24827690.656 7 130470393.875 7      2252.418          43.000    24827695.422 7  99970843.042 7      1725.977          43.000
E15  23809249.406 6 125118434.178 6      -472.574          39.000    23809252.484 7  95869985.138 7      -361.866          43.000
> 2020 05 14 23 00 30.0000000  0 16        .000000000000
G04  20591880.828 8 108211076.428 8     -1305.070          50.000    20591881.414 8  84320368.854 8     -1016.938          50.000
G09  20480563.031 8 107626183.665 8      1030.293          51.000    20480562.516 8  83864553.607 8       802.826          51.000
G17  24075206.031 6 126516037.126 6     -2876.801          39.000    24075204.133 6  98583919.451 6     -2241.663          38.000
G19  23425008.414 7 123099245.749 7     -2689.113          47.000    23425006.250 7  95921460.073 7     -2095.410          43.000
R05  21747745.242 5 116254155.267 5     -2728.176          31.000    21747754.289 4  90419900.990 4     -2121.908          28.000
R16  22401343.227 7 119663946.513 7      3720.059          43.000    22401343.820 6  93071985.182 6      2893.382          38.000
R21  20428867.023 8 109319015.186 8     -2325.715          51.000    20428870.898 8  85025881.605 8     -1808.889          49.000
C14  22839096.484 6 118929168.087 6     -1763.512          36.000    22839094.047 6  91963667.311 6     -1363.686          41.000
C24  24082263.727 6 125402703.114 6      1688.156          37.000
C26  24633509.477 5 128273174.722 5      -983.762          35.000
C27  23827572.336 4 124076416.397 4      -109.770          29.000
C28  24048616.250 7 125227435.410 7     -2688.789          43.000
E03  23540632.391 8 123706865.778 8       521.211          50.000    23540635.016 8  94788465.469 8       399.334          51.000
E05  24733470.711 5 129975265.308 5     -1736.773          33.000    24733473.523 6  99591509.822 6     -1330.739          41.000
E08  24814845.445 6 130402897.227 6      2248.387          40.000    24814850.898 7  99919124.833 7      1722.730          42.000
E15  23811992.469 7 125132846.128 7      -487.348          42.000    23811995.211 7  95881028.012 7      -373.395          42.000
> 2020 05 14 23 01  0.0000000  0 18        .000000000000
G04  20599364.055 8 108250401.013 8     -1315.441          51.000    20599364.648 8  84351011.392 8     -1025.019          50.000
G09  20474718.328 8 107595471.203 8      1018.477          51.000    20474718.234 8  83840621.807 8       793.618          51.000
G17  24091639.336 6 126602393.781 6     -2879.316          39.000    24091636.469 6  98651210.264 6     -2243.626          39.000
G19  23440389.289 7 123180071.120 7     -2698.008          46.000    23440386.859 7  95984440.849 7     -2102.344          44.000
R05  21763073.641 5 116336071.482 5     -2729.828          35.000
R15  21707074.453 5 115996018.114 5       519.633          35.000    21707066.812 4  90219105.028 4       404.159          26.000
R16  22380477.719 6 119552489.525 6      3711.941          41.000    22380479.672 6  92985296.454 6      2887.066          40.000
R21  20441970.227 8 109389127.779 8     -2347.227          51.000    20441972.930 8  85080413.610 8     -1825.621          48.000
C14  22849268.008 5 118982137.555 5     -1766.367          34.000    22849266.211 6  92004626.630 6     -1365.749          41.000
C24  24072576.891 5 125352251.500 5      1676.758          35.000
C25  25851913.305 6 134617700.924 6      3289.297          38.000
C26  24639218.266 6 128302916.335 6      -997.637          36.000
C27  23828246.828 5 124079930.328 5      -123.617          30.000
C28  24064128.891 7 125308212.514 7     -2694.977          43.000
E03  23537674.891 8 123691321.232 8       516.336          50.000    23537676.969 8  94776554.734 8       395.613          51.000
E05                                                                  24743396.305 6  99631465.025 6     -1332.026          40.000
E08  24802015.289 6 130335484.267 6      2246.891          36.000    24802021.648 6  99867470.788 6      1721.700          41.000
E15  23814814.703 7 125147673.616 7      -500.000          43.000    23814815.758 6  95892389.312 6      -383.039          41.000
> 2020 05 14 23 01 30.0000000  0 16        .000000000000
G04  20606933.203 8 108290176.615 8     -1332.281          51.000    20606933.891 8  84382005.380 8     -1038.141          51.000
G09  20468967.844 8 107565253.945 8       999.996          51.000    20468968.250 8  83817075.910 8       779.221          51.000
G17  24108111.953 6 126688958.717 6     -2888.066          40.000    24108109.680 6  98718663.434 6     -2250.441          40.000
G19  23455846.992 7 123261300.635 7     -2713.195          46.000    23455844.188 7  96047736.577 7     -2114.178          42.000
R15  21704247.344 5 115980950.692 5       489.109          33.000
R16  22359685.188 6 119441427.602 6      3696.625          39.000    22359689.602 6  92898914.950 6      2875.153          41.000
R21  20455219.508 8 109460025.638 8     -2375.199          50.000    20455221.539 7  85135556.360 7     -1847.377          47.000
C14  22859482.078 6 119035330.023 6     -1775.906          37.000    22859481.562 7  92045758.401 7     -1373.107          44.000
C24  24062980.938 5 125302275.536 5      1658.934          33.000
C25  25832985.992 6 134519138.088 6      3285.004          37.000
C26  24645034.633 5 128333205.844 5     -1017.551          35.000
C28  24079705.102 7 125389315.306 7     -2707.801          45.000
E03  23534771.242 8 123676060.971 8       505.133          50.000    23534773.023 8  94764861.830 8       387.038          51.000
E05  24753349.672 5 130079730.633 5     -1745.977          32.000    24753354.062 6  99671560.161 6     -1337.943          40.000
E08  24789219.852 5 130268251.392 5      2239.074          33.000    24789224.320 6  99815954.744 6      1715.705          40.000
E15  23817734.211 7 125163012.739 7      -518.668          44.000    23817733.273 6  95904142.662 6      -397.481          41.000
> 2020 05 14 23 02  0.0000000  0 17        .000000000000
G04  20614566.891 8 108330291.159 8     -1343.551          51.000    20614567.547 8  84413263.472 8     -1046.923          51.000
G09  20463290.742 8 107535421.327 8       987.359          51.000    20463291.219 8  83793829.734 8       769.371          51.000
G17  24124602.320 6 126775617.847 6     -2890.754          40.000    24124601.070 6  98786190.007 6     -2252.536          39.000
G19  23471359.742 7 123342820.430 7     -2722.586          47.000    23471356.750 7  96111258.488 7     -2121.496          42.000
R05  21793800.156 5 116500323.667 5     -2740.852          32.000
R15  21701558.898 5 115966628.575 5       464.324          30.000
R16  22338946.266 6 119330652.814 6      3686.844          39.000    22338952.891 6  92812756.760 6      2867.545          40.000
R21  20468593.453 8 109531593.235 8     -2397.473          50.000    20468595.180 7  85191220.051 7     -1864.701          47.000
C14  22869718.906 5 119088635.563 5     -1778.973          32.000    22869718.875 7  92086977.610 7     -1376.019          43.000
C24  24053455.250 6 125252667.414 6      1646.871          37.000
C25  25814052.797 6 134420548.063 6      3285.906          37.000
C26  24650935.289 6 128363932.656 6     -1032.328          36.000
C28  24095322.711 7 125470631.596 7     -2714.941          47.000
E03  23531900.445 8 123660974.044 8       499.258          50.000    23531901.898 8  94753301.719 8       382.554          51.000
E05  24763321.070 5 130132129.667 5     -1748.676          33.000    24763325.023 6  99711710.058 6     -1339.823          40.000
E08                                                                  24776439.164 6  99764492.021 6      1713.825          38.000
E15  23820729.961 7 125178752.720 7      -531.984          43.000    23820727.656 6  95916203.178 6      -407.559          41.000
> 2020 05 14 23 02 30.0000000  0 17        .000000000000
G04  20622275.836 8 108370801.481 8     -1353.734          51.000    20622276.492 8  84444829.969 8     -1054.858          51.000
G09  20457697.906 8 107506031.956 8       975.543          51.000    20457698.664 8  83770928.949 8       760.163          51.000
G17  24141120.891 6 126862426.568 6     -2893.246          39.000    24141120.461 6  98853833.140 6     -2254.477          39.000
G19  23486938.211 7 123424685.905 7     -2731.348          46.000    23486935.344 7  96175049.747 7     -2128.323          44.000
R15  21699041.102 5 115953073.492 5       440.355          35.000
R16  22318274.555 6 119220229.695 6      3677.867          41.000    22318281.039 6  92726872.101 6      2860.563          39.000
R21  20482103.047 8 109603886.621 8     -2418.578          50.000    20482104.383 7  85247448.240 7     -1881.116          47.000
C14  22879988.461 5 119142112.127 5     -1782.215          35.000    22879988.938 7  92128329.013 7     -1378.288          43.000
C24  24044012.562 6 125203487.338 6      1635.188          38.000
C25  25795125.711 6 134321991.211 6      3287.758          38.000
C26  24656931.031 5 128395154.143 5     -1045.770          33.000
C27  23830887.852 4 124093689.725 4      -176.891          29.000
C28  24110991.742 7 125552217.117 7     -2720.832          46.000
E03  23529073.555 8 123646118.790 8       494.359          49.000    23529074.898 8  94741919.118 8       378.777          51.000
E05  24773318.320 6 130184657.941 6     -1750.277          36.000    24773320.555 6  99751958.948 6     -1340.981          39.000
E08                                                                  24763679.875 6  99713127.689 6      1712.838          38.000
E15  23823811.547 6 125194952.236 6      -544.570          39.000    23823809.945 7  95928615.775 7      -417.274          42.000
> 2020 05 14 23 03  0.0000000  0 19        .000000000000
G03  22326247.781 5 117325240.983 5     -2460.695          35.000    22326248.281 5  91422243.069 5     -1917.419          35.000
G04  20630048.219 8 108411644.974 8     -1369.789          51.000    20630048.664 8  84476656.067 8     -1067.368          51.000
G09  20452177.805 8 107477024.604 8       957.781          51.000    20452178.969 8  83748325.848 8       746.323          51.000
G17  24157655.453 6 126949320.758 6     -2900.539          37.000    24157655.570 6  98921542.906 6     -2260.160          37.000
G19  23502569.953 7 123506832.645 7     -2745.656          45.000    23502567.664 7  96239060.202 7     -2139.469          42.000
R07  22074439.312 5 118166196.187 5      2653.945          30.000
R15  21696666.547 6 115940303.062 6       410.703          36.000
R16  22297658.680 6 119110100.666 6      3663.051          41.000    22297663.875 6  92641216.254 6      2849.043          39.000
R21  20495735.758 8 109676840.271 8     -2445.645          48.000    20495737.594 8  85304189.962 8     -1902.171          48.000
C14  22890279.594 6 119195698.747 6     -1791.055          36.000    22890279.461 7  92169765.595 7     -1384.773          42.000
C24  24034639.750 6 125154676.374 6      1618.062          41.000
C25  25776193.531 6 134223409.407 6      3283.969          37.000
C26  24663011.203 5 128426808.905 5     -1064.824          31.000
C27  23831955.758 4 124099256.622 4      -196.145          29.000
C28  24126699.234 7 125634008.880 7     -2732.609          45.000
E03  23526278.711 8 123631433.606 8       483.824          48.000    23526280.469 8  94730666.823 8       370.746          51.000
E05  24783328.141 6 130237253.652 6     -1757.441          38.000    24783329.336 6  99792259.532 6     -1346.416          39.000
E08  24750950.289 5 130067084.857 5      2228.055          34.000    24750935.297 6  99661814.923 6      1707.477          37.000
E15  23826968.297 6 125211549.883 6      -563.035          39.000    23826968.930 7  95941333.428 7      -431.207          44.000
> 2020 05 14 23 03 30.0000000  0 19        .000000000000
G03  22340308.703 5 117399125.252 5     -2461.812          34.000    22340312.500 5  91479815.277 5     -1918.298          34.000
G04  20637894.641 8 108452877.381 8     -1376.094          51.000    20637894.836 8  84508785.213 8     -1072.281          51.000
G09  20446741.547 8 107448456.543 8       949.555          51.000    20446742.789 8  83726065.037 8       739.916          51.000
G17  24174217.195 5 127036355.210 5     -2898.238          35.000    24174217.109 6  98989361.952 6     -2258.364          37.000
G19  23518265.492 7 123589315.084 7     -2750.219          45.000    23518263.758 7  96303332.252 7     -2143.028          44.000
R05  21840013.547 5 116747327.193 5     -2746.414          35.000
R07  22059576.820 5 118086625.556 5      2653.996          31.000
R15  21694435.391 5 115928454.486 5       390.375          34.000
R16  22277109.859 7 119000328.998 7      3657.820          42.000    22277113.734 6  92555838.384 6      2844.974          39.000
R21  20509502.391 8 109750509.255 8     -2462.668          49.000    20509505.047 8  85361488.061 8     -1915.405          49.000
C14  22900602.445 5 119249452.142 5     -1789.566          34.000    22900600.891 6  92211331.191 6     -1384.075          39.000
C24  24025348.953 6 125106293.370 6      1610.414          38.000
C25  25757268.141 6 134124861.968 6      3288.918          38.000
C26  24669187.219 4 128458930.224 4     -1074.863          27.000
C28  24142456.281 7 125716061.379 7     -2734.664          44.000
E03  23523527.094 8 123616975.661 8       482.953          49.000    23523529.383 8  94719588.673 8       370.001          51.000
E05  24793361.219 6 130289973.556 6     -1754.215          38.000    24793361.836 6  99832655.358 6     -1344.381          39.000
E08  24738231.055 5 130000283.316 5      2230.750          35.000    24738215.938 6  99610598.018 6      1709.273          38.000
E15  23830212.625 6 125228602.817 6      -571.312          40.000    23830215.156 7  95954399.969 7      -437.642          45.000
> 2020 05 14 23 04  0.0000000  0 20        .000000000000
G03  22354407.977 5 117473222.666 5     -2475.125          32.000    22354412.164 5  91537553.498 5     -1928.666          32.000
G04  20645811.750 8 108494481.504 8     -1394.484          51.000    20645812.000 8  84541204.003 8     -1086.611          51.000
G09  20441385.953 8 107420312.097 8       929.648          51.000    20441387.008 8  83704134.316 8       724.401          51.000
G17  24190803.031 6 127123511.089 6     -2908.664          37.000    24190801.812 6  99057275.596 6     -2266.488          38.000
G19  23534021.375 7 123672113.772 7     -2766.551          46.000    23534020.047 7  96367850.700 7     -2155.754          44.000
R05  21855479.547 5 116830047.428 5     -2756.949          31.000
R07  22044743.148 5 118007230.032 5      2642.523          31.000
R15  21692341.273 5 115917278.202 5       357.805          34.000    21692343.266 5  90157893.146 5       278.293          30.000
R16  22256626.336 7 118890903.010 7      3640.285          42.000    22256628.617 6  92470729.296 6      2831.333          39.000
R21  20523399.695 8 109824874.282 8     -2491.879          51.000    20523402.664 8  85419327.538 8     -1938.128          49.000
R22  21266936.000 4 113524344.763 4      1813.961          28.000    21266931.875 4  88296697.547 4      1410.859          29.000
C14  22910953.922 5 119303356.523 5     -1800.637          35.000    22910952.172 6  92253013.447 6     -1392.448          40.000
C24  24016136.758 6 125058324.539 6      1590.617          40.000
C25  25738346.703 6 134026335.673 6      3282.469          36.000
C26  24675451.633 4 128491548.294 4     -1096.629          29.000
C28  24158260.367 7 125798356.568 7     -2748.523          44.000
E03  23520815.930 8 123602728.745 8       470.016          50.000    23520818.367 8  94708672.206 8       360.142          51.000
E05  24803414.398 6 130342801.498 6     -1764.074          37.000    24803415.195 6  99873133.856 6     -1351.654          39.000
E08  24725532.625 5 129933547.257 5      2220.992          35.000    24725519.047 6  99559464.909 6      1702.024          40.000
E15  23833540.953 6 125246095.222 6      -591.789          40.000    23833544.367 7  95967803.264 7      -453.365          45.000
> 2020 05 14 23 04 30.0000000  0 18        .000000000000
G03  22368568.422 5 117547637.933 5     -2480.434          32.000    22368572.039 5  91595539.372 5     -1932.808          32.000
G04  20653819.234 8 108536560.885 8     -1405.121          51.000    20653819.555 8  84573993.129 8     -1094.900          51.000
G09  20436130.883 8 107392696.424 8       917.098          51.000    20436131.609 8  83682615.626 8       714.625          51.000
G17  24207431.797 6 127210890.716 6     -2910.926          39.000    24207429.711 6  99125363.597 6     -2268.254          38.000
G19  23549856.984 7 123755331.005 7     -2775.387          45.000    23549855.789 7  96432695.285 7     -2162.639          45.000
R05  21870941.891 5 116912708.288 5     -2758.477          33.000
R16  22236228.039 7 118781934.804 7      3629.863          42.000    22236229.727 6  92385976.276 6      2823.227          40.000
R21  20537447.109 8 109900039.149 8     -2513.207          51.000    20537449.539 8  85477789.102 8     -1954.717          49.000
R22  21256831.844 4 113470386.619 4      1790.176          29.000
C14  22921355.258 5 119357515.769 5     -1804.125          35.000    22921353.672 6  92294892.818 6     -1395.179          41.000
C24  24007024.641 6 125010876.111 6      1578.598          37.000
C25  25719449.617 5 133927937.087 5      3283.148          35.000
C26  24681823.359 5 128524741.694 5     -1110.270          31.000
C28  24174130.625 6 125880996.338 6     -2754.953          41.000
E03  23518165.039 8 123588797.918 8       464.453          49.000    23518167.375 8  94697997.944 8       355.883          51.000
E05  24813507.750 6 130395841.741 6     -1766.395          36.000    24813509.102 6  99913775.099 6     -1353.399          39.000
E08  24712873.258 6 129867028.985 6      2219.016          37.000    24712863.891 6  99508496.439 6      1700.452          41.000
E15  23836972.797 6 125264132.217 6      -604.957          38.000    23836975.984 7  95981623.831 7      -463.512          44.000
> 2020 05 14 23 05  0.0000000  0 16        .000000000000
G03  22382747.836 6 117622149.116 6     -2489.805          37.000    22382752.164 6  91653600.061 6     -1940.108          37.000
G04  20661874.742 8 108578892.697 8     -1420.195          51.000    20661875.062 8  84606978.959 8     -1106.646          51.000
G09  20430934.508 8 107365388.232 8       900.172          51.000    20430934.711 8  83661336.539 8       701.433          51.000
G17  24224060.266 6 127298269.621 6     -2917.461          40.000    24224058.211 6  99193451.021 6     -2273.349          40.000
G19  23565729.578 7 123838742.302 7     -2788.551          44.000    23565727.938 7  96497691.077 7     -2172.897          44.000
R05  21886427.672 5 116995502.604 5     -2765.395          31.000
R16  22215874.023 6 118673203.936 6      3615.336          41.000    22215875.188 6  92301407.804 6      2811.925          38.000
R21  20551600.844 8 109975774.980 8     -2539.152          49.000    20551602.352 7  85536694.746 7     -1974.893          46.000
C14  22931763.898 6 119411710.411 6     -1812.359          36.000    22931762.484 6  92336799.545 6     -1401.162          41.000
C24  23997971.633 6 124963730.722 6      1561.684          41.000
C25  25700536.039 6 133829449.432 6      3278.973          36.000
C28  24190023.945 6 125963758.988 6     -2765.574          40.000
E03  23515532.102 8 123574961.591 8       454.734          50.000    23515534.406 8  94687396.082 8       348.475          51.000
E05  24823598.977 6 130448872.567 6     -1772.262          37.000    24823601.047 6  99954409.150 6     -1358.158          39.000
E08  24700213.281 6 129800504.528 6      2212.797          37.000    24700207.625 7  99457523.182 7      1695.376          43.000
E15  23840465.945 6 125282492.341 6      -622.059          38.000    23840468.867 7  95995691.999 7      -476.837          44.000
> 2020 05 14 23 05 30.0000000  0 15        .000000000000
G03  22396978.172 5 117696927.181 5     -2494.629          34.000    22396979.977 5  91711868.800 5     -1943.864          35.000
G04  20670010.477 8 108621646.388 8     -1430.031          51.000    20670010.781 8  84640293.517 8     -1114.310          51.000
G09  20425829.188 8 107338558.335 8       888.520          51.000    20425829.266 8  83640430.136 8       692.353          51.000
G17  24240720.117 6 127385815.841 6     -2918.488          38.000    24240718.812 6  99261668.829 6     -2274.147          38.000
G19  23581671.023 7 123922515.109 7     -2796.273          45.000    23581668.586 7  96562968.591 7     -2178.914          44.000
R16  22195597.094 6 118564889.234 6      3605.621          40.000    22195598.258 6  92217163.067 6      2804.375          37.000
R21  20565891.977 8 110052252.478 8     -2559.316          49.000    20565892.344 7  85596177.234 7     -1990.582          44.000
C14  22942211.742 5 119466109.718 5     -1814.883          31.000    22942210.164 6  92378864.483 6     -1403.059          39.000
C24  23989009.320 6 124917059.511 6      1550.012          40.000
C25  25681639.031 6 133731044.647 6      3280.938          37.000
C28  24205971.922 5 126046811.549 5     -2771.441          35.000
E03  23512949.828 8 123561390.426 8       449.938          50.000    23512952.023 8  94676997.403 8       344.763          51.000
E05  24833720.414 6 130502064.262 6     -1773.652          38.000    24833723.641 6  99995166.460 6     -1358.984          39.000
E08  24687584.727 6 129734144.946 6      2211.102          38.000    24687582.297 7  99406676.300 7      1694.319          43.000
E15  23844053.781 6 125301346.357 6      -634.617          38.000    23844055.672 7  96010138.580 7      -486.229          43.000
> 2020 05 14 23 06  0.0000000  0 18        .000000000000
G03  22411237.188 5 117771861.226 5     -2503.051          33.000    22411238.867 5  91770258.965 5     -1950.432          32.000
G04  20678205.156 8 108664710.180 8     -1443.637          51.000    20678205.281 8  84673849.732 8     -1124.912          51.000
G09  20420793.586 8 107312096.530 8       872.973          51.000    20420793.992 8  83619810.529 8       680.235          51.000
G17  24257389.703 5 127473416.271 5     -2923.539          33.000    24257389.547 5  99329928.940 5     -2278.082          32.000
G19  23597659.773 7 124006536.052 7     -2807.797          45.000    23597656.570 7  96628439.419 7     -2187.894          44.000
R05  21917473.016 5 117161452.024 5     -2770.656          33.000    21917473.773 4  91125588.215 4     -2154.952          27.000
R16  22175377.398 6 118456883.083 6      3592.062          40.000    22175378.641 5  92133158.293 5      2793.826          34.000
R21  20580300.008 8 110129355.849 8     -2583.621          48.000    20580299.672 7  85656146.507 7     -2009.483          44.000
R22  21227272.078 6 113312603.416 6      1712.387          36.000    21227299.016 4  88132103.452 4      1331.847          24.000
C14  22952675.922 5 119520604.363 5     -1820.848          35.000    22952675.164 6  92421003.148 6     -1408.221          36.000
C24  23980116.328 6 124870754.922 6      1534.543          36.000
C25  25662737.461 5 133632615.935 5      3278.395          35.000
C27  23840475.406 5 124143607.977 5      -298.215          31.000
C28  24221951.625 5 126130042.166 5     -2780.340          33.000
E03  23510397.008 8 123547973.895 8       441.598          50.000    23510399.117 8  94666717.217 8       338.328          51.000
E05  24843851.266 5 130555306.067 5     -1778.668          35.000    24843856.625 6 100035962.134 6     -1362.795          40.000
E08  24674966.531 5 129667840.232 5      2206.180          35.000    24674966.031 6  99355871.436 6      1690.611          41.000
E15  23847714.938 6 125320583.884 6      -650.809          37.000    23847715.344 7  96024879.006 7      -498.570          43.000
> 2020 05 14 23 06 30.0000000  0 17        .000000000000
G03  22425546.578 5 117847044.838 5     -2509.125          33.000    22425558.852 5  91828883.809 5     -1955.171          33.000
G04  20686480.477 8 108708197.448 8     -1454.043          51.000    20686480.430 8  84707735.909 8     -1133.020          51.000
G09  20415849.773 8 107286117.651 8       860.492          51.000    20415850.406 8  83599567.249 8       670.513          51.000
G19  23613716.938 7 124090916.967 7     -2816.199          45.000    23613713.500 7  96694190.782 7     -2194.441          44.000
R05  21933035.664 4 117244627.740 4     -2772.848          28.000    21933038.680 5  91190280.505 5     -2156.662          30.000
R15  21684133.578 5 115873427.904 5       227.418          32.000
R16  22155238.625 6 118349307.024 6      3581.293          41.000    22155238.953 5  92049488.051 5      2785.450          34.000
R21  20594846.250 8 110207198.852 8     -2604.391          48.000    20594846.898 7  85716691.062 7     -2025.637          45.000
C14  22963181.523 5 119575307.865 5     -1824.500          33.000    22963181.188 5  92463303.537 5     -1410.795          35.000
C24  23971318.492 5 124824933.026 5      1521.633          35.000
C25  25643853.469 5 133534279.551 5      3278.336          32.000
C27  23842238.727 5 124152800.875 5      -313.680          32.000
C28  24237991.211 6 126213562.788 6     -2786.160          38.000
E03  23507895.102 8 123534826.597 8       436.395          49.000    23507897.211 8  94656643.339 8       334.350          51.000
E05  24854013.828 6 130608712.366 6     -1780.281          36.000    24854020.477 6 100076883.870 6     -1364.234          39.000
E08  24662380.914 5 129601705.636 5      2203.965          35.000    24662380.859 6  99305196.901 6      1689.046          40.000
E15  23851471.000 6 125340319.778 6      -663.648          37.000    23851470.312 7  96040001.273 7      -508.360          43.000
> 2020 05 14 23 07  0.0000000  0 18        .000000000000
G03  22439891.805 5 117922416.583 5     -2515.160          35.000    22439897.742 5  91887614.912 5     -1959.871          34.000
G04  20694816.469 8 108752003.388 8     -1465.691          51.000    20694816.609 8  84741870.412 8     -1142.097          51.000
G07  23780690.703 6 124968371.116 6      3353.598          37.000    23780687.523 6  97377942.887 6      2613.196          36.000
G09  20410978.266 8 107260518.444 8       846.824          51.000    20410978.742 8  83579619.827 8       659.863          51.000
G19  23629822.234 7 124175551.320 7     -2825.461          45.000    23629818.977 7  96760139.646 7     -2201.658          44.000
R15  21682933.938 5 115867016.760 5       201.520          34.000    21682941.047 4  90118844.963 4       156.725          29.000
R16  22135161.656 7 118242061.085 7      3569.262          42.000    22135161.961 5  91966074.602 5      2776.095          35.000
R21  20609511.086 8 110285672.834 8     -2626.422          50.000    20609512.562 7  85777726.373 7     -2042.773          46.000
C14  22973707.266 6 119630117.933 6     -1828.629          36.000    22973708.086 5  92505686.044 5     -1413.906          34.000
C24  23962595.273 5 124779516.931 5      1508.320          32.000
C25  25624967.281 5 133435935.676 5      3277.824          34.000
C26  24714967.305 5 128697314.039 5     -1188.602          30.000
C27  23844092.219 5 124162458.025 5      -330.039          35.000
C28  24254067.031 6 126297268.685 6     -2793.254          41.000
E03  23505424.641 8 123521845.135 8       430.035          49.000    23505426.617 8  94646696.512 8       329.463          51.000
E05  24864188.844 6 130662179.358 6     -1783.398          37.000    24864195.211 6 100117852.088 6     -1366.327          38.000
E08  24649807.320 5 129535637.978 5      2200.957          35.000    24649807.000 6  99254573.672 6      1686.525          39.000
E15  23855302.000 6 125360450.541 6      -677.441          37.000    23855301.453 7  96055426.067 7      -519.090          44.000
> 2020 05 14 23 07 30.0000000  0 20        .000000000000
G03  22454291.047 6 117998072.082 6     -2524.914          38.000    22454287.695 6  91946567.317 6     -1967.466          38.000
G04  20703235.102 8 108796243.697 8     -1480.207          51.000    20703235.312 8  84776343.392 8     -1153.405          51.000
G07  23761571.852 6 124867901.676 6      3347.379          38.000    23761568.188 6  97299655.056 6      2608.347          38.000
G09  20406201.281 8 107235415.974 8       830.113          51.000    20406201.352 8  83560059.464 8       646.842          51.000
G19  23645997.242 7 124260553.032 7     -2837.758          43.000    23645994.391 7  96826374.725 7     -2211.240          43.000
G22  24759308.430 5 130111045.299 5     -2951.832          32.000
R05  21964208.750 4 117411288.722 4     -2781.527          29.000    21964206.664 4  91319884.035 4     -2163.407          26.000
R15  21681908.055 6 115861501.926 6       172.023          38.000    21681897.664 4  90114499.907 4       133.799          27.000
R16  22115170.391 7 118135269.272 7      3553.734          44.000    22115170.664 6  91883014.364 6      2764.019          36.000
R21  20624315.398 8 110364893.392 8     -2651.555          49.000    20624317.523 7  85839342.387 7     -2062.317          46.000
R22  21199032.211 5 113161878.763 5      1635.809          31.000
C14  22984276.828 6 119685150.430 6     -1836.648          37.000    22984277.547 5  92548240.621 5     -1420.089          32.000
C24  23953967.844 5 124734577.128 5      1491.477          35.000
C25  25606102.641 5 133337703.119 5      3272.984          30.000
C26  24721873.602 5 128733295.618 5     -1207.012          33.000
C28  24270199.719 6 126381273.506 6     -2803.418          40.000
E03  23503008.086 8 123509146.467 8       420.297          50.000    23503009.867 8  94636966.357 8       321.974          51.000
E05  24874397.344 6 130715823.679 6     -1789.617          39.000    24874403.289 6 100158956.201 6     -1371.002          37.000
E08  24637269.641 6 129469754.782 6      2194.641          36.000    24637268.750 6  99204091.755 6      1681.518          41.000
E15  23859230.703 6 125381093.008 6      -694.891          40.000    23859230.492 7  96071242.992 7      -532.529          45.000
> 2020 05 14 23 08  0.0000000  0 18        .000000000000
G03  22468723.727 6 118073912.263 6     -2529.535          39.000    22468723.047 6  92005663.588 6     -1971.066          39.000
G04  20711717.336 8 108840817.999 8     -1489.863          51.000    20711717.359 8  84811076.634 8     -1160.932          51.000
G07  23742472.250 6 124767531.658 6      3345.316          39.000    23742468.258 6  97221444.681 6      2606.740          39.000
G09  20401500.078 8 107210711.292 8       818.426          51.000    20401500.023 8  83540809.097 8       637.737          51.000
G19  23662222.844 7 124345819.904 7     -2845.004          45.000    23662220.117 7  96892816.437 7     -2216.886          43.000
G22  24776168.891 5 130199645.531 5     -2953.082          33.000
R15  21681011.656 5 115856704.364 5       147.637          35.000
R16  22095246.008 7 118028835.924 7      3543.285          42.000    22095246.711 6  91800232.915 6      2755.891          37.000
R21  20639238.922 8 110444756.662 8     -2671.355          49.000    20639242.211 7  85901458.292 7     -2077.721          45.000
C14  22994869.391 5 119740307.109 5     -1839.441          34.000
C24  23945415.805 5 124690041.044 5      1478.336          30.000
C25  25587239.930 4 133239476.074 4      3274.676          29.000
C26  24728867.008 5 128769718.191 5     -1219.949          33.000
C28  24286369.117 6 126465476.943 6     -2808.773          36.000
E03  23500626.516 8 123496631.341 8       415.477          50.000    23500628.219 8  94627376.849 8       318.352          51.000
E05  24884620.148 6 130769545.950 6     -1790.754          40.000    24884624.727 6 100200120.039 6     -1372.097          36.000
E08  24624749.438 5 129403930.408 5      2193.109          35.000    24624747.875 6  99153675.700 6      1680.662          41.000
E15  23863237.766 6 125402148.152 6      -706.934          39.000    23863238.141 7  96087376.210 7      -541.892          45.000
> 2020 05 14 23 08 30.0000000  0 17        .000000000000
G03  22483195.336 6 118149957.173 6     -2540.754          38.000    22483195.359 6  92064919.311 6     -1979.808          38.000
G04  20720266.750 8 108885745.378 8     -1505.828          51.000    20720266.773 8  84846084.985 8     -1173.373          51.000
G07  23723396.211 6 124667284.682 6      3336.887          38.000    23723393.203 6  97143330.180 6      2600.171          38.000
G09  20396878.438 8 107186425.102 8       800.184          51.000    20396878.617 8  83521884.803 8       623.520          51.000
G19  23678502.453 7 124431369.595 7     -2858.699          44.000    23678499.719 7  96959478.548 7     -2227.558          43.000
R16  22075393.086 6 117922786.368 6      3526.023          41.000    22075394.867 6  91717749.958 6      2742.463          38.000
R21  20654286.336 8 110525280.044 8     -2697.492          49.000    20654289.758 7  85964087.545 7     -2098.049          44.000
R22  21180922.516 5 113065218.916 5      1583.250          31.000
C14  23005488.680 5 119795608.635 5     -1848.363          33.000    23005487.555 5  92633563.048 5     -1428.782          30.000
C24  23936943.867 5 124645931.278 5      1460.578          33.000
C25  25568384.680 5 133141297.842 5      3269.582          35.000
C26  24735948.023 5 128806601.236 5     -1239.117          34.000
C28  24302577.328 5 126549898.039 5     -2820.051          30.000
E03  23498283.758 8 123484320.174 8       404.613          51.000    23498285.500 8  94617943.628 8       310.013          51.000
E05  24894861.922 6 130823366.247 6     -1798.352          40.000    24894865.812 6 100241358.943 6     -1377.706          37.000
E08  24612250.961 5 129338249.801 5      2185.477          34.000    24612247.406 6  99103341.353 6      1674.598          41.000
E15  23867325.781 6 125423636.633 6      -725.805          37.000    23867328.203 7  96103841.463 7      -556.136          46.000
> 2020 05 14 23 09  0.0000000  0 17        .000000000000
G03  22497703.445 5 118226195.316 5     -2544.195          33.000    22497702.336 5  92124325.690 5     -1982.484          31.000
G04  20728880.859 8 108931012.877 8     -1513.926          51.000    20728880.938 8  84881358.379 8     -1179.682          51.000
G07  23704341.320 6 124567151.778 6      3336.441          38.000    23704339.570 6  97065304.580 6      2599.828          38.000
G09  20392334.156 8 107162545.859 8       789.703          51.000    20392334.477 8  83503277.605 8       615.353          51.000
G19  23694832.812 7 124517187.144 7     -2864.566          42.000    23694830.461 7  97026349.353 7     -2232.130          42.000
R15  21679663.188 6 115849495.446 6        93.730          36.000
R16  22055610.664 7 117817113.980 7      3516.680          42.000    22055613.484 6  91635560.379 6      2735.195          37.000
R21  20669454.781 8 110606448.265 8     -2715.625          49.000    20669457.758 7  86027218.329 7     -2112.153          44.000
R22  21172075.430 5 113017996.986 5      1559.973          30.000
C14  23016135.914 5 119851043.089 5     -1849.086          35.000    23016127.969 6  92676428.694 6     -1430.269          36.000
C24  23928552.406 5 124602238.098 5      1450.047          33.000
C25  25549535.258 6 133043149.580 6      3271.699          36.000
C26  24743116.852 5 128843932.591 5     -1251.117          34.000
E03  23495977.703 8 123472201.331 8       401.383          51.000    23495979.391 8  94608657.781 8       307.514          51.000
E05  24905120.688 6 130877272.627 6     -1797.766          40.000    24905125.102 6 100282663.820 6     -1377.566          37.000
E08                                                                  24599765.484 6  99053080.141 6      1674.574          41.000
E15  23871494.430 6 125445546.729 6      -736.902          41.000    23871498.281 7  96120629.729 7      -564.580          47.000
> 2020 05 14 23 09 30.0000000  0 17        .000000000000
G04  20737556.539 8 108976603.779 8     -1534.719          51.000    20737556.281 8  84916883.755 8     -1195.885          51.000
G07  23685305.719 6 124467120.330 6      3323.105          39.000    23685304.766 6  96987358.017 6      2589.433          39.000
G09  20387864.609 8 107139058.170 8       766.785          51.000    20387864.891 8  83484975.524 8       597.495          51.000
G19  23711210.656 7 124603254.500 7     -2882.930          42.000    23711208.922 7  97093414.799 7     -2246.439          42.000
R05  22026801.891 5 117745897.567 5     -2803.172          31.000
R15  21679213.336 5 115847149.918 5        58.109          33.000
R16  22035897.469 7 117711807.821 7      3494.238          43.000    22035900.320 6  91553655.601 6      2717.744          36.000
R21  20684740.352 8 110688242.260 8     -2746.781          50.000    20684742.398 7  86090835.889 7     -2136.385          43.000
R22  21163385.281 5 112971577.731 5      1525.809          31.000
C14  23026803.703 4 119906595.591 4     -1863.602          29.000    23026794.023 5  92719385.383 5     -1440.741          34.000
C24  23920234.602 4 124558940.300 4      1426.449          29.000
C25  25530689.766 6 132945018.540 6      3261.477          38.000
C26  24750369.297 5 128881696.220 5     -1275.867          33.000
C27  23854852.078 4 124218522.268 4      -423.211          27.000
E03  23493705.195 8 123460259.321 8       385.398          51.000    23493706.875 8  94599507.410 8       295.302          51.000
E05  24915392.812 6 130931249.259 6     -1809.938          40.000    24915398.805 6 100324022.520 6     -1386.817          37.000
E15  23875741.602 7 125467862.991 7      -760.230          44.000    23875745.250 7  96137729.207 7      -582.574          47.000
> 2020 05 14 23 10  0.0000000  0 16        .000000000000
G04  20746278.930 8 109022440.469 8     -1537.000          51.000    20746278.422 8  84952600.647 8     -1197.662          51.000
G07  23666275.164 6 124367116.841 6      3327.840          39.000    23666274.922 6  96909433.196 6      2593.119          39.000
G09  20383455.164 8 107115885.999 8       762.133          51.000    20383455.500 8  83466919.297 8       593.870          51.000
G19  23727620.906 7 124689492.123 7     -2882.230          44.000    23727619.859 7  97160612.944 7     -2245.894          42.000
R15  21678887.656 5 115845391.299 5        40.660          31.000    21678868.297 4  90101913.696 4        31.625          26.000
R16  22016239.711 7 117606795.875 7      3490.430          44.000    22016241.898 5  91471979.663 5      2714.779          35.000
R21  20700128.219 8 110770580.915 8     -2758.723          51.000    20700129.320 7  86154877.061 7     -2145.676          44.000
C14  23037479.539 5 119962190.506 5     -1858.777          32.000    23037471.328 5  92762374.920 5     -1437.593          34.000
C24  23911981.148 5 124515975.219 5      1421.020          32.000
C25  25511833.742 6 132846832.001 6      3268.715          38.000
C26  24757689.570 5 128919815.781 5     -1281.844          35.000
C27  23857296.109 5 124231197.347 5      -430.344          32.000
C28  24351436.773 6 126804286.040 6     -2837.090          39.000
E03  23491451.602 8 123448417.907 8       388.051          51.000    23491453.562 8  94590434.115 8       297.383          51.000
E05  24925663.594 6 130985219.723 6     -1803.965          38.000    24925670.375 6 100365376.467 6     -1382.067          37.000
E15  23880051.758 7 125490509.087 7      -765.348          45.000    23880054.125 7  96155081.383 7      -586.435          46.000
> 2020 05 14 23 10 30.0000000  0 14        .000000000000
G04  20755124.867 8 109068926.815 8     -1532.273          51.000    20755124.438 8  84988823.766 8     -1193.979          50.000
G07  23647327.258 6 124267549.109 6      3339.672          40.000    23647327.727 6  96831847.965 6      2602.342          40.000
G09  20379182.836 8 107093434.602 8       764.500          51.000    20379183.289 8  83449424.715 8       595.714          51.000
G19  23744140.242 7 124776302.199 7     -2875.000          44.000    23744139.633 6  97228257.173 6     -2240.260          41.000
R16  21996714.578 6 117502494.677 6      3493.434          41.000    21996716.422 5  91390856.557 5      2717.118          34.000
R21  20715693.992 8 110853873.396 8     -2763.590          50.000    20715694.586 7  86219660.089 7     -2149.462          45.000
C14                                                                  23048234.930 5  92805707.859 5     -1428.701          34.000
C25  25493045.414 6 132748994.210 6      3283.363          40.000
C26  24765154.812 5 128958692.287 5     -1281.055          34.000
C27  23859853.781 5 124244489.101 5      -431.523          32.000
C28  24367846.516 7 126889709.805 7     -2828.094          42.000
E03  23489294.281 8 123437082.152 8       397.602          51.000    23489296.766 8  94581748.280 8       304.743          51.000
E05  24936009.820 6 131039588.885 6     -1790.621          38.000    24936015.812 6 100407035.980 6     -1372.136          37.000
E15  23884501.570 7 125513890.154 7      -763.402          45.000    23884502.047 7  96172996.763 7      -584.972          45.000
> 2020 05 14 23 11  0.0000000  0 17        .000000000000
G03  22556122.836 5 118533227.235 5     -2578.145          35.000    22556135.961 5  92363574.656 5     -2008.935          32.000
G04  20764003.656 8 109115585.657 8     -1567.316          51.000    20764003.312 8  85025181.291 8     -1221.286          50.000
G07  23628372.375 6 124167944.068 6      3311.645          41.000    23628373.242 6  96754233.658 6      2580.502          41.000
G09  20374957.359 8 107071228.128 8       726.844          51.000    20374957.789 8  83432120.983 8       566.372          51.000
G19  23760677.719 7 124863206.150 7     -2907.289          44.000    23760676.719 6  97295974.551 6     -2265.423          40.000
R16  21977232.172 6 117398425.169 6      3455.762          37.000    21977234.531 5  91309913.697 5      2687.818          33.000
R21  20731345.734 8 110937631.698 8     -2809.070          49.000    20731347.117 7  86284805.451 7     -2184.832          45.000
C14                                                                  23058992.070 5  92849019.573 5     -1450.473          33.000
C24  23895844.703 5 124431933.423 5      1385.512          31.000
C25  25474234.367 6 132651036.389 6      3257.559          38.000
C26  24772675.508 5 128997853.145 5     -1319.012          33.000
C27  23862482.391 5 124258222.576 5      -471.773          33.000
C28  24384260.461 7 126975166.984 7     -2858.191          43.000
E03  23487142.805 8 123425776.282 8       367.090          50.000    23487145.633 8  94573085.357 8       281.253          51.000
E05  24946340.930 6 131093880.611 6     -1817.824          38.000    24946347.070 6 100448636.134 6     -1392.612          37.000
E08  24550051.328 5 129011385.509 5      2164.180          34.000    24550044.766 6  98852862.795 6      1658.151          37.000
E15  23889000.328 7 125537530.180 7      -801.590          45.000    23888999.773 7  96191110.561 7      -614.199          46.000
> 2020 05 14 23 11 30.0000000  0 17        .000000000000
G03  22570855.680 5 118610644.233 5     -2581.574          30.000    22570866.930 5  92423934.729 5     -2011.622          30.000
G04  20772981.883 8 109162767.005 8     -1575.324          51.000    20772981.609 8  85061945.971 8     -1227.525          50.000
G07  23609477.961 7 124068656.270 7      3310.258          42.000    23609478.930 7  96676866.540 7      2579.419          42.000
G09  20370845.406 8 107049618.147 8       716.578          51.000    20370845.719 8  83415282.037 8       558.373          51.000
G19  23777299.461 7 124950552.040 7     -2912.609          46.000    23777297.258 6  97364036.285 6     -2269.566          40.000
R15  21678931.797 5 115845631.053 5       -41.703          34.000    21678934.414 4  90102169.075 4       -32.439          27.000
R16  21957860.805 6 117294949.927 6      3445.285          37.000    21957863.977 5  91229433.012 5      2679.669          31.000
R21  20747150.672 8 111022210.139 8     -2826.656          50.000    20747153.188 7  86350588.659 7     -2198.513          46.000
C14  23069813.016 5 120130590.532 5     -1877.406          30.000    23069810.445 6  92892579.481 6     -1451.373          38.000
C24  23887879.672 5 124390584.261 5      1374.402          31.000
C25  25455467.609 5 132553309.249 5      3259.770          35.000
C26  24780317.883 5 129037645.918 5     -1330.559          35.000
C28  24400745.266 7 127061003.729 7     -2861.484          43.000
E03  23485063.797 8 123414851.438 8       363.945          50.000    23485066.516 8  94564714.380 8       278.897          51.000
E05  24956724.266 6 131148445.926 6     -1817.168          37.000    24956730.102 6 100490445.995 6     -1392.483          37.000
E08  24537704.867 5 128946510.477 5      2164.207          34.000    24537704.484 6  98803151.114 6      1658.163          40.000
E15  23893615.117 7 125561780.611 7      -812.301          45.000    23893615.008 7  96209692.086 7      -622.508          47.000
> 2020 05 14 23 12  0.0000000  0 19        .000000000000
G03  22585567.062 5 118687945.532 5     -2583.684          35.000    22585576.578 5  92484169.426 5     -2013.263          34.000
G04  20781961.617 8 109209955.961 8     -1582.516          51.000    20781961.328 8  85098716.598 8     -1233.129          50.000
G07  23590546.898 7 123969175.000 7      3309.789          42.000    23590547.977 7  96599348.695 7      2579.056          42.000
G09  20366749.023 8 107028091.107 8       706.730          51.000    20366749.273 8  83398507.734 8       550.699          51.000
G19  23793907.055 7 125037823.109 7     -2917.238          46.000    23793902.953 6  97432039.702 6     -2273.173          41.000
R07  21812064.070 4 116761608.850 4      2549.398          29.000
R16  21938504.555 6 117191551.855 6      3435.867          38.000    21938507.344 5  91149012.376 5      2672.344          30.000
R21  20763010.938 8 111107082.427 8     -2843.566          51.000    20763013.891 7  86416600.408 7     -2211.663          47.000
R22  21122130.289 4 112751364.615 4      1406.105          29.000
C14                                                                  23080592.953 6  92935993.921 6     -1452.001          37.000
C24  23879941.109 5 124349341.756 5      1363.738          32.000
C25  25436648.156 5 132455306.740 5      3262.273          34.000
C26  24787983.102 5 129077560.764 5     -1341.941          33.000
C27  23868040.984 4 124287173.038 4      -497.707          29.000
C28  24417203.672 7 127146708.887 7     -2864.074          44.000
E03  23482959.578 8 123403794.160 8       361.297          50.000    23482961.688 8  94556241.944 8       276.805          51.000
E05  24967061.867 6 131202771.074 6     -1816.297          37.000    24967068.375 6 100532071.713 6     -1391.750          36.000
E08                                                                  24525317.914 6  98753265.790 6      1658.268          41.000
E15  23898248.219 7 125586127.778 7      -822.633          44.000    23898249.242 8  96228347.705 8      -630.392          48.000
> 2020 05 14 23 12 30.0000000  0 17        .000000000000
G04  20791055.219 8 109257742.983 8     -1600.328          51.000    20791054.891 8  85135953.241 8     -1247.009          50.000
G07  23571692.164 7 123870094.277 7      3298.547          42.000    23571692.656 6  96522142.947 6      2570.296          41.000
G09  20362781.164 8 107007238.795 8       686.355          51.000    20362781.281 8  83382259.216 8       534.825          51.000
G19  23810612.320 7 125125608.117 7     -2932.262          46.000    23810606.656 6  97500443.588 6     -2284.879          39.000
R15  21679686.188 5 115849614.653 5       -98.512          34.000    21679673.195 4  90105243.856 4       -76.620          26.000
R16  21919276.734 6 117088837.087 6      3414.754          38.000    21919277.609 4  91069123.090 4      2655.917          28.000
R21  20779038.039 8 111192847.356 8     -2871.121          50.000    20779041.125 7  86483306.441 7     -2233.094          47.000
C14  23091454.469 4 120243270.659 4     -1888.809          29.000    23091452.727 6  92979716.355 6     -1460.680          38.000
C24  23872147.594 5 124308794.283 5      1342.434          33.000
C25  25417889.086 5 132357617.996 5      3253.934          33.000
C26  24795784.273 5 129118183.356 5     -1363.238          31.000
C27  23870979.719 5 124302476.445 5      -520.074          34.000
C28  24433747.719 7 127232866.613 7     -2876.891          43.000
E03  23480942.945 8 123393196.019 8       348.109          51.000    23480944.688 8  94548121.298 8       266.703          51.000
E05                                                                  24977471.719 5 100573966.464 5     -1399.131          35.000
E08                                                                  24513000.016 7  98703660.673 7      1650.650          42.000
E15  23903011.664 7 125611163.208 7      -843.418          42.000    23903014.312 8  96247530.672 8      -646.372          49.000
> 2020 05 14 23 13  0.0000000  0 18        .000000000000
G04  20800209.695 8 109305849.951 8     -1625.184          51.000    20800209.406 8  85173439.200 8     -1266.377          50.000
G07  23552861.766 6 123771140.494 6      3279.934          41.000    23552862.414 6  96445036.096 6      2555.792          41.000
G09  20358888.914 8 106986784.593 8       658.770          51.000    20358889.156 8  83366320.896 8       513.330          51.000
G19  23827361.969 7 125213627.565 7     -2954.133          45.000    23827356.031 6  97569030.163 6     -2301.922          40.000
R05  22137058.047 5 118335269.634 5     -2835.672          32.000    22137073.516 4  92038570.443 4     -2205.526          25.000
R16  21900123.898 5 116986529.591 5      3386.344          33.000    21900124.094 5  90989525.529 5      2633.820          30.000
R21  20795179.180 8 111279219.702 8     -2905.789          51.000    20795182.070 7  86550484.918 7     -2260.058          47.000
R22  21106663.688 5 112668806.893 5      1333.484          30.000
C14  23102370.922 5 120300108.615 5     -1907.199          31.000    23102335.852 6  93023534.997 6     -1474.840          37.000
C24  23864438.469 5 124268401.381 5      1313.938          33.000
C25  25399137.883 5 132259971.536 5      3237.562          31.000
C26  24803669.172 5 129159238.582 5     -1391.250          31.000
C27  23874003.055 5 124318197.582 5      -550.195          32.000
C28  24450325.320 7 127319200.527 7     -2896.789          42.000
E03  23478961.195 8 123382780.356 8       327.832          51.000    23478963.086 8  94540140.478 8       251.220          51.000
E05                                                                  24987887.188 5 100615918.009 5     -1412.037          34.000
E08                                                                  24500697.945 6  98654124.056 6      1637.621          41.000
E15  23907853.641 7 125636610.124 7      -871.273          43.000    23907857.344 8  96267028.917 8      -667.722          49.000
> 2020 05 14 23 13 30.0000000  0 21        .000000000000
G03  22630090.914 6 118921937.197 6     -2605.582          37.000    22630093.141 6  92666435.760 6     -2030.324          36.000
G04  20809450.414 8 109354410.376 8     -1617.809          51.000    20809450.219 8  85211278.509 8     -1260.630          50.000
G07  23534081.719 6 123672451.298 6      3293.492          41.000    23534083.727 6  96368135.429 6      2566.358          40.000
G09  20355097.875 8 106966863.295 8       663.461          51.000    20355098.391 8  83350797.815 8       516.983          51.000
G19  23844180.984 7 125302013.010 7     -2943.773          44.000    23844175.961 6  97637901.930 6     -2293.849          41.000
R05  22152922.281 4 118420013.991 4     -2819.855          29.000    22152929.133 4  92104482.932 4     -2193.218          28.000
R07  21769441.344 5 116533513.070 5      2530.254          30.000
R15  21681057.312 5 115856986.288 5      -146.043          31.000
R16  21881072.578 5 116884771.145 5      3391.277          31.000    21881075.047 5  90910380.014 5      2637.660          33.000
R21  20811458.797 8 111366333.126 8     -2907.492          50.000    20811461.312 7  86618239.822 7     -2261.380          46.000
R22  21099173.539 5 112628835.339 5      1326.039          31.000
C14  23113293.141 5 120357033.114 5     -1893.523          34.000    23113267.281 6  93067553.184 6     -1464.223          37.000
C24  23856832.945 5 124228834.788 5      1317.793          35.000
C25  25380420.422 5 132162503.501 5      3253.977          31.000
C26  24811661.242 5 129200859.300 5     -1388.125          30.000
C27  23877147.750 5 124334589.399 5      -548.254          34.000
C28  24466961.680 6 127405842.201 6     -2884.805          39.000
E03  23477039.672 8 123372681.938 8       339.746          50.000    23477041.836 8  94532402.749 8       260.235          51.000
E05                                                                  24998343.156 5 100658029.531 5     -1400.122          35.000
E08                                                                  24488438.016 6  98604759.547 6      1649.052          40.000
E15  23912799.836 7 125662603.095 7      -867.344          44.000    23912803.859 8  96286945.623 8      -664.462          49.000
> 2020 05 14 23 14  0.0000000  0 19        .000000000000
G03  22644988.984 5 119000216.262 5     -2609.824          33.000    22644986.000 4  92727432.542 4     -2033.623          25.000
G04  20818720.742 8 109403126.215 8     -1626.270          51.000    20818720.570 8  85249238.906 8     -1267.223          50.000
G07  23515296.070 7 123573732.611 7      3291.242          43.000    23515299.859 6  96291211.783 6      2564.604          40.000
G09  20351351.867 8 106947178.207 8       652.445          51.000    20351352.445 8  83335458.801 8       508.402          51.000
G19  23861012.430 7 125390464.822 7     -2949.137          44.000    23861008.508 6  97706825.418 6     -2298.026          41.000
R05  22168760.398 4 118504730.672 4     -2820.766          28.000    22168769.195 4  92170375.607 4     -2193.926          25.000
R15  21681965.234 5 115861792.996 5      -170.242          31.000    21681965.367 4  90114748.111 4      -132.417          27.000
R16  21862070.148 5 116783265.037 5      3379.562          33.000    21862073.328 5  90831430.908 5      2628.555          33.000
R21  20827819.477 8 111453881.994 8     -2925.430          50.000    20827821.609 7  86686333.388 7     -2275.334          45.000
C14                                                                  23124192.578 6  93111543.560 6     -1465.787          39.000
C24  23849307.586 4 124189618.165 4      1306.645          29.000
C25  25361681.844 5 132064922.914 5      3255.008          34.000
C27  23880355.586 5 124351297.505 5      -561.859          35.000
C28  24483600.469 5 127492495.330 5     -2888.086          35.000
E03  23475121.688 8 123362603.904 8       335.852          49.000    23475123.938 8  94524680.627 8       257.317          51.000
E05                                                                  25008784.078 6 100700073.436 6     -1400.140          36.000
E08                                                                  24476163.742 6  98555340.173 6      1648.232          39.000
E15  23917793.227 7 125688845.413 7      -878.836          45.000    23917797.500 8  96307053.397 8      -673.328          49.000
E25  27888001.164 6 146552439.332 6      2831.801          40.000    27888001.516 6 112293424.909 6      2169.902          40.000
> 2020 05 14 23 14 30.0000000  0 19        .000000000000
G03  22659946.562 5 119078811.581 5     -2622.426          33.000    22659945.258 5  92788688.154 5     -2043.449          31.000
G04  20828079.672 8 109452307.482 8     -1644.438          51.000    20828079.648 8  85287561.981 8     -1281.380          50.000
G07  23496564.711 7 123475298.812 7      3278.973          44.000    23496573.500 5  96214510.003 5      2555.034          35.000
G09  20347710.016 8 106928040.810 8       631.535          51.000    20347710.523 8  83320546.564 8       492.105          51.000
G19  23877915.273 7 125479291.516 7     -2964.211          44.000    23877911.781 6  97776041.034 6     -2309.775          41.000
R07  21741176.500 4 116382214.295 4      2514.062          29.000    21741178.945 4  90519504.732 4      1955.385          25.000
R16  21843175.516 5 116682332.851 5      3357.457          34.000    21843178.211 5  90752928.208 5      2611.359          31.000
R21  20844320.039 8 111542179.573 8     -2952.969          50.000    20844321.617 7  86755009.275 7     -2296.757          45.000
R22  21084589.945 5 112550947.371 5      1268.566          34.000    21084579.586 4  87539612.110 4       986.663          25.000
C14                                                                  23135169.430 5  93155744.741 5     -1474.695          34.000
C24  23841871.156 5 124150873.990 5      1284.094          32.000
C25  25342982.867 5 131967540.883 5      3246.160          31.000
C27  23883685.094 5 124368630.099 5      -585.438          35.000
C28  24500300.594 6 127579466.302 6     -2901.562          37.000
E03  23473266.953 8 123352857.658 8       322.039          50.000    23473268.844 8  94517212.743 8       246.718          51.000
E05                                                                  25019269.836 6 100742288.038 6     -1408.044          37.000
E08  24463927.484 5 128558809.992 5      2140.773          35.000    24463935.789 6  98506104.737 6      1640.204          39.000
E15  23922893.656 7 125715648.167 7      -900.129          47.000    23922897.992 8  96327590.595 8      -689.682          50.000
E25  27871877.000 6 146467718.994 6      2823.938          39.000    27871878.617 6 112228509.365 6      2163.874          40.000
> 2020 05 14 23 15  0.0000000  0 19        .000000000000
G03  22674930.789 5 119157567.322 5     -2619.309          32.000    22674939.656 4  92850085.879 4     -2041.020          27.000
G04  20837490.062 8 109501759.338 8     -1644.996          51.000    20837490.297 8  85326095.914 8     -1281.815          51.000
G07  23477851.375 7 123376959.217 7      3284.238          45.000    23477864.164 5  96137881.583 5      2559.138          32.000
G09  20344135.453 8 106909257.555 8       628.062          51.000    20344135.781 8  83305910.278 8       489.399          51.000
G19  23894852.133 7 125568295.949 7     -2962.039          44.000    23894847.781 6  97845395.109 6     -2308.085          40.000
R16  21824352.391 5 116581782.506 5      3353.254          32.000    21824353.984 4  90674722.427 4      2608.086          25.000
R21  20860922.711 8 111631025.081 8     -2962.695          48.000    20860924.281 7  86824111.339 7     -2304.319          46.000
R22  21077541.344 5 112513237.489 5      1253.082          33.000    21077517.320 4  87510290.465 4       974.625          26.000
C14                                                                  23146160.797 5  93200008.812 5     -1470.514          35.000
C24  23834511.016 5 124112536.570 5      1279.828          34.000
C25  25324286.133 5 131870168.358 5      3253.488          30.000
C26  24836084.641 4 129328003.616 4     -1426.641          29.000
C27  23887097.766 5 124386394.998 5      -591.176          33.000
C28  24517025.352 6 127666561.074 6     -2897.180          37.000
E03  23471438.898 8 123343249.637 8       325.750          50.000    23471440.367 8  94509850.751 8       249.634          51.000
E05                                                                  25029761.195 6 100784524.903 6     -1402.384          36.000
E08  24451715.453 6 128494600.551 6      2147.355          37.000    24451717.500 6  98456905.402 6      1645.562          37.000
E15  23928064.445 8 125742817.681 8      -903.887          48.000    23928068.734 8  96348408.802 8      -692.586          51.000
E25  27855747.242 6 146382968.687 6      2833.016          37.000    27855750.930 6 112163570.832 6      2170.953          40.000
> 2020 05 14 23 15 30.0000000  0 19        .000000000000
G03  22689929.234 5 119236385.277 5     -2636.012          33.000
G04  20846939.031 8 109551413.773 8     -1666.797          51.000    20846939.383 8  85364787.687 8     -1298.803          50.000
G07  23459143.859 7 123278649.550 7      3268.363          45.000    23459149.797 6  96061276.462 6      2546.774          41.000
G09  20340615.609 8 106890761.760 8       603.445          51.000    20340615.961 8  83291497.980 8       470.217          51.000
G19  23911809.859 7 125657409.160 7     -2980.426          44.000    23911804.312 6  97914833.903 6     -2322.413          37.000
R05  22216398.867 5 118759383.321 5     -2836.668          30.000
R15  21685593.727 5 115881217.730 5      -257.578          32.000
R16  21805590.188 6 116481551.505 6      3327.043          37.000    21805589.266 4  90596754.954 4      2587.700          24.000
R21  20877613.875 8 111720347.295 8     -2993.809          48.000    20877616.844 7  86893584.194 7     -2328.518          47.000
C14                                                                  23157157.938 6  93244284.186 6     -1482.304          39.000
C24  23827211.945 5 124074521.113 5      1253.637          34.000
C26  24844378.688 5 129371181.608 5     -1452.082          31.000
C27  23890579.633 5 124404525.463 5      -618.684          34.000
C28  24533761.148 5 127753711.493 5     -2914.145          33.000
E03  23469624.367 8 123333713.131 8       308.531          50.000    23469625.969 8  94502543.572 8       236.371          51.000
E05  25040241.344 5 131587355.687 5     -1843.645          32.000    25040243.430 5 100826732.752 5     -1412.735          35.000
E08  24439502.484 6 128430371.904 6      2133.125          36.000    24439497.000 6  98407691.281 6      1634.353          36.000
E15  23933292.484 8 125770287.144 8      -928.848          49.000    23933296.445 8  96369456.848 8      -711.696          51.000
E25  27839599.703 6 146298124.143 6      2821.672          36.000    27839605.133 6 112098560.119 6      2162.018          39.000
> 2020 05 14 23 16  0.0000000  0 17        .000000000000
G03  22704990.812 5 119315536.988 5     -2637.965          33.000    22704994.641 5  92973147.445 5     -2055.560          33.000
G04  20856476.453 8 109601532.784 8     -1672.695          51.000    20856476.688 8  85403841.471 8     -1303.399          50.000
G07  23440492.547 7 123180636.051 7      3267.867          46.000    23440493.578 7  95984902.311 7      2546.390          46.000
G09  20337200.648 8 106872816.761 8       594.699          51.000    20337201.438 8  83277514.867 8       463.402          51.000
G19  23928837.750 7 125746891.211 7     -2983.086          44.000    23928832.500 6  97984560.103 6     -2324.486          38.000
R05  22232320.719 5 118844479.648 5     -2834.582          35.000
R16  21786939.828 6 116381912.053 6      3317.137          39.000    21786936.961 4  90519259.712 4      2579.998          26.000
R21  20894444.344 8 111810410.559 8     -3008.613          49.000    20894447.922 7  86963633.408 7     -2340.033          47.000
R22  21063818.320 6 112440133.116 6      1193.785          36.000    21063810.211 4  87453370.631 4       928.500          24.000
C14                                                                  23168206.836 6  93288773.140 6     -1482.144          37.000
C24  23820026.008 6 124037090.637 6      1243.699          39.000
C26  24852785.258 5 129414933.993 5     -1462.355          32.000
E03  23467873.133 8 123324511.381 8       306.879          50.000    23467875.312 8  94495492.900 8       235.210          51.000
E05  25050767.094 6 131642667.696 6     -1841.824          38.000    25050769.734 5 100869113.206 5     -1411.316          35.000
E08  24427330.562 5 128366387.793 5      2134.676          34.000    24427323.805 5  98358664.604 5      1635.508          34.000
E15  23938626.992 7 125798319.651 7      -938.090          47.000    23938631.125 8  96390936.306 8      -718.811          51.000
E25  27823486.086 5 146213451.155 5      2825.844          35.000    27823492.328 6 112033680.861 6      2164.844          38.000
> 2020 05 14 23 16 30.0000000  0 15        .000000000000
G04  20866079.195 8 109651995.311 8     -1688.117          51.000    20866079.266 8  85443162.910 8     -1315.416          51.000
G07  23421875.375 7 123082801.804 7      3257.723          45.000    23421874.352 7  95908667.815 7      2538.485          45.000
G09  20333867.695 8 106855302.810 8       576.230          51.000    20333868.961 8  83263867.651 8       449.011          51.000
G19  23945912.352 7 125836618.922 7     -2995.473          45.000    23945909.219 6  98054477.780 6     -2334.135          38.000
R16  21768376.977 6 116282747.295 6      3296.855          37.000    21768373.656 5  90442132.596 5      2564.221          30.000
R21  20911390.461 8 111901089.152 8     -3033.191          49.000    20911393.828 7  87034161.179 7     -2359.149          47.000
C14  23179295.422 4 120700738.724 4     -1925.695          29.000    23179284.258 6  93333383.933 6     -1489.459          36.000
C24  23812928.219 6 124000128.279 6      1224.121          36.000
C25  25268255.625 5 131578457.436 5      3234.633          30.000
C26  24861277.305 5 129459145.369 5     -1481.492          34.000
E03  23466162.992 8 123315524.693 8       295.512          50.000    23466165.359 8  94488607.004 8       226.569          51.000
E05  25061312.312 5 131698082.800 5     -1849.852          34.000    25061316.164 6 100911574.200 6     -1417.003          37.000
E08  24415179.672 6 128302528.959 6      2126.031          36.000    24415175.992 5  98309733.801 5      1629.016          32.000
E15  23944045.570 7 125826795.288 7      -956.898          47.000    23944049.984 8  96412755.296 8      -733.181          51.000
E25  27807383.336 5 146128832.454 5      2819.332          34.000    27807389.992 6 111968843.176 6      2160.190          37.000
> 2020 05 14 23 17  0.0000000  0 18        .000000000000
G03  22735260.492 6 119474624.922 6     -2643.270          38.000    22735255.109 6  93097057.296 6     -2059.666          36.000
G04  20875767.273 8 109702906.544 8     -1686.016          51.000    20875767.250 8  85482833.988 8     -1313.781          50.000
G07  23403312.992 7 122985256.465 7      3265.270          43.000    23403311.133 7  95832658.440 7      2544.366          43.000
G09  20330637.117 8 106838326.454 8       575.410          51.000    20330638.383 8  83250639.316 8       448.372          51.000
G19  23963053.430 7 125926695.878 7     -2989.805          45.000    23963052.781 6  98124667.633 6     -2329.718          37.000
R16  21749923.328 6 116184170.720 6      3295.055          37.000    21749922.383 5  90365462.029 5      2562.823          33.000
R21  20928470.484 8 111992488.027 8     -3039.734          48.000    20928474.031 7  87105249.185 7     -2364.238          46.000
R22  21050767.844 5 112370398.585 5      1148.152          33.000
C14                                                                  23190412.797 5  93378198.241 5     -1482.793          33.000
C24  23805940.766 6 123963741.322 6      1221.688          39.000
C25  25249644.016 5 131481537.569 5      3245.516          31.000
C26  24869876.922 6 129503920.300 6     -1483.602          37.000
C28  24584287.812 5 128016840.438 5     -2918.543          33.000
E03  23464514.320 8 123306859.509 8       301.980          51.000    23464516.414 8  94481967.444 8       231.406          51.000
E05  25071897.727 5 131753711.540 5     -1839.543          33.000    25071903.461 6 100954197.261 6     -1409.173          38.000
E08  24403064.742 6 128238973.274 6      2135.473          36.000
E15  23949569.031 8 125855820.265 8      -958.199          48.000    23949573.328 8  96434995.219 8      -734.151          50.000
E25  27791312.500 6 146044376.958 6      2831.250          36.000    27791318.367 6 111904130.542 6      2169.172          36.000
> 2020 05 14 23 17 30.0000000  0 20        .000000000000
G03  22750438.375 6 119554402.157 6     -2668.145          38.000    22750440.695 6  93159221.183 6     -2079.080          39.000
G04  20885497.102 8 109754037.208 8     -1715.457          51.000    20885497.133 8  85522676.042 8     -1336.720          51.000
G07  23384762.680 7 122887774.744 7      3240.730          42.000    23384761.344 7  95756698.665 7      2525.245          42.000
G09  20327465.555 8 106821659.696 8       542.914          51.000    20327466.398 8  83237652.233 8       423.053          51.000
G19  23980217.289 7 126016891.479 7     -3015.848          45.000    23980217.656 6  98194949.924 6     -2350.014          39.000
R05  22280204.391 5 119100454.009 5     -2853.633          33.000
R16  21731540.062 5 116085955.113 5      3259.492          30.000    21731536.750 5  90289072.207 5      2535.164          30.000
R21  20945640.711 8 112084371.141 8     -3078.375          48.000    20945644.570 7  87176713.813 7     -2394.292          45.000
R22  21044468.617 4 112336798.985 4      1103.508          28.000
C14  23201567.875 5 120816690.863 5     -1941.074          33.000    23201547.656 5  93423041.558 5     -1500.832          32.000
C24  23799020.430 6 123927705.802 6      1187.633          36.000
C25  25231030.094 5 131384596.904 5      3224.203          32.000
C26  24878541.430 6 129549032.142 6     -1516.609          39.000
C27  23905589.172 5 124482726.525 5      -688.586          30.000
C28  24601191.430 6 128104864.610 6     -2942.742          37.000
E03  23462883.352 8 123298287.820 8       276.770          50.000    23462885.477 8  94475399.536 8       212.124          51.000
E05                                                                  25082485.750 6 100996807.530 6     -1425.629          36.000
E08  24390957.633 5 128175351.291 5      2113.496          35.000    24390954.898 5  98212293.563 5      1619.582          35.000
E15  23955153.914 8 125885166.518 8      -991.008          49.000    23955157.977 8  96457481.301 8      -759.347          51.000
E25  27775230.133 5 145959859.309 5      2810.809          34.000    27775234.891 5 111839370.332 5      2153.608          34.000
> 2020 05 14 23 18  0.0000000  0 19        .000000000000
G03  22765655.078 6 119634371.547 6     -2668.715          37.000    22765658.250 6  93221534.890 6     -2079.524          38.000
G04  20895287.586 8 109805486.476 8     -1719.898          51.000    20895287.633 8  85562766.368 8     -1340.181          50.000
G07  23366244.000 7 122790459.467 7      3241.410          42.000    23366243.266 7  95680868.567 7      2525.774          42.000
G09  20324372.078 8 106805402.977 8       535.422          51.000    20324372.547 8  83224984.690 8       417.212          51.000
G19  23997422.289 7 126107302.925 7     -3016.992          46.000    23997421.992 6  98265400.381 6     -2350.906          39.000
R05  22296194.453 5 119185936.483 5     -2850.121          32.000
R07  21643342.672 5 115858518.738 5      2472.176          33.000
R21  20962921.133 8 112176837.053 8     -3091.418          50.000    20962923.562 7  87248631.751 7     -2404.436          43.000
C14  23212727.344 5 120874820.146 5     -1939.980          32.000    23212710.836 5  93467990.862 5     -1499.657          35.000
C24  23792186.195 5 123892122.908 5      1178.961          34.000
C25  25212431.367 5 131287737.918 5      3227.805          34.000
C26  24887289.344 6 129594579.578 6     -1524.859          38.000
C27  23909580.109 5 124503472.076 5      -699.617          31.000
C28  24618128.797 6 128193055.139 6     -2941.965          38.000
E03  23461289.164 8 123289910.152 8       276.312          51.000    23461291.680 8  94468980.315 8       211.702          51.000
E05  25093078.617 6 131865022.226 6     -1857.426          37.000    25093083.422 5 101039481.846 5     -1422.947          34.000
E08  24378869.188 6 128111834.801 6      2115.828          37.000    24378861.117 5  98163625.123 5      1621.327          34.000
E15  23960818.938 8 125914934.267 8      -998.965          50.000    23960822.781 8  96480290.350 8      -765.417          51.000
E25  27759155.656 5 145875382.350 5      2815.680          35.000    27759158.406 5 111774641.315 5      2157.583          31.000
> 2020 05 14 23 18 30.0000000  0 21        .000000000000
G03  22780906.242 5 119714517.848 5     -2675.180          35.000    22780907.836 5  93283986.489 5     -2084.559          34.000
G04  20905135.516 8 109857237.870 8     -1730.898          51.000    20905135.508 8  85603092.130 8     -1348.752          51.000
G07  23347754.977 6 122693298.806 6      3235.375          40.000    23347754.508 6  95605158.927 6      2521.068          41.000
G09  20321353.906 8 106789541.204 8       521.312          51.000    20321354.094 8  83212624.879 8       406.218          51.000
G19  24014664.883 7 126197912.138 7     -3024.324          46.000    24014663.180 6  98336004.917 6     -2356.619          40.000
R05  22312204.195 6 119271487.314 6     -2853.668          36.000    22312203.242 4  92766719.658 4     -2219.523          29.000
R15  21696945.039 5 115941848.765 5      -416.629          32.000
R16  21695021.070 5 115890944.162 5      3234.586          32.000    21695018.094 4  90137362.456 4      2515.798          24.000
R21  20980306.188 8 112269866.688 8     -3111.312          49.000    20980307.430 7  87320988.114 7     -2419.910          43.000
R22  21032294.719 5 112271786.989 5      1055.680          31.000
C14                                                                  23223897.719 6  93513034.736 6     -1503.575          36.000
C24  23785435.562 5 123856979.513 5      1163.180          35.000
C25  25193843.414 5 131190948.329 5      3223.672          32.000
C26  24896117.039 6 129640546.590 6     -1540.211          38.000
C27  23913657.602 5 124524686.458 5      -715.941          32.000
C28  24635094.219 6 128281394.747 6     -2947.926          38.000
E03  23459729.156 8 123281711.293 8       269.445          50.000    23459731.992 8  94462698.085 8       206.527          51.000
E05                                                                  25103695.898 5 101082208.546 5     -1425.889          32.000
E08  24366796.625 6 128048409.179 6      2111.809          36.000    24366789.102 6  98115026.366 6      1618.145          36.000
E15  23966560.961 8 125945108.103 8     -1013.410          50.000    23966564.578 8  96503410.572 8      -776.446          51.000
E25  27743086.578 5 145790903.732 5      2813.711          33.000
> 2020 05 14 23 19  0.0000000  0 15        .000000000000
G04  20915048.555 8 109909331.391 8     -1739.410          51.000    20915048.555 8  85643684.476 8     -1355.385          51.000
G07  23329302.391 5 122596337.069 5      3230.539          32.000    23329305.609 5  95529604.219 5      2517.300          32.000
G09  20318418.680 8 106774115.617 8       509.660          51.000    20318418.711 8  83200604.935 8       397.138          51.000
G19  24031952.273 7 126288757.488 7     -3029.320          45.000    24031950.000 6  98406793.474 6     -2360.512          41.000
R05  22328226.938 5 119357161.629 5     -2853.926          34.000    22328236.172 4  92833373.003 4     -2219.726          28.000
R16  21676903.562 6 115794159.300 6      3220.434          37.000    21676903.047 5  90062091.402 5      2504.782          30.000
R21  20997803.836 8 112363498.279 8     -3128.367          51.000    20997804.305 7  87393812.662 7     -2433.174          44.000
C14  23235133.250 5 120991443.993 5     -1946.844          30.000    23235115.867 6  93558204.795 6     -1505.613          37.000
C24  23778777.625 6 123822318.060 6      1150.223          36.000
C25  25175274.430 5 131094271.760 5      3223.203          35.000
C26  24905032.016 6 129686973.070 6     -1552.359          39.000
C28  24652095.938 6 128369922.279 6     -2951.438          38.000
E03  23458210.977 8 123273732.579 8       265.055          50.000    23458214.016 8  94456584.526 8       203.058          51.000
E08  24354749.680 6 127985116.097 6      2110.516          37.000    24354744.852 5  98066529.161 5      1616.999          33.000
E15  23972387.586 8 125975729.010 8     -1025.570          49.000    23972391.281 8  96526873.370 8      -785.752          51.000
> 2020 05 14 23 19 30.0000000  0 18        .000000000000
G03  22811530.523 5 119875381.206 5     -2684.109          34.000    22811530.289 5  93409404.244 5     -2091.511          34.000
G04  20925015.250 8 109961696.757 8     -1747.703          51.000    20925015.461 8  85684435.449 8     -1361.844          51.000
G09  20315555.023 8 106759067.151 8       498.141          51.000    20315555.422 8  83188878.860 8       388.162          51.000
G19  24049272.461 7 126379776.750 7     -3033.926          44.000    24049270.852 7  98477717.586 7     -2364.095          43.000
R07  21601923.984 5 115636817.049 5      2458.281          33.000
R15  21701902.422 5 115968365.512 5      -465.219          32.000
R16  21658871.617 6 115697823.899 6      3206.617          40.000    21658872.141 5  89987163.818 5      2494.030          34.000
R21  21015402.117 8 112457668.160 8     -3144.973          51.000    21015402.906 7  87467055.884 7     -2446.090          45.000
R22  21020713.281 5 112209994.128 5      1006.090          32.000
C14                                                                  23246355.367 6  93603456.028 6     -1507.628          37.000
C24  23772202.250 6 123788081.914 6      1137.117          37.000
C25  25156714.648 6 130997652.658 6      3221.965          36.000
C26  24914023.430 6 129733799.583 6     -1564.418          39.000
C28  24669121.820 6 128458576.977 6     -2954.297          38.000
E03  23456723.312 8 123265915.024 8       260.750          50.000    23456726.109 8  94450594.453 8       199.789          51.000
E08  24342718.680 6 127921897.112 6      2108.977          37.000    24342716.898 5  98018088.697 5      1615.727          32.000
E15  23978287.906 8 126006737.822 8     -1037.344          49.000    23978291.477 8  96550633.357 8      -794.797          50.000
E25  27710977.297 5 145622166.632 5      2814.477          35.000
> 2020 05 14 23 20  0.0000000  0 19        .000000000000
G03  22826900.219 5 119956142.862 5     -2687.922          34.000    22826899.539 5  93472335.603 5     -2094.478          34.000
G04  20935050.484 8 110014432.837 8     -1755.996          51.000    20935050.938 8  85725528.514 8     -1368.309          51.000
G07  23292489.336 5 122402850.204 5      3224.504          31.000    23292481.758 4  95378815.215 4      2512.600          29.000
G09  20312778.602 8 106744475.962 8       486.680          51.000    20312779.070 8  83177509.116 8       379.231          51.000
G19  24066640.406 7 126471047.253 7     -3038.684          44.000    24066639.914 7  98548837.520 7     -2367.805          43.000
R07  21588191.148 5 115563305.752 5      2454.957          34.000    21588202.500 4  89882591.757 4      1909.411          27.000
R16  21640939.594 6 115602024.350 6      3192.523          36.000    21640940.125 5  89912653.025 5      2483.074          35.000
R21  21033114.883 8 112552454.030 8     -3161.711          50.000    21033116.352 7  87540778.217 7     -2459.109          45.000
R22  21015166.859 5 112180366.034 5       981.426          34.000
C14                                                                  23257630.320 5  93648850.112 5     -1509.607          34.000
C24  23765725.250 6 123754352.248 6      1123.676          37.000
C25  25138182.422 6 130901173.281 6      3221.258          36.000
C26  24923106.969 6 129781104.666 6     -1577.086          38.000
C27  23926445.008 5 124591266.965 5      -757.691          33.000
C28  24686186.523 6 128547436.332 6     -2957.652          37.000
E03  23455281.633 8 123258338.689 8       256.328          50.000    23455283.609 8  94444789.214 8       196.365          50.000
E08  24330720.188 5 127858796.789 5      2107.184          35.000    24330717.375 5  97969711.697 5      1614.667          34.000
E15  23984277.609 8 126038214.386 8     -1049.121          50.000    23984280.484 8  96574751.746 8      -803.917          50.000
E25  27694943.109 6 145537903.524 6      2814.863          37.000    27694956.805 5 111516096.519 5      2156.924          35.000
> 2020 05 14 23 20 30.0000000  0 15        .000000000000
G04  20945150.062 8 110067507.091 8     -1769.215          51.000    20945150.742 8  85766885.090 8     -1378.609          51.000
G07  23274148.891 6 122306472.137 6      3214.539          37.000    23274143.453 6  95303714.575 6      2504.842          36.000
G09  20310085.141 8 106730320.780 8       469.977          51.000    20310085.227 8  83166479.112 8       366.216          51.000
G19  24084051.805 7 126562544.803 7     -3048.207          46.000    24084052.078 6  98620134.368 6     -2375.226          40.000
R16  21623102.609 6 115506743.680 6      3173.082          38.000    21623103.391 5  89838545.856 5      2467.953          34.000
R21  21050937.891 8 112647830.554 8     -3183.340          50.000    21050939.125 7  87614959.952 7     -2475.931          44.000
C14  23268946.484 5 121167493.989 5     -1959.605          31.000    23268935.805 6  93694370.755 6     -1515.328          36.000
C24  23759342.648 5 123721109.812 5      1105.301          35.000
C25  25119674.898 5 130804815.346 5      3215.457          34.000
C26  24932279.000 6 129828866.259 6     -1594.215          37.000
C28  24703286.500 6 128636477.031 6     -2965.289          37.000
E03  23453881.977 8 123250982.461 8       247.137          50.000    23453883.211 8  94439152.633 8       189.356          51.000
E08  24318749.617 5 127795866.382 5      2101.152          34.000    24318743.180 5  97921500.300 5      1609.836          31.000
E15  23990352.398 8 126070137.244 8     -1065.996          50.000    23990354.422 8  96599212.086 8      -816.793          50.000
E25  27678924.258 6 145453719.826 6      2810.242          38.000    27678939.211 6 111451592.130 6      2152.946          36.000
> 2020 05 14 23 21  0.0000000  0 20        .000000000000
G04  20955289.523 8 110120790.706 8     -1783.988          51.000    20955290.211 8  85808404.797 8     -1390.121          50.000
G07  23255824.445 6 122210167.013 6      3204.375          39.000    23255820.977 6  95228671.631 6      2496.919          40.000
G09  20307450.195 8 106716473.990 8       452.035          51.000    20307450.266 8  83155689.402 8       352.235          51.000
G19  24101481.695 7 126654138.757 7     -3059.223          47.000    24101481.992 6  98691506.335 6     -2383.807          39.000
R05  22392481.508 5 119700622.836 5     -2868.352          31.000    22392479.773 5  93100488.631 5     -2230.940          31.000
R07  21560827.758 4 115416799.932 4      2434.832          29.000
R15  21710482.016 5 116014208.499 5      -549.609          32.000
R16  21605340.039 7 115411856.970 7      3151.738          42.000    21605341.359 5  89764745.087 5      2451.352          32.000
R21  21068846.688 8 112743663.817 8     -3206.449          50.000    21068846.969 7  87689496.874 7     -2493.905          44.000
C14  23280259.820 4 121226399.739 4     -1969.469          27.000    23280249.719 6  93739920.321 6     -1522.103          37.000
C24  23753028.172 5 123688229.649 5      1085.500          32.000
C25  25101166.766 4 130708455.189 4      3207.688          29.000
C26  24941514.234 6 129876956.935 6     -1612.691          38.000
C27  23935433.141 5 124638086.468 5      -797.574          30.000
C28  24720396.812 5 128725570.601 5     -2975.105          34.000
E03  23452499.734 8 123243718.734 8       236.227          50.000    23452500.969 8  94433586.928 8       181.005          50.000
E05  25156998.383 5 132200918.759 5     -1875.445          34.000
E08                                                                  24306771.438 5  97873286.068 5      1603.620          33.000
E15  23996487.633 8 126102378.418 8     -1084.336          50.000    23996489.375 8  96623916.358 8      -830.927          50.000
E25  27662895.648 6 145369490.401 6      2803.891          38.000    27662912.977 5 111387052.688 5      2148.247          35.000
> 2020 05 14 23 21 30.0000000  0 17        .000000000000
G04  20965506.219 8 110174479.712 8     -1794.496          51.000    20965506.664 8  85850240.391 8     -1398.309          50.000
G07  23237552.891 6 122114144.503 6      3197.918          41.000    23237549.023 6  95153848.924 6      2491.884          41.000
G09  20304911.516 8 106703132.941 8       438.148          51.000    20304911.773 8  83145293.787 8       341.414          51.000
G19  24118966.906 7 126746023.479 7     -3065.820          46.000    24118966.820 6  98763104.839 6     -2388.951          40.000
R07  21547193.023 5 115343853.265 5      2429.156          30.000
R15  21713652.703 5 116031114.448 5      -576.391          35.000    21713647.789 4  90246446.837 4      -448.301          27.000
R16  21587689.492 7 115317569.876 7      3134.785          43.000    21587689.906 5  89691410.668 5      2438.169          30.000
R21  21086877.023 7 112840151.000 7     -3225.184          47.000    21086878.047 7  87764542.463 7     -2508.476          45.000
C14  23291608.133 5 121285506.862 5     -1972.609          31.000    23291608.711 5  93785650.331 5     -1526.075          32.000
C24  23746821.641 5 123655909.280 5      1070.035          33.000
C26  24950850.133 6 129925571.344 6     -1627.062          36.000
C28  24737554.523 5 128814910.448 5     -2980.297          33.000
E03  23451172.602 8 123236744.899 8       229.352          51.000    23451174.008 8  94428243.348 8       175.677          50.000
E05  25167716.445 6 132257242.175 6     -1878.539          36.000
E08                                                                  24294840.344 5  97825253.579 5      1600.845          32.000
E15  24002720.609 8 126135135.081 8     -1098.715          50.000    24002723.086 8  96649015.618 8      -841.839          51.000
E25  27646896.617 6 145285415.296 6      2801.645          38.000    27646919.328 5 111322631.414 5      2147.023          34.000
> 2020 05 14 23 22  0.0000000  0 17        .000000000000
G04  20975782.461 8 110228481.414 8     -1805.645          51.000    20975782.773 8  85892319.644 8     -1406.996          48.000
G07  23219317.695 7 122018315.642 7      3190.812          42.000    23219313.680 7  95079177.140 7      2486.347          42.000
G09  20302451.617 8 106690206.085 8       423.660          51.000    20302451.812 8  83135220.922 8       330.125          51.000
G19  24136489.383 7 126838104.678 7     -3072.996          44.000    24136488.477 6  98834856.399 6     -2394.542          40.000
R15  21716958.016 5 116048837.888 5      -603.945          30.000    21716959.336 4  90260212.780 4      -469.735          28.000
R16  21570134.484 6 115223794.269 6      3116.879          40.000    21570134.070 4  89618474.243 4      2424.245          28.000
R21  21105011.633 8 112937195.341 8     -3244.336          50.000    21105013.547 7  87840021.411 7     -2523.372          45.000
R22  20994494.547 5 112070036.967 5       864.738          34.000    20994485.719 4  87165555.415 4       672.583          28.000
C14  23302992.164 5 121344788.689 5     -1978.484          32.000    23302991.898 5  93831490.714 5     -1529.690          33.000
C24  23740705.625 4 123624059.632 4      1053.168          29.000
C25  25064256.375 5 130516152.104 5      3199.676          33.000
C26  24960268.945 5 129974617.883 5     -1642.668          34.000
C27  23944806.672 5 124686977.473 5      -830.332          32.000
E03  23449883.312 8 123229969.529 8       222.195          50.000    23449884.570 8  94423051.825 8       170.269          50.000
E08                                                                  24282930.984 5  97777283.138 5      1597.163          32.000
E15  24009034.500 8 126168315.475 8     -1113.430          51.000    24009037.898 8  96674439.556 8      -853.138          51.000
E25  27630909.773 6 145201405.379 6      2798.672          39.000    27630936.547 5 111258260.175 5      2144.404          33.000
> 2020 05 14 23 22 30.0000000  0 13        .000000000000
G04  20986163.922 8 110283036.008 8     -1816.098          51.000    20986164.094 8  85934829.726 8     -1415.141          49.000
G07  23201165.688 7 121922924.965 7      3184.141          43.000    23201162.109 7  95004846.781 7      2481.152          43.000
G09  20300116.461 8 106677934.887 8       409.742          51.000    20300116.656 8  83125658.957 8       319.280          51.000
G19  24154094.320 7 126930620.625 7     -3079.602          42.000    24154092.406 7  98906946.709 7     -2399.690          42.000
R16  21552721.727 6 115130780.654 6      3099.289          37.000    21552719.930 5  89546130.548 5      2410.561          30.000
R21  21123296.672 8 113035038.937 8     -3262.836          50.000    21123298.055 7  87916121.963 7     -2537.761          45.000
C14  23314452.656 6 121404452.713 6     -1983.297          37.000    23314448.484 5  93877626.803 5     -1533.886          33.000
C25  25045879.430 6 130420447.299 6      3195.566          38.000
C26  24969817.039 5 130024334.788 5     -1656.367          32.000
C27  23949679.922 5 124712349.707 5      -846.398          33.000
E03  23448677.719 8 123223634.106 8       215.477          50.000    23448678.758 8  94418197.420 8       165.132          50.000
E15  24015475.359 8 126202160.734 8     -1127.578          51.000    24015479.297 8  96700372.942 8      -864.024          51.000
E25  27614981.930 6 145117704.988 6      2796.684          39.000    27615008.062 5 111194195.992 5      2143.246          31.000
> 2020 05 14 23 23  0.0000000  0 15        .000000000000
G03  22919876.289 5 120444756.656 5     -2736.188          35.000    22919876.070 5  93853054.361 5     -2132.094          35.000
G04  20996510.734 8 110337408.528 8     -1828.027          51.000    20996510.609 7  85977197.923 7     -1424.437          47.000
G07  23182957.734 7 121827241.136 7      3175.992          44.000    23182954.812 7  94930287.963 7      2474.802          44.000
G09  20297766.266 8 106665585.507 8       394.441          51.000    20297766.914 8  83116036.076 8       307.357          51.000
G19  24171642.008 7 127022834.874 7     -3087.242          42.000    24171639.148 7  98978801.966 7     -2405.643          42.000
R16  21535311.156 5 115037787.559 5      3080.270          32.000    21535310.906 5  89473802.516 5      2395.759          32.000
R21  21141590.719 8 113132930.437 8     -3282.766          50.000    21141591.305 7  87992259.766 7     -2553.262          45.000
C14  23325844.531 5 121463772.042 5     -1989.625          30.000    23325841.680 6  93923496.253 6     -1539.036          36.000
C25  25027428.844 6 130324368.827 6      3190.199          41.000
C26  24979354.148 5 130073993.904 5     -1672.625          33.000
C27  23954551.508 6 124737716.606 6      -864.000          37.000
C28  24789192.242 5 129083859.017 5     -2997.023          34.000
E03  23447416.078 8 123217004.995 8       207.262          50.000    23447417.242 8  94413117.993 8       158.712          50.000
E15  24021903.250 8 126235936.825 8     -1143.332          51.000    24021906.805 8  96726253.322 8      -876.084          51.000
E25  27598973.805 6 145033582.840 6      2792.410          40.000    27598994.094 6 111129738.742 6      2139.603          37.000
> 2020 05 14 23 23 30.0000000  0 17        .000000000000
G03  22935515.750 5 120526952.890 5     -2741.766          31.000    22935518.609 5  93917103.477 5     -2136.438          32.000
G04  21006975.492 8 110392401.186 8     -1836.969          51.000    21006975.164 7  86020049.333 7     -1431.404          46.000
G07  23164847.430 7 121732070.983 7      3170.328          45.000    23164845.227 7  94856129.402 7      2470.386          45.000
G09  20295554.094 8 106653961.417 8       381.832          51.000    20295555.070 8  83106978.358 8       297.531          51.000
G19  24189284.852 7 127115547.917 7     -3092.223          44.000    24189281.359 7  99051045.854 7     -2409.527          42.000
R15  21727822.617 5 116106845.898 5      -683.562          31.000    21727808.234 5  90305296.821 5      -531.660          30.000
R16  21518056.344 5 114945636.955 5      3064.340          34.000    21518060.148 5  89402129.784 5      2383.375          32.000
R21  21160044.453 7 113231684.270 7     -3299.555          47.000    21160045.977 7  88069068.303 7     -2566.320          45.000
R22  20980626.117 5 111996022.172 5       781.543          35.000    20980614.617 4  87107970.662 4       607.870          29.000
C14  23337322.242 5 121523543.331 5     -1993.180          35.000    23337321.664 6  93969715.077 6     -1541.440          39.000
C25  25009059.336 7 130228715.609 7      3187.812          44.000
C26  24989032.820 5 130124390.349 5     -1686.016          33.000
C27  23959572.961 6 124763873.875 6      -878.555          37.000
C28  24806475.375 6 129173860.232 6     -3001.391          37.000
E03  23446251.398 8 123210885.608 8       201.793          50.000    23446252.922 8  94408429.120 8       154.677          50.000
E15  24028470.562 8 126270446.833 8     -1156.129          51.000    24028473.383 8  96752696.057 8      -885.889          51.000
E25  27583039.055 6 144949844.807 6      2791.090          41.000    27583052.758 6 111065575.812 6      2138.543          40.000
> 2020 05 14 23 24  0.0000000  0 15        .000000000000
G04  21017525.992 8 110447844.610 8     -1846.547          51.000    21017525.625 7  86063251.997 7     -1438.865          46.000
G07  23146803.297 7 121637248.972 7      3163.762          46.000    23146802.070 7  94782242.135 7      2465.269          46.000
G09  20293448.102 8 106642894.492 8       368.531          51.000    20293449.008 8  83098354.788 8       287.167          51.000
G19  24206990.227 7 127208588.371 7     -3097.707          45.000    24206986.297 7  99123544.865 7     -2413.798          42.000
R16  21500931.922 5 114854162.565 5      3046.973          35.000    21500936.180 5  89330983.036 5      2369.868          34.000
R21  21178625.805 7 113331125.456 7     -3316.930          47.000    21178628.664 7  88146411.472 7     -2579.834          45.000
C14  23348855.648 5 121583599.818 5     -1997.527          35.000    23348855.500 5  94016154.454 5     -1544.524          35.000
C24  23717197.789 5 123501675.349 5       990.109          32.000
C25  24990740.094 7 130133324.097 7      3184.129          45.000
C26  24998820.633 5 130175356.478 5     -1698.668          30.000
C27  23964714.055 5 124790654.246 5      -893.902          32.000
C28  24823813.211 6 129264148.230 6     -3005.461          39.000
E03  23445151.836 8 123205108.002 8       195.887          50.000    23445153.617 8  94404002.127 8       150.134          50.000
E15  24035145.125 8 126305522.388 8     -1169.605          51.000    24035147.664 8  96779572.136 8      -896.203          51.000
E25  27567146.164 6 144866325.468 6      2789.477          41.000    27567154.820 7 111001580.471 7      2137.397          42.000
> 2020 05 14 23 24 30.0000000  0 15        .000000000000
G04  21028090.992 8 110503364.293 8     -1856.727          51.000    21028090.594 7  86106514.102 7     -1446.800          45.000
G07  23128754.953 7 121542404.634 7      3156.875          47.000    23128754.570 7  94708337.452 7      2459.903          47.000
G09  20291377.078 8 106632011.283 8       354.770          51.000    20291377.961 8  83089874.381 8       276.444          51.000
G19  24224686.406 7 127301580.596 7     -3103.777          45.000    24224682.336 7  99196006.295 7     -2418.528          42.000
R16  21483864.875 6 114762989.603 6      3029.215          38.000    21483868.492 5  89260070.746 5      2356.056          35.000
R21  21197265.430 8 113430870.050 8     -3334.801          48.000    21197268.719 7  88223990.607 7     -2593.734          46.000
C14  23360372.453 5 121643572.073 5     -2002.520          34.000    23360369.617 4  94062528.871 4     -1548.777          28.000
C24  23711533.961 6 123472177.346 6       974.145          36.000
C25  24972400.320 7 130037827.161 7      3180.031          45.000
C26  25008645.422 5 130226521.531 5     -1712.938          31.000
C27  23969902.977 5 124817687.034 5      -909.957          33.000
C28  24841134.703 6 129354351.113 6     -3010.141          41.000
E03  23444046.289 8 123199298.884 8       189.348          50.000    23444047.992 8  94399550.975 8       145.016          50.000
E15  24041856.000 8 126340789.881 8     -1183.734          51.000    24041859.109 8  96806595.283 8      -906.999          51.000
E25  27551223.852 6 144782654.132 6      2786.484          40.000    27551229.570 6 110937468.667 6      2135.293          41.000
> 2020 05 14 23 25  0.0000000  0 16        .000000000000
G04  21038721.141 8 110559226.341 8     -1867.121          51.000    21038720.836 7  86150042.969 7     -1454.900          45.000
G07  23110753.805 7 121447808.194 7      3149.789          47.000    23110754.008 7  94634625.940 7      2454.381          47.000
G09  20289391.852 8 106621579.099 8       340.988          51.000    20289392.797 8  83081745.422 8       265.705          51.000
G19  24242423.398 7 127394788.588 7     -3109.785          44.000    24242419.578 7  99268635.863 7     -2423.209          43.000
R16  21466906.273 6 114672394.474 6      3010.918          40.000    21466909.805 5  89189607.907 5      2341.825          33.000
R21  21216012.586 8 113531186.322 8     -3352.801          49.000    21216015.305 7  88302014.382 7     -2607.734          45.000
C14  23371924.711 5 121703725.086 5     -2007.258          34.000    23371919.766 5  94109037.968 5     -1551.897          35.000
C24  23705972.883 6 123443196.795 6       958.074          39.000
C25  24954091.492 7 129942492.559 7      3175.828          44.000
C26  25018559.312 5 130278149.372 5     -1728.465          31.000
C27  23975192.391 6 124845236.170 6      -926.246          36.000
C28  24858490.641 6 129444731.619 6     -3014.824          40.000
E03  23442985.656 8 123193725.637 8       182.520          50.000    23442987.195 8  94395280.557 8       139.826          50.000
E08  24211932.742 5 127234568.774 5      2060.828          32.000
E15  24048654.414 8 126376516.275 8     -1197.809          51.000    24048658.281 8  96833970.059 8      -917.786          51.000
E25  27535323.469 6 144699100.682 6      2783.559          39.000    27535327.969 7 110873447.188 7      2132.881          42.000
> 2020 05 14 23 25 30.0000000  0 18        .000000000000
G03  22998439.820 5 120857600.078 5     -2766.000          34.000    22998439.805 5  94174771.952 5     -2155.343          33.000
G04  21049405.305 8 110615371.989 8     -1875.562          50.000    21049405.352 7  86193792.828 7     -1461.477          45.000
G07  23092789.398 7 121353405.223 7      3144.133          47.000    23092790.055 8  94561065.184 8      2449.974          48.000
G09  20287481.453 8 106611540.364 8       328.734          51.000    20287482.336 8  83073923.040 8       256.157          51.000
G19  24260189.766 7 127488152.012 7     -3113.781          43.000    24260186.102 7  99341386.577 7     -2426.323          42.000
R15  21744374.391 5 116195303.790 5      -788.312          35.000
R16  21450045.078 6 114582323.644 6      2994.414          40.000    21450048.758 5  89119552.799 5      2328.989          34.000
R21  21234855.398 8 113632011.810 8     -3368.383          49.000    21234856.898 7  88380434.189 7     -2619.853          45.000
C14  23383500.164 5 121764002.302 5     -2011.309          31.000    23383494.969 5  94155647.930 5     -1554.673          34.000
C24  23700496.984 5 123414678.178 5       943.273          34.000
C25  24935803.172 7 129847266.274 7      3173.062          42.000
C26  25028551.625 5 130330181.696 5     -1739.977          32.000
C27  23980572.156 4 124873244.212 4      -940.402          29.000
C28  24875869.031 6 129535230.804 6     -3017.949          40.000
E03  23441959.023 8 123188330.814 8       177.562          50.000    23441960.625 8  94391146.877 8       136.018          51.000
E08  24200173.461 5 127172769.657 5      2059.617          33.000    24200171.891 5  97444063.942 5      1578.073          31.000
E15  24055529.219 8 126412643.659 8     -1210.277          51.000    24055533.781 8  96861652.094 8      -927.331          51.000
E25  27519434.992 6 144615610.082 6      2782.758          39.000    27519438.844 7 110809473.850 7      2132.138          42.000
> 2020 05 14 23 26  0.0000000  0 17        .000000000000
G03  23014258.789 5 120940725.561 5     -2774.734          32.000    23014254.406 5  94239544.760 5     -2162.134          31.000
G04  21060152.320 8 110671848.246 8     -1887.781          49.000    21060152.594 7  86237800.325 7     -1470.998          46.000
G07  23074871.469 8 121259246.719 8      3134.887          48.000    23074872.328 8  94487694.923 8      2442.769          48.000
G09  20285655.047 8 106601943.253 8       312.895          51.000    20285655.844 8  83066444.777 8       243.814          51.000
G19  24277994.070 7 127581716.081 7     -3121.789          42.000    24277990.281 7  99414293.664 7     -2432.563          42.000
R16  21433292.391 6 114492831.009 6      2974.035          37.000    21433296.492 5  89049947.484 5      2313.138          35.000
R21  21253801.492 8 113733391.821 8     -3388.164          48.000    21253802.266 7  88459285.295 7     -2635.239          45.000
C14  23395109.633 5 121824474.362 5     -2016.902          31.000    23395103.398 5  94202390.958 5     -1560.113          32.000
C24  23695121.250 6 123386694.550 6       925.570          36.000
C25  24917545.789 6 129752198.918 6      3166.504          41.000
C26  25038630.922 5 130382665.449 5     -1756.172          33.000
C28  24893278.273 6 129625894.320 6     -3024.227          37.000
E03  23440975.688 8 123183162.769 8       168.895          50.000    23440977.328 8  94387186.964 8       129.362          51.000
E05  25264962.992 5 132768268.007 5     -1905.633          33.000
E08  24188440.266 5 127111107.948 5      2053.410          34.000    24188435.562 5  97396806.757 5      1573.105          31.000
E15  24062489.125 8 126449219.945 8     -1226.340          51.000    24062494.609 8  96889678.077 8      -939.690          51.000
E25  27503568.859 6 144532233.443 6      2777.516          41.000    27503572.195 7 110745587.846 7      2128.232          43.000
> 2020 05 14 23 26 30.0000000  0 17        .000000000000
G04  21070959.055 8 110728638.046 8     -1895.344          49.000    21070959.086 7  86282052.129 7     -1476.891          45.000
G07  23056997.789 8 121165319.639 8      3129.996          49.000    23056998.406 8  94414505.000 8      2438.958          49.000
G09  20283909.797 8 106592771.859 8       301.574          51.000    20283910.594 8  83059298.250 8       234.993          51.000
G19  24295833.117 7 127675462.301 7     -3125.047          44.000    24295828.617 6  99487342.650 6     -2435.101          41.000
R15  21753553.273 5 116244302.586 5      -840.836          32.000    21753564.609 4  90412321.336 4      -653.987          27.000
R16  21416646.070 6 114403905.147 6      2957.766          39.000    21416649.391 5  88980782.923 5      2300.484          32.000
R21  21272846.648 7 113835306.161 7     -3402.805          47.000    21272847.055 7  88538552.016 7     -2646.626          44.000
C14                                                                  23406742.570 5  94249255.192 5     -1561.602          33.000
C24  23689842.555 4 123359184.626 4       911.879          29.000
C25  24899316.961 6 129657277.753 6      3164.176          41.000
C26  25048793.453 5 130435583.895 5     -1767.992          33.000
C28  24910714.859 5 129716704.385 5     -3026.113          34.000
E03  23440032.539 8 123178205.708 8       164.766          51.000    23440033.945 8  94383388.712 8       126.240          51.000
E05                                                                  25275843.500 5 101775341.965 5     -1460.076          35.000
E08  24176731.031 6 127049579.099 6      2052.199          36.000    24176724.734 5  97349651.124 5      1572.183          30.000
E15  24069531.375 8 126486228.892 8     -1237.812          51.000    24069537.141 8  96918035.576 8      -948.424          51.000
E25  27487722.422 7 144448957.309 7      2777.051          42.000    27487725.062 7 110681778.860 7      2128.130          43.000
> 2020 05 14 23 27  0.0000000  0 20        .000000000000
G04  21081810.414 8 110785661.883 8     -1908.000          48.000    21081810.164 7  86326486.290 7     -1486.750          46.000
G07  23039154.133 8 121071570.435 8      3119.832          49.000    23039152.992 8  94341478.557 8      2431.041          50.000
G09  20282230.672 8 106583947.705 8       285.090          51.000    20282231.578 8  83052422.290 8       222.148          51.000
G19  24313691.578 7 127769309.300 7     -3133.246          44.000    24313686.602 6  99560470.166 6     -2441.490          38.000
R05  22586908.711 5 120739937.249 5     -2904.164          34.000    22586912.805 4  93908872.351 4     -2258.791          27.000
R07  21399678.781 4 114554155.400 4      2357.773          29.000
R16  21400091.617 6 114315470.985 6      2936.297          38.000    21400093.758 5  88912000.791 5      2283.789          32.000
R21  21291974.883 7 113937671.046 7     -3422.855          46.000    21291975.609 7  88618169.163 7     -2662.221          43.000
R22  20953683.320 5 111852190.823 5       587.680          34.000
C14  23418431.719 4 121945924.689 4     -2027.230          28.000    23418396.164 5  94296180.776 5     -1567.477          34.000
C24  23684649.352 5 123332179.895 5       893.543          30.000
C25  24881101.742 6 129562427.890 6      3157.195          41.000
C26  25059023.469 5 130488858.210 5     -1784.742          31.000
C27  23997262.461 4 124960039.851 4      -991.102          29.000
C28  24928163.875 5 129807581.358 5     -3033.445          31.000
E03  23439114.484 8 123173381.344 8       155.285          50.000    23439115.617 8  94379692.128 8       119.089          50.000
E05                                                                  25286738.188 6 101819193.621 6     -1464.557          36.000
E08  24165030.820 5 126988098.437 5      2045.086          34.000    24165026.438 5  97302544.335 5      1567.217          30.000
E15  24076641.266 8 126523591.724 8     -1254.539          51.000    24076646.336 8  96946664.238 8      -961.255          51.000
E25  27471880.961 7 144365705.928 7      2771.285          42.000    27471882.773 6 110617988.883 6      2123.548          41.000
> 2020 05 14 23 27 30.0000000  0 14        .000000000000
G04  21092730.914 8 110843048.962 8     -1917.000          49.000    21092730.750 7  86371203.496 7     -1493.763          45.000
G07  23021365.109 8 120978087.893 8      3113.293          49.000    23021362.844 8  94268635.086 8      2425.946          49.000
G09  20280642.430 8 106575601.177 8       272.289          51.000    20280643.391 8  83045918.498 8       212.173          51.000
G19  24331593.617 7 127863384.499 7     -3137.465          42.000    24331588.531 6  99633775.478 6     -2444.778          39.000
R16  21383655.180 6 114227665.806 6      2918.059          39.000    21383656.578 4  88843708.016 4      2269.604          29.000
R21  21311211.211 7 114040615.401 7     -3438.926          45.000    21311212.672 7  88698236.983 7     -2674.720          44.000
C14  23430100.695 4 122006682.572 4     -2030.898          27.000    23430090.547 5  94343267.772 5     -1570.498          34.000
C25  24862925.523 6 129467781.451 6      3153.375          41.000
C28  24945651.320 5 129898652.248 5     -3037.156          32.000
E03  23438246.375 8 123168820.184 8       149.660          50.000    23438247.438 8  94376197.211 8       114.729          51.000
E05                                                                  25297658.477 6 101863160.027 6     -1465.814          36.000
E08  24153365.242 5 126926791.908 5      2042.109          32.000    24153364.977 5  97255587.825 5      1564.649          31.000
E15  24083843.297 8 126561438.520 8     -1267.641          51.000    24083847.562 8  96975663.721 8      -971.357          51.000
E25  27456069.297 7 144282612.343 7      2769.355          42.000    27456070.609 7 110554319.809 7      2121.926          42.000
> 2020 05 14 23 28  0.0000000  0 16        .000000000000
G03  23077888.234 5 121275120.729 5     -2799.988          30.000
G04  21103699.406 8 110900688.726 8     -1926.910          49.000    21103699.531 7  86416117.604 7     -1501.485          46.000
G07  23003610.328 8 120884788.069 8      3105.605          48.000    23003607.844 8  94195933.999 8      2419.955          48.000
G09  20279124.281 8 106567622.853 8       258.445          51.000    20279125.078 8  83039701.622 8       201.389          51.000
G19  24349517.859 6 127957575.732 6     -3142.922          41.000    24349512.898 6  99707171.218 6     -2449.027          37.000
R16  21367316.836 6 114140383.717 6      2898.930          36.000    21367315.844 4  88775821.935 4      2254.723          27.000
R21  21330535.180 7 114144024.213 7     -3456.055          46.000    21330537.164 7  88778666.077 7     -2688.043          44.000
C14                                                                  23441805.172 6  94390432.601 6     -1574.521          37.000
C24  23674523.828 6 123279462.913 6       860.977          37.000
C25  24844768.383 6 129373233.124 6      3148.484          40.000
C28  24963156.922 5 129989806.839 5     -3041.332          31.000
E03  23437407.602 8 123164413.049 8       143.066          50.000    23437408.969 8  94372820.321 8       109.631          51.000
E05                                                                  25308586.828 6 101907157.396 6     -1468.110          36.000
E08  24141713.898 5 126865563.445 5      2038.254          34.000    24141717.633 5  97208689.138 5      1561.920          32.000
E15  24091116.609 8 126599659.522 8     -1281.570          51.000    24091120.547 8  97004949.940 8      -981.988          51.000
E25  27440267.180 7 144199569.853 7      2766.004          42.000    27440268.039 7 110490689.871 7      2119.453          42.000
> 2020 05 14 23 28 30.0000000  0 16        .000000000000
G04  21114715.438 8 110958578.048 8     -1938.695          49.000    21114715.477 7  86461226.163 7     -1510.672          45.000
G07  22985890.078 8 120791672.089 8      3095.660          48.000    22985888.625 8  94123376.110 8      2412.203          48.000
G09  20277675.859 8 106560010.651 8       242.609          51.000    20277676.258 8  83033770.047 8       189.049          51.000
G19  24367462.562 6 128051877.884 6     -3150.074          36.000    24367458.812 5  99780653.449 5     -2454.603          35.000
R16  21351075.805 5 114053626.832 5      2878.066          30.000    21351073.859 4  88708344.414 4      2238.496          28.000
R21  21349945.484 7 114247891.268 7     -3474.895          47.000    21349946.812 7  88859451.562 7     -2702.696          44.000
C14  23453541.438 4 122128741.835 4     -2042.555          29.000    23453539.078 6  94437673.919 6     -1579.741          39.000
C24  23669596.328 6 123253815.155 6       842.574          36.000
C25  24826627.781 6 129278783.819 6      3141.809          38.000
C26  25090208.648 5 130651286.226 5     -1828.062          33.000
C28  24980680.344 4 130081041.003 4     -3047.434          29.000
E03  23436597.898 8 123160158.079 8       134.316          50.000    23436599.609 8  94369560.012 8       102.948          51.000
E05                                                                  25319520.375 5 101951184.286 5     -1471.770          35.000
E08  24130077.781 6 126804413.797 6      2032.242          36.000    24130082.203 5  97161840.245 5      1557.089          32.000
E15  24098460.695 8 126638252.477 8     -1297.527          51.000    24098464.844 8  97034521.167 8      -994.191          51.000
E25  27424474.555 7 144116579.120 7      2760.641          43.000    27424475.641 7 110427099.604 7      2115.281          44.000
> 2020 05 14 23 29  0.0000000  0 17        .000000000000
G04  21125805.117 8 111016854.177 8     -1945.488          49.000    21125804.703 7  86506636.131 7     -1515.965          47.000
G07  22968231.844 8 120698880.700 8      3090.977          48.000    22968231.281 8  94051071.133 8      2408.553          49.000
G09  20276323.375 8 106552903.011 8       231.879          51.000    20276323.648 8  83028231.643 8       180.685          51.000
G19  24385453.719 5 128146426.634 5     -3152.250          32.000    24385451.258 5  99854327.815 5     -2456.299          32.000
R16  21334959.094 5 113967540.745 5      2862.488          31.000    21334958.461 4  88641388.481 4      2226.377          29.000
R21  21369467.242 7 114352353.682 7     -3488.520          47.000    21369468.383 7  88940700.090 7     -2713.293          44.000
C14  23465317.750 5 122190071.947 5     -2045.090          32.000    23465317.625 6  94485098.209 6     -1581.040          36.000
C24  23664783.250 6 123228750.686 6       829.012          37.000
C25  24808532.672 6 129184573.712 6      3139.598          40.000
C26  25100777.516 6 130706298.479 6     -1838.816          39.000
C27  24020802.523 5 125082624.931 5     -1051.617          33.000
C28  24998265.055 5 130172559.985 5     -3049.156          32.000
E03  23435843.453 8 123156193.765 8       130.680          50.000    23435845.414 8  94366522.425 8       100.173          51.000
E05  25330514.078 5 133112704.157 5     -1921.230          34.000    25330488.227 5 101995346.705 5     -1471.884          34.000
E08  24118483.203 6 126743475.915 6      2030.902          36.000    24118481.938 5  97115133.535 5      1556.421          30.000
E15  24105901.859 8 126677355.335 8     -1308.543          51.000    24105906.070 8  97064483.108 8     -1002.635          51.000
E25  27408718.523 7 144033781.220 7      2760.016          44.000    27408720.172 7 110363657.056 7      2114.913          45.000
> 2020 05 14 23 29 30.0000000  0 18        .000000000000
G04  21136941.133 8 111075373.754 8     -1955.711          50.000    21136940.453 7  86552235.784 7     -1523.931          47.000
G07  22950609.516 8 120606274.892 8      3082.855          50.000    22950609.156 8  93978910.780 8      2402.228          49.000
G09  20275039.750 8 106546157.611 8       217.844          51.000    20275040.086 8  83022975.488 8       169.748          51.000
G19  24403464.773 5 128241077.546 5     -3157.867          34.000    24403462.898 5  99928081.770 5     -2460.670          30.000
R16  21318940.250 5 113881959.446 5      2841.754          34.000    21318942.602 4  88574845.595 4      2210.256          29.000
R21  21389072.297 7 114457262.439 7     -3505.355          47.000    21389073.055 7  89022295.772 7     -2726.388          44.000
R22  20939082.406 5 111774251.283 5       449.660          35.000    20939089.828 4  86935532.820 4       349.733          29.000
C14  23477113.500 5 122251497.692 5     -2049.977          35.000    23477113.344 6  94532596.471 6     -1585.057          36.000
C24  23660054.133 5 123204129.944 5       812.543          30.000
C25  24790459.617 7 129090464.582 7      3134.375          43.000
C26  25111413.711 6 130761676.345 6     -1852.938          40.000
C27  24026904.180 4 125114422.103 4     -1067.984          29.000
C28  25015837.312 4 130264080.681 4     -3053.020          28.000
E03  23435117.227 8 123152378.048 8       123.934          50.000    23435119.242 8  94363598.693 8        94.977          51.000
E05                                                                  25341462.953 5 102039535.606 5     -1474.135          35.000
E08  24106902.500 6 126682608.045 6      2026.695          37.000    24106898.391 5  97068489.535 5      1552.848          30.000
E15  24113412.883 8 126716825.331 8     -1322.652          51.000    24113416.695 8  97094726.356 8     -1013.488          51.000
E25  27392972.453 7 143951036.586 7      2756.250          43.000    27392975.555 7 110300255.361 7      2111.920          46.000
> 2020 05 14 23 30  0.0000000  0 21        .000000000000
G03  23142088.078 5 121612488.315 5     -2821.734          34.000
G04  21148128.266 8 111134162.272 8     -1962.758          50.000    21148127.750 7  86598045.021 7     -1529.422          47.000
G07  22933028.578 8 120513884.138 8      3077.430          51.000    22933027.852 8  93906918.016 8      2397.997          51.000
G09  20273830.117 8 106539800.965 8       206.805          51.000    20273830.328 8  83018022.252 8       161.147          51.000
G19  24421500.117 6 128335853.830 6     -3159.891          36.000    24421499.203 5 100001933.362 5     -2462.262          35.000
R05  22684953.266 5 121264058.002 5     -2918.086          33.000    22684956.391 5  94316490.931 5     -2269.622          31.000
R15  21790295.930 5 116440667.718 5     -1024.250          31.000
R16  21303030.117 6 113796966.744 6      2824.977          36.000    21303031.203 4  88508753.038 4      2197.201          26.000
R21  21408764.852 8 114562641.113 8     -3519.016          48.000    21408765.406 7  89104256.954 7     -2737.012          45.000
R22  20936625.391 5 111761127.161 5       423.379          30.000    20936626.719 4  86925326.112 4       329.295          29.000
C14  23488934.977 5 122313045.947 5     -2052.391          35.000    23488933.195 6  94580189.500 6     -1586.915          38.000
C24  23655417.641 5 123179960.951 5       798.719          32.000
C25  24772412.930 7 128996485.862 7      3131.801          43.000
C26  25122124.195 6 130817445.240 6     -1864.066          39.000
C27  24033094.266 5 125146666.804 5     -1080.660          33.000
C28  25033428.484 5 130355697.452 5     -3053.145          31.000
E03  23434424.422 8 123148737.758 8       119.746          49.000    23434426.336 8  94360809.376 8        91.771          51.000
E05  25352444.344 5 133227998.270 5     -1923.914          31.000    25352449.227 6 102083771.508 6     -1474.117          36.000
E08  24095340.617 6 126621837.384 6      2025.598          36.000
E15  24120998.766 8 126756688.873 8     -1333.922          51.000    24121001.773 8  97125271.142 8     -1022.099          51.000
E25  27377241.680 7 143868374.621 7      2755.523          42.000    27377246.203 8 110236916.953 8      2111.324          48.000
> 2020 05 14 23 30 30.0000000  0 17        .000000000000
G03  23158224.094 5 121697295.227 5     -2831.957          35.000    23158235.703 5  94829088.492 5     -2206.717          33.000
G04  21159373.820 8 111193258.315 8     -1976.348          50.000    21159373.648 7  86644093.883 7     -1540.008          47.000
G07  22915496.938 8 120421750.988 8      3065.258          51.000    22915494.961 8  93835126.011 8      2388.516          51.000
G09  20272702.016 8 106533872.780 8       188.969          51.000    20272702.195 8  83013402.892 8       147.251          51.000
G19  24439566.727 6 128430792.697 6     -3168.688          38.000    24439566.516 5 100075911.678 5     -2469.113          34.000
R05  22701348.734 5 121351699.821 5     -2924.273          32.000
R16  21287231.875 4 113712581.651 4      2801.484          29.000    21287233.984 4  88443119.382 4      2178.944          25.000
R21  21428552.258 8 114668525.989 8     -3539.457          48.000    21428553.375 7  89186611.854 7     -2752.911          46.000
C14  23500785.047 5 122374755.048 5     -2060.734          30.000    23500783.633 6  94627907.904 6     -1593.959          36.000
C25  24754399.688 7 128902679.951 7      3122.453          44.000
C26  25132916.711 5 130873643.438 5     -1881.934          33.000
C28  25051041.562 5 130447447.941 5     -3061.809          34.000
E03  23433772.430 8 123145312.652 8       109.141          49.000    23433774.516 8  94358184.958 8        83.672          51.000
E05  25363448.000 5 133285822.915 5     -1930.879          32.000    25363450.688 5 102128101.890 5     -1479.570          35.000
E08  24083804.719 5 126561247.176 5      2017.301          33.000
E15  24128666.781 8 126796985.386 8     -1351.820          51.000    24128669.164 8  97156147.671 8     -1035.822          51.000
E25  27361534.109 7 143785837.590 7      2747.621          42.000    27361540.477 8 110173674.288 8      2105.290          48.000
> 2020 05 14 23 31  0.0000000  0 17        .000000000000
G04  21170677.297 8 111252658.978 8     -1984.348          50.000    21170677.344 7  86690380.118 7     -1546.245          47.000
G07  22898014.508 8 120329876.394 8      3058.895          51.000    22898010.664 8  93763535.489 8      2383.557          51.000
G09  20271655.070 8 106528371.189 8       176.996          51.000    20271655.375 8  83009115.948 8       137.919          51.000
G19  24457663.234 6 128525889.427 6     -3171.914          39.000    24457664.422 5 100150013.016 5     -2471.618          35.000
R05  22717763.328 5 121439442.781 5     -2925.887          34.000    22717763.055 4  94452913.037 4     -2275.693          26.000
R16  21271547.797 5 113628796.396 5      2784.582          30.000    21271552.664 4  88377961.802 4      2165.783          28.000
R21  21448432.672 8 114774911.394 8     -3553.727          49.000    21448434.516 7  89269356.036 7     -2764.010          46.000
C14  23512666.039 5 122436625.945 5     -2064.551          32.000    23512663.555 5  94675750.817 5     -1596.375          34.000
C24  23646438.086 5 123133215.323 5       762.977          30.000
C25  24736419.711 7 128809048.006 7      3118.980          44.000
C26  25143791.266 4 130930267.812 4     -1892.824          28.000
C28  25068680.070 5 130539328.098 5     -3063.855          35.000
E03  23433161.102 8 123142101.223 8       104.250          50.000    23433163.492 8  94355724.260 8        79.886          51.000
E05                                                                  25374472.586 5 102172488.422 5     -1480.438          35.000
E08  24072290.695 5 126500742.142 5      2015.586          31.000
E15  24136416.617 8 126837712.414 8     -1363.949          51.000    24136419.164 8  97187354.087 8     -1045.125          51.000
E25  27345850.734 7 143703426.474 7      2745.770          43.000    27345858.297 8 110110528.083 8      2103.844          48.000
> 2020 05 14 23 31 30.0000000  0 20        .000000000000
G03  23190620.023 5 121867508.053 5     -2839.258          34.000    23190613.016 5  94961682.216 5     -2212.409          35.000
G04  21182027.891 8 111312307.569 8     -1990.875          50.000    21182028.047 7  86736859.536 7     -1551.331          47.000
G07  22880571.078 8 120238207.851 8      3053.684          51.000    22880566.156 8  93692105.519 8      2379.494          51.000
G09  20270678.602 8 106523240.499 8       166.520          51.000    20270679.023 8  83005118.006 8       129.755          51.000
G19  24475778.805 6 128621085.260 6     -3173.086          41.000    24475780.008 5 100224191.547 5     -2472.538          33.000
R05  22734186.969 4 121527230.260 4     -2925.598          29.000
R15  21808253.727 5 116536657.410 5     -1102.781          31.000
R16  21255968.703 5 113545568.952 5      2766.031          32.000    21255974.547 4  88313244.575 4      2151.355          25.000
R21  21468395.859 8 114881736.747 8     -3566.477          50.000    21468397.188 7  89352442.429 7     -2773.926          46.000
C14  23524563.891 4 122498585.395 4     -2067.055          29.000    23524565.500 5  94723675.575 5     -1597.466          34.000
C24  23642082.891 5 123110550.030 5       749.457          33.000
C25  24718462.688 7 128715537.856 7      3116.496          43.000
C26  25154735.852 5 130987304.561 5     -1903.836          32.000
C27  24052213.344 5 125246190.708 5     -1126.820          31.000
C28  25086334.961 6 130631280.928 6     -3064.828          37.000
E03  23432580.094 8 123139047.903 8       100.883          51.000    23432582.633 8  94353384.714 8        77.270          51.000
E05  25385503.242 5 133401723.972 5     -1931.719          34.000    25385503.891 5 102216903.472 5     -1480.055          34.000
E08  24060793.008 5 126440326.601 5      2014.180          35.000    24060796.117 5  96882840.752 5      1543.183          32.000
E15  24144237.734 8 126878814.053 8     -1374.656          51.000    24144241.133 8  97218847.545 8     -1053.296          51.000
E25  27330182.305 7 143621088.235 7      2745.070          45.000    27330189.672 7 110047437.718 7      2103.381          47.000
> 2020 05 14 23 32  0.0000000  0 17        .000000000000
G04  21193428.172 8 111372216.775 8     -2012.582          50.000    21193428.266 7  86783542.026 7     -1568.246          46.000
G07  22863169.656 8 120146762.138 8      3033.145          51.000    22863165.109 8  93620849.153 8      2363.489          50.000
G09  20269775.320 8 106518494.470 8       140.492          51.000    20269775.969 8  83001419.814 8       109.474          51.000
G19  24493915.461 6 128716392.220 6     -3189.949          41.000    24493915.547 4 100298456.711 4     -2485.678          28.000
R16  21240499.891 6 113462930.780 6      2733.891          38.000    21240504.320 5  88248970.401 5      2126.359          32.000
R21  21488442.820 8 114989012.265 8     -3594.746          50.000    21488443.945 7  89435878.913 7     -2795.917          46.000
C14                                                                  23536491.609 5  94771693.153 5     -1610.511          34.000
C24  23637822.086 6 123088358.404 6       720.957          36.000
C25  24700531.656 7 128622166.134 7      3098.770          43.000
C26  25165752.633 5 131044682.166 5     -1929.891          34.000
C27  24058770.609 5 125280273.060 5     -1154.973          33.000
C28  25104008.141 6 130723318.043 6     -3080.133          37.000
E03  23432031.969 8 123136166.779 8        81.871          50.000    23432034.422 8  94351177.109 8        62.753          51.000
E05  25396546.172 6 133459761.612 6     -1946.508          36.000
E08  24049313.766 5 126380006.643 5      1997.539          35.000    24049318.117 5  96836621.611 5      1530.851          31.000
E15  24152132.727 8 126920303.648 8     -1400.656          51.000    24152136.930 8  97250638.270 8     -1073.233          51.000
E25  27314531.320 7 143538839.458 7      2728.957          45.000    27314538.031 7 109984415.964 7      2090.887          47.000
> 2020 05 14 23 32 30.0000000  0 18        .000000000000
G04  21204862.648 8 111432305.185 8     -2011.191          50.000    21204862.492 7  86830364.162 7     -1567.162          46.000
G06  21085231.875 6 110803642.467 6       440.398          36.000
G07  22845795.297 8 120055461.565 8      3035.562          49.000    22845792.141 8  93549705.842 8      2365.373          49.000
G09  20268929.992 8 106514052.787 8       137.598          51.000    20268930.859 8  82997958.770 8       107.219          51.000
G19  24512057.258 6 128811726.590 6     -3183.938          40.000    24512055.789 4 100372743.201 4     -2480.996          29.000
R16  21225125.609 6 113380792.979 6      2724.043          37.000    21225128.477 5  88185085.416 5      2118.700          31.000
R21  21508558.320 8 115096652.106 8     -3599.441          51.000    21508559.055 7  89519598.793 7     -2799.566          46.000
C14                                                                  23548426.234 5  94819742.390 5     -1606.467          34.000
C24  23633638.055 6 123066562.700 6       714.691          36.000
C25  24682612.930 7 128528856.390 7      3103.992          47.000
C26  25176828.016 5 131102361.781 5     -1932.961          34.000
C27  24065398.906 5 125314715.289 5     -1160.145          30.000
C28  25121682.672 5 130815358.104 5     -3073.211          35.000
E03  23431501.344 8 123133377.792 8        86.027          51.000    23431503.547 8  94349040.099 8        65.974          51.000
E05  25407585.594 5 133517763.838 5     -1938.910          34.000    25407589.477 5 102305830.967 5     -1485.449          33.000
E08                                                                  24037839.867 5  96790424.796 5      1535.943          32.000
E15  24160086.164 8 126962100.632 8     -1403.676          51.000    24160090.859 8  97282664.525 8     -1075.571          51.000
E25  27298882.555 7 143456602.536 7      2735.617          45.000    27298888.305 7 109921403.292 7      2096.275          46.000
> 2020 05 14 23 33  0.0000000  0 15        .000000000000
G04  21216403.859 8 111492954.784 8     -2034.805          50.000    21216403.680 7  86877623.591 7     -1585.562          45.000
G06  21082804.773 6 110790900.445 6       406.035          37.000    21082803.484 6  86330548.994 6       316.394          36.000
G07  22828522.062 8 119964692.010 8      3012.910          50.000    22828520.125 8  93478976.298 8      2347.719          50.000
G09  20268215.461 8 106510298.444 8       109.840          51.000    20268216.414 8  82995033.308 8        85.589          51.000
G19  24530276.133 6 128907467.829 6     -3201.961          38.000    24530273.703 5 100447346.762 5     -2495.025          31.000
R21  21528813.359 8 115205042.356 8     -3629.449          49.000    21528814.828 7  89603902.299 7     -2822.908          46.000
C14  23560441.906 5 122685394.074 5     -2095.973          31.000    23560440.148 5  94868117.058 5     -1620.851          33.000
C24  23629602.070 6 123045543.657 6       683.859          38.000
C25  24664780.023 8 128435990.985 8      3084.176          50.000
C26  25188033.766 5 131160721.859 5     -1960.371          33.000
C27  24072173.664 4 125350092.972 4     -1188.430          29.000
C28  25139430.391 5 130907778.713 5     -3091.699          30.000
E03  23431061.180 8 123131064.109 8        65.406          51.000    23431062.977 8  94347267.286 8        50.102          51.000
E15  24168170.867 8 127004587.476 8     -1431.570          51.000    24168175.461 8  97315219.371 8     -1096.938          51.000
E25  27283309.555 7 143374763.269 7      2717.469          46.000    27283314.406 7 109858695.342 7      2082.165          46.000
> 2020 05 14 23 33 30.0000000  0 17        .000000000000
G04  21227975.297 8 111553762.944 8     -2024.176          51.000    21227975.188 7  86925006.561 7     -1577.280          45.000
G06  21080471.258 6 110778640.527 6       405.645          37.000    21080470.656 6  86320995.801 6       316.090          37.000
G07  22811274.453 8 119874054.903 8      3024.320          51.000    22811272.984 8  93408349.981 8      2356.613          50.000
G09  20267555.203 8 106506829.616 8       116.293          51.000    20267556.234 8  82992330.341 8        90.618          51.000
G19  24548495.562 5 129003212.520 5     -3186.359          35.000    24548492.539 5 100521952.919 5     -2482.896          33.000
R15  21834250.430 5 116675558.772 5     -1203.168          33.000    21834255.500 5  90747690.017 5      -935.800          30.000
R16  21194797.508 5 113218793.328 5      2689.234          34.000    21194800.953 4  88059080.082 4      2091.630          27.000
R21  21549131.781 8 115313770.172 8     -3624.395          50.000    21549133.688 7  89688468.379 7     -2818.970          47.000
C14  23572464.453 5 122747976.197 5     -2081.270          33.000    23572459.414 6  94916509.578 6     -1609.055          36.000
C24  23625639.555 6 123024904.725 6       687.039          36.000
C25  24646956.703 8 128343174.947 8      3098.352          51.000
C26  25199293.805 5 131219363.396 5     -1954.031          35.000
C27  24078950.836 6 125385406.712 6     -1184.398          37.000
E03  23430635.086 8 123128824.322 8        78.750          51.000    23430636.516 8  94345551.090 8        60.404          51.000
E08  24015038.820 5 126199853.609 5      2002.160          34.000    24015045.086 5  96698628.329 5      1533.976          32.000
E15  24176310.445 8 127047362.064 8     -1425.219          51.000    24176314.133 8  97347994.689 8     -1092.057          51.000
E25  27267736.281 7 143292922.686 7      2733.371          46.000    27267740.703 7 109795986.331 7      2094.488          46.000
> 2020 05 14 23 34  0.0000000  0 16        .000000000000
G04  21239586.203 8 111614778.558 8     -2038.758          51.000    21239586.148 7  86972551.190 7     -1588.642          45.000
G06  21078239.930 6 110766913.810 6       380.750          38.000    21078240.297 6  86311858.116 6       296.691          37.000
G07  22794062.336 8 119783603.215 8      3010.570          51.000    22794060.906 8  93337868.175 8      2345.899          51.000
G09  20266958.977 8 106503696.398 8        97.367          51.000    20266959.945 8  82989888.886 8        75.871          51.000
R16  21179784.781 6 113138586.686 6      2662.891          36.000    21179786.023 4  87996697.163 4      2071.140          28.000
R21  21569522.352 8 115422882.353 8     -3644.902          48.000    21569524.492 7  89773333.406 7     -2834.924          46.000
C14                                                                  23584492.758 5  94964958.573 5     -1616.933          33.000
C24  23621758.320 6 123004696.881 6       664.590          36.000
C25  24629152.586 8 128250460.954 8      3087.324          51.000
C26  25210618.383 5 131278334.995 5     -1972.242          33.000
C27  24085852.664 6 125421315.970 6     -1204.855          37.000
E03  23430232.383 8 123126708.631 8        67.078          51.000    23430233.914 8  94343930.000 8        51.365          51.000
E05  25440897.219 6 133692816.903 6     -1946.145          37.000
E08                                                                  24003658.070 5  96652764.168 5      1527.331          33.000
E15  24184514.320 8 127090474.003 8     -1444.016          51.000    24184517.352 8  97381028.505 8     -1106.486          51.000
E25  27252172.656 7 143211133.594 7      2723.988          46.000    27252177.164 7 109733316.775 7      2087.224          47.000
> 2020 05 14 23 34 30.0000000  0 18        .000000000000
G04  21251254.797 8 111676097.178 8     -2049.246          50.000    21251254.695 7  87020331.922 7     -1596.815          45.000
G06  21076128.250 6 110755818.475 6       358.918          39.000    21076128.023 6  86303212.464 6       279.679          37.000
G07  22776904.414 8 119693436.606 8      3000.527          51.000    22776902.633 8  93267608.523 8      2338.076          51.000
G09  20266445.086 8 106500995.348 8        82.605          51.000    20266445.977 8  82987784.176 8        64.368          51.000
G19  24584980.820 5 129194945.048 5     -3200.680          31.000
R06  19621336.930 5 104703218.126 5      -429.121          34.000
R15  21848115.273 5 116749703.567 5     -1261.648          30.000    21848112.414 5  90805315.509 5      -981.282          30.000
R16  21164891.914 5 113059028.864 5      2640.590          34.000    21164894.609 4  87934818.934 4      2053.798          28.000
R21  21590002.516 7 115532473.544 7     -3661.258          47.000    21590004.148 7  89858570.970 7     -2847.645          44.000
C14  23596558.398 5 122873477.260 5     -2097.684          32.000
C24  23617980.562 5 122985017.522 5       646.852          34.000
C25  24611386.344 8 128157947.781 8      3080.137          51.000
C26  25222025.188 5 131337731.230 5     -1987.469          33.000
C27  24092846.281 5 125457708.554 5     -1221.191          35.000
E03  23429871.797 8 123124813.973 8        59.262          51.000    23429873.555 8  94342478.276 8        45.453          51.000
E05  25452018.094 5 133751259.292 5     -1950.020          33.000
E15  24192800.953 8 127134019.598 8     -1459.008          51.000    24192803.773 8  97414394.604 8     -1117.905          51.000
E25  27236637.602 7 143129495.422 7      2718.496          46.000    27236642.344 7 109670762.871 7      2082.983          47.000
> 2020 05 14 23 35  0.0000000  0 13        .000000000000
G04  21262954.883 8 111737581.347 8     -2056.141          50.000    21262954.766 7  87068241.663 7     -1602.184          45.000
G06  21074111.000 6 110745219.356 6       340.875          39.000    21074110.445 6  86294953.430 6       265.623          37.000
G07  22759775.094 8 119603421.564 8      2994.066          50.000    22759773.109 8  93197466.990 8      2333.042          50.000
G09  20265987.336 8 106498589.830 8        71.305          51.000    20265988.344 8  82985909.783 8        55.565          51.000
R06  19623753.953 6 104716114.219 6      -437.273          37.000
R21  21610544.633 7 115642400.828 7     -3673.832          45.000    21610545.281 7  89944069.978 7     -2857.422          42.000
C14  23608629.383 4 122936336.278 4     -2100.305          29.000
C24  23614275.109 5 122965732.472 5       632.547          33.000
C25  24593632.773 8 128065503.208 8      3076.367          50.000
C26  25233487.312 5 131397415.702 5     -1998.547          33.000
E03  23429527.562 8 123123004.031 8        54.941          51.000    23429529.312 8  94341091.452 8        42.074          51.000
E15  24201144.086 8 127177861.876 8     -1470.379          51.000    24201147.180 8  97447988.050 8     -1126.615          51.000
E25  27221105.805 7 143047874.342 7      2716.371          46.000    27221110.531 7 109608222.069 7      2081.492          46.000
> 2020 05 14 23 35 30.0000000  0 14        .000000000000
G03  23321527.242 5 122555453.391 5     -2891.844          33.000    23321533.141 5  95497795.825 5     -2253.394          33.000
G04  21274730.641 8 111799463.262 8     -2066.883          50.000    21274730.578 7  87116461.338 7     -1610.558          45.000
G06  21072233.273 6 110735350.851 6       319.238          39.000    21072230.609 5  86287263.714 5       248.763          35.000
G07  22742719.234 8 119513794.004 8      2983.461          48.000    22742717.555 8  93127627.374 8      2324.775          48.000
G09  20265630.281 8 106496713.151 8        56.312          51.000    20265631.227 8  82984447.423 8        43.877          51.000
R06  19626252.148 5 104729457.793 5      -449.969          32.000
R21  21631192.312 7 115752897.662 7     -3690.266          45.000    21631193.273 6  90030011.944 6     -2870.207          41.000
C24  23610691.555 6 122947074.551 6       614.031          38.000
C25  24575937.180 8 127973361.305 8      3068.809          49.000
C26  25245048.727 6 131457618.381 6     -2012.836          36.000
E03  23429243.938 8 123121512.320 8        46.797          51.000    23429245.477 8  94339948.456 8        35.845          51.000
E05  25474294.219 6 133868352.929 6     -1954.941          37.000
E15  24209588.023 8 127222233.494 8     -1485.406          51.000    24209591.438 8  97481987.111 8     -1138.165          51.000
E25  27205622.008 7 142966506.314 7      2710.258          46.000    27205626.242 7 109545875.202 7      2076.784          44.000
> 2020 05 14 23 36  0.0000000  0 18        .000000000000
G03  23338056.977 5 122642318.296 5     -2893.574          30.000    23338060.578 5  95565455.600 5     -2254.733          32.000
G04  21286561.352 8 111861634.219 8     -2071.609          50.000    21286561.258 7  87164906.240 7     -1614.241          44.000
G06  21070474.352 6 110726106.607 6       303.203          41.000    21070470.562 6  86280060.395 6       236.262          37.000
G07  22725716.883 7 119424449.369 7      2978.785          47.000    22725715.844 7  93058008.218 7      2321.134          47.000
G09  20265353.312 8 106495257.555 8        46.918          51.000    20265354.242 8  82983313.187 8        36.559          51.000
R06  19628814.125 5 104743139.976 5      -456.891          33.000
R16  21120908.703 6 112824106.506 6      2582.895          36.000    21120906.320 4  87752061.991 4      2008.918          29.000
R21  21651926.227 7 115863850.696 7     -3700.281          46.000    21651927.898 7  90116308.724 7     -2877.997          42.000
C14  23632911.867 5 123062781.180 5     -2107.262          30.000    23632918.023 5  95159954.983 5     -1629.094          34.000
C24  23607207.438 5 122928938.291 5       601.223          35.000
C25  24558279.516 7 127881418.404 7      3066.922          47.000
C26  25256689.109 6 131518231.449 6     -2022.020          36.000
C27  24114315.805 4 125569542.996 4     -1262.340          28.000
C28  25246134.766 5 131463243.312 5     -3091.699          31.000
E03  23429000.164 8 123120231.438 8        44.672          51.000    23429001.656 8  94338967.005 8        34.217          51.000
E05  25485483.609 5 133927083.811 5     -1953.035          35.000
E15  24218112.141 8 127267026.503 8     -1494.629          51.000    24218115.609 8  97516309.029 8     -1145.271          51.000
E25  27190165.875 7 142885286.408 7      2710.426          43.000    27190169.977 7 109483641.820 7      2076.814          44.000
> 2020 05 14 23 36 30.0000000  0 17        .000000000000
G04  21298424.242 8 111923974.371 8     -2083.688          50.000    21298424.070 7  87213482.992 7     -1623.653          45.000
G06  21068812.141 6 110717368.974 6       279.953          39.000    21068807.867 6  86273251.884 6       218.148          38.000
G07  22708746.047 7 119335271.188 7      2966.828          45.000    22708745.750 7  92988518.741 7      2311.814          44.000
G09  20265133.859 8 106494104.024 8        30.527          51.000    20265134.891 8  82982414.357 8        23.788          51.000
R06  19631418.984 5 104757040.284 5      -469.988          34.000
R16  21106474.109 6 112747006.122 6      2558.113          37.000    21106474.148 5  87692095.148 5      1989.644          30.000
R21  21672722.188 7 115975134.599 7     -3717.758          45.000    21672724.148 7  90202862.881 7     -2891.589          42.000
R22  20919071.656 4 111667423.905 4        59.121          27.000
C24  23603801.844 6 122911207.245 6       581.305          37.000
C25  24540637.961 7 127789559.823 7      3057.754          46.000
C26  25268385.750 5 131579135.989 5     -2037.605          35.000
C27  24121645.781 5 125607774.882 5     -1279.359          30.000
C28  25263965.406 5 131556084.652 5     -3097.570          34.000
E03  23428773.711 8 123119042.745 8        35.309          51.000    23428775.516 8  94338056.192 8        26.986          51.000
E08  23947062.562 5 125842663.965 5      1972.859          35.000
E15  24226693.680 8 127312121.528 8     -1511.105          51.000    24226696.656 8  97550862.360 8     -1157.851          51.000
E25  27174715.766 7 142804098.679 7      2702.602          42.000    27174720.492 7 109421433.076 7      2070.899          45.000
> 2020 05 14 23 37  0.0000000  0 16        .000000000000
G04  21310354.789 8 111986669.802 8     -2092.930          50.000    21310354.562 7  87262336.577 7     -1630.851          44.000
G06  21067281.805 6 110709326.294 6       259.273          38.000    21067278.281 6  86266984.932 6       202.034          38.000
G07  22691842.742 7 119246449.807 7      2957.602          43.000    22691843.727 7  92919307.279 7      2304.625          42.000
G09  20265007.578 8 106493439.708 8        16.770          51.000    20265008.500 8  82981896.711 8        13.067          51.000
R06  19634100.914 5 104771349.115 5      -480.816          33.000
R16  21092177.695 6 112670635.567 6      2536.590          39.000    21092177.984 5  87632695.874 5      1972.903          31.000
R21  21693614.938 7 116086936.165 7     -3732.359          45.000    21693617.109 7  90289819.675 7     -2902.946          42.000
C14  23657278.031 5 123189684.367 5     -2120.062          30.000
C24  23600511.641 5 122894068.247 5       564.277          34.000
C25  24523049.055 7 127697973.938 7      3051.020          47.000
C26  25280174.523 5 131640516.328 5     -2051.434          32.000
C27  24129073.617 4 125646415.304 4     -1294.871          28.000
C28  25281826.906 5 131649095.316 5     -3100.098          34.000
E03  23428600.281 8 123118133.640 8        28.512          50.000    23428602.664 8  94337359.613 8        21.832          51.000
E15  24235368.172 8 127357705.076 8     -1524.703          51.000    24235370.727 8  97585790.011 8     -1168.267          51.000
E25  27159308.055 7 142723132.849 7      2698.094          42.000    27159313.711 7 109359394.350 7      2067.275          45.000
> 2020 05 14 23 37 30.0000000  0 15        .000000000000
G04  21322324.492 8 112049570.773 8     -2102.906          50.000    21322324.094 7  87311350.320 7     -1638.628          44.000
G06  21065855.719 6 110701831.153 6       237.695          39.000    21065854.336 6  86261144.549 6       185.220          39.000
G07  22674980.312 7 119157839.876 7      2947.379          45.000    22674981.930 7  92850260.569 7      2296.659          45.000
G09  20264945.969 8 106493115.767 8         2.320          51.000    20264946.617 8  82981644.288 8         1.808          51.000
R06  19636831.523 5 104785916.545 5      -492.734          35.000
R16  21077989.188 5 112594848.163 5      2513.555          30.000    21077989.633 5  87573750.155 5      1954.993          30.000
R21  21714576.008 7 116199100.107 7     -3747.703          45.000    21714577.789 7  90377058.272 7     -2914.880          42.000
C14  23669491.352 5 123253256.981 5     -2125.270          31.000    23669492.625 5  95307241.852 5     -1643.342          33.000
C24  23597311.305 5 122877409.897 5       545.711          33.000
C25  24505485.570 8 127606516.428 8      3043.551          48.000
C26  25292025.602 5 131702224.069 5     -2065.047          30.000
C28  25299692.008 6 131742125.986 6     -3103.535          36.000
E03  23428452.055 8 123117355.651 8        20.844          51.000    23428454.648 8  94336763.499 8        15.998          51.000
E15  24244107.305 8 127403628.084 8     -1539.227          51.000    24244109.766 8  97620977.755 8     -1179.398          51.000
E25  27143914.938 6 142642243.096 6      2692.102          41.000    27143921.797 7 109297413.877 7      2062.932          46.000
> 2020 05 14 23 38  0.0000000  0 17        .000000000000
G04  21334358.531 8 112112810.055 8     -2113.594          49.000    21334357.867 7  87360627.697 7     -1646.956          43.000
G06  21064559.867 6 110695018.387 6       215.613          39.000    21064558.656 6  86255835.924 6       168.010          39.000
G07  22658184.844 7 119069577.716 7      2936.176          47.000    22658186.492 7  92781484.869 7      2287.929          47.000
G09  20264974.477 8 106493265.897 8       -13.008          51.000    20264975.055 8  82981761.283 8       -10.136          51.000
R05  22949021.719 5 122675651.336 5     -2964.934          32.000
R06  19639635.820 6 104800878.062 6      -505.449          36.000
R16  21063935.344 5 112519784.729 5      2489.168          31.000    21063938.273 5  87515367.405 5      1936.010          31.000
R21  21735630.398 7 116311758.537 7     -3763.488          46.000    21735630.922 7  90464681.445 7     -2927.161          43.000
C14  23681758.547 5 123317107.457 5     -2132.594          32.000    23681753.125 5  95356615.013 5     -1648.649          32.000
C24  23594214.445 4 122861296.715 4       527.719          28.000
C25  24487973.586 8 127515322.857 8      3035.305          50.000
C27  24144175.523 5 125725046.271 5     -1327.664          34.000
C28  25317584.406 6 131835307.307 6     -3108.785          37.000
E03  23428354.492 8 123116842.754 8        12.668          51.000    23428356.820 8  94336370.496 8         9.710          51.000
E08  23913370.070 5 125665606.792 5      1958.355          34.000
E15  24252936.352 8 127450023.771 8     -1554.430          51.000    24252938.828 8  97656527.695 8     -1191.051          51.000
E25  27128562.320 6 142561565.770 6      2685.488          41.000    27128570.039 7 109235596.169 7      2057.799          45.000
> 2020 05 14 23 38 30.0000000  0 14        .000000000000
G04  21346431.766 8 112176255.871 8     -2120.199          49.000    21346431.203 7  87410065.989 7     -1652.103          44.000
G06  21063369.062 6 110688758.401 6       197.465          41.000    21063367.797 7  86250958.028 7       153.869          42.000
G07  22641431.547 8 118981534.842 8      2929.176          49.000    22641432.664 8  92712880.062 8      2282.475          49.000
G09  20265068.375 8 106493759.185 8       -24.078          51.000    20265068.984 8  82982145.680 8       -18.762          51.000
R06  19642489.367 5 104816101.646 5      -513.770          33.000
R16  21049993.570 5 112445315.901 5      2470.746          32.000    21049998.016 5  87457447.125 5      1921.694          30.000
R21  21756751.727 7 116424774.086 7     -3775.105          45.000    21756751.484 7  90552582.428 7     -2936.190          43.000
C24  23591200.000 5 122845580.961 5       512.250          35.000
C25  24470488.258 8 127424266.536 8      3031.000          50.000
C27  24151849.836 5 125765013.533 5     -1340.672          32.000
C28  25335479.820 6 131928507.783 6     -3108.820          39.000
E03  23428282.539 8 123116464.442 8         8.559          51.000    23428284.555 8  94336080.615 8         6.513          51.000
E15  24261829.922 8 127496760.758 8     -1565.453          51.000    24261832.688 8  97692339.149 8     -1199.494          51.000
E25  27113226.102 6 142480972.924 6      2683.273          41.000    27113233.781 7 109173843.208 7      2055.943          44.000
> 2020 05 14 23 39  0.0000000  0 16        .000000000000
G04  21358553.828 8 112239957.693 8     -2127.223          49.000    21358553.539 7  87459703.748 7     -1657.576          43.000
G06  21062293.398 7 110683102.748 7       179.031          43.000    21062292.719 7  86246551.014 7       139.505          43.000
G07  22624730.336 8 118893765.311 8      2921.633          51.000    22624730.336 8  92644488.228 8      2276.597          50.000
G09  20265237.211 8 106494645.977 8       -35.457          51.000    20265237.766 8  82982836.695 8       -27.629          51.000
R05  22982285.414 5 122853478.530 5     -2965.160          31.000    22982294.477 4  95552740.827 4     -2306.242          26.000
R06  19645401.680 5 104831639.192 5      -522.531          33.000
R16  21036175.031 6 112371497.393 6      2450.074          39.000    21036179.562 5  87400032.762 5      1905.616          34.000
R21  21777947.453 7 116538194.409 7     -3786.805          44.000    21777947.477 7  90640798.238 7     -2945.293          43.000
C14  23706338.953 5 123445105.061 5     -2137.441          35.000    23706337.438 5  95455592.821 5     -1652.896          32.000
C24  23588288.289 5 122830421.893 5       497.414          34.000
C25  24453039.164 8 127333400.572 8      3026.203          50.000
C27  24159605.945 4 125805411.717 4     -1352.766          28.000
C28  25353387.836 6 132021775.571 6     -3109.402          37.000
E03  23428245.805 8 123116271.404 8         3.844          51.000    23428247.773 8  94335932.713 8         2.975          51.000
E15  24270797.344 8 127543889.019 8     -1576.891          51.000    24270800.398 8  97728450.404 8     -1208.231          51.000
E25  27097916.555 6 142400517.784 6      2680.195          41.000    27097923.180 7 109112195.783 7      2053.539          42.000
> 2020 05 14 23 39 30.0000000  0 16        .000000000000
G04  21370731.930 8 112303954.018 8     -2135.949          48.000    21370731.969 7  87509571.011 7     -1664.376          43.000
G06  21061340.578 7 110678092.085 7       158.273          43.000    21061338.727 7  86242646.587 7       123.330          43.000
G07  22608089.070 8 118806311.311 8      2912.031          51.000    22608087.852 8  92576342.280 8      2269.115          50.000
G09  20265488.398 8 106495965.766 8       -49.074          51.000    20265488.945 8  82983865.101 8       -38.240          51.000
R06  19648379.938 5 104847530.955 5      -533.371          33.000
R16  21022486.625 6 112298374.214 6      2428.082          38.000    21022491.445 5  87343159.270 5      1888.511          33.000
R21  21799225.023 7 116652055.597 7     -3800.254          42.000    21799225.141 7  90729356.924 7     -2955.753          42.000
C14  23718677.406 5 123509351.032 5     -2142.707          33.000
C24  23585481.414 6 122815806.078 6       480.293          39.000
C25  24435634.273 8 127242767.094 8      3019.441          49.000
C27  24167454.508 5 125846291.216 5     -1367.766          31.000
C28  25371316.172 5 132115147.972 5     -3111.855          35.000
E03  23428251.992 8 123116303.432 8        -2.543          51.000    23428254.031 8  94335957.270 8        -1.978          51.000
E05  25564034.594 5 134339922.746 5     -1973.762          35.000    25564047.922 6 102935816.047 6     -1512.129          37.000
E15  24279846.703 8 127591447.532 8     -1590.195          51.000    24279849.633 8  97764891.332 8     -1218.479          51.000
E25  27082641.148 6 142320242.630 6      2675.043          40.000    27082646.289 7 109050686.294 7      2049.636          42.000
> 2020 05 14 23 40  0.0000000  0 17        .000000000000
G04  21382948.258 8 112368151.261 8     -2144.004          48.000    21382948.406 7  87559594.848 7     -1670.649          43.000
G06  21060492.773 7 110673634.940 7       138.594          42.000    21060489.859 6  86239173.457 6       107.992          41.000
G07  22591490.453 8 118719082.913 8      2903.238          50.000    22591488.273 8  92508372.129 8      2262.264          50.000
G09  20265804.289 8 106497625.796 8       -61.676          51.000    20265804.859 8  82985158.639 8       -48.059          51.000
R06  19651406.305 5 104863683.450 5      -543.613          34.000
R16  21008911.688 6 112225856.421 6      2406.539          36.000    21008915.953 5  87286756.546 5      1871.750          33.000
R21  21820566.180 6 116766259.464 6     -3813.148          41.000    21820566.492 6  90818182.151 6     -2965.782          41.000
R22  20920643.625 5 111675794.671 5      -136.859          33.000    20920635.422 4  86858939.618 4      -106.440          28.000
C14  23731028.312 5 123573680.687 5     -2146.637          31.000    23731046.234 5  95555055.692 5     -1660.088          33.000
C24  23582760.398 5 122801642.767 5       463.234          32.000
C25  24418256.625 7 127152277.441 7      3013.098          47.000
C27  24175379.492 5 125887553.090 5     -1382.250          33.000
C28  25389248.133 5 132208531.358 5     -3113.031          33.000
E03  23428283.516 8 123116468.250 8        -8.281          51.000    23428285.547 8  94336083.561 8        -6.366          51.000
E05  25575300.188 5 134399137.740 5     -1975.414          35.000    25575321.203 6 102981205.248 6     -1513.788          36.000
E15  24288960.695 8 127639343.167 8     -1602.875          51.000    24288963.641 8  97801590.572 8     -1228.147          51.000
E25  27067382.797 6 142240057.540 6      2670.891          40.000    27067386.398 6 108989245.835 6      2046.386          41.000
> 2020 05 14 23 40 30.0000000  0 16        .000000000000
G04  21395216.477 8 112432620.821 8     -2153.102          48.000    21395216.492 7  87609830.883 7     -1677.741          44.000
G06  21059763.898 7 110669804.645 7       117.762          43.000    21059760.523 7  86236188.816 7        91.762          42.000
G07  22574948.312 7 118632155.818 7      2893.008          47.000    22574946.031 7  92440636.732 7      2254.292          47.000
G09  20266198.625 8 106499698.386 8       -75.457          51.000    20266199.312 8  82986773.656 8       -58.798          51.000
R06  19654495.672 5 104880170.354 5      -554.973          35.000
R07  21056149.344 4 112715213.043 4      2180.676          29.000    21056141.719 4  87667365.729 4      1696.081          25.000
R21  21841982.234 6 116880875.650 6     -3826.902          39.000    21841985.523 7  90907328.157 7     -2976.474          42.000
C14  23743412.172 5 123638166.100 5     -2151.605          31.000    23743426.023 5  95604919.723 5     -1663.468          34.000
C24  23580143.664 6 122788005.148 6       446.691          40.000
C25  24400919.648 7 127062006.346 7      3006.004          42.000
C27  24183391.812 5 125929268.012 5     -1397.316          35.000
C28  25407196.977 5 132301995.458 5     -3116.527          32.000
E03  23428354.070 8 123116838.463 8       -15.238          51.000    23428356.008 8  94336367.232 8       -11.751          51.000
E05  25586583.352 5 134458402.457 5     -1978.746          30.000    25586612.172 5 103026663.196 5     -1515.859          33.000
E15  24298152.844 8 127687647.756 8     -1616.484          51.000    24298156.391 8  97838603.165 8     -1238.563          51.000
E25  27052155.312 6 142160037.739 6      2665.055          38.000    27052158.383 6 108927932.013 6      2042.052          41.000
> 2020 05 14 23 41  0.0000000  0 16        .000000000000
G04  21407530.102 8 112497328.767 8     -2159.293          48.000    21407529.992 7  87660252.651 7     -1682.566          44.000
G06  21059147.875 6 110666569.301 6        99.766          41.000    21059144.867 7  86233667.731 7        77.736          42.000
G07  22558457.086 7 118545499.280 7      2885.773          46.000    22558455.703 7  92373112.111 7      2248.655          46.000
G09  20266665.211 8 106502150.332 8       -86.441          51.000    20266665.844 8  82988684.266 8       -67.357          51.000
R06  19657642.078 5 104896958.907 5      -563.176          35.000
R15  21952236.375 5 117306080.958 5     -1588.438          31.000    21952252.812 4  91238141.156 4     -1235.451          25.000
R21  21863468.469 6 116995866.561 6     -3837.594          41.000    21863474.789 6  90996765.565 6     -2984.795          39.000
C05  39777076.742 5 207129676.000 5       -23.133          35.000
C14  23755819.219 5 123702775.049 5     -2154.336          30.000
C24  23577620.055 5 122774861.654 5       431.191          34.000
C25  24383615.109 5 126971924.278 5      3001.047          35.000
C27  24191483.523 5 125971402.347 5     -1409.195          33.000
C28  25425154.852 5 132395505.809 5     -3116.910          30.000
E03  23428457.414 8 123117381.302 8       -19.301          51.000    23428459.172 8  94336783.178 8       -14.762          51.000
E15  24307416.656 8 127736327.620 8     -1627.227          51.000    24307421.023 8  97875903.311 8     -1246.839          51.000
E25  27036953.531 6 142080153.038 6      2662.164          39.000    27036956.406 6 108866721.695 6      2039.921          41.000
> 2020 05 14 23 41 30.0000000  0 20        .000000000000
G04  21419869.461 7 112562172.084 7     -2171.570          47.000    21419869.445 7  87710779.899 7     -1692.133          44.000
G06  21058625.664 7 110663827.845 7        75.020          42.000    21058624.008 6  86231531.520 6        58.457          41.000
G07  22541999.805 8 118459014.777 8      2871.836          49.000    22541998.617 8  92305721.588 8      2237.794          49.000
G09  20267184.633 8 106504879.574 8      -103.543          51.000    20267185.117 8  82990810.952 8       -80.683          51.000
R06  19660825.875 6 104913946.141 6      -577.195          37.000
R07  21031765.805 5 112584652.823 5      2165.414          30.000
R16  20968914.750 5 112012163.743 5      2336.070          32.000    20968919.711 4  87120589.590 4      1816.947          29.000
R21  21885007.016 7 117111124.595 7     -3854.438          43.000    21885013.453 6  91086410.697 6     -2997.899          36.000
R22  20923638.734 4 111691804.073 4      -223.020          29.000
C05  39777200.000 5 207130317.286 5       -27.418          35.000
C14  23768229.266 4 123767406.980 4     -2163.125          27.000
C24  23575172.039 5 122762112.160 5       410.406          34.000
C25  24366331.273 6 126881932.911 6      2990.203          41.000
C26  25389466.469 5 132209622.510 5     -2166.121          30.000
C27  24199634.727 4 126013853.804 4     -1427.734          29.000
C28  25443103.219 5 132488959.401 5     -3121.965          30.000
E03  23428574.383 8 123117995.092 8       -29.609          51.000    23428575.875 8  94337253.486 8       -22.676          51.000
E05  25609187.797 5 134577182.971 5     -1985.242          35.000
E15  24316732.539 8 127785280.300 8     -1644.254          51.000    24316737.375 8  97913412.517 8     -1259.904          51.000
E25  27021758.469 6 142000304.149 6      2653.160          37.000    27021761.875 7 108805538.753 7      2032.854          42.000
> 2020 05 14 23 42  0.0000000  0 16        .000000000000
G04  21432286.445 7 112627424.042 7     -2180.570          46.000    21432286.688 7  87761625.592 7     -1699.146          43.000
G06  21058249.992 6 110661855.593 6        54.160          41.000    21058249.273 6  86229994.720 6        42.203          41.000
G07  22525628.445 8 118372978.993 8      2861.465          51.000    22525627.219 8  92238680.749 8      2229.713          51.000
G09  20267808.984 8 106508160.294 8      -117.316          51.000    20267809.438 8  82993367.359 8       -91.415          51.000
R06  19664099.648 6 104931411.048 6      -588.902          39.000
R16  20955852.672 6 111942375.169 6      2313.539          37.000
R21  21906647.789 7 117226924.748 7     -3867.824          42.000    21906653.180 5  91176477.388 5     -3008.314          32.000
C05  39777353.469 5 207131117.094 5       -28.016          35.000    39777348.430 5 160166899.938 5       -21.733          35.000
C14  23780697.359 4 123832333.919 4     -2167.523          29.000
C24  23572852.695 5 122750030.037 5       392.969          31.000
C25  24349121.203 7 126792307.084 7      2982.555          47.000
C26  25401974.680 5 132274763.589 5     -2179.137          30.000
E03  23428757.008 8 123118954.385 8       -36.512          51.000    23428758.391 8  94337988.533 8       -27.977          51.000
E08                                                                  23824498.570 5  95931386.727 5      1476.802          35.000
E15  24326152.125 8 127834779.386 8     -1657.855          51.000    24326156.797 8  97951340.409 8     -1270.326          51.000
E25  27006622.695 6 141920767.987 6      2647.156          38.000    27006627.133 6 108744595.432 6      2028.451          41.000
> 2020 05 14 23 42 30.0000000  0 17        .000000000000
G04  21444745.367 7 112692897.178 7     -2185.820          44.000    21444746.117 7  87812643.645 7     -1703.234          43.000
G06  21057985.078 6 110660466.950 6        37.352          39.000    21057985.031 6  86228912.714 6        29.108          39.000
G07  22509307.383 8 118287208.308 8      2855.000          51.000    22509306.195 8  92171846.499 8      2224.678          51.000
G09  20268502.664 8 106511805.744 8      -127.184          51.000    20268503.125 8  82996207.985 8       -99.101          51.000
R06  19667427.234 6 104949164.443 6      -596.031          38.000
R15  21979647.086 5 117452550.495 5     -1665.336          33.000    21979652.008 4  91351992.869 4     -1295.258          26.000
R16  20942912.578 6 111873238.884 6      2294.180          36.000
R21  21928353.242 6 117343073.248 6     -3876.816          39.000    21928359.172 5  91266814.954 5     -3015.305          31.000
R22  20926440.023 5 111706819.941 5      -276.492          35.000    20926440.008 5  86883051.212 5      -215.046          30.000
C05  39777501.656 5 207131888.275 5       -25.211          35.000    39777496.086 5 160167492.039 5       -19.431          35.000
C14  23793189.109 5 123897371.610 5     -2169.398          31.000
C25  24331947.289 8 126702864.968 8      2978.719          49.000
C26  25414549.484 5 132340245.259 5     -2187.895          31.000
E03  23428969.820 8 123120072.891 8       -39.559          51.000    23428971.141 8  94338845.590 8       -30.353          51.000
E08                                                                  23813491.180 5  95887068.641 5      1476.206          35.000
E15  24335639.602 8 127884637.869 8     -1667.574          51.000    24335643.922 8  97989543.677 8     -1277.689          51.000
E25  26991512.547 6 141841360.878 6      2645.070          40.000    26991517.414 7 108683750.994 7      2026.736          42.000
> 2020 05 14 23 43  0.0000000  0 18        .000000000000
G04  21457240.695 7 112758561.409 7     -2193.660          44.000    21457241.695 7  87863810.620 7     -1709.343          43.000
G06  21057825.531 6 110659633.888 6        16.461          37.000    21057826.312 6  86228263.597 6        12.830          38.000
G07  22493031.578 8 118201676.483 8      2845.340          51.000    22493030.164 8  92105198.380 8      2217.148          51.000
G09  20269260.312 8 106515786.772 8      -139.934          51.000    20269260.547 8  82999310.083 8      -109.039          51.000
R06  19670802.906 6 104967177.430 6      -606.531          36.000
R15  21989060.609 5 117502838.170 5     -1689.637          32.000
R16  20930088.016 6 111804729.097 6      2271.352          41.000    20930084.523 4  86959251.765 4      1766.616          26.000
R21  21950116.703 6 117459536.275 6     -3888.879          40.000    21950124.062 5  91357397.333 5     -3024.681          32.000
C05  39777639.438 5 207132605.670 5       -24.910          35.000    39777633.719 5 160168046.762 5       -19.335          35.000
C14  23805696.922 4 123962491.477 4     -2172.863          28.000    23805697.133 5  95855663.206 5     -1681.008          33.000
C25  24314803.438 8 126613580.759 8      2971.891          50.000
C26  25427185.227 5 132406037.723 5     -2200.520          32.000
C27  24224651.102 5 126144147.417 5     -1468.938          30.000
E03  23429207.586 8 123121321.784 8       -45.539          51.000    23429208.602 8  94339802.547 8       -34.894          51.000
E05  25643213.500 6 134755971.366 6     -1989.789          38.000
E08                                                                  23802496.273 5  95842798.263 5      1473.291          33.000
E15  24345189.602 8 127934825.875 8     -1680.137          50.000    24345193.117 8  98027999.433 8     -1287.395          51.000
E25  26976422.086 7 141762056.509 7      2640.137          42.000    26976427.547 7 108622985.348 7      2022.950          44.000
> 2020 05 14 23 43 30.0000000  0 21        .000000000000
G04  21469781.594 7 112824463.590 7     -2199.082          44.000    21469782.117 7  87915162.965 7     -1713.570          42.000
G06  21057781.516 6 110659389.832 6         -.574          38.000    21057782.484 6  86228085.166 6         -.447          37.000
G07  22476810.719 8 118116434.214 8      2838.148          51.000    22476808.328 8  92038775.886 8      2211.544          51.000
G09  20270090.828 8 106520150.979 8      -150.242          51.000    20270090.867 8  83002710.770 8      -117.072          51.000
R06  19674235.883 5 104985498.736 5      -613.996          34.000
R15  21998608.477 5 117553860.528 5     -1711.621          34.000    21998608.820 4  91430806.596 4     -1331.264          27.000
R16  20917391.383 6 111736899.297 6      2251.273          39.000    20917392.578 5  86906495.311 5      1750.993          31.000
R21  21971948.773 7 117576358.445 7     -3898.379          42.000    21971955.250 5  91448259.022 5     -3032.076          34.000
R22  20929849.148 5 111725002.524 5      -329.516          30.000    20929848.953 4  86897234.403 4      -256.266          29.000
C05  39777775.961 5 207133316.931 5       -21.738          35.000    39777770.320 6 160168596.037 6       -17.027          36.000
C14                                                                  23818227.836 5  95906118.695 5     -1682.349          35.000
C24  23566441.141 5 122716677.323 5       347.719          34.000
C25  24297699.023 8 126524504.867 8      2967.332          51.000
C26  25439888.859 5 132472186.722 5     -2210.277          33.000
C27  24233138.047 4 126188327.309 4     -1479.113          28.000
C28  25515082.383 5 132863791.775 5     -3123.336          33.000
E03  23429479.414 8 123122749.167 8       -48.898          51.000    23429480.164 8  94340896.258 8       -37.462          51.000
E05  25654583.250 6 134815659.980 6     -1988.953          36.000    25654578.242 5 103300352.475 5     -1524.054          31.000
E08                                                                  23791523.383 5  95798604.640 5      1473.201          31.000
E15  24354811.531 8 127985390.616 8     -1690.129          50.000    24354814.219 8  98066743.832 8     -1295.061          51.000
E25  26961360.906 7 141682905.313 7      2637.445          42.000    26961366.555 7 108562337.045 7      2020.879          43.000
> 2020 05 14 23 44  0.0000000  0 20        .000000000000
G04  21482390.344 7 112890721.844 7     -2217.398          44.000    21482389.992 6  87966792.765 6     -1727.846          40.000
G06  21057875.766 6 110659884.967 6       -31.629          39.000    21057876.562 6  86228470.972 6       -24.649          39.000
G07  22460667.914 8 118031603.262 8      2817.879          50.000    22460664.141 8  91972673.892 8      2195.750          50.000
G09  20271016.859 8 106525017.219 8      -173.547          51.000    20271016.789 8  83006502.657 8      -135.231          51.000
R06  19677748.977 5 105004249.915 5      -634.406          30.000
R07  20971524.180 5 112262190.454 5      2125.809          33.000
R15  22008314.992 5 117605736.706 5     -1746.504          32.000
R16  20904844.531 6 111669873.688 6      2217.762          37.000    20904845.945 5  86854364.270 5      1724.926          31.000
R21  21993871.289 7 117693657.315 7     -3920.785          45.000    21993875.672 6  91539491.459 6     -3049.500          37.000
R22  20931806.914 5 111735460.935 5      -367.367          32.000    20931806.398 4  86905310.858 4      -285.730          24.000
C05  39777933.680 6 207134137.970 6       -31.938          36.000    39777928.258 5 160169232.670 5       -24.708          35.000
C14  23830815.016 5 124093309.288 5     -2190.387          34.000
C24  23564518.898 6 122706661.464 6       320.793          36.000
C25  24280657.039 8 126435758.214 8      2949.828          50.000
C26  25452683.180 5 132538808.857 5     -2231.457          31.000
C27  24241736.047 4 126233071.217 4     -1503.820          29.000
C28  25533108.883 4 132957603.626 4     -3134.727          29.000
E03  23429807.727 8 123124474.338 8       -65.469          51.000    23429808.711 8  94342218.139 8       -50.140          51.000
E15  24364527.789 8 128036450.535 8     -1713.199          49.000    24364530.367 8  98105867.661 8     -1312.708          51.000
E25  26946351.445 7 141604029.114 7      2621.543          42.000    26946356.672 7 108501899.446 7      2008.667          42.000
> 2020 05 14 23 44 30.0000000  0 18        .000000000000
G04  21495061.820 7 112957310.099 7     -2225.211          44.000    21495060.727 6  88018679.711 6     -1733.934          38.000
G06  21058103.664 6 110661079.990 6       -51.680          41.000    21058103.562 6  86229402.152 6       -40.270          41.000
G07  22444598.703 8 117947161.449 8      2808.191          49.000    22444594.469 8  91906875.095 8      2188.201          49.000
G09  20272033.703 8 106530360.469 8      -186.125          51.000    20272033.531 8  83010666.226 8      -145.032          51.000
R06  19681338.430 5 105023406.132 5      -644.883          31.000
R16  20892444.359 5 111603631.395 5      2194.848          35.000    20892444.055 5  86802842.479 5      1707.104          33.000
R21  22015877.766 7 117811403.055 7     -3932.180          46.000    22015880.195 6  91631071.455 6     -3058.365          38.000
R22  20933942.633 5 111746843.865 5      -394.801          35.000    20933944.508 4  86914185.431 4      -307.064          25.000
C05  39778108.344 5 207135047.550 5       -31.469          35.000    39778102.992 5 160169936.552 5       -24.787          35.000
C14                                                                  23843431.391 5  96007609.690 5     -1697.256          33.000
C24  23562708.352 5 122697244.933 5       303.781          34.000
C25  24263672.695 7 126347318.992 7      2942.723          47.000
C26  25465563.953 4 132605872.556 4     -2243.383          29.000
C27  24250434.617 4 126278361.956 4     -1516.961          28.000
C28  25551159.914 4 133051601.069 4     -3136.828          28.000
E03  23430187.750 8 123126472.562 8       -71.301          51.000    23430189.508 8  94343749.258 8       -54.612          51.000
E15  24374333.211 8 128087979.960 8     -1725.547          48.000    24374336.852 8  98145351.253 8     -1322.160          51.000
E25  26931389.711 7 141525405.722 7      2616.582          43.000    26931394.398 7 108441655.564 7      2004.916          42.000
> 2020 05 14 23 45  0.0000000  0 16        .000000000000
G04  21507741.789 7 113023943.490 7     -2223.953          42.000    21507740.445 6  88070601.824 6     -1732.954          39.000
G06  21058410.891 7 110662691.672 7       -62.492          42.000    21058409.766 7  86230657.985 7       -48.695          42.000
G07  22428549.852 8 117862827.568 8      2807.125          49.000    22428546.070 8  91841160.388 8      2187.370          49.000
G09  20273087.109 8 106535896.330 8      -189.738          51.000    20273086.867 8  83014979.885 8      -147.848          51.000
R06  19684950.250 5 105042679.286 5      -646.070          34.000
R16  20880137.805 6 111537887.831 6      2180.934          38.000    20880136.719 5  86751708.596 5      1696.276          33.000
R21  22037913.133 7 117929302.702 7     -3934.613          47.000    22037914.133 6  91722771.146 6     -3060.255          39.000
C05  39778245.922 6 207135763.780 6       -22.730          36.000    39778240.664 6 160170489.871 6       -17.682          36.000
C14  23856044.812 5 124224681.991 5     -2189.824          31.000
C24  23560959.672 5 122688147.396 5       295.734          31.000
C25  24246693.266 7 126258908.799 7      2944.418          47.000
C27  24259177.070 5 126323896.318 5     -1521.891          30.000
C28  25569181.805 5 133145449.048 5     -3128.395          31.000
E03  23430565.797 8 123128460.023 8       -68.113          51.000    23430568.188 8  94345272.129 8       -52.122          51.000
E15  24384173.992 8 128139694.097 8     -1728.934          49.000    24384178.555 8  98184976.393 8     -1324.752          51.000
E25  26916422.508 7 141446753.788 7      2620.098          42.000    26916427.133 7 108381389.782 7      2007.529          42.000
> 2020 05 14 23 45 30.0000000  0 19        .000000000000
G03  23658297.633 5 124325196.173 5     -3002.754          31.000    23658302.664 4  96876795.555 4     -2339.808          29.000
G04  21520466.328 7 113090811.589 7     -2231.344          42.000    21520465.508 6  88122706.842 6     -1738.712          38.000
G06  21058833.703 7 110664911.619 7       -82.734          43.000    21058832.703 7  86232387.823 7       -64.471          43.000
G07  22412558.438 8 117778794.865 8      2797.551          48.000    22412555.711 8  91775680.360 8      2179.910          48.000
G09  20274213.516 8 106541815.384 8      -202.098          51.000    20274213.188 8  83019592.136 8      -157.479          51.000
R06  19688620.805 5 105062263.542 5      -656.477          35.000
R15  22038242.891 5 117765630.082 5     -1809.312          33.000
R16  20867960.953 5 111472840.670 5      2158.312          35.000    20867959.320 5  86701116.399 5      1678.691          33.000
R21  22060012.219 7 118047546.026 7     -3945.492          45.000    22060012.086 6  91814738.165 6     -3068.716          40.000
C05  39778382.727 6 207136476.194 6       -22.086          36.000    39778377.422 6 160171040.743 6       -16.791          36.000
C14                                                                  23868683.406 4  96109285.967 4     -1696.280          27.000
C24  23559311.234 5 122679508.827 5       279.441          34.000
C25  24229757.227 8 126170719.467 8      2937.445          48.000
C27  24267998.516 5 126369811.581 5     -1535.871          35.000
C28  25587211.773 5 133239349.546 5     -3129.246          31.000
E03  23430978.391 8 123130627.689 8       -73.641          51.000    23430980.695 8  94346933.076 8       -56.411          51.000
E05  25700208.812 6 135055484.229 6     -1998.426          37.000
E15  24394086.430 8 128191783.074 8     -1740.996          51.000    24394091.219 8  98224888.719 8     -1333.956          51.000
E25  26901486.492 6 141368266.762 6      2615.188          40.000    26901491.352 6 108321250.375 6      2003.884          39.000
> 2020 05 14 23 46  0.0000000  0 17        .000000000000
G04  21533236.641 6 113157919.687 6     -2246.145          38.000    21533236.625 6  88174998.859 6     -1750.242          36.000
G06  21059373.180 6 110667746.685 6      -110.211          41.000    21059373.688 6  86234596.942 6       -85.879          41.000
G07  22396626.445 8 117695065.105 8      2780.117          49.000
G09  20275413.961 8 106548123.512 8      -222.211          51.000    20275413.789 8  83024507.575 8      -173.151          51.000
R06  19692350.609 5 105082165.796 5      -674.945          34.000
R15  22048478.383 4 117820330.738 4     -1840.930          28.000    22048479.727 4  91638081.102 4     -1431.843          25.000
R16  20855916.305 5 111408500.072 5      2127.148          31.000    20855914.102 4  86651073.817 4      1654.452          29.000
R21  22082175.531 6 118166135.359 6     -3964.324          41.000    22082174.383 6  91906974.250 6     -3083.366          39.000
C05  39778520.141 6 207137191.562 6       -29.262          36.000    39778514.844 6 160171593.934 6       -22.721          36.000
C14                                                                  23881352.953 5  96160299.857 5     -1705.898          30.000
C24  23557763.289 5 122671436.591 5       255.547          32.000
C25  24212865.586 7 126082760.116 7      2922.703          47.000
C27  24276900.039 5 126416145.594 5     -1556.980          32.000
E03  23431426.516 8 123132981.961 8       -87.031          51.000    23431428.320 8  94348736.998 8       -66.680          51.000
E08  23737055.953 6 124739079.983 6      1895.000          37.000
E15  24404071.344 8 128244252.224 8     -1760.758          51.000    24404075.383 8  98265092.354 8     -1349.104          51.000
E25  26886583.461 6 141289953.329 6      2602.020          40.000    26886587.133 5 108261244.037 5      1993.450          33.000
> 2020 05 14 23 46 30.0000000  0 15        .000000000000
G06  21060039.305 6 110671249.030 6      -125.703          40.000    21060041.500 6  86237326.018 6       -97.950          40.000
G07  22380763.953 8 117611705.685 8      2774.777          49.000    22380764.812 8  91645484.030 8      2162.164          49.000
G09  20276698.141 8 106554872.058 8      -230.012          51.000    20276698.102 8  83029766.200 8      -179.227          51.000
R06  19696149.695 5 105102438.303 5      -680.062          35.000
R21  22104413.078 5 118285119.270 5     -3970.004          35.000    22104409.539 6  91999517.213 6     -3087.784          37.000
R22  20943896.281 5 111799898.638 5      -498.285          35.000    20943883.062 4  86955449.997 4      -387.558          26.000
C05  39778668.625 5 207137962.420 5       -24.031          35.000    39778663.055 6 160172198.262 6       -18.782          36.000
C24  23556327.555 5 122663932.654 5       242.984          32.000
C25  24196028.461 7 125995084.559 7      2919.996          47.000
C27  24285890.914 5 126462948.194 5     -1565.324          32.000
E03  23431919.805 8 123135574.561 8       -88.090          51.000    23431921.281 8  94350723.542 8       -67.459          51.000
E05  25723069.211 5 135175619.949 5     -2005.184          33.000    25723081.055 5 103576180.975 5     -1536.397          35.000
E08  23726227.703 5 124682179.277 5      1896.168          33.000
E15  24414138.211 8 128297152.341 8     -1768.242          51.000    24414141.344 8  98305626.218 8     -1354.824          51.000
E25  26871724.211 6 141211867.892 6      2601.289          41.000    26871721.031 5 108201302.514 5      1993.375          33.000
> 2020 05 14 23 47  0.0000000  0 12        .000000000000
G06  21060821.641 6 110675362.497 6      -154.652          41.000    21060825.250 6  86240531.354 6      -120.508          40.000
G07  22364960.859 8 117528658.566 8      2755.875          50.000    22364961.469 8  91580771.989 8      2147.435          50.000
G09  20278055.359 8 106562004.085 8      -251.176          51.000    20278055.008 8  83035323.622 8      -195.721          51.000
R06  19700007.047 5 105123024.163 5      -698.871          32.000
R16  20832245.250 5 111282099.133 5      2076.648          33.000    20832242.820 5  86552733.703 5      1615.174          31.000
R22  20946780.203 5 111815298.976 5      -534.297          34.000    20946770.406 4  86967457.523 4      -415.558          28.000
C05  39778815.961 6 207138731.111 6       -32.820          36.000    39778810.664 6 160172785.678 6       -25.602          36.000
C25  24179235.195 7 125907639.614 7      2903.859          45.000
E03  23432447.648 8 123138349.007 8      -102.660          51.000    23432449.172 8  94352849.422 8       -78.617          51.000
E05  25734533.906 5 135235865.941 5     -2015.801          35.000    25734547.367 6 103622325.732 6     -1544.326          36.000
E15  24424276.195 8 128350425.789 8     -1789.164          51.000    24424278.688 8  98346446.153 8     -1370.954          51.000
E25  26856898.828 7 141133956.190 7      2587.137          42.000    26856894.750 6 108141604.053 6      1982.013          37.000
> 2020 05 14 23 47 30.0000000  0 17        .000000000000
G03  23727206.273 5 124687311.366 5     -3022.535          33.000    23727205.328 5  97158937.841 5     -2355.222          32.000
G04  21571846.477 6 113360823.763 6     -2260.078          36.000    21571846.812 6  88333104.565 6     -1761.100          36.000
G06  21061721.492 7 110680091.959 7      -160.969          42.000    21061725.914 7  86244216.680 7      -125.430          42.000
G07  22349218.289 8 117445928.830 8      2759.148          50.000    22349217.961 8  91516307.268 8      2149.989          50.000
G09  20279486.219 8 106569523.474 8      -250.215          51.000    20279485.797 8  83041182.882 8      -194.973          51.000
R06  19703924.148 5 105143928.209 5      -695.695          34.000
R16  20820607.039 5 111219947.531 5      2066.035          32.000    20820603.125 4  86504393.559 4      1606.913          28.000
R21  22149052.156 4 118524063.167 4     -3986.547          29.000    22149053.398 5  92185390.907 5     -3100.651          30.000
R22  20949821.266 5 111831532.401 5      -547.781          35.000    20949813.133 4  86980074.040 4      -426.043          28.000
C05  39778963.953 5 207139503.327 5       -18.949          35.000    39778958.680 6 160173382.796 6       -14.562          36.000
C14  23919520.625 5 124555208.860 5     -2209.320          30.000
C24  23553739.234 6 122650482.883 6       214.117          36.000
C25  24162487.445 7 125820432.304 7      2909.797          45.000
E03  23433011.094 8 123141309.763 8       -94.969          51.000    23433012.797 8  94355118.061 8       -72.753          51.000
E05                                                                  25746023.625 5 103668524.222 5     -1535.682          35.000
E15  24434486.023 8 128404076.120 8     -1787.824          51.000    24434488.133 8  98387554.839 8     -1369.897          51.000
E25  26842107.844 7 141056225.304 7      2594.582          42.000    26842106.281 6 108082044.035 6      1988.164          41.000
> 2020 05 14 23 48  0.0000000  0 15        .000000000000
G04  21584801.156 6 113428901.683 6     -2272.340          37.000    21584801.211 5  88386152.253 5     -1770.657          34.000
G06  21062734.430 7 110685413.881 7      -187.215          42.000    21062738.289 7  86248363.640 7      -145.885          42.000
G07  22333531.695 8 117363494.341 8      2743.227          49.000    22333530.383 8  91452072.625 8      2137.582          50.000
G09  20280986.078 8 106577405.771 8      -268.594          51.000    20280985.906 8  83047324.935 8      -209.294          51.000
R06  19707896.469 6 105165125.798 6      -711.285          37.000
R16  20809097.719 6 111158492.231 6      2036.965          36.000    20809099.867 4  86456595.148 4      1584.306          28.000
R21  22171476.203 5 118644016.079 5     -4003.281          32.000    22171471.367 5  92278687.525 5     -3113.663          30.000
R22  20953015.156 6 111848573.984 6      -581.508          36.000    20953009.461 4  86993343.728 4      -452.278          26.000
C05  39779108.406 5 207140255.624 5       -24.688          35.000    39779103.094 6 160173962.538 6       -18.939          36.000
C24  23552589.195 6 122644503.379 6       191.395          37.000
C25  24145782.398 7 125733441.505 7      2896.324          47.000
E03  23433605.438 8 123144432.744 8      -106.598          51.000    23433607.336 8  94357510.991 8       -81.655          51.000
E05                                                                  25757504.984 5 103714757.857 5     -1541.489          33.000
E15  24444762.859 8 128458078.193 8     -1805.707          51.000    24444764.734 8  98428933.045 8     -1383.552          51.000
E25  26827347.148 6 140978653.403 6      2583.430          41.000    26827347.781 7 108022605.824 7      1979.469          42.000
> 2020 05 14 23 48 30.0000000  0 17        .000000000000
G04  21597799.070 6 113497199.539 6     -2279.168          37.000    21597798.641 5  88439377.684 5     -1775.978          35.000
G06  21063863.250 7 110691346.636 7      -207.090          44.000    21063866.898 7  86252986.548 7      -161.369          44.000
G07  22317904.984 8 117281376.078 8      2732.836          48.000    22317903.312 8  91388084.384 8      2129.483          48.000
G09  20282558.375 8 106585668.318 8      -280.906          51.000    20282558.188 8  83053763.284 8      -218.888          51.000
R06  19711927.531 6 105186635.963 6      -721.004          37.000
R16  20797726.430 5 111097755.108 5      2013.039          35.000    20797728.969 4  86409355.144 4      1565.697          27.000
R21  22193951.742 6 118764286.967 6     -4013.289          37.000    22193949.070 5  92372231.580 5     -3121.444          31.000
R22  20956361.477 5 111866441.089 5      -608.551          35.000
C05  39779252.492 5 207141006.131 5       -23.957          35.000    39779247.242 6 160174542.893 6       -18.785          36.000
C24  23551539.672 6 122639036.883 6       174.672          38.000
C25  24129123.109 8 125646687.768 8      2888.477          48.000
C28  25695622.031 4 133803838.949 4     -3137.121          29.000
E03  23434233.930 8 123147735.927 8      -112.297          51.000    23434236.000 8  94360042.013 8       -86.112          51.000
E05  25768984.523 5 135416922.302 5     -2013.430          33.000    25768992.852 5 103761055.478 5     -1543.291          31.000
E08  23683140.703 5 124455753.134 5      1880.512          31.000    23683133.391 5  95362163.451 5      1440.852          34.000
E15  24455109.398 8 128512449.079 8     -1817.703          50.000    24455111.406 8  98470593.846 8     -1392.753          51.000
E25  26812620.648 6 140901261.166 6      2577.344          39.000    26812622.828 7 107963305.285 7      1975.060          43.000
> 2020 05 14 23 49  0.0000000  0 20        .000000000000
G04  21610797.656 5 113565507.846 5     -2283.270          35.000    21610798.906 5  88492606.854 5     -1779.162          34.000
G06  21065066.383 7 110697668.205 7      -224.457          44.000    21065069.492 7  86257912.460 7      -174.902          44.000
G07  22302296.492 8 117199354.648 8      2725.234          48.000    22302295.297 8  91324171.607 8      2123.559          48.000
G09  20284160.680 8 106594088.530 8      -290.512          51.000    20284160.367 8  83060324.494 8      -226.373          51.000
R06  19715974.695 6 105208232.979 6      -728.156          36.000
R16  20786449.367 6 111037513.933 6      1992.617          37.000    20786452.211 4  86362501.062 4      1549.822          25.000
R21  22216444.727 6 118884645.215 6     -4020.715          37.000    22216443.484 5  92465843.625 5     -3127.220          32.000
R22  20959818.453 6 111884907.445 6      -632.719          36.000    20959818.938 3  87021618.353 3      -492.115          23.000
C05  39779354.031 6 207141535.031 6       -21.348          36.000    39779348.922 6 160174951.859 6       -16.465          36.000
C14  23957880.242 4 124754969.400 4     -2224.781          27.000    23957869.094 5  96468424.741 5     -1720.248          33.000
C24  23550546.062 6 122633863.836 6       160.477          38.000
C25  24112466.961 8 125559953.533 8      2883.617          48.000
C26  25584209.453 5 133223697.354 5     -2337.398          31.000
C27  24331950.078 5 126702856.028 5     -1630.395          35.000
C28  25713636.359 5 133897720.360 5     -3134.590          30.000
E03  23434854.258 8 123150997.015 8      -115.156          51.000    23434856.438 8  94362540.774 8       -88.270          51.000
E05                                                                  25780451.508 5 103807195.912 5     -1542.177          34.000
E08                                                                  23672372.594 5  95318828.155 5      1440.244          33.000
E15  24465482.977 8 128566965.461 8     -1826.809          49.000    24465485.695 8  98512366.121 8     -1399.792          51.000
E25                                                                  26797889.367 6 107903973.868 6      1972.564          40.000
> 2020 05 14 23 49 30.0000000  0 21        .000000000000
G04  21623885.070 6 113634292.812 6     -2295.789          36.000    21623885.117 5  88546204.139 5     -1788.930          34.000
G06  21066431.883 6 110704844.090 6      -248.906          41.000    21066434.125 6  86263504.066 6      -193.950          41.000
G07  22286795.484 8 117117897.374 8      2710.035          49.000    22286794.680 8  91260698.415 8      2111.716          49.000
G09  20285881.414 8 106603130.950 8      -307.164          51.000    20285881.195 8  83067370.544 8      -239.349          51.000
R06  19720126.477 6 105230389.686 6      -743.242          37.000
R07  20842363.984 5 111570843.796 5      2056.031          31.000    20842354.961 4  86777273.098 4      1599.141          27.000
R16  20775354.164 5 110978244.968 5      1963.895          35.000    20775357.406 4  86316399.098 4      1527.483          24.000
R21  22239040.969 5 119005560.139 5     -4034.891          30.000    22239041.172 5  92559888.611 5     -3138.248          31.000
R22  20963477.578 5 111904444.385 5      -664.402          35.000    20963475.391 4  87036795.510 4      -516.754          26.000
C05  39779501.477 5 207142302.533 5       -24.883          35.000    39779496.648 6 160175547.119 6       -19.159          36.000
C14                                                                  23970726.539 6  96520184.997 6     -1726.691          36.000
C24  23549696.945 5 122629445.677 5       138.695          34.000
C25  24095902.992 7 125473702.388 7      2871.473          46.000
C26  25597732.273 5 133294119.253 5     -2351.934          32.000
C27  24341408.477 6 126752102.764 6     -1647.672          39.000
C28  25731705.359 5 133991894.921 5     -3139.055          31.000
E03  23435555.242 8 123154681.228 8      -125.359          51.000    23435557.328 8  94365363.743 8       -96.058          51.000
E05                                                                  25791974.109 5 103853592.432 5     -1546.673          32.000
E08                                                                  23661677.867 5  95275768.316 5      1434.461          34.000
E15  24475972.391 8 128622091.463 8     -1843.133          49.000    24475975.656 8  98554605.527 8     -1412.256          51.000
E25                                                                  26783235.820 6 107844969.869 6      1965.033          36.000
> 2020 05 14 23 50  0.0000000  0 19        .000000000000
G04  21637014.125 6 113703274.305 6     -2312.309          38.000    21637013.781 6  88599962.308 6     -1801.793          36.000
G06  21067911.438 6 110712619.967 6      -278.465          41.000    21067912.656 6  86269563.207 6      -216.983          41.000
G07  22271354.156 8 117036751.844 8      2690.402          50.000    22271353.250 8  91197468.126 8      2096.420          50.000
G09  20287672.031 8 106612540.494 8      -329.129          51.000    20287671.867 8  83074702.654 8      -256.464          51.000
R06  19724334.305 6 105252846.925 6      -763.277          37.000
R16  20764393.438 6 110919692.577 6      1930.270          38.000    20764396.969 4  86270843.353 4      1501.324          28.000
R21  22261703.109 5 119126890.401 5     -4054.648          30.000    22261698.812 4  92654217.512 4     -3153.615          28.000
C05  39779646.523 6 207143057.627 6       -33.824          36.000    39779641.906 6 160176132.820 6       -26.454          37.000
C14                                                                  23983604.711 5  96572039.666 5     -1736.747          30.000
C24  23548944.516 6 122625530.411 6       112.594          36.000
C25  24079383.375 7 125387684.668 7      2854.059          45.000
C26  25611317.484 5 133364867.418 5     -2373.059          32.000
C27  24350940.727 6 126801738.029 6     -1670.195          37.000
C28  25749782.570 4 134085886.343 4     -3148.844          29.000
E03  23436288.359 8 123158533.893 8      -140.578          51.000    23436290.391 8  94368315.781 8      -107.692          51.000
E05  25803508.500 6 135598355.578 6     -2030.254          36.000
E08                                                                  23651001.930 6  95232788.917 6      1424.210          36.000
E15  24486529.422 8 128677571.215 8     -1864.586          50.000    24486532.828 8  98597115.977 8     -1428.679          51.000
E25  26768614.742 6 140670023.905 6      2548.590          40.000    26768613.281 5 107786115.211 5      1953.268          31.000
> 2020 05 14 23 50 30.0000000  0 20        .000000000000
G04  21650180.180 6 113772464.122 6     -2303.504          36.000    21650179.961 5  88653874.841 5     -1794.932          31.000
G06  21069502.875 6 110720983.399 6      -281.504          40.000    21069503.758 6  86276080.152 6      -219.357          40.000
G07  22255970.398 8 116955907.511 8      2696.848          51.000    22255969.156 8  91134472.562 8      2101.440          51.000
G09  20289529.969 8 106622304.027 8      -324.344          51.000    20289529.766 8  83082310.607 8      -252.735          51.000
R06  19728596.531 6 105275592.533 6      -756.148          38.000
R15  22146706.000 6 118345258.920 6     -2043.109          36.000    22146713.609 4  92046362.950 4     -1589.094          26.000
R16  20753565.742 6 110861847.315 6      1923.289          38.000    20753570.602 5  86225852.644 5      1495.895          30.000
R21  22284401.867 6 119248374.185 6     -4046.883          37.000    22284408.523 4  92748726.477 4     -3147.569          28.000
R22  20971254.703 5 111945996.369 5      -710.918          34.000
C05  39779787.062 5 207143789.112 5       -17.137          35.000    39779782.258 6 160176698.424 6       -13.025          36.000
C14  23996495.914 5 124956059.898 5     -2233.527          31.000    23996505.695 5  96623979.270 5     -1727.422          32.000
C24  23548288.586 6 122622106.504 6       112.887          38.000
C25  24062904.836 6 125301890.575 6      2862.852          41.000
C26  25624963.359 5 133435927.720 5     -2366.809          31.000
C27  24360547.109 5 126851747.651 5     -1666.336          34.000
E03  23437051.023 8 123162542.397 8      -129.184          51.000    23437053.375 8  94371387.224 8       -99.012          51.000
E05  25815049.336 5 135658999.665 5     -2014.938          31.000    25815054.039 5 103946524.606 5     -1543.964          30.000
E08                                                                  23640343.297 5  95189880.579 5      1434.542          34.000
E15  24497151.672 8 128733391.051 8     -1859.312          51.000    24497154.531 8  98639887.022 8     -1424.683          51.000
E25  26754025.320 7 140593358.734 7      2559.879          43.000    26754018.453 5 107727349.939 5      1961.723          31.000
> 2020 05 14 23 51  0.0000000  0 18        .000000000000
G06  21071213.367 6 110729970.919 6      -297.387          41.000    21071214.359 6  86283083.383 6      -231.730          41.000
G07  22240651.328 8 116875403.681 8      2690.254          51.000    22240649.711 8  91071742.334 8      2096.302          51.000
G09  20291462.016 8 106632457.245 8      -332.539          51.000    20291461.828 8  83090222.202 8      -259.121          51.000
R06  19732920.047 6 105298663.615 6      -761.617          40.000
R07  20807969.734 5 111386692.837 5      2047.371          31.000
R15  22158289.492 6 118407150.462 6     -2062.414          36.000    22158291.875 4  92094496.757 4     -1604.097          27.000
R16  20742877.281 5 110804749.112 5      1903.203          35.000    20742878.555 5  86181442.880 5      1480.272          30.000
R21  22307159.016 6 119370166.242 6     -4052.039          41.000    22307170.125 4  92843466.242 4     -3151.583          29.000
C05  39779929.812 5 207144532.200 5       -12.344          35.000    39779925.117 6 160177273.058 6        -9.886          37.000
C14  24009425.578 5 125023375.006 5     -2233.957          34.000
C25  24046477.727 7 125216358.536 7      2859.113          43.000
C26  25638675.328 4 133507310.823 4     -2372.336          27.000
C27  24370230.875 4 126902165.785 4     -1675.430          29.000
E03  23437850.234 8 123166743.021 8      -130.723          51.000    23437853.047 8  94374605.882 8      -100.164          51.000
E05  25826599.398 5 135719670.543 5     -2012.664          35.000    25826604.500 5 103993043.319 5     -1542.153          33.000
E08  23629717.195 5 124175011.973 5      1872.242          33.000    23629710.328 5  95147053.232 5      1434.788          33.000
E15  24507845.477 8 128789586.155 8     -1866.855          51.000    24507847.680 8  98682945.610 8     -1430.475          50.000
E25  26739473.953 7 140516897.108 7      2557.867          42.000    26739467.258 5 107668762.546 5      1959.867          35.000
> 2020 05 14 23 51 30.0000000  0 16        .000000000000
G04  21676652.281 5 113911575.041 5     -2329.070          34.000
G06  21073049.539 6 110739620.283 6      -334.988          41.000    21073050.664 6  86290602.342 6      -261.030          41.000
G07  22225404.391 8 116795280.055 8      2662.203          51.000    22225402.398 8  91009308.370 8      2074.444          51.000
G09  20293475.297 8 106643037.212 8      -361.910          51.000    20293475.188 8  83098466.334 8      -282.008          51.000
R06  19737311.984 6 105322098.733 6      -789.504          38.000
R15  22170011.711 6 118469794.267 6     -2102.738          37.000
R16  20732336.406 6 110748440.168 6      1861.586          38.000    20732338.797 5  86137647.068 5      1447.897          32.000
R21  22329980.492 6 119492300.738 6     -4079.027          40.000    22329992.914 5  92938459.739 5     -3172.577          32.000
C05  39780082.008 5 207145324.543 5       -29.984          35.000    39780077.461 6 160177885.712 6       -23.044          37.000
C14                                                                  24022398.953 5  96728204.776 5     -1743.649          34.000
C25  24030110.914 7 125131128.447 7      2833.738          47.000
E03  23438693.281 8 123171173.282 8      -153.824          51.000    23438696.258 8  94378000.498 8      -117.904          51.000
E05  25838173.633 5 135780519.807 5     -2031.949          33.000    25838178.859 5 104039654.974 5     -1557.176          33.000
E08  23619112.242 5 124119273.349 5      1851.273          35.000    23619111.844 4  95104375.111 4      1418.347          29.000
E15  24518617.562 8 128846193.110 8     -1895.953          51.000    24518619.398 8  98726319.747 8     -1452.794          50.000
E25  26724969.219 6 140440679.031 6      2534.289          38.000    26724964.922 6 107610361.727 6      1941.684          38.000
> 2020 05 14 23 52  0.0000000  0 16        .000000000000
G06  21074979.977 7 110749763.379 7      -358.008          44.000    21074981.484 7  86298506.069 7      -278.967          44.000
G07  22210197.586 8 116715379.573 8      2648.191          51.000    22210195.844 8  90947037.243 8      2063.526          51.000
G09  20295537.656 8 106653875.264 8      -377.328          51.000    20295537.727 8  83106911.577 8      -294.022          51.000
R06  19741740.000 6 105345726.975 6      -802.770          37.000
R15  22181842.094 6 118533017.157 6     -2128.742          38.000    22181849.281 4  92192379.866 4     -1655.691          28.000
R16  20721912.328 6 110692752.555 6      1834.164          39.000    20721914.664 5  86094334.484 5      1426.572          31.000
R21  22352834.320 6 119614601.919 6     -4091.613          38.000    22352847.289 5  93033582.845 5     -3182.369          32.000
C05  39780211.781 5 207145999.847 5       -32.918          35.000    39780207.242 6 160178408.903 6       -24.965          37.000
C14  24035355.562 5 125158402.544 5     -2262.711          31.000    24035368.750 5  96780411.594 5     -1749.693          33.000
C24  23546926.102 5 122615026.341 5        46.172          32.000
C25  24013771.703 8 125046036.371 8      2822.312          50.000
E03  23439548.148 8 123175665.024 8      -162.492          51.000    23439550.977 8  94381442.216 8      -124.486          51.000
E05                                                                  25849749.930 4 104086230.586 4     -1560.486          29.000
E08  23608508.461 5 124063549.148 5      1845.273          35.000
E15  24529435.695 8 128903042.589 8     -1910.746          50.000    24529437.188 8  98769879.722 8     -1464.096          49.000
E25  26710478.547 5 140364538.978 5      2525.180          35.000    26710477.547 6 107552020.634 6      1934.537          39.000
> 2020 05 14 23 52 30.0000000  0 15        .000000000000
G04  21703275.109 5 114051484.579 5     -2340.746          33.000
G06  21077047.000 7 110760623.428 7      -372.109          45.000    21077048.500 7  86306968.435 7      -289.958          45.000
G07  22195074.891 8 116635910.225 8      2643.750          49.000    22195072.695 8  90885113.074 8      2060.065          49.000
G09  20297691.406 8 106665193.889 8      -383.246          51.000    20297691.672 8  83115731.289 8      -298.633          51.000
R06  19746246.734 6 105369775.151 6      -806.590          39.000
R15  22193823.133 6 118597042.999 6     -2145.121          37.000    22193834.141 4  92242177.752 4     -1668.424          26.000
R16  20711647.539 6 110637916.042 6      1815.363          39.000    20711649.250 5  86051683.909 5      1411.952          31.000
R21  22375762.047 6 119737292.721 6     -4093.844          37.000    22375773.953 4  93129009.002 4     -3184.101          27.000
C05  39780360.727 5 207146786.179 5       -25.527          35.000    39780357.281 6 160179015.565 6       -19.724          37.000
C14                                                                  24048382.438 5  96832802.003 5     -1747.524          31.000
C25  23997501.867 8 124961305.836 8      2820.312          51.000
C27  24399732.547 5 127055801.911 5     -1727.727          33.000
E03  23440457.250 8 123180441.374 8      -161.926          51.000    23440459.852 8  94385102.011 8      -124.082          51.000
E15  24540342.125 8 128960356.369 8     -1916.105          50.000    24540342.930 8  98813795.483 8     -1468.218          49.000
E25                                                                  26696047.602 6 107493911.795 6      1934.549          41.000
> 2020 05 14 23 53  0.0000000  0 15        .000000000000
G06  21079221.766 7 110772050.815 7      -393.949          43.000    21079222.508 7  86315872.905 7      -306.976          43.000
G07  22180007.578 8 116556733.111 8      2630.578          48.000    22180005.711 8  90823416.611 8      2049.801          48.000
G09  20299908.055 8 106676842.773 8      -397.547          51.000    20299908.367 8  83124808.336 8      -309.777          51.000
R06  19750804.359 6 105394091.663 6      -818.469          39.000
R15  22205926.531 6 118661717.454 6     -2170.598          38.000
R16  20701513.680 6 110583781.989 6      1789.055          37.000    20701515.773 5  86009579.731 5      1391.490          30.000
R21  22398733.055 5 119860216.243 5     -4105.395          35.000
R22  20993370.891 5 112064019.881 5      -858.008          35.000
C05  39780502.969 5 207147514.766 5       -27.359          35.000    39780498.172 6 160179583.396 6       -21.537          37.000
C24  23546518.320 5 122612913.644 5        16.266          34.000
C25  23981273.250 8 124876791.204 8      2809.758          51.000
C27  24409715.906 4 127107791.397 4     -1742.129          28.000
E03  23441392.000 8 123185352.482 8      -169.789          51.000    23441394.391 8  94388865.059 8      -130.101          51.000
E15  24551308.148 8 129017983.655 8     -1929.891          51.000    24551308.836 8  98857951.463 8     -1478.789          50.000
E25  26681642.984 5 140212980.112 5      2516.066          35.000    26681647.320 7 107435922.480 7      1928.284          42.000
> 2020 05 14 23 53 30.0000000  0 15        .000000000000
G04  21730062.898 5 114192251.294 5     -2357.316          33.000
G06  21081510.836 7 110784078.575 7      -415.742          47.000    21081511.125 7  86325245.146 7      -323.955          47.000
G07  22165002.711 8 116477883.518 8      2618.023          48.000    22165001.078 8  90761975.382 8      2040.018          48.000
G09  20302193.695 8 106688854.111 8      -411.340          51.000    20302194.219 8  83134167.818 8      -320.525          51.000
R06  19755418.445 6 105418709.776 6      -830.551          38.000
R15  22218157.914 6 118727071.134 6     -2194.797          38.000
R16  20691517.844 5 110530386.666 5      1762.688          35.000    20691520.758 5  85968050.129 5      1370.979          32.000
R21  22421753.297 5 119983401.501 5     -4115.699          34.000    22421776.047 4  93320464.555 4     -3201.099          27.000
R22  20998249.344 5 112090064.840 5      -886.977          35.000    20998254.914 4  87181179.074 4      -689.880          29.000
C05  39780641.672 6 207148241.314 6       -28.730          36.000    39780637.633 6 160180143.650 6       -22.259          36.000
C25  23965092.445 8 124792527.574 8      2799.707          51.000
E03  23442358.539 8 123190431.104 8      -176.949          51.000    23442360.789 8  94392756.471 8      -135.522          51.000
E05  25884535.734 6 136024157.557 6     -2039.609          36.000
E15  24562339.875 8 129075956.149 8     -1942.996          51.000    24562341.156 8  98902371.954 8     -1488.747          50.000
E25  26667278.391 6 140137490.216 6      2508.008          36.000    26667283.086 6 107378079.606 6      1921.789          41.000
> 2020 05 14 23 54  0.0000000  0 15        .000000000000
G03  23954496.008 5 125881725.355 5     -3098.027          34.000
G04  21743537.875 6 114263059.032 6     -2361.324          37.000
G06  21083936.727 7 110796825.693 7      -433.039          46.000    21083937.133 7  86335177.921 7      -337.436          46.000
G07  22150083.523 8 116399483.018 8      2609.781          49.000    22150081.398 8  90700884.123 8      2033.599          49.000
G09  20304570.867 8 106701346.342 8      -420.492          51.000    20304571.625 8  83143902.015 8      -327.656          51.000
R06  19760111.609 6 105443750.582 6      -837.820          40.000
R15  22230538.102 6 118793222.482 6     -2214.449          38.000    22230543.242 4  92394756.730 4     -1722.349          29.000
R22  21003300.258 5 112117032.168 5      -910.227          32.000    21003306.656 4  87202153.601 4      -707.957          24.000
C05  39780801.242 5 207149073.093 5       -25.691          35.000    39780797.148 6 160180786.822 6       -19.721          37.000
C24  23546502.711 6 122612885.395 6       -16.371          36.000
C25  23948982.289 8 124708635.454 8      2794.070          51.000
C27  24429910.492 5 127212994.871 5     -1765.504          32.000
E03  23443379.547 8 123195796.264 8      -179.699          51.000    23443381.609 8  94396867.446 8      -137.689          51.000
E15  24573459.656 8 129134391.595 8     -1951.676          51.000    24573461.672 8  98947147.167 8     -1495.428          50.000
E25  26652972.477 6 140062312.756 6      2504.574          39.000    26652977.875 6 107320476.116 6      1919.164          41.000
> 2020 05 14 23 54 30.0000000  0 18        .000000000000
G03  23972178.305 6 125974646.039 6     -3099.648          36.000    23972182.008 5  98162080.271 5     -2415.314          35.000
G04  21757021.758 6 114333920.407 6     -2366.051          36.000
G06  21086448.672 8 110810025.577 8      -450.637          48.000    21086448.648 8  86345463.553 8      -351.145          48.000
G07  22135199.711 8 116321267.039 8      2600.992          50.000    22135197.188 8  90639936.681 8      2026.750          50.000
G09  20306988.781 8 106714052.427 8      -430.109          51.000    20306989.320 8  83153802.853 8      -335.150          51.000
R06  19764832.820 6 105468943.350 6      -845.371          38.000
R15  22243015.508 5 118859898.080 5     -2233.828          34.000    22243018.859 4  92446615.615 4     -1737.419          26.000
R16  20671956.812 5 110425894.144 5      1718.625          31.000    20671962.945 5  85886824.373 5      1336.708          32.000
R21  22467953.984 4 120230532.844 4     -4126.402          29.000    22467966.703 5  93512689.052 5     -3209.418          30.000
C05  39780930.891 6 207149746.170 6       -22.879          36.000    39780926.570 6 160181308.872 6       -17.909          37.000
C14  24100639.617 5 125498343.342 5     -2274.594          30.000    24100636.406 5  97043284.800 5     -1759.485          32.000
C24  23546622.133 5 122613535.868 5       -30.742          33.000
C25  23932892.906 8 124624853.381 8      2787.957          51.000
C27  24440100.438 5 127266067.793 5     -1775.547          32.000
E03  23444404.383 8 123201181.434 8      -182.863          51.000    23444406.094 8  94400993.755 8      -140.137          51.000
E08  23555918.344 5 123787186.083 5      1834.520          32.000    23555925.992 5  94849948.317 5      1405.910          34.000
E15  24584616.875 8 129193022.328 8     -1960.602          51.000    24584619.383 8  98992071.999 8     -1502.270          51.000
E25  26638676.109 6 139987183.672 6      2500.438          40.000    26638681.625 6 107262909.714 6      1915.836          41.000
> 2020 05 14 23 55  0.0000000  0 19        .000000000000
G03  23989894.406 5 126067743.539 5     -3107.348          34.000    23989896.234 5  98234612.991 5     -2421.316          34.000
G04  21770552.812 5 114405026.838 5     -2374.316          31.000
G06  21089082.312 7 110823866.184 7      -472.332          45.000    21089082.711 7  86356248.463 7      -368.051          45.000
G07  22120387.500 8 116243426.215 8      2588.105          51.000    22120384.820 8  90579281.556 8      2016.709          51.000
G09  20309482.938 8 106727159.366 8      -443.668          51.000    20309483.281 8  83164016.048 8      -345.715          51.000
R06  19769618.227 6 105494479.442 6      -856.848          40.000
R07  20718027.055 5 110905231.481 5      1977.438          30.000
R16  20662385.820 5 110374746.051 5      1691.797          33.000    20662386.789 5  85847042.046 5      1315.845          31.000
R21  22491118.906 5 120354489.453 5     -4137.340          31.000    22491129.438 4  93609099.805 4     -3217.934          29.000
C05  39781066.258 6 207150451.098 6       -24.070          36.000    39781061.992 6 160181853.975 6       -18.743          37.000
C14                                                                  24113762.586 5  97096132.254 5     -1763.953          35.000
C24  23546844.078 5 122614732.705 5       -49.488          34.000
C25  23916860.547 8 124541370.135 8      2777.422          50.000
C27  24450373.039 5 127319498.536 5     -1788.742          30.000
E03  23445468.781 8 123206774.508 8      -190.176          51.000    23445470.117 8  94405279.357 8      -145.689          51.000
E05  25919445.367 5 136207585.088 5     -2041.168          35.000
E08                                                                  23545460.250 5  94807813.042 5      1401.660          30.000
E15  24595846.977 8 129252035.052 8     -1973.668          51.000    24595849.719 8  99037289.517 8     -1512.294          51.000
E25  26624425.656 6 139912293.235 6      2492.020          41.000    26624429.227 6 107205526.155 6      1909.526          37.000
> 2020 05 14 23 55 30.0000000  0 13        .000000000000
G06  21091826.445 7 110838291.718 7      -490.938          45.000    21091828.180 7  86367489.123 7      -382.549          45.000
G07  22105636.414 8 116165906.642 8      2578.332          51.000    22105633.766 8  90518876.734 8      2009.093          51.000
G09  20312042.688 8 106740611.366 8      -454.324          51.000    20312043.258 8  83174498.131 8      -354.016          51.000
R06  19774457.148 6 105520302.261 6      -865.848          36.000
R15  22268354.570 5 118995303.057 5     -2278.801          31.000
R16  20652947.477 6 110324333.066 6      1667.559          37.000    20652950.977 5  85807832.062 5      1296.993          32.000
C05  39781196.805 6 207151131.083 6       -22.430          36.000    39781192.516 6 160182379.789 6       -17.531          37.000
C14  24126908.383 4 125635135.804 4     -2284.492          29.000    24126906.703 5  97149062.780 5     -1765.934          35.000
C24  23547166.945 5 122616421.195 5       -64.766          32.000
C25  23900874.633 7 124458132.940 7      2770.293          47.000
E03  23446562.062 8 123212519.606 8      -194.211          51.000    23446563.211 8  94409681.451 8      -148.781          51.000
E15  24607138.938 8 129311372.683 8     -1983.539          51.000    24607142.156 8  99082756.008 8     -1519.837          51.000
E25  26610210.578 6 139837587.969 6      2486.867          41.000    26610209.547 5 107148284.461 5      1905.653          32.000
> 2020 05 14 23 56  0.0000000  0 15        .000000000000
G04  21797724.562 5 114547814.635 5     -2382.965          31.000
G06  21094688.984 7 110853338.290 7      -507.172          44.000    21094691.711 7  86379213.749 7      -395.196          44.000
G07  22090953.250 8 116088747.238 8      2570.602          48.000    22090951.531 8  90458752.525 8      2003.066          48.000
G09  20314674.867 8 106754443.790 8      -462.719          51.000    20314675.633 8  83185276.634 8      -360.560          51.000
R06  19779356.523 6 105546448.735 6      -872.195          38.000
R15  22281222.984 5 119064032.240 5     -2297.191          35.000
R16  20643658.875 6 110274714.721 6      1646.238          38.000    20643658.492 4  85769216.303 4      1280.408          29.000
C05  39781329.594 6 207151822.194 6       -18.402          36.000    39781325.273 6 160182914.214 6       -14.541          37.000
C14                                                                  24140078.477 5  97202104.011 5     -1766.511          31.000
C24  23547591.469 5 122618637.526 5       -78.574          34.000
C25  23884942.359 7 124375180.500 7      2764.840          44.000
C27  24471137.312 5 127427620.391 5     -1809.402          34.000
E03  23447691.125 8 123218453.173 8      -196.113          51.000    23447692.289 8  94414227.948 8      -150.314          51.000
E15  24618499.195 8 129371070.353 8     -1991.215          51.000    24618503.156 8  99128498.363 8     -1525.721          51.000
E25  26596038.391 6 139763106.527 6      2483.617          41.000    26596032.656 5 107091214.373 5      1902.801          31.000
> 2020 05 14 23 56 30.0000000  0 17        .000000000000
G06  21097667.586 7 110868993.234 7      -539.457          44.000    21097671.250 7  86391412.420 7      -420.356          44.000
G07  22076335.859 7 116011937.220 7      2547.051          45.000    22076335.422 7  90398900.543 7      1984.715          45.000
G09  20317376.977 8 106768643.504 8      -486.805          51.000    20317377.695 8  83196341.348 8      -379.328          51.000
R06  19784314.273 6 105572906.493 6      -894.602          41.000
R07  20684935.188 5 110728063.445 5      1949.621          30.000
R15  22294211.203 5 119133433.419 5     -2332.145          35.000
R16  20634508.844 4 110225842.870 4      1608.898          29.000    20634508.430 4  85731204.854 4      1251.368          29.000
R21  22560881.219 4 120727821.174 4     -4167.523          28.000    22560888.602 4  93899448.133 4     -3241.410          25.000
R22  21030701.375 5 112263322.401 5     -1049.613          32.000
C05  39781462.094 5 207152512.195 5       -30.137          35.000    39781457.734 6 160183443.759 6       -23.612          38.000
C14  24153279.016 5 125772441.009 5     -2300.531          31.000    24153272.766 5  97255246.593 5     -1779.077          32.000
C24  23548116.641 6 122621369.473 6      -106.785          36.000
C25  23869062.125 7 124292502.710 7      2743.957          43.000
C27  24481616.016 5 127482219.013 5     -1833.605          33.000
E03  23448853.602 8 123224562.495 8      -214.219          51.000    23448854.875 8  94418909.112 8      -164.222          51.000
E15  24629925.141 8 129431114.229 8     -2014.645          51.000    24629929.609 8  99174506.010 8     -1543.761          51.000
E25  26581906.914 6 139688838.666 6      2464.164          38.000    26581899.086 5 107034290.847 5      1888.479          32.000
> 2020 05 14 23 57  0.0000000  0 16        .000000000000
G02  22847635.383 6 120065152.777 6      1628.699          38.000
G06  21100789.414 7 110885399.100 7      -552.535          44.000    21100792.953 7  86404196.220 7      -430.547          44.000
G07  22061813.180 7 115935621.894 7      2542.324          46.000    22061813.414 7  90339434.031 7      1981.032          46.000
G09  20320176.000 8 106783352.463 8      -491.984          51.000    20320176.734 8  83207802.882 8      -383.364          51.000
R06  19789357.938 7 105599820.260 7      -897.996          42.000
R15  22307351.438 6 119203648.783 6     -2347.090          37.000
R16  20625529.109 5 110177876.128 5      1589.914          33.000    20625528.523 4  85693903.627 4      1236.594          28.000
R22  21036659.117 5 112295128.291 5     -1068.629          34.000
C05  39781621.555 6 207153342.608 6       -23.250          36.000    39781617.367 6 160184085.893 6       -18.241          37.000
C14  24166528.797 4 125841458.353 4     -2296.590          27.000
C24  23548767.523 5 122624758.589 5      -117.148          35.000
C25  23853264.617 7 124210243.433 7      2741.715          45.000
C27  24492188.867 5 127537330.507 5     -1838.625          34.000
E03  23450076.648 8 123230990.130 8      -212.719          51.000    23450078.016 8  94423834.182 8      -162.977          51.000
E15  24641443.797 8 129491645.564 8     -2019.074          51.000    24641448.516 8  99220887.151 8     -1547.029          51.000
E25  26567842.508 5 139614929.307 5      2464.055          34.000    26567837.617 6 106977661.016 6      1888.347          38.000
> 2020 05 14 23 57 30.0000000  0 14        .000000000000
G02  22838384.891 5 120016549.885 5      1612.477          35.000
G06  21104008.492 7 110902314.528 7      -573.715          45.000    21104010.727 7  86417377.047 7      -447.051          46.000
G07  22047339.625 8 115859561.842 8      2529.586          49.000    22047339.805 8  90280166.488 8      1971.106          49.000
G09  20323025.930 8 106798328.832 8      -505.203          51.000    20323026.664 8  83219472.783 8      -393.665          51.000
R06  19794441.438 7 105626946.032 7      -909.359          42.000
R16  20616674.883 5 110130581.673 5      1563.027          30.000    20616676.172 5  85657124.518 5      1215.694          31.000
R21  22607656.172 4 120978136.984 4     -4177.066          27.000    22607659.164 4  94094101.478 4     -3248.826          29.000
C05  39781762.227 6 207154074.747 6       -24.199          36.000    39781758.102 6 160184652.028 6       -18.830          37.000
C24  23549499.500 5 122628566.151 5      -135.609          35.000
C25  23837503.633 7 124128166.163 7      2731.281          47.000
C27  24502819.539 6 127592714.267 6     -1852.285          36.000
E03  23451314.391 8 123237494.868 8      -219.605          51.000    23451315.750 8  94428818.328 8      -168.254          51.000
E15  24653008.977 8 129552421.940 8     -2031.496          50.000    24653013.477 8  99267456.060 8     -1556.589          51.000
E25  26553798.320 5 139541155.606 5      2456.121          35.000    26553799.367 6 106921120.849 6      1881.912          39.000
> 2020 05 14 23 58  0.0000000  0 14        .000000000000
G06  21107341.727 7 110919829.246 7      -593.137          45.000    21107342.609 7  86431024.863 7      -462.187          45.000
G07  22032932.430 8 115783849.819 8      2518.629          50.000    22032931.867 8  90221170.124 8      1962.571          49.000
G09  20325943.742 8 106813662.009 8      -516.262          51.000    20325944.289 8  83231420.720 8      -402.279          51.000
R06  19799581.594 7 105654374.755 7      -918.539          43.000
R07  20652248.977 4 110553105.146 4      1935.566          29.000
R16  20607965.672 5 110084059.250 5      1539.102          34.000    20607969.430 4  85620940.472 4      1197.082          28.000
R22  21048993.188 5 112360920.325 5     -1122.570          30.000    21048988.250 4  87391825.903 4      -873.110          29.000
C05  39781901.227 5 207154798.244 5       -23.441          35.000    39781897.148 6 160185211.481 6       -18.135          37.000
C24  23550328.945 5 122632881.301 5      -151.258          31.000
C25  23821795.344 7 124046362.644 7      2722.996          47.000
C27  24513521.289 5 127648457.683 5     -1863.277          35.000
E03  23452583.875 8 123244166.703 8      -224.383          51.000    23452585.273 8  94433930.521 8      -171.996          51.000
E15  24664637.641 8 129613532.160 8     -2041.723          49.000    24664641.891 8  99314280.774 8     -1564.464          51.000
E25  26539796.047 6 139467569.930 6      2449.824          38.000    26539800.562 6 106864743.102 6      1877.108          40.000
> 2020 05 14 23 58 30.0000000  0 14        .000000000000
G06  21110779.242 7 110937893.361 7      -617.926          46.000    21110779.727 7  86445100.773 7      -481.501          46.000
G07  22018582.414 8 115708438.230 8      2502.074          51.000    22018581.078 8  90162407.865 8      1949.668          51.000
G09  20328919.828 8 106829301.667 8      -533.137          51.000    20328920.219 8  83243607.466 8      -415.431          51.000
R06  19804769.156 7 105682056.455 7      -933.711          44.000
R07  20641422.961 5 110495144.471 5      1921.820          32.000    20641423.070 4  85940676.259 4      1494.755          26.000
R15  22347439.617 5 119417887.561 5     -2417.863          35.000
R16  20599389.953 5 110038254.287 5      1507.988          32.000    20599392.281 4  85585312.347 4      1172.877          26.000
C05  39782029.102 6 207155464.944 6       -27.336          36.000    39782025.008 6 160185726.275 6       -21.627          38.000
C24  23551248.250 5 122637655.153 5      -173.512          31.000
C25  23806130.500 8 123964786.189 8      2708.797          48.000
C27  24524283.008 5 127704509.449 5     -1880.188          33.000
E03  23453875.641 8 123250955.895 8      -234.926          51.000    23453877.211 8  94439132.622 8      -179.981          51.000
E15  24676320.008 8 129674925.156 8     -2057.762          49.000    24676324.297 8  99361322.171 8     -1576.738          51.000
E25  26525826.617 7 139394156.740 7      2437.809          42.000    26525832.703 6 106808491.465 6      1867.841          40.000
> 2020 05 14 23 59  0.0000000  0 13        .000000000000
G06  21114321.531 7 110956506.946 7      -620.957          47.000    21114322.477 7  86459604.865 7      -483.863          47.000
G07  22004290.055 8 115633329.201 8      2507.105          51.000    22004287.891 8  90103881.349 8      1953.589          51.000
G09  20331954.102 8 106845247.351 8      -528.137          51.000    20331954.570 8  83256032.680 8      -411.535          51.000
R06  19810003.977 7 105709990.892 7      -926.742          45.000
R15  22361036.234 6 119490524.807 6     -2422.492          38.000
R16  20590949.680 5 109993170.065 5      1499.695          32.000    20590954.203 4  85550250.931 4      1166.433          25.000
R22  21061875.586 5 112429672.129 5     -1162.340          33.000    21061882.984 4  87445348.305 4      -904.042          27.000
C05  39782145.891 6 207156072.498 6       -11.051          36.000    39782141.891 6 160186196.829 6        -8.497          37.000
C24  23552255.641 5 122642888.136 5      -173.395          31.000
C25  23790509.281 8 123883439.488 8      2716.133          49.000
E03  23455189.789 8 123257862.585 8      -223.527          51.000    23455191.625 8  94444424.765 8      -171.265          51.000
E15  24688056.055 8 129736599.869 8     -2051.914          49.000    24688060.352 8  99408579.414 8     -1572.231          51.000
E25  26511889.672 6 139320910.678 6      2447.480          41.000    26511894.906 5 106752367.894 5      1875.196          35.000
> 2020 05 14 23 59 30.0000000  0 17        .000000000000
G02  22802199.008 5 119826381.262 5      1550.766          33.000
G06  21117994.438 8 110975806.497 8      -656.441          48.000    21117995.859 8  86474643.492 8      -511.513          48.000
G07  21990081.750 8 115558661.760 8      2479.957          51.000    21990079.242 8  90045698.931 8      1932.434          51.000
G09  20335072.617 8 106861635.282 8      -555.215          51.000    20335073.055 8  83268802.499 8      -432.635          51.000
R06  19815312.508 7 105738317.771 7      -952.402          46.000
R07  20619897.852 4 110379894.533 4      1909.254          29.000
R15  22374769.867 6 119563897.344 6     -2459.348          36.000    22374768.727 4  92994206.037 4     -1912.826          25.000
R16  20582671.852 5 109948947.992 5      1457.480          33.000    20582675.008 4  85515850.875 4      1133.596          25.000
R21  22701624.297 5 121480972.867 5     -4208.145          30.000    22701628.453 5  94485201.383 5     -3273.001          32.000
C05  39782277.859 6 207156759.511 6       -26.043          36.000    39782273.883 6 160186728.075 6       -19.875          37.000
C24  23553388.617 5 122648683.509 5      -205.195          31.000
C25  23774958.758 8 123802460.717 8      2691.609          51.000
C27  24546031.297 5 127817581.585 5     -1902.172          32.000
E03  23456552.422 8 123265023.633 8      -244.488          51.000    23456554.508 8  94449911.794 8      -187.263          51.000
E08  23452320.609 6 123242784.839 6      1792.539          37.000
E15  24699871.523 8 129798691.782 8     -2078.258          48.000    24699875.328 8  99456156.329 8     -1592.359          51.000
E25  26498011.117 6 139247970.863 6      2424.637          40.000
