     3.02           OBSERVATION DATA    M (MIXED)           RINEX VERSION / TYPE
SAVERINEX           SC600               20200518 035931 LCL PGM / RUN BY / DATE
       G = GPS       R = GLONASS       C = COMPASS          COMMENT
       S = SBAS      J = QZSS          E = GALILEO          COMMENT
BEAN                                                        MARKER NAME
1                                                           MARKER NUMBER
GEODETIC                                                    MARKER TYPE
Unige DICCA         GTER                                    OBSERVER / AGENCY
SC60291900056       SC600               2.12(191202)        REC # / TYPE / VERS
                    HEMA45          NONE                    ANT # / TYPE
  4509407.8091   693652.4678  4442337.6214                  APPROX POSITION XYZ
        0.0000        0.0000        0.0000                  ANTENNA: DELTA H/E/N
G    8 C1C L1C D1C S1C C2Y L2Y D2Y S2Y                      SYS / # / OBS TYPES
R    8 C1C L1C D1C S1C C2P L2P D2P S2P                      SYS / # / OBS TYPES
C    8 C1I L1I D1I S1I C7I L7I D7I S7I                      SYS / # / OBS TYPES
E    8 C1C L1C D1C S1C C7Q L7Q D7Q S7Q                      SYS / # / OBS TYPES
DBHZ                                                        COMMENT
     30.000                                                 INTERVAL
  2020    05    18    01    00    0.0000000     GPS         TIME OF FIRST OBS
  2020    05    18    01    59   30.0000000     GPS         TIME OF LAST OBS
     0                                                      RCV CLOCK OFFS APPL
G L1C  0.00000                                              SYS / PHASE SHIFT
G L2Y  0.00000                                              SYS / PHASE SHIFT
R L1C  0.00000                                              SYS / PHASE SHIFT
R L2P  0.25000                                              SYS / PHASE SHIFT
C L1I  0.00000                                              SYS / PHASE SHIFT
C L7I  0.00000                                              SYS / PHASE SHIFT
E L1C  0.50000                                              SYS / PHASE SHIFT
E L7Q -0.25000                                              SYS / PHASE SHIFT
 12 R01  1 R02 -4 R07  5 R08  6 R09 -2 R10 -5 R11  0 R12 -1 GLONASS SLOT / FRQ #
    R13 -2 R17  4 R22 -3 R23  3                             GLONASS SLOT / FRQ #
 C1C   71.950 C2C   71.950 C2P   71.950                     GLONASS COD/PHS/BIS
    18                                                      LEAP SECONDS
*** Above antenna height is from mark to ANTENNA BOTTOM.    COMMENT
    17     4        0.0000        ANT MEASURE TYPE/HEIGT    COMMENT
    0.0000    0.0000    0.0458    0.0405    0.0000          COMMENT
                    BASE STATION                            COMMENT
                                                            END OF HEADER
> 2020 05 18 01 00  0.0000000  0 19        .000000000000
G02  22535479.922 5 118424746.373 5      -938.098          35.000    22535487.359 4  92279045.415 4      -730.970          29.000
G04  24185200.523 5 127094067.044 5     -2965.500          34.000
G06  22750293.367 8 119553593.484 8     -3012.754          48.000    22750292.938 8  93158595.851 8     -2347.603          48.000
G07  20798848.438 8 109298690.758 8       285.051          50.000    20798847.992 8  85167804.418 8       222.117          50.000
G09  21422001.773 7 112573437.520 7     -1958.934          43.000    21422003.844 6  87719587.037 6     -1526.442          40.000
G30  21462215.336 8 112784700.587 8      2407.207          51.000    21462216.141 8  87884217.262 8      1875.749          51.000
R01  22293726.992 5 119172680.135 5     -2896.535          30.000
R02  19444181.242 6 103757925.130 6       438.055          40.000    19444183.797 5  80700578.116 5       340.709          34.000
R11  21037818.195 5 112419715.042 5     -2227.949          31.000    21037821.500 5  87437570.415 5     -1732.849          30.000
R12  19862490.352 8 106101991.412 8      1759.547          50.000    19862495.641 8  82523758.808 8      1368.536          50.000
R17  23372498.703 5 125070871.334 5     -3897.625          33.000    23372488.914 4  97277344.576 4     -3031.486          29.000
C05  39804746.359 6 207273759.092 6       -13.188          36.000    39804743.414 6 160277208.273 6       -10.466          39.000
C21  22052729.008 5 114834360.578 5      1130.641          33.000
C22  22797075.352 8 118710346.835 8     -1634.484          51.000
E02  24859675.125 6 130638455.523 6      1281.242          40.000    24859676.219 7 100099613.930 7       981.683          42.000
E08  21689365.680 8 113978391.334 8      -564.410          51.000    21689366.328 8  87334237.916 8      -432.515          51.000
E13                                                                  26593403.359 6 107080583.934 6     -2203.093          36.000
E25  26700729.977 6 140313275.923 6     -1410.371          36.000
E30  25416550.477 6 133564870.936 6      3094.324          40.000    25416558.398 7 102341936.556 7      2370.925          44.000
> 2020 05 18 01 00 30.0000000  0 17        .000000000000
G02  22540883.000 6 118453137.490 6      -959.074          38.000    22540889.898 5  92301168.366 5      -747.321          31.000
G04  24202138.141 5 127183100.977 5     -2971.480          31.000    24202132.422 4  99103685.582 4     -2315.439          25.000
G06  22767520.391 7 119644122.984 7     -3026.828          46.000    22767518.891 7  93229138.266 7     -2358.567          47.000
G07  20797266.734 8 109290378.962 8       264.539          51.000    20797266.258 8  85161327.694 8       206.134          50.000
G09  21433204.102 6 112632307.961 6     -1970.672          39.000    21433206.438 6  87765460.157 6     -1535.588          39.000
G30  21448510.172 8 112712679.438 8      2389.699          51.000    21448511.422 8  87828096.916 8      1862.103          51.000
R02  19441753.258 7 103744968.753 7       421.102          42.000    19441756.516 5  80690500.884 5       327.523          34.000
R12  19852679.914 8 106049584.696 8      1729.707          51.000    19852685.219 8  82482998.046 8      1345.328          50.000
R17  23394365.359 5 125187885.663 5     -3907.723          35.000    23394354.867 4  97368355.670 4     -3039.343          24.000
C05  39804823.344 6 207274159.579 6       -17.363          36.000    39804820.297 6 160277517.984 6       -13.659          39.000
C21  22046244.633 6 114800569.755 6      1117.637          36.000
C22  22806517.469 8 118759513.334 8     -1647.652          51.000
E02  24852397.383 6 130600219.901 6      1263.047          40.000    24852401.227 7 100070316.522 7       967.954          42.000
E08  21692602.344 8 113995400.175 8      -574.051          51.000    21692603.000 8  87347270.655 8      -439.890          51.000
E13                                                                  26609834.008 6 107146718.750 6     -2209.510          36.000
E25  26708818.875 6 140355773.854 6     -1427.383          38.000
E30  25398895.000 6 133472081.337 6      3087.129          41.000    25398901.047 7 102270838.023 7      2365.382          44.000
> 2020 05 18 01 01  0.0000000  0 16        .000000000000
G02  22546409.430 6 118482173.493 6      -970.539          38.000    22546413.484 5  92323793.792 5      -756.264          30.000
G06  22784832.594 7 119735102.122 7     -3031.613          46.000    22784832.117 7  93300031.091 7     -2362.296          46.000
G07  20795806.258 8 109282703.637 8       253.766          51.000    20795805.617 8  85155346.909 8       197.739          51.000
G09  21444476.961 6 112691552.238 6     -1972.316          38.000    21444480.094 6  87811624.511 6     -1536.873          37.000
G30  21434908.977 8 112641206.771 8      2381.824          50.000    21434911.055 8  87772403.948 8      1855.967          50.000
R02  19439423.430 7 103732534.223 7       414.656          42.000    19439425.961 5  80680829.581 5       322.510          34.000
R12  19843041.867 8 105998097.059 8      1709.488          51.000    19843046.711 8  82442952.118 8      1329.605          50.000
R17  23416289.102 5 125305210.767 5     -3907.078          33.000
C05  39804928.188 6 207274705.655 6       -11.871          36.000    39804925.125 6 160277940.219 6        -9.249          39.000
C22  22816039.688 8 118809098.318 8     -1651.379          51.000
E02  24845227.242 7 130562543.380 7      1254.914          42.000    24845231.336 6 100041447.423 6       961.758          41.000
E07  24693354.430 6 129764419.940 6      1551.039          36.000
E08  21695899.172 8 114012724.859 8      -574.125          51.000    21695899.750 8  87360545.415 8      -439.944          51.000
E13                                                                  26626315.086 5 107213060.409 5     -2208.420          34.000
E25  26717009.523 6 140398810.644 6     -1434.961          38.000
E30  25381286.102 7 133379536.334 7      3089.184          43.000    25381289.922 7 102199926.923 7      2367.064          44.000
> 2020 05 18 01 01 30.0000000  0 16        .000000000000
G02  22552000.930 6 118511551.181 6      -988.508          37.000    22552001.992 4  92346685.540 4      -770.263          26.000
G06  22802172.648 7 119826226.169 7     -3043.914          47.000    22802173.414 7  93371036.816 7     -2371.881          47.000
G07  20794409.523 8 109275363.296 8       234.969          51.000    20794408.773 8  85149627.163 8       183.093          51.000
G09  21455764.281 6 112750867.737 6     -1982.543          40.000    21455766.703 6  87857844.415 6     -1544.842          39.000
G30  21421355.000 8 112569982.440 8      2365.906          51.000    21421357.625 8  87716904.465 8      1843.563          51.000
R02  19437134.461 7 103720317.002 7       399.445          43.000    19437134.250 5  80671327.314 5       310.683          32.000
R11  21075973.914 6 112623490.804 6     -2296.762          36.000
R12  19833518.539 8 105947223.767 8      1681.246          51.000    19833522.992 8  82403384.032 8      1307.639          50.000
C05  39805003.656 6 207275098.449 6       -14.609          36.000    39805000.586 6 160278243.939 6       -11.378          39.000
C21  22033439.086 5 114733905.634 5      1102.949          32.000
C22  22825584.672 8 118858802.627 8     -1662.984          51.000
E02  24838106.781 7 130525125.190 7      1238.758          42.000    24838110.945 7 100012776.309 7       949.286          43.000
E07  24684513.422 5 129717981.248 5      1544.047          33.000
E08  21699198.672 8 114030063.761 8      -582.379          51.000    21699199.250 8  87373831.067 8      -446.250          51.000
E25  26725244.039 6 140442083.365 6     -1450.445          38.000
E30  25363666.828 6 133286936.215 6      3083.336          41.000    25363668.172 7 102128973.600 7      2362.544          44.000
> 2020 05 18 01 02  0.0000000  0 15        .000000000000
G06  22819577.430 7 119917688.984 7     -3051.922          47.000    22819578.898 7  93442306.514 7     -2378.121          47.000
G07  20793113.859 8 109268553.845 8       220.535          51.000    20793112.898 8  85144321.096 8       171.846          51.000
G09  21467102.969 6 112810450.692 6     -1988.145          40.000    21467105.422 6  87904272.667 6     -1549.207          39.000
G30  21407886.203 8 112499204.763 8      2354.152          51.000    21407888.734 8  87661753.013 8      1834.404          51.000
R02  19434923.969 6 103708517.830 6       388.633          41.000    19434920.742 5  80662150.169 5       302.267          32.000
R11  21088922.594 6 112692719.722 6     -2317.535          37.000    21088908.578 4  87649928.564 4     -1802.527          29.000
R12  19824147.938 8 105897167.202 8      1657.387          51.000    19824152.328 8  82364451.159 8      1289.079          50.000
C05  39805087.086 6 207275532.887 6       -12.668          36.000    39805084.062 6 160278579.892 6        -9.883          39.000
C21  22027109.891 5 114700949.391 5      1095.082          35.000
C22  22835189.969 8 118908821.263 8     -1670.156          51.000
E02  24831073.102 7 130488163.203 7      1226.754          42.000    24831077.578 7  99984454.830 7       940.055          43.000
E08  21702538.438 8 114047613.799 8      -586.203          51.000    21702539.055 8  87387278.505 8      -449.243          51.000
E13  26659268.141 5 140095396.730 5     -2890.410          34.000
E25  26733560.398 6 140485787.678 6     -1461.734          36.000
E30  25346074.734 6 133194479.750 6      3081.820          40.000    25346073.914 7 102058130.364 7      2361.419          44.000
> 2020 05 18 01 02 30.0000000  0 17        .000000000000
G02  22563459.539 5 118571780.261 5     -1022.770          30.000
G04  24269980.688 5 127539607.646 5     -2974.656          33.000
G06  22837019.016 7 120009344.287 7     -3064.230          45.000    22837020.703 7  93513726.237 7     -2387.712          45.000
G07  20791891.977 8 109262132.231 8       201.738          51.000    20791890.641 8  85139317.232 8       157.199          51.000
G09  21478465.320 6 112870157.068 6     -1998.074          41.000    21478467.656 6  87950797.102 6     -1556.944          41.000
G30  21394475.805 8 112428732.064 8      2338.145          51.000    21394477.430 8  87606839.202 8      1821.931          51.000
R02  19432763.945 7 103696992.292 7       373.680          44.000    19432760.195 5  80653185.833 5       290.640          34.000
R11  21101996.484 5 112762623.010 5     -2342.516          31.000    21101997.469 4  87704294.129 4     -1821.957          28.000
R12  19814902.891 8 105847783.704 8      1628.934          49.000    19814907.734 8  82326041.755 8      1266.945          50.000
C05  39805151.297 6 207275867.256 6       -15.219          36.000    39805148.258 6 160278838.456 6       -11.801          39.000
C21  22020814.844 5 114668162.105 5      1083.387          31.000
C22  22844828.133 8 118959012.248 8     -1681.688          50.000
E02  24824099.539 7 130451515.345 7      1210.559          43.000    24824103.609 6  99956374.027 6       927.550          41.000
E08  21705891.141 8 114065231.919 8      -594.238          51.000    21705891.727 8  87400778.107 8      -455.325          51.000
E13  26675777.242 6 140182120.681 6     -2896.891          37.000
E25  26741930.227 5 140529793.140 5     -1476.668          32.000
E30  25328483.156 6 133102025.755 6      3075.949          39.000    25328480.281 7 101987289.037 7      2356.902          44.000
> 2020 05 18 01 03  0.0000000  0 15        .000000000000
G02  22569340.453 5 118602682.261 5     -1039.980          30.000
G04  24286967.953 5 127628880.835 5     -2978.348          31.000
G06  22854536.406 7 120101399.017 7     -3074.871          43.000    22854538.383 7  93585457.243 7     -2396.000          43.000
G07  20790783.680 8 109256307.778 8       184.473          51.000    20790782.297 8  85134778.706 8       143.745          51.000
G09  21489890.945 6 112930196.033 6     -2006.578          41.000    21489893.062 6  87997580.707 6     -1563.567          40.000
G30  21381163.906 8 112358775.677 8      2323.531          51.000    21381164.461 8  87552327.743 8      1810.544          51.000
R02  19430695.984 7 103685955.328 7       360.129          44.000    19430692.305 5  80644601.523 5       280.100          35.000
R12  19805824.219 8 105799288.996 8      1602.016          49.000    19805829.383 8  82288323.602 8      1246.009          50.000
C05  39805236.180 6 207276309.573 6       -16.422          36.000    39805233.156 6 160279180.490 6       -12.617          40.000
C21  22014591.852 5 114635752.910 5      1074.293          31.000
C22  22854539.320 8 119009583.596 8     -1691.734          51.000
E02  24817226.109 7 130415392.659 7      1195.645          44.000    24817228.055 6  99928695.571 6       916.173          40.000
E08  21709296.859 8 114083128.247 8      -600.918          51.000    21709297.125 8  87414490.866 8      -460.468          51.000
E13  26692326.359 6 140269068.068 6     -2901.590          38.000    26692332.508 5 107478929.507 5     -2223.577          34.000
E30  25310932.234 6 133009786.191 6      3071.445          39.000    25310927.562 7 101916612.025 7      2353.283          44.000
> 2020 05 18 01 03 30.0000000  0 13        .000000000000
G02  22575326.336 5 118634137.025 5     -1061.035          33.000
G06  22872117.656 6 120193791.780 6     -3088.816          41.000    22872120.430 7  93657451.674 7     -2406.867          42.000
G07  20789777.844 8 109251021.695 8       163.875          51.000    20789776.117 8  85130659.672 8       127.695          51.000
G09  21501368.094 6 112990508.445 6     -2018.367          39.000    21501368.727 6  88044577.391 6     -1572.751          38.000
G30  21367939.492 8 112289278.723 8      2305.570          51.000    21367939.500 8  87498174.289 8      1796.548          51.000
R02  19428708.031 7 103675348.422 7       342.984          44.000    19428705.336 6  80636351.718 6       266.766          37.000
R12  19796901.648 8 105751625.460 8      1571.508          51.000    19796906.719 8  82251251.961 8      1222.284          49.000
C05  39805330.703 6 207276801.934 6       -20.617          36.000    39805327.742 6 160279561.242 6       -15.918          39.000
C22  22864313.281 8 119060477.292 8     -1705.121          51.000
E02  24810441.938 7 130379737.734 7      1177.363          42.000    24810442.109 6  99901375.588 6       902.079          40.000
E08  21712744.375 8 114101244.482 8      -610.852          51.000    21712744.406 8  87428372.141 8      -468.031          51.000
E13  26708905.047 6 140356178.337 6     -2909.590          40.000    26708906.023 6 107545676.398 6     -2229.351          37.000
E30  25293410.039 6 132917704.573 6      3063.051          37.000    25293404.344 7 101846056.029 7      2347.279          43.000
> 2020 05 18 01 04  0.0000000  0 13        .000000000000
G06  22889741.633 6 120286409.930 6     -3090.879          41.000    22889745.086 6  93729621.687 6     -2408.477          40.000
G07  20788853.492 8 109246164.020 8       154.949          51.000    20788851.086 8  85126874.461 8       120.740          51.000
G09  21512876.055 6 113050983.867 6     -2018.152          38.000    21512876.891 6  88091701.060 6     -1572.589          39.000
G30  21354781.820 8 112220133.059 8      2299.230          51.000    21354781.828 8  87444294.551 8      1791.608          51.000
R02  19426779.688 7 103665061.738 7       337.566          43.000    19426779.062 6  80628350.919 6       262.552          38.000
R12  19788114.492 8 105704683.968 8      1552.875          51.000    19788119.156 8  82214741.948 8      1207.792          48.000
C05  39805413.992 6 207277234.660 6       -12.914          36.000    39805411.023 6 160279896.636 6       -10.249          39.000
C21  22002310.641 5 114571802.296 5      1058.855          34.000
C22  22874128.445 8 119111584.581 8     -1706.871          51.000
E02  24803725.641 7 130344441.821 7      1170.770          42.000    24803724.953 6  99874330.768 6       897.083          39.000
E08  21716212.797 8 114119471.123 8      -609.133          51.000    21716212.836 8  87442337.993 8      -466.723          51.000
E13  26725492.430 6 140443339.711 6     -2906.016          41.000    26725487.219 6 107612462.454 6     -2226.589          40.000
E30  25275895.672 6 132825673.270 6      3066.801          39.000    25275890.195 7 101775538.577 7      2350.075          43.000
> 2020 05 18 01 04 30.0000000  0 14        .000000000000
G02  22587555.445 6 118698396.446 6     -1086.812          38.000
G06  22907420.445 6 120379316.517 6     -3100.730          38.000    22907423.773 6  93802016.466 6     -2416.154          39.000
G07  20788023.133 8 109241800.244 8       138.109          51.000    20788020.602 8  85123474.116 8       107.618          51.000
G09  21524427.148 5 113111687.548 5     -2026.336          35.000    21524430.188 5  88139002.653 5     -1578.960          35.000
G30  21341703.719 8 112151406.194 8      2284.750          51.000    21341704.055 8  87390741.143 8      1780.325          51.000
R02  19424924.078 7 103655163.712 7       324.301          43.000    19424925.672 6  80620652.434 6       252.234          40.000
R12  19779475.430 8 105658533.395 8      1526.098          51.000    19779479.703 8  82178847.101 8      1186.968          48.000
C05  39805498.602 6 207277676.815 6       -13.781          36.000    39805495.664 6 160280237.378 6       -10.883          39.000
C21  21996247.984 6 114540208.737 6      1048.988          37.000
C22  22883997.078 8 119162970.846 8     -1716.621          51.000
E02  24797090.320 7 130309572.177 7      1155.852          43.000    24797088.109 6  99847612.529 6       885.688          39.000
E08  21719714.742 8 114137874.399 8      -615.605          51.000    21719714.852 8  87456439.179 8      -471.698          51.000
E13  26742100.828 6 140530616.197 6     -2910.324          39.000    26742092.305 7 107679336.671 7     -2230.186          42.000
E30  25258404.109 6 132733760.347 6      3062.523          38.000    25258398.750 7 101705111.827 7      2346.594          44.000
> 2020 05 18 01 05  0.0000000  0 15        .000000000000
G02  22593820.125 6 118731288.896 6     -1103.852          37.000
G06  22925142.656 6 120472450.554 6     -3111.137          36.000    22925145.219 6  93874588.527 6     -2424.262          36.000
G07  20787275.633 8 109237872.093 8       120.719          51.000    20787272.984 8  85120413.228 8        94.067          51.000
G09  21536010.453 6 113172561.078 6     -2034.387          37.000    21536014.586 6  88186436.505 6     -1585.236          37.000
G30  21328694.484 8 112083041.652 8      2269.934          51.000    21328695.148 8  87337470.067 8      1768.779          51.000
R02  19423130.836 7 103645596.447 7       310.426          44.000    19423134.180 6  80613211.228 6       241.442          41.000
R12  19770973.820 8 105613116.682 8      1498.723          51.000    19770977.641 8  82143523.041 8      1165.673          48.000
C05  39805573.539 6 207278065.539 6       -15.086          36.000    39805570.617 6 160280539.093 6       -11.617          39.000
C21  21990223.461 6 114508839.252 6      1039.340          36.000
C22  22893908.094 8 119214578.590 8     -1726.832          51.000
E02  24790525.344 7 130275071.797 7      1141.047          43.000    24790522.750 6  99821177.178 6       874.180          40.000
E07                                                                  24623296.664 5  99147814.928 5      1162.781          33.000
E08  21723239.383 8 114156396.505 8      -622.211          51.000    21723239.414 8  87470631.440 8      -476.777          51.000
E13  26758718.664 6 140617947.761 6     -2914.602          38.000    26758708.828 7 107746253.048 7     -2233.500          43.000
E30  25240923.273 6 132641909.840 6      3057.805          36.000    25240919.797 7 101634732.910 7      2342.912          44.000
> 2020 05 18 01 05 30.0000000  0 15        .000000000000
G02  22600146.148 5 118764591.800 5     -1118.609          35.000
G06  22942927.836 6 120565912.689 6     -3118.922          36.000    22942934.578 5  93947416.560 5     -2430.314          35.000
G07  20786630.664 8 109234482.777 8       105.953          51.000    20786627.695 8  85117772.199 8        82.561          51.000
G09  21547646.086 6 113233707.157 6     -2040.664          39.000    21547647.961 6  88234082.898 6     -1590.125          39.000
G30  21315774.188 8 112015144.571 8      2257.492          51.000    21315775.008 8  87284563.253 8      1759.085          51.000
R02  19421419.562 7 103636466.520 7       298.910          44.000    19421423.922 6  80606110.143 6       232.486          41.000
R12  19762629.625 8 105568541.292 8      1473.824          51.000    19762632.914 8  82108853.334 8      1146.311          48.000
C05  39805658.523 6 207278509.079 6       -13.453          36.000    39805655.578 6 160280881.300 6       -10.499          39.000
C21  21984260.680 6 114477797.960 6      1031.207          36.000
C22  22903881.273 8 119266510.432 8     -1734.543          51.000
E02  24784050.641 7 130241045.337 7      1128.371          44.000    24784049.633 7  99795104.983 7       864.545          43.000
E07                                                                  24614637.016 4  99112945.204 4      1161.194          29.000
E08  21726806.453 8 114175141.322 8      -626.566          51.000    21726806.367 8  87484994.338 8      -480.057          51.000
E13  26775365.305 5 140705435.985 5     -2916.652          35.000    26775355.734 7 107813289.484 7     -2235.050          42.000
E30  25223473.086 6 132550227.533 6      3055.160          36.000    25223473.383 7 101564482.827 7      2341.096          44.000
> 2020 05 18 01 06  0.0000000  0 16        .000000000000
G02  22606567.523 5 118798343.654 5     -1134.023          35.000    22606568.195 5  92570104.192 5      -883.655          34.000
G06  22960749.750 6 120659562.989 6     -3127.051          37.000    22960762.000 6  94020390.924 6     -2436.663          37.000
G07  20786062.195 8 109231495.240 8        90.477          51.000    20786059.188 8  85115444.239 8        70.501          51.000
G09  21559307.594 6 113294988.256 6     -2047.465          37.000    21559308.695 6  88281834.413 6     -1595.427          37.000
G30  21302916.961 8 111947579.372 8      2244.324          51.000    21302918.008 8  87231915.072 8      1748.827          51.000
R02  19419764.648 7 103627636.804 7       286.855          45.000    19419769.352 6  80599242.537 6       223.107          40.000
R11  21197001.297 5 113270233.108 5     -2491.938          30.000
R12  19754416.930 8 105524669.888 8      1448.203          51.000    19754419.836 8  82074731.147 8      1126.380          49.000
C05  39805727.500 6 207278868.296 6       -12.746          36.000    39805724.633 6 160281159.085 6        -9.944          39.000
C21  21978334.836 6 114446950.183 6      1022.691          36.000
C22  22913890.695 8 119318630.532 8     -1742.812          51.000
E02  24777639.852 6 130207356.887 6      1115.141          41.000    24777640.836 7  99769291.760 7       854.324          43.000
E03  26993002.172 4 141849182.970 4     -2187.316          29.000
E08  21730389.867 8 114193971.987 8      -631.434          51.000    21730389.820 8  87499423.010 8      -483.784          51.000
E13  26792014.914 5 140792994.886 5     -2919.031          34.000    26792006.273 7 107880339.438 7     -2236.999          42.000
E30  25206028.461 6 132458578.390 6      3051.895          37.000    25206033.156 7 101494258.157 7      2338.617          43.000
> 2020 05 18 01 06 30.0000000  0 13        .000000000000
G06  22978642.805 6 120753585.378 6     -3136.023          39.000    22978655.148 6  94093655.245 6     -2443.652          39.000
G07  20785605.586 8 109229095.555 8        74.402          51.000    20785602.828 8  85113574.364 8        57.976          51.000
G09  21571030.391 7 113356590.465 7     -2054.633          42.000    21571031.789 7  88329836.123 7     -1601.013          42.000
G30  21290158.641 8 111880534.408 8      2230.406          51.000    21290159.633 8  87179672.265 8      1737.979          51.000
R02  19418201.945 7 103619297.355 7       273.949          46.000    19418205.867 6  80592756.302 6       213.072          41.000
R12  19746371.820 8 105481694.217 8      1421.863          51.000    19746374.625 8  82041305.605 8      1105.894          50.000
C05  39805815.969 6 207279329.360 6       -12.965          36.000    39805813.227 6 160281515.626 6        -9.865          39.000
C21  21972482.047 5 114416482.188 5      1013.875          35.000
C22  22923971.500 8 119371123.966 8     -1751.824          51.000
E02  24771328.758 6 130174194.219 6      1100.844          40.000    24771331.023 7  99743881.403 7       843.626          43.000
E08  21734025.188 8 114213075.603 8      -637.105          51.000    21734025.297 8  87514060.842 8      -488.097          51.000
E13  26808703.680 5 140880688.390 5     -2922.852          32.000    26808695.344 6 107947544.591 6     -2239.420          41.000
E30  25188627.609 6 132367151.275 6      3047.926          37.000    25188634.750 7 101424203.564 7      2335.606          42.000
> 2020 05 18 01 07  0.0000000  0 13        .000000000000
G06  22996572.336 6 120847800.807 6     -3145.332          41.000    22996581.578 6  94167069.954 6     -2450.905          40.000
G07  20785227.242 8 109227106.983 8        57.723          51.000    20785224.711 8  85112024.823 8        44.979          51.000
G09  21582780.492 6 113418337.045 6     -2062.816          41.000    21582781.883 7  88377950.339 7     -1607.392          42.000
G30  21277466.047 8 111813835.063 8      2215.836          51.000    21277466.617 8  87127698.769 8      1726.628          51.000
R02  19416698.297 7 103611271.264 7       260.484          47.000    19416701.438 6  80586513.766 6       202.599          41.000
R12  19738460.812 8 105439436.955 8      1394.789          51.000    19738464.023 8  82008438.846 8      1084.836          50.000
C05  39805890.586 6 207279717.907 6       -13.797          36.000    39805887.820 6 160281816.077 6       -10.391          39.000
C21  21966669.211 6 114386220.831 6      1003.250          39.000
C22  22934090.359 8 119423816.247 8     -1761.473          51.000
E02  24765084.125 6 130141382.380 6      1086.246          36.000    24765087.867 7  99718739.812 7       832.187          44.000
E08  21737678.984 8 114232276.279 8      -643.402          51.000    21737679.203 8  87528773.048 8      -493.006          51.000
E13  26825398.539 5 140968420.225 5     -2926.781          35.000    26825389.258 6 108014768.474 6     -2242.491          41.000
E30  25171237.820 6 132275772.138 6      3043.230          39.000    25171245.898 6 101354185.760 6      2331.937          41.000
> 2020 05 18 01 07 30.0000000  0 14        .000000000000
G02  22626419.562 5 118902649.590 5     -1182.562          33.000    22626420.586 4  92651402.059 4      -921.456          27.000
G06  23014554.148 6 120942292.909 6     -3154.215          41.000    23014560.719 6  94240700.193 6     -2457.830          39.000
G07  20784943.695 8 109225616.341 8        41.473          51.000    20784941.133 8  85110863.278 8        32.316          51.000
G09  21594574.391 6 113480314.025 6     -2069.641          41.000    21594576.258 7  88426244.025 7     -1612.707          42.000
G30  21264855.859 8 111747569.497 8      2201.672          51.000    21264856.344 8  87076063.273 8      1715.588          51.000
R02  19415270.172 8 103603647.621 8       247.508          48.000    19415272.875 7  80580584.270 7       192.506          42.000
R12  19730701.508 8 105397988.320 8      1368.191          51.000    19730704.977 8  81976201.022 8      1064.149          50.000
C05  39805967.805 6 207280118.889 6       -13.332          36.000    39805965.016 6 160282126.922 6       -10.454          39.000
C21  21960913.984 6 114356253.087 6       994.238          41.000
C22  22944264.125 8 119476793.175 8     -1770.539          51.000
E02  24758920.852 5 130109006.969 5      1071.012          30.000    24758927.633 7  99693934.178 7       821.280          43.000
E08  21741367.742 8 114251660.991 8      -649.141          51.000    21741367.969 8  87543626.265 8      -497.381          51.000
E13  26842115.375 5 141056264.031 5     -2929.277          34.000    26842104.320 6 108082075.794 6     -2244.951          40.000
E30  25153875.297 6 132184529.720 6      3039.145          40.000    25153883.594 6 101284272.763 6      2328.560          38.000
> 2020 05 18 01 08  0.0000000  0 14        .000000000000
G02  22633217.062 6 118938344.742 6     -1197.297          38.000    22633215.133 5  92679216.529 5      -932.959          34.000
G06  23032581.148 6 121037023.396 6     -3161.496          41.000    23032585.773 6  94314516.121 6     -2463.503          41.000
G07  20784747.977 8 109224587.427 8        26.891          51.000    20784745.539 8  85110061.527 8        20.954          51.000
G09  21606405.273 6 113542485.436 6     -2075.043          40.000    21606407.297 6  88474689.157 6     -1616.920          40.000
G30  21252321.523 8 111681703.721 8      2189.234          51.000    21252322.453 8  87024739.280 8      1705.897          51.000
R02  19413910.820 8 103596391.679 8       236.098          48.000    19413913.125 7  80574940.764 7       183.632          42.000
R12  19723087.055 8 105357313.664 8      1343.277          51.000    19723090.633 8  81944565.207 8      1044.771          50.000
C05  39806040.977 6 207280499.385 6       -11.641          36.000    39806038.031 6 160282421.168 6        -9.125          39.000
C21  21955209.391 7 114326545.093 7       986.152          42.000
C22  22954485.359 8 119530019.594 8     -1777.922          51.000
E02  24752837.000 6 130077032.477 6      1059.164          38.000    24752843.078 7  99669438.057 7       811.690          42.000
E08  21745084.867 8 114271194.518 8      -653.223          51.000    21745085.078 8  87558593.512 8      -500.503          51.000
E13  26858846.250 6 141144182.409 6     -2931.176          38.000    26858833.531 6 108149437.952 6     -2245.924          39.000
E30  25136533.352 7 132093390.698 7      3036.625          42.000    25136541.141 5 101214439.005 5      2326.576          35.000
> 2020 05 18 01 08 30.0000000  0 14        .000000000000
G02  22640102.227 6 118974517.989 6     -1213.652          36.000    22640096.672 5  92707403.477 5      -945.706          35.000
G06  23050657.750 7 121132012.178 7     -3170.969          42.000    23050660.469 6  94388533.329 6     -2470.885          41.000
G07  20784644.453 8 109224042.923 8         9.676          51.000    20784642.328 8  85109637.234 8         7.540          51.000
G09  21618277.484 7 113604873.463 7     -2083.637          42.000    21618278.438 7  88523303.154 7     -1623.610          42.000
G30  21239867.891 8 111616262.095 8      2173.949          51.000    21239869.328 8  86973745.797 8      1693.986          51.000
R02  19412624.977 8 103589528.339 8       221.660          48.000    19412626.477 7  80569602.631 7       172.402          43.000
R12  19715622.305 8 105317438.474 8      1315.348          51.000    19715625.820 8  81913551.177 8      1023.048          51.000
C05  39806114.336 6 207280882.251 6       -12.906          36.000    39806111.336 6 160282716.469 6       -10.252          40.000
C21  21949559.547 6 114297120.767 6       975.734          40.000
C22  22964758.602 8 119583518.167 8     -1788.281          51.000
E02  24746839.695 7 130045491.028 7      1043.781          42.000    24746841.484 7  99645269.926 7       799.825          42.000
E08  21748834.797 8 114290900.044 8      -660.203          51.000    21748834.945 8  87573692.548 8      -505.846          51.000
E13  26875594.680 5 141232188.383 5     -2935.625          35.000    26875580.852 6 108216871.085 6     -2249.306          38.000
E30  25119216.148 7 132002380.029 7      3030.980          45.000    25119221.250 5 101144703.663 5      2322.550          35.000
> 2020 05 18 01 09  0.0000000  0 15        .000000000000
G02  22647078.219 6 119011179.041 6     -1229.363          40.000    22647074.328 6  92735970.468 6      -957.948          36.000
G06  23068785.789 7 121227267.609 7     -3178.785          42.000    23068786.188 7  94462758.294 7     -2476.975          42.000
G07  20784635.055 8 109223993.616 8        -5.762          51.000    20784633.047 8  85109598.801 8        -4.490          51.000
G09  21630192.906 6 113667488.769 6     -2089.988          41.000    21630192.922 6  88572094.265 6     -1628.565          41.000
G30  21227497.805 8 111551257.349 8      2160.430          51.000    21227499.273 8  86923092.741 8      1683.452          51.000
R02  19411414.703 8 103583069.914 8       209.480          48.000    19411415.922 7  80564579.403 7       162.929          44.000
R11  21283067.273 5 113730257.133 5     -2620.242          32.000
R12  19708309.742 8 105278375.725 8      1289.387          51.000    19708313.398 8  81883169.039 8      1002.856          51.000
C05  39806190.070 6 207281276.742 6       -12.680          36.000    39806186.977 6 160283021.506 6        -9.717          40.000
C21  21943966.125 6 114267992.628 6       966.883          41.000
C22  22975086.234 8 119637300.024 8     -1796.594          51.000
E02  24740923.609 7 130014389.750 7      1030.230          43.000    24740924.164 6  99621439.092 6       789.547          40.000
E08  21752619.586 8 114310789.098 8      -665.176          51.000    21752619.734 8  87588932.213 8      -509.683          51.000
E13  26892362.438 5 141320318.068 5     -2938.105          35.000    26892347.586 6 108284382.151 6     -2251.144          37.000
E30  25101925.984 7 131911511.098 7      3027.414          47.000    25101928.633 6 101075076.885 6      2319.539          41.000
> 2020 05 18 01 09 30.0000000  0 15        .000000000000
G02  22654143.109 6 119048305.687 6     -1245.383          40.000    22654139.594 6  92764900.292 6      -970.425          37.000
G06  23086960.062 6 121322766.119 6     -3186.973          40.000    23086958.328 6  94537172.666 6     -2483.355          39.000
G07  20784715.805 8 109224418.273 8       -21.777          51.000    20784713.883 8  85109929.688 8       -16.969          51.000
G09  21642147.578 6 113730310.193 6     -2097.035          40.000    21642148.164 6  88621046.006 6     -1634.053          41.000
G30  21215207.484 8 111486670.367 8      2146.242          51.000    21215208.758 8  86872765.220 8      1672.397          51.000
R02  19410276.508 8 103576997.231 8       196.250          49.000    19410278.117 7  80559856.207 7       152.642          44.000
R11  21297828.336 5 113809119.580 5     -2638.672          34.000
R12  19701145.523 8 105240106.010 8      1262.754          51.000    19701149.242 8  81853403.717 8       982.142          51.000
C05  39806264.305 6 207281662.567 6       -12.449          36.000    39806261.312 6 160283320.634 6        -9.605          39.000
C21  21938424.742 6 114239141.559 6       957.320          39.000
C22  22985464.562 8 119691344.764 8     -1805.551          51.000
E02  24735085.977 7 129983709.129 7      1015.824          42.000    24735083.289 5  99597930.580 5       778.538          35.000
E08  21756435.406 8 114330841.385 8      -670.887          51.000    21756435.625 8  87604296.954 8      -514.104          51.000
E13                                                                  26909129.203 6 108351953.965 6     -2253.179          36.000
E30  25084659.047 8 131820765.405 8      3023.066          49.000    25084660.695 7 101005544.489 7      2316.361          45.000
> 2020 05 18 01 10  0.0000000  0 16        .000000000000
G02  22661297.688 6 119085908.070 6     -1261.527          39.000    22661293.562 5  92794200.812 5      -983.008          33.000
G06  23105182.531 6 121418516.362 6     -3195.867          36.000    23105178.617 6  94611783.197 6     -2490.286          37.000
G07  20784888.812 8 109225328.174 8       -38.555          51.000    20784887.148 8  85110638.708 8       -30.040          51.000
G09  21654143.383 6 113793348.708 6     -2104.871          39.000    21654144.203 6  88670166.869 6     -1640.162          39.000
G30  21202999.289 8 111422514.066 8      2131.254          51.000    21203000.164 8  86822773.311 8      1660.717          51.000
R02  19409212.953 8 103571323.593 8       182.375          48.000    19409215.195 7  80555443.351 7       141.847          45.000
R11  21312690.836 5 113888563.772 5     -2659.141          33.000    21312700.977 4  88580020.271 4     -2068.220          24.000
R12  19694132.328 8 105202642.876 8      1235.258          51.000    19694135.836 8  81824265.702 8       960.756          49.000
C05  39806339.430 6 207282054.353 6       -13.148          36.000    39806336.336 6 160283622.797 6       -10.083          39.000
C21  21932938.672 6 114210580.083 6       947.035          40.000
C22  22995895.969 8 119745663.775 8     -1815.371          51.000
E02  24729329.547 7 129953461.591 7      1000.922          42.000    24729323.547 5  99574753.929 5       766.970          34.000
E08  21760284.383 8 114351068.709 8      -677.250          51.000    21760284.742 8  87619795.809 8      -518.908          51.000
E13                                                                  26925927.148 5 108419593.785 5     -2255.894          34.000
E25  26876429.609 6 141236557.149 6     -1663.746          36.000    26876431.000 5 108220243.294 5     -1274.848          33.000
E30  25067417.766 8 131730156.585 8      3017.891          50.000    25067419.359 8 100936116.971 8      2312.383          48.000
> 2020 05 18 01 10 30.0000000  0 15        .000000000000
G02  22668542.992 6 119123994.904 6     -1276.703          39.000    22668539.461 6  92823878.857 6      -994.837          36.000
G06  23123454.648 5 121514525.532 5     -3203.988          33.000    23123448.414 5  94686595.519 5     -2496.614          34.000
G07  20785155.844 8 109226732.875 8       -54.309          51.000    20785154.492 8  85111733.282 8       -42.318          51.000
G09  21666182.023 5 113856613.790 5     -2111.223          35.000    21666182.617 6  88719464.362 6     -1645.106          36.000
G30  21190875.195 8 111358800.076 8      2117.137          51.000    21190875.836 8  86773126.073 8      1649.717          51.000
R02  19408226.320 8 103566060.232 8       169.301          48.000    19408228.797 7  80551349.608 7       131.678          45.000
R12  19687272.234 8 105165998.230 8      1208.629          51.000    19687275.898 8  81795764.316 8       940.045          49.000
C05  39806417.203 6 207282459.263 6       -12.965          36.000    39806414.188 6 160283935.893 6        -9.841          40.000
C21  21927510.727 6 114182319.512 6       937.754          41.000
C22  23006382.289 8 119800267.030 8     -1824.125          51.000
E02  24723658.016 7 129923658.309 7       986.711          42.000    24723652.422 5  99551917.725 5       756.075          35.000
E08  21764168.594 8 114371481.494 8      -682.754          51.000    21764169.039 8  87635436.762 8      -523.125          51.000
E13                                                                  26942742.109 5 108487261.883 5     -2257.615          31.000
E25  26885962.602 6 141286686.924 6     -1675.680          36.000    26885965.680 5 108258641.970 5     -1284.238          31.000
E30  25050204.531 8 131639696.892 8      3013.602          50.000    25050206.391 8 100866803.731 8      2309.150          50.000
> 2020 05 18 01 11  0.0000000  0 14        .000000000000
G02  22675857.898 6 119162441.267 6     -1300.316          39.000    22675854.633 6  92853837.180 6     -1013.227          36.000
G07  20785493.438 8 109228508.656 8       -78.156          51.000    20785492.445 8  85113116.992 8       -60.901          51.000
G09  21678242.680 5 113919923.676 5     -2125.629          33.000    21678240.672 5  88768768.734 5     -1656.331          34.000
G30  21178811.508 8 111295406.287 8      2095.129          48.000    21178812.609 8  86723728.319 8      1632.565          48.000
R02  19407293.555 8 103561083.668 8       148.230          49.000    19407296.398 7  80547478.935 7       115.290          46.000
R12  19680542.203 8 105130048.036 8      1173.797          51.000    19680545.742 8  81767803.067 8       912.953          48.000
C05  39806474.164 6 207282756.085 6       -20.625          36.000    39806471.188 6 160284165.428 6       -15.958          40.000
C21  21922117.953 7 114154238.808 7       920.387          42.000
C22  23016899.578 8 119855032.116 8     -1840.863          51.000
E02  24718047.727 7 129894176.726 7       964.602          44.000    24718041.734 5  99529327.974 5       739.173          34.000
E08  21768064.750 8 114391956.526 8      -696.156          51.000    21768065.172 8  87651125.433 8      -533.403          51.000
E13                                                                  26959550.680 5 108554938.173 5     -2266.074          30.000
E25  26895545.602 6 141337045.775 6     -1695.336          36.000    26895549.852 5 108297233.628 5     -1299.416          30.000
E30  25032996.234 8 131549264.888 8      3001.332          49.000    25032998.383 8 100797511.698 8      2299.623          50.000
> 2020 05 18 01 11 30.0000000  0 14        .000000000000
G02  22683290.562 6 119201500.512 6     -1311.195          40.000    22683287.406 5  92884272.929 5     -1021.711          33.000
G07  20785949.797 8 109230909.232 8       -89.637          50.000    20785949.555 8  85114987.587 8       -69.847          50.000
G09  21690365.562 5 113983647.657 5     -2128.500          33.000    21690367.453 5  88818423.895 5     -1658.568          33.000
G30  21166856.109 7 111232588.640 7      2085.113          44.000    21166859.195 7  86674779.465 7      1624.764          44.000
R02  19406463.414 8 103556653.084 8       139.461          48.000    19406466.688 7  80544032.923 7       108.467          46.000
R12  19673990.742 8 105095052.620 8      1151.445          51.000    19673994.141 7  81740584.446 7       895.569          47.000
C05  39806558.859 6 207283197.151 6       -16.297          36.000    39806555.852 6 160284506.505 6       -12.735          39.000
C21  21916808.492 6 114126591.400 6       915.332          41.000
C22  23027496.234 8 119910211.147 8     -1845.371          51.000
E02  24712547.844 7 129865272.381 7       954.727          42.000    24712540.648 5  99507180.424 5       731.972          35.000
E07  24512373.320 5 128813391.202 5      1465.551          31.000
E08  21772021.281 8 114412748.607 8      -697.457          51.000    21772021.617 8  87667057.030 8      -534.439          51.000
E25  26905226.445 6 141387914.939 6     -1703.113          36.000
E30  25015841.492 7 131459117.190 7      3001.031          47.000    25015843.961 8 100728437.476 8      2299.506          50.000
> 2020 05 18 01 12  0.0000000  0 13        .000000000000
G02  22690797.656 7 119240949.609 7     -1309.742          42.000    22690794.734 5  92915012.459 5     -1020.578          35.000
G07  20786483.070 8 109233713.456 8       -88.441          50.000    20786483.430 8  85117172.682 8       -68.915          50.000
G30  21154969.844 8 111170127.658 8      2087.852          48.000    21154973.406 8  86626108.564 8      1626.900          48.000
R02  19405693.766 8 103552545.363 8       143.418          49.000    19405696.680 7  80540838.000 7       111.547          46.000
R11  21373334.688 5 114212604.485 5     -2726.258          33.000
R12  19667576.336 8 105060788.874 8      1141.926          51.000    19667579.602 7  81713934.908 7       888.168          47.000
C05  39806629.258 6 207283563.772 6          .797          36.000    39806626.242 6 160284789.982 6          .791          39.000
C21  21911540.094 7 114099159.648 7       922.379          42.000
C22  23038130.125 8 119965585.280 8     -1837.344          51.000
E02  24707114.812 6 129836725.214 6       957.621          40.000    24707109.250 6  99485306.699 6       733.738          37.000
E08  21775996.047 8 114433637.191 8      -686.035          51.000    21775996.469 8  87683062.566 8      -525.624          51.000
E25  26914962.227 6 141439072.383 6     -1698.141          36.000
E30  24998698.172 7 131369035.103 7      3013.402          43.000    24998701.859 8 100659413.527 8      2309.075          51.000
> 2020 05 18 01 12 30.0000000  0 16        .000000000000
G02  22698402.164 7 119280907.041 7     -1340.797          44.000    22698396.289 6  92946145.171 6     -1044.777          36.000
G06  23196971.320 5 121900873.438 5     -3237.254          35.000    23196972.836 6  94987719.463 6     -2522.536          36.000
G07  20787114.945 8 109237035.169 8      -120.227          49.000    20787115.555 8  85119761.014 8       -93.683          49.000
G09  21714718.344 5 114111615.913 5     -2141.844          34.000    21714717.898 5  88918151.387 5     -1668.972          34.000
G30  21143174.695 8 111108139.449 8      2057.496          51.000    21143177.211 8  86577806.091 8      1603.244          51.000
R02  19405006.742 8 103548879.238 8       113.977          49.000    19405008.930 7  80537986.590 7        88.651          45.000
R11  21388766.094 5 114295084.395 5     -2762.434          31.000
R12  19661321.258 8 105027374.926 8      1098.785          51.000    19661324.469 8  81687946.321 8       854.611          48.000
C05  39806707.281 6 207283969.903 6       -14.957          36.000    39806704.203 6 160285104.030 6       -11.348          39.000
C21  21906335.062 7 114072058.627 7       897.148          42.000
C22  23048823.547 8 120021268.202 8     -1862.016          51.000
E02  24701771.938 6 129808651.106 6       927.184          39.000    24701768.562 6  99463795.371 6       710.368          37.000
E08  21780011.086 8 114454737.365 8      -707.594          51.000    21780011.727 8  87699230.231 8      -542.191          51.000
E13  27010143.938 5 141939263.207 5     -2958.625          33.000    27010146.945 5 108758654.161 5     -2267.013          34.000
E25  26924774.844 5 141490644.655 5     -1726.266          33.000
E30  24981586.484 6 131279135.597 6      2992.738          39.000    24981594.227 8 100590529.409 8      2293.263          50.000
> 2020 05 18 01 13  0.0000000  0 14        .000000000000
G02  22706088.148 7 119321295.550 7     -1354.090          45.000    22706083.703 6  92977616.763 6     -1055.135          36.000
G06  23215460.891 5 121998034.697 5     -3242.699          32.000    23215465.641 5  95063429.471 5     -2526.779          31.000
G07  20787832.820 8 109240808.051 8      -133.805          49.000    20787833.609 8  85122700.934 8      -104.263          50.000
G09  21726951.438 6 114175906.268 6     -2146.543          36.000    21726952.602 6  88968247.732 6     -1672.625          37.000
G30  21131457.344 8 111046559.294 8      2045.289          51.000    21131458.414 8  86529821.569 8      1593.732          51.000
R02  19404389.852 8 103545588.027 8       102.758          50.000    19404391.859 7  80535426.741 7        79.920          45.000
R12  19655212.859 8 104994744.887 8      1074.109          51.000    19655216.070 8  81662567.440 8       835.418          49.000
C05  39806780.242 6 207284350.056 6       -12.762          36.000    39806777.195 6 160285398.026 6        -9.910          39.000
C21  21901181.523 7 114045224.009 7       889.441          44.000
C22  23059563.922 8 120077194.313 8     -1868.828          51.000
E02  24696505.711 5 129780984.684 5       915.168          35.000    24696503.531 5  99442596.458 5       700.900          35.000
E08  21784053.930 8 114475983.296 8      -711.180          51.000    21784054.648 8  87715509.580 8      -544.930          51.000
E13  27027037.602 5 142028038.679 5     -2958.875          34.000    27027032.664 6 108826641.772 6     -2267.160          36.000
E30  24964498.969 7 131189354.465 7      2990.004          42.000    24964508.578 8 100521735.994 8      2291.183          49.000
> 2020 05 18 01 13 30.0000000  0 15        .000000000000
G02  22713861.320 7 119362144.285 7     -1369.148          46.000    22713856.391 6  93009446.954 6     -1066.869          37.000
G06  23233993.188 5 122095422.400 5     -3250.203          31.000    23234000.758 5  95139315.978 5     -2532.626          31.000
G07  20788641.656 8 109245057.994 8      -149.641          49.000    20788642.430 8  85126012.572 8      -116.600          49.000
G09  21739224.820 5 114240405.616 5     -2152.723          34.000    21739228.492 5  89018506.944 5     -1677.446          34.000
G30  21119822.547 8 110985415.006 8      2030.926          51.000    21119822.711 8  86482176.685 8      1582.540          51.000
R02  19403848.469 8 103542700.141 8        89.453          48.000    19403850.711 7  80533180.566 7        69.572          45.000
R11  21419962.891 5 114461785.312 5     -2800.203          31.000
R12  19649256.578 8 104962927.163 8      1047.059          51.000    19649259.852 8  81637820.354 8       814.379          49.000
C05  39806853.375 6 207284730.626 6       -12.531          36.000    39806850.266 6 160285692.320 6        -9.808          40.000
C21  21896084.852 7 114018683.274 7       879.742          42.000
C22  23070356.141 8 120133389.769 8     -1877.629          51.000
E02  24691322.875 6 129753753.431 6       900.387          39.000    24691320.641 6  99421730.900 6       690.020          37.000
E08  21788129.609 8 114497401.712 8      -716.836          51.000    21788130.352 8  87731921.089 8      -549.228          51.000
E13  27043941.586 5 142116838.761 5     -2961.195          35.000    27043931.133 6 108894683.412 6     -2268.839          37.000
E30  24947445.953 7 131099709.187 7      2985.461          46.000    24947448.203 8 100453031.223 8      2287.474          48.000
> 2020 05 18 01 14  0.0000000  0 13        .000000000000
G02  22721723.992 7 119403464.260 7     -1383.871          46.000    22721719.375 6  93041644.341 6     -1078.341          38.000
G07  20789543.562 8 109249796.848 8      -164.660          49.000    20789544.062 8  85129705.194 8      -128.307          49.000
G09  21751540.969 6 114305125.358 6     -2160.012          36.000    21751544.641 5  89068937.942 5     -1683.126          35.000
G30  21108272.672 8 110924720.309 8      2016.938          51.000    21108272.859 8  86434882.130 8      1571.640          50.000
R02  19403385.383 8 103540229.797 8        76.719          50.000    19403388.055 7  80531259.142 7        59.670          46.000
R12  19643455.102 8 104931935.527 8      1020.629          51.000    19643458.133 8  81613715.764 8       793.822          50.000
C05  39806928.961 6 207285124.100 6       -11.953          36.000    39806925.844 6 160285996.611 6        -9.279          40.000
C21  21891047.281 7 113992449.869 7       870.668          42.000
C22  23081202.203 8 120189866.690 8     -1885.941          51.000
E02  24686225.477 6 129726970.548 6       886.352          39.000    24686225.742 6  99401208.885 6       679.503          40.000
E08  21792240.531 8 114519005.278 8      -721.816          51.000    21792241.312 8  87748474.477 8      -553.071          51.000
E13  27060857.805 6 142205719.675 6     -2962.402          37.000    27060844.633 6 108962786.968 6     -2270.075          38.000
E30  24930421.219 8 131010236.335 8      2981.137          48.000    24930420.836 7 100384474.116 7      2284.206          47.000
> 2020 05 18 01 14 30.0000000  0 16        .000000000000
G02  22729663.617 7 119445201.029 7     -1399.777          45.000    22729658.711 6  93074158.723 6     -1090.736          39.000
G06  23271172.062 5 122290854.660 5     -3264.844          32.000    23271197.406 5  95291601.184 5     -2544.037          32.000
G07  20790526.453 8 109254960.906 8      -181.469          50.000    20790526.336 8  85133729.125 8      -141.407          50.000
G09  21763886.953 6 114370001.680 6     -2167.113          37.000    21763890.000 6  89119490.886 6     -1688.666          37.000
G30  21096796.133 8 110864413.470 8      2001.469          51.000    21096797.039 8  86387889.778 8      1559.586          51.000
R02  19402988.914 8 103538114.010 8        62.320          51.000    19402991.906 7  80529613.518 7        48.471          46.000
R12  19637796.391 8 104901707.104 8       992.582          51.000    19637799.242 8  81590204.791 8       772.008          50.000
C05  39806995.047 6 207285468.067 6       -12.660          36.000    39806991.930 6 160286262.605 6        -9.977          40.000
C21  21886056.617 7 113966462.662 7       860.031          42.000
C22  23092089.992 8 120246562.557 8     -1895.738          51.000
E02  24681201.133 6 129700573.637 6       871.086          40.000    24681205.383 6  99380982.773 6       667.629          41.000
E07  24462450.430 5 128551051.543 5      1445.426          33.000
E08  21796374.805 8 114540731.299 8      -728.477          51.000    21796375.578 8  87765121.666 8      -558.144          51.000
E13  27077767.344 6 142294621.530 6     -2965.668          37.000    27077759.984 6 109030937.773 6     -2272.829          37.000
E25  26964679.617 5 141700320.301 5     -1771.785          35.000
E30  24913414.625 8 130920863.952 8      2975.219          49.000    24913413.016 7 100315994.022 7      2279.701          47.000
> 2020 05 18 01 15  0.0000000  0 15        .000000000000
G02  22737698.516 7 119487428.156 7     -1414.555          43.000    22737692.734 6  93107062.986 6     -1102.250          39.000
G06  23289827.594 5 122388910.722 5     -3271.500          34.000    23289854.453 5  95368008.481 5     -2549.218          34.000
G07  20791608.289 8 109260644.709 8      -196.789          50.000    20791607.711 8  85138158.068 8      -153.342          50.000
G09  21776280.742 6 114435129.334 6     -2173.930          39.000    21776284.188 6  89170239.715 6     -1693.971          40.000
G30  21085412.055 8 110804590.991 8      1987.414          51.000    21085413.359 8  86341274.869 8      1548.634          51.000
R02  19402677.492 8 103536450.867 8        49.160          51.000    19402680.281 7  80528319.986 7        38.236          46.000
R12  19632299.094 8 104872339.989 8       965.887          51.000    19632301.648 8  81567363.704 8       751.245          51.000
C05  39807069.781 6 207285857.104 6       -12.398          36.000    39807066.625 6 160286563.455 6        -9.578          39.000
C21  21881131.250 7 113940817.218 7       850.336          42.000
C22  23103037.555 8 120303571.628 8     -1904.184          51.000
E02  24676269.656 6 129674659.056 6       857.355          40.000    24676275.500 6  99361126.174 6       656.977          39.000
E07  24454203.422 5 128507750.921 5      1441.973          35.000
E08  21800550.617 8 114562675.288 8      -733.727          51.000    21800551.289 8  87781935.883 8      -562.176          51.000
E13  27094704.477 6 142383627.557 6     -2967.016          37.000    27094694.914 5 109099137.100 5     -2273.293          34.000
E30  24896445.305 8 130831689.359 8      2970.555          50.000    24896443.898 7 100247665.475 7      2276.199          47.000
> 2020 05 18 01 15 30.0000000  0 15        .000000000000
G02  22745815.273 7 119530086.969 7     -1430.398          42.000    22745810.938 6  93140303.627 6     -1114.596          40.000
G06  23308522.719 6 122487159.245 6     -3279.215          37.000    23308550.641 5  95444565.712 5     -2555.235          31.000
G07  20792776.195 8 109266780.877 8      -213.348          50.000    20792775.242 8  85142939.505 8      -166.245          50.000
G09  21788709.969 5 114500440.926 5     -2181.141          34.000    21788711.594 5  89221131.779 5     -1699.599          34.000
G30  21074108.039 8 110745187.259 8      1971.812          51.000    21074109.461 8  86294986.267 8      1536.480          51.000
R02  19402438.508 8 103535174.037 8        34.652          51.000    19402441.375 7  80527326.892 7        26.952          46.000
R12  19626950.219 8 104843767.470 8       937.824          51.000    19626952.969 8  81545140.646 8       729.419          51.000
C05  39807140.383 6 207286225.019 6       -13.277          36.000    39807137.312 6 160286847.980 6       -10.318          39.000
C21  21876259.523 7 113915448.458 7       839.680          44.000
C22  23114032.617 8 120360827.474 8     -1913.941          51.000
E02  24671417.164 6 129649160.490 6       841.512          37.000    24671420.688 6  99341588.346 6       644.884          36.000
E07                                                                  24445980.398 5  98433832.012 5      1100.835          34.000
E08  21804755.344 8 114584770.597 8      -740.438          51.000    21804755.992 8  87798866.058 8      -567.378          51.000
E13  27111647.406 6 142472673.904 6     -2970.234          37.000    27111635.953 5 109167329.344 5     -2276.041          33.000
E30  24879501.625 8 130742647.743 8      2964.309          51.000    24879500.438 7 100179438.821 7      2271.365          47.000
> 2020 05 18 01 16  0.0000000  0 15        .000000000000
G02  22754018.883 7 119573199.370 7     -1444.965          42.000    22754015.953 6  93173897.682 6     -1125.947          40.000
G06  23327259.070 6 122585620.625 6     -3285.828          39.000    23327285.852 5  95521288.787 5     -2560.392          35.000
G07  20794034.508 8 109273391.819 8      -228.719          51.000    20794033.016 8  85148090.895 8      -178.222          51.000
G09  21801177.992 6 114565959.113 6     -2187.598          38.000    21801177.188 6  89272184.931 6     -1704.625          37.000
G30  21062888.539 8 110686226.939 8      1957.676          51.000    21062890.148 8  86249043.190 8      1525.465          51.000
R02  19402276.430 8 103534308.222 8        21.621          51.000    19402279.383 7  80526653.478 7        16.816          47.000
R12  19621754.625 8 104816014.227 8       911.012          51.000    19621757.641 8  81523554.788 8       708.565          51.000
C05  39807211.398 6 207286595.088 6       -12.840          36.000    39807208.336 6 160287134.139 6        -9.853          40.000
C21  21871446.094 7 113890380.811 7       830.195          45.000
C22  23125079.797 8 120418353.223 8     -1922.398          51.000
E02  24666649.180 6 129624102.430 6       827.395          39.000    24666650.344 6  99322387.986 6       633.999          38.000
E07                                                                  24437784.945 6  98400824.912 6      1098.417          36.000
E08  21808993.492 8 114607040.948 8      -745.559          51.000    21808994.188 8  87815930.340 8      -571.290          51.000
E13  27128602.250 6 142561781.970 6     -2971.559          37.000    27128588.266 5 109235582.784 5     -2276.798          30.000
E30  24862588.156 8 130653764.522 8      2959.789          51.000    24862587.406 8 100111333.534 8      2267.938          48.000
> 2020 05 18 01 16 30.0000000  0 15        .000000000000
G02  22762304.898 7 119616742.786 7     -1459.781          43.000    22762303.867 6  93207827.585 6     -1137.492          40.000
G06  23346031.148 6 122684271.394 6     -3292.445          37.000    23346051.070 5  95598159.436 5     -2565.545          33.000
G07  20795379.164 8 109280457.017 8      -243.945          51.000    20795377.547 8  85153596.262 8      -190.087          51.000
G09  21813681.344 6 114631662.883 6     -2194.027          37.000    21813680.062 6  89323382.684 6     -1709.632          38.000
G30  21051749.797 8 110627690.773 8      1943.176          51.000    21051751.305 8  86203430.623 8      1514.166          51.000
R02  19402187.430 8 103533833.762 8         8.336          51.000    19402190.359 7  80526284.422 7         6.484          46.000
R12  19616708.172 8 104789060.580 8       884.059          48.000    19616712.023 8  81502590.854 8       687.601          51.000
C05  39807278.961 6 207286947.166 6       -12.379          36.000    39807275.922 6 160287406.381 6        -9.364          40.000
C21  21866686.328 7 113865595.238 7       820.387          42.000
C22  23136175.039 8 120476128.463 8     -1930.859          51.000
E02  24661960.672 5 129599479.005 5       813.625          31.000    24661963.617 6  99303509.976 6       623.307          38.000
E07  24429620.516 5 128378522.673 5      1429.707          34.000    24429607.883 6  98367897.325 6      1095.648          37.000
E08  21813261.055 8 114629466.132 8      -750.977          51.000    21813261.711 8  87833113.265 8      -575.439          51.000
E13  27145564.453 6 142650929.328 6     -2973.078          38.000    27145551.008 5 109303884.364 5     -2277.917          31.000
E30  24845701.391 8 130565021.283 8      2954.816          51.000    24845701.367 8 100043335.499 8      2264.101          49.000
> 2020 05 18 01 17  0.0000000  0 13        .000000000000
G02  22770683.383 7 119660772.391 7     -1474.094          44.000    22770681.609 5  93242136.323 5     -1148.644          34.000
G07  20796820.703 8 109288031.932 8      -259.344          51.000    20796819.164 8  85159498.813 8      -202.086          51.000
G09  21826230.609 6 114697608.192 6     -2200.594          36.000    21826230.031 6  89374768.577 6     -1714.751          37.000
G30  21040702.578 8 110569636.484 8      1928.750          51.000    21040703.734 8  86158193.533 8      1502.922          51.000
R02  19402182.828 8 103533809.502 8        -5.090          51.000    19402185.492 7  80526265.553 7        -3.956          47.000
R12  19611821.953 7 104762964.915 7       857.320          47.000    19611826.867 8  81482294.186 8       666.805          51.000
C05  39807353.867 6 207287336.383 6       -11.875          36.000    39807350.812 6 160287708.181 6        -9.306          39.000
C21  21861991.008 7 113841148.781 7       811.109          44.000
C22  23147329.094 8 120534208.906 8     -1939.434          51.000
E02                                                                  24657368.352 6  99284998.162 6       612.068          38.000
E08  21817568.828 8 114652102.872 8      -756.434          51.000    21817569.336 8  87850458.284 8      -579.563          51.000
E13  27162545.164 6 142740170.377 6     -2974.676          38.000    27162534.047 5 109372263.798 5     -2278.968          33.000
E30  24828852.102 8 130476476.476 8      2949.867          51.000    24828852.750 8  99975489.503 8      2260.285          50.000
> 2020 05 18 01 17 30.0000000  0 13        .000000000000
G02  22779137.398 7 119705199.836 7     -1488.227          42.000    22779132.445 5  93276755.100 5     -1159.654          35.000
G07  20798342.648 8 109296029.619 8      -274.352          51.000    20798340.867 8  85165730.777 8      -213.780          51.000
G09  21838809.609 6 114763708.078 6     -2206.188          37.000    21838809.758 6  89426274.908 6     -1719.107          37.000
G30  21029730.641 8 110511978.971 8      1914.629          51.000    21029731.391 8  86113265.589 8      1491.916          51.000
R02  19402246.531 8 103534149.217 8       -18.188          51.000    19402249.086 7  80526529.772 7       -14.146          47.000
R12  19607080.234 8 104737640.515 8       830.473          48.000    19607085.984 8  81462597.400 8       645.923          51.000
C05  39807419.734 6 207287679.277 6       -11.234          36.000    39807416.641 6 160287973.355 6        -8.717          39.000
C21  21857345.281 7 113816957.200 7       801.523          45.000
C22  23158525.039 8 120592508.991 8     -1947.723          51.000
E02  24652841.773 5 129551542.381 5       785.480          35.000    24652846.242 6  99266786.939 6       601.401          38.000
E08  21821900.484 8 114674865.155 8      -761.551          51.000    21821900.781 8  87867899.519 8      -583.565          51.000
E13  27179527.859 6 142829416.939 6     -2975.781          36.000    27179519.227 5 109440647.459 5     -2280.075          34.000
E30  24812024.062 8 130388045.950 8      2944.973          50.000    24812025.227 8  99907731.056 8      2256.633          50.000
> 2020 05 18 01 18  0.0000000  0 14        .000000000000
G02  22787672.453 6 119750054.486 6     -1496.270          40.000    22787665.594 6  93311706.798 6     -1165.924          37.000
G07  20799950.703 8 109304480.275 8      -283.250          51.000    20799948.859 8  85172315.712 8      -220.714          51.000
G09  21851423.570 5 114829993.145 5     -2206.617          32.000    21851423.820 5  89477925.630 5     -1719.442          32.000
G30  21018840.438 8 110454750.635 8      1906.551          51.000    21018840.820 8  86068672.046 8      1485.624          51.000
R02  19402384.836 8 103534885.570 8       -25.098          51.000    19402386.977 7  80527102.501 7       -19.520          47.000
R12  19602489.883 8 104713120.198 8       810.020          50.000    19602495.820 8  81443526.023 8       630.015          51.000
C05  39807482.484 6 207288006.851 6        -4.605          36.000    39807479.367 6 160288225.898 6        -3.604          39.000
C21  21852755.047 7 113793052.581 7       797.906          45.000
C22  23169768.898 8 120651059.417 8     -1949.898          51.000
E02  24648401.961 6 129528199.437 6       776.875          39.000    24648404.633 6  99248900.785 6       595.328          41.000
E08  21826261.906 8 114697784.451 8      -760.617          51.000    21826262.062 8  87885461.047 8      -582.823          51.000
E13  27196517.727 5 142918664.087 5     -2970.465          33.000    27196510.852 5 109509057.638 5     -2275.963          34.000
E25  27037086.203 6 142080761.965 6     -1845.078          36.000    27037086.094 5 108867139.245 5     -1413.755          35.000
E30  24795223.586 8 130299762.891 8      2946.312          49.000    24795225.211 8  99840085.582 8      2257.519          51.000
> 2020 05 18 01 18 30.0000000  0 14        .000000000000
G02  22796282.938 7 119795304.201 7     -1518.578          44.000    22796276.797 6  93346966.319 6     -1183.305          39.000
G06  23421508.438 5 123080871.305 5     -3319.270          33.000
G07  20801638.953 8 109313352.389 8      -306.484          51.000    20801637.305 8  85179229.066 8      -238.819          51.000
G30  21008026.250 8 110397921.870 8      1883.902          51.000    21008026.562 8  86024389.890 8      1467.976          51.000
R02  19402591.680 8 103535988.567 8       -46.566          51.000    19402593.461 7  80527960.400 7       -36.218          47.000
R12  19598044.742 8 104689373.414 8       774.945          51.000    19598050.266 8  81425056.312 8       602.735          49.000
C05  39807536.219 6 207288286.767 6       -12.047          36.000    39807533.094 6 160288442.366 6        -9.494          39.000
C21  21848214.242 7 113769405.726 7       780.297          45.000
C22  23181055.023 8 120709829.595 8     -1966.348          51.000
E02  24644035.359 6 129505250.704 6       754.637          41.000    24644037.859 7  99231316.749 7       578.300          42.000
E08  21830647.281 8 114720830.301 8      -773.973          51.000    21830647.422 8  87903119.550 8      -593.032          51.000
E13                                                                  27213502.078 5 109577469.412 5     -2283.131          32.000
E25  27047677.594 6 142136425.985 6     -1864.215          37.000    27047677.805 5 108909790.888 5     -1428.846          35.000
E30  24778445.820 8 130211598.658 8      2933.145          49.000    24778447.852 8  99772531.160 8      2247.474          50.000
> 2020 05 18 01 19  0.0000000  0 13        .000000000000
G02  22804994.164 7 119841081.028 7     -1533.102          45.000    22804989.688 6  93382636.548 6     -1194.625          39.000
G07  20803432.828 8 109322779.753 8      -321.914          51.000    20803431.141 8  85186575.070 8      -250.839          51.000
G30  20997313.750 8 110341627.916 8      1869.230          51.000    20997314.203 8  85980524.483 8      1456.543          51.000
R02  19402892.758 8 103537595.842 8       -60.340          51.000    19402894.453 8  80529210.506 8       -46.931          48.000
R12  19593770.141 8 104666537.217 8       747.754          51.000    19593775.047 8  81407294.865 8       581.589          48.000
C05  39807606.570 6 207288653.055 6       -12.254          36.000    39807603.438 6 160288725.584 6        -9.297          40.000
C21  21843748.617 7 113746150.610 7       770.359          45.000
C22  23192409.062 8 120768952.186 8     -1974.934          51.000
E02  24639768.734 7 129482830.950 7       740.344          42.000    24639770.516 7  99214137.993 7       567.190          42.000
E08  21835082.445 8 114744137.041 8      -779.426          51.000    21835082.594 8  87920977.953 8      -597.195          51.000
E13                                                                  27230518.852 5 109645983.926 5     -2284.481          32.000
E25  27058350.359 5 142192520.253 5     -1874.750          35.000    27058351.633 5 108952772.159 5     -1436.883          34.000
E30  24761717.195 8 130123689.310 8      2927.758          50.000    24761719.070 8  99705172.054 8      2243.353          51.000
> 2020 05 18 01 19 30.0000000  0 13        .000000000000
G02  22813785.992 7 119887279.058 7     -1547.430          46.000    22813782.422 6  93418635.043 6     -1205.789          40.000
G07  20805312.289 8 109332657.103 8      -337.281          51.000    20805310.531 8  85194271.700 8      -262.817          51.000
G30  20986683.445 8 110285765.670 8      1854.430          51.000    20986684.031 8  85936995.464 8      1445.010          51.000
R02  19403268.672 8 103539602.701 8       -74.070          51.000    19403270.797 8  80530771.384 8       -57.610          48.000
R12  19589646.469 8 104644506.618 8       720.422          51.000    19589650.352 7  81390159.999 7       560.331          47.000
C05  39807673.680 6 207289002.417 6       -11.457          36.000    39807670.547 6 160288995.737 6        -9.050          39.000
C21  21839338.328 7 113723185.167 7       760.062          46.000
C22  23203810.781 8 120828323.689 8     -1983.691          51.000
E02  24635582.672 7 129460836.635 7       725.531          42.000    24635583.273 7  99197285.191 7       555.953          42.000
E08  21839547.492 8 114767600.658 8      -785.230          51.000    21839547.688 8  87938956.567 8      -601.634          51.000
E13                                                                  27247541.492 4 109714557.654 4     -2285.385          29.000
E25  27069085.961 6 142248939.194 6     -1886.465          36.000    27069086.641 5 108996002.147 5     -1445.422          32.000
E30  24745017.977 8 130035932.524 8      2922.219          51.000    24745019.547 8  99637929.876 8      2239.103          50.000
> 2020 05 18 01 20  0.0000000  0 13        .000000000000
G02  22822666.969 7 119933946.047 7     -1567.469          45.000    22822663.906 7  93454998.972 7     -1221.401          42.000
G07  20807286.773 8 109343033.825 8      -358.312          51.000    20807285.297 8  85202357.471 8      -279.205          51.000
G30  20976144.961 8 110230386.282 8      1833.812          51.000    20976145.812 8  85893842.698 8      1428.945          51.000
R02  19403729.344 8 103542061.117 8       -93.621          51.000    19403731.461 8  80532683.473 8       -72.816          48.000
R12  19585682.977 8 104623332.969 8       687.387          51.000    19585686.242 7  81373691.673 7       534.637          47.000
C05  39807747.094 6 207289384.582 6       -17.172          36.000    39807743.930 6 160289291.266 6       -13.553          39.000
C21  21834993.203 7 113700560.090 7       744.492          47.000
C22  23215269.836 8 120887993.480 8     -1997.996          51.000
E02  24631487.570 7 129439318.422 7       704.980          42.000    24631488.727 7  99180797.227 7       540.341          43.000
E03  27347382.898 5 143711471.848 5     -2252.473          32.000
E08  21844051.859 8 114791271.496 8      -796.629          51.000    21844052.164 8  87957093.976 8      -610.416          51.000
E25  27079893.773 6 142305794.284 6     -1903.363          36.000
E30  24728357.953 8 129948380.462 8      2910.836          51.000    24728359.281 8  99570844.563 8      2230.399          51.000
> 2020 05 18 01 20 30.0000000  0 14        .000000000000
G02  22831609.969 7 119980940.292 7     -1576.156          45.000    22831607.352 7  93491617.863 7     -1228.174          42.000
G07  20809329.438 8 109353769.034 8      -368.062          51.000    20809328.273 8  85210722.549 8      -286.802          51.000
G30  20965671.867 8 110175350.786 8      1824.586          51.000    20965673.008 8  85850957.888 8      1421.755          51.000
R02  19404248.312 8 103544830.178 8      -101.789          51.000    19404250.297 8  80534837.188 8       -79.169          48.000
R12  19581853.484 8 104602874.874 8       665.688          51.000    19581855.867 7  81357779.863 7       517.757          47.000
C05  39807800.141 6 207289661.400 6       -11.520          36.000    39807796.984 6 160289504.915 6        -8.729          39.000
C21  21830687.016 8 113678137.808 8       739.906          48.000
C22  23226759.383 8 120947822.611 8     -2001.168          51.000
C26  24982511.344 6 130090502.009 6      3399.285          37.000
E02  24627456.664 7 129418136.937 7       696.340          42.000    24627458.656 7  99164567.229 7       533.272          42.000
E07  24365012.641 5 128038990.449 5      1397.047          32.000
E08  21848569.047 8 114815009.741 8      -796.605          51.000    21848569.328 8  87975283.017 8      -610.422          51.000
E25  27090745.602 6 142362818.145 6     -1908.793          38.000
E30  24711710.516 8 129860895.021 8      2910.789          51.000    24711711.734 8  99503810.297 8      2230.315          51.000
> 2020 05 18 01 21  0.0000000  0 16        .000000000000
G02  22840671.656 7 120028558.939 7     -1590.844          45.000    22840669.172 7  93528723.308 7     -1239.619          42.000
G06  23516677.391 5 123580982.392 5     -3350.066          32.000    23516683.453 5  96296867.485 5     -2610.438          31.000
G07  20811496.992 8 109365160.267 8      -383.906          50.000    20811495.828 8  85219598.829 8      -299.148          51.000
G09  21927931.219 5 115232056.433 5     -2254.543          31.000    21927933.000 5  89791209.338 5     -1756.790          30.000
G30  20955321.414 8 110120959.080 8      1809.094          51.000    20955322.758 8  85808574.735 8      1409.683          51.000
R02  19404882.578 8 103548214.152 8      -116.230          51.000    19404884.180 8  80537469.184 8       -90.401          48.000
R12  19578214.625 8 104583436.566 8       637.816          50.000    19578216.945 8  81342661.217 8       496.082          48.000
C05  39807889.844 6 207290127.562 6       -11.852          36.000    39807886.555 6 160289865.780 6        -9.167          39.000
C21  21826477.094 7 113656215.580 7       729.125          47.000
C22  23238336.414 8 121008106.923 8     -2010.332          51.000
C26  24962965.094 6 129988711.112 6      3394.773          38.000
E02  24623546.258 5 129397591.678 5       680.836          34.000    24623549.180 7  99148824.639 7       522.006          42.000
E07  24357065.375 5 127997244.352 5      1393.078          33.000
E08  21853155.953 8 114839114.486 8      -802.770          51.000    21853156.375 8  87993752.882 8      -615.079          51.000
E25  27101698.086 6 142420384.125 6     -1920.484          39.000    27101696.562 5 109127304.743 5     -1471.648          32.000
E30  24695132.914 8 129773777.087 8      2904.695          50.000    24695134.289 8  99437057.624 8      2225.655          51.000
> 2020 05 18 01 21 30.0000000  0 13        .000000000000
G02  22849758.578 7 120076311.855 7     -1592.625          44.000    22849756.164 7  93565933.362 7     -1241.006          42.000
G07  20813696.641 8 109376719.157 8      -386.727          51.000    20813695.406 8  85228605.746 8      -301.345          51.000
G30  20945001.094 8 110066724.181 8      1806.469          51.000    20945002.383 8  85766313.774 8      1407.638          51.000
R02  19405539.406 8 103551718.980 8      -117.438          51.000    19405540.914 8  80540195.155 8       -91.340          48.000
R12  19574673.648 8 104564522.708 8       623.035          50.000    19574676.492 8  81327950.457 8       484.583          50.000
C05  39807923.336 6 207290301.004 6          .367          36.000    39807919.930 6 160289999.896 6          .444          40.000
C21  21822270.578 8 113634310.930 8       731.102          48.000
C22  23249907.586 8 121068362.615 8     -2006.703          51.000
C26  24943383.625 6 129886744.828 6      3403.125          38.000
E02                                                                  24619668.250 6  99133196.059 6       520.072          41.000
E08  21857719.867 8 114863097.911 8      -796.078          51.000    21857720.539 8  88012129.792 8      -610.036          51.000
E25  27112657.969 6 142477974.770 6     -1918.984          40.000    27112657.055 5 109171437.168 5     -1470.055          34.000
E30  24678532.781 7 129686540.599 7      2911.133          47.000    24678534.234 8  99370214.099 8      2230.647          51.000
> 2020 05 18 01 22  0.0000000  0 15        .000000000000
G02  22858951.336 7 120124623.633 7     -1620.102          43.000    22858949.570 7  93603578.904 7     -1262.414          43.000
G06  23554934.477 4 123782016.057 4     -3359.961          29.000
G07  20816009.094 8 109388871.054 8      -415.320          50.000    20816007.828 8  85238074.771 8      -323.623          50.000
G09  21953702.102 5 115367520.680 5     -2267.633          33.000
G30  20934792.047 8 110013073.384 8      1778.336          51.000    20934793.078 8  85724507.965 8      1385.719          51.000
R02  19406300.047 8 103555778.900 8      -144.918          51.000    19406301.734 8  80543352.846 8      -112.717          49.000
R12  19571311.742 8 104546567.008 8       582.250          48.000    19571315.539 8  81313984.929 8       452.861          51.000
C05  39807981.359 6 207290604.731 6       -12.652          36.000    39807978.078 6 160290233.996 6        -9.796          40.000
C21  21818148.742 8 113612847.408 8       707.828          48.000
C22  23261554.539 8 121129011.832 8     -2028.457          51.000
C26  24923848.789 6 129785027.370 6      3385.906          37.000
E02                                                                  24615895.477 5  99118008.478 5       498.582          35.000
E08  21862341.930 8 114887386.547 8      -815.000          51.000    21862342.711 8  88030740.561 8      -624.460          51.000
E25  27123706.727 6 142536031.965 6     -1943.418          41.000    27123706.125 5 109215922.557 5     -1489.011          35.000
E30  24661991.031 7 129599613.816 7      2892.105          43.000    24661993.031 8  99303607.835 8      2215.987          51.000
> 2020 05 18 01 22 30.0000000  0 13        .000000000000
G02  22868230.625 7 120173388.813 7     -1633.023          43.000    22868229.156 7  93641577.755 7     -1272.489          43.000
G07  20818414.688 8 109401512.139 8      -429.586          51.000    20818413.008 8  85247924.965 8      -334.742          51.000
G30  20924674.461 8 109959904.716 8      1764.148          51.000    20924675.414 8  85683077.848 8      1374.661          51.000
R02  19407145.367 8 103560290.230 8      -158.020          51.000    19407146.805 8  80546861.656 8      -122.904          49.000
R12  19568109.875 8 104529465.271 8       555.605          48.000    19568114.164 8  81300683.515 8       432.138          51.000
C05  39808044.672 6 207290934.734 6       -11.652          36.000    39808041.492 6 160290489.183 6        -8.911          40.000
C21  21814092.180 8 113591724.092 8       698.258          48.000
C22  23273257.289 8 121189952.256 8     -2036.336          51.000
C26  24904342.969 6 129683458.679 6      3383.281          38.000
E02  24612213.477 6 129338027.072 6       636.863          39.000
E08  21867002.508 8 114911877.580 8      -819.852          51.000    21867003.273 8  88049506.420 8      -628.222          51.000
E25  27134823.492 6 142594449.093 6     -1953.355          40.000    27134823.664 5 109260683.707 5     -1496.341          35.000
E30  24645485.000 6 129512895.780 6      2886.996          40.000    24645491.680 8  99237161.400 8      2212.093          51.000
> 2020 05 18 01 23  0.0000000  0 14        .000000000000
G02  22877592.312 7 120222585.467 7     -1645.945          44.000    22877590.188 7  93679912.786 7     -1282.555          42.000
G07  20820909.273 8 109414620.882 8      -443.766          51.000    20820907.453 8  85258139.577 8      -345.791          50.000
G30  20914644.781 8 109907198.788 8      1750.223          51.000    20914645.789 8  85642008.296 8      1363.810          51.000
R02  19408071.648 8 103565233.234 8      -170.918          51.000    19408073.102 8  80550706.219 8      -132.936          49.000
R12  19565064.195 8 104513197.197 8       529.434          48.000    19565069.109 8  81288030.547 8       411.782          51.000
R13  21676586.664 6 115751751.621 6      4106.176          37.000    21676581.148 5  90029139.947 5      3193.695          32.000
C05  39808109.414 6 207291270.900 6       -10.367          36.000    39808106.148 6 160290749.904 6        -7.989          39.000
C21  21810097.281 8 113570921.931 8       689.141          49.000
C22  23285011.977 8 121251163.400 8     -2043.883          51.000
C26  24884861.648 6 129582020.546 6      3380.176          37.000
E02  24608617.961 6 129319132.408 6       623.281          41.000
E08  21871697.766 8 114936550.896 8      -824.395          51.000    21871698.531 8  88068411.947 8      -631.637          51.000
E25  27146003.836 6 142653204.353 6     -1962.906          38.000    27146005.195 5 109305703.950 5     -1504.072          34.000
E30  24629017.883 7 129426367.932 7      2882.191          45.000    24629026.492 8  99170860.739 8      2208.480          51.000
> 2020 05 18 01 23 30.0000000  0 16        .000000000000
G02  22887036.469 7 120272213.983 7     -1660.629          45.000    22887033.070 6  93718584.344 6     -1294.000          41.000
G06  23612628.680 6 124085180.365 6     -3376.379          36.000    23612626.570 6  96689745.367 6     -2630.942          36.000
G07  20823493.086 8 109428198.854 8      -459.578          51.000    20823491.445 8  85268719.830 8      -358.113          51.000
G30  20904703.875 8 109854959.076 8      1734.414          51.000    20904704.992 8  85601302.014 8      1351.491          51.000
R02  19409079.656 8 103570611.923 8      -185.746          51.000    19409081.445 8  80554889.640 8      -144.469          50.000
R12  19562175.508 8 104497765.732 8       501.355          51.000    19562180.430 8  81276028.286 8       389.943          51.000
R13  21653558.148 6 115628778.505 6      4093.801          38.000    21653554.500 6  89933479.254 6      3184.067          36.000
C05  39808176.023 6 207291617.653 6       -10.762          36.000    39808172.734 6 160291018.046 6        -8.358          40.000
C21  21806165.039 8 113550444.460 8       678.055          50.000
C22  23296819.516 8 121312647.520 8     -2053.262          51.000
C26  24865405.500 6 129480717.140 6      3375.480          36.000
E02  24605107.953 7 129300693.871 7       607.906          43.000    24605105.906 5  99074573.819 5       466.110          33.000
E07  24317560.195 6 127789664.013 6      1372.547          37.000
E08  21876428.203 8 114961409.233 8      -830.875          51.000    21876428.992 8  88087459.241 8      -636.633          51.000
E25  27157248.586 6 142712298.764 6     -1974.613          38.000    27157250.047 5 109350984.109 5     -1512.788          32.000
E30  24612590.336 8 129340034.696 8      2875.332          50.000    24612598.211 8  99104709.295 8      2203.144          51.000
> 2020 05 18 01 24  0.0000000  0 16        .000000000000
G02  22896557.328 7 120322245.513 7     -1674.727          46.000    22896553.766 7  93757569.937 7     -1304.982          42.000
G06  23631921.055 5 124186550.597 5     -3381.500          34.000    23631915.531 5  96768735.166 5     -2634.932          34.000
G07  20826160.992 8 109442218.488 8      -475.105          51.000    20826159.180 8  85279644.230 8      -370.212          51.000
G30  20894846.680 8 109803159.789 8      1718.863          51.000    20894847.859 8  85560938.929 8      1339.371          51.000
R02  19410164.227 8 103576400.265 8      -200.188          51.000    19410166.367 8  80559391.658 8      -155.704          50.000
R12  19559438.945 8 104483144.152 8       473.457          51.000    19559443.445 8  81264655.956 8       368.244          51.000
R13  21630591.773 6 115506140.210 6      4082.109          39.000    21630590.695 6  89838093.941 6      3174.974          39.000
C05  39808239.398 6 207291947.673 6       -10.770          36.000    39808236.133 6 160291273.260 6        -8.678          40.000
C21  21802290.398 8 113530266.339 8       667.105          50.000
C22  23308674.305 8 121374377.836 8     -2062.203          51.000
C26  24845971.688 6 129379524.031 6      3370.824          37.000
E02  24601681.242 7 129282685.524 7       592.629          44.000    24601685.242 6  99060775.190 6       454.122          40.000
E07  24309730.445 5 127748499.239 5      1368.227          35.000
E08  21881188.766 8 114986426.075 8      -836.934          51.000    21881189.492 8  88106627.988 8      -641.305          51.000
E25  27168552.453 6 142771704.030 6     -1985.555          37.000    27168552.758 5 109396505.504 5     -1521.504          31.000
E30  24596195.664 8 129253871.351 8      2868.848          51.000    24596202.180 8  99038688.015 8      2198.232          49.000
> 2020 05 18 01 24 30.0000000  0 16        .000000000000
G02  22906159.281 7 120372703.271 7     -1698.590          47.000    22906156.141 7  93796887.668 7     -1323.577          42.000
G05  21481791.359 6 112887588.839 6      2240.629          36.000    21481781.664 5  87964307.681 5      1745.945          34.000
G07  20828917.547 8 109456704.199 8      -500.242          51.000    20828915.594 8  85290931.803 8      -389.799          51.000
G30  20885078.117 8 109751826.937 8      1693.664          51.000    20885079.242 8  85520939.303 8      1319.738          51.000
R02  19411330.539 8 103582624.709 8      -224.551          51.000    19411332.633 8  80564232.881 8      -174.651          50.000
R12  19556858.719 8 104469358.264 8       435.781          51.000    19556862.648 8  81253933.619 8       338.944          50.000
R13  21607692.922 6 115383866.334 6      4059.668          38.000    21607693.508 7  89742992.038 7      3157.520          42.000
C05  39808304.344 6 207292285.838 6       -20.723          36.000    39808301.078 6 160291534.737 6       -16.088          40.000
C21  21798478.055 8 113510413.526 8       646.805          51.000
C22  23320580.984 8 121436378.833 8     -2080.859          51.000
C26  24826565.188 5 129278467.874 5      3356.477          34.000
E02  24598340.391 6 129265132.672 6       567.828          41.000    24598348.250 6  99047325.666 6       435.068          41.000
E07  24301924.500 5 127707474.886 5      1354.320          33.000
E08  21885984.289 8 115011626.685 8      -852.762          51.000    21885984.867 8  88125937.543 8      -653.403          51.000
E25  27179920.430 6 142831443.836 6     -2006.562          37.000    27179919.172 5 109442272.245 5     -1537.682          30.000
E30  24579838.172 8 129167904.885 8      2852.609          51.000    24579843.305 7  98972817.626 7      2185.828          46.000
> 2020 05 18 01 25  0.0000000  0 17        .000000000000
G02  22915846.211 7 120423607.835 7     -1705.625          46.000    22915843.961 7  93836553.562 7     -1329.061          43.000
G05  21468982.805 5 112820270.824 5      2235.223          32.000
G06  23670591.086 5 124389788.806 5     -3395.324          33.000
G07  20831766.922 8 109471677.683 8      -508.652          51.000    20831765.117 8  85302599.465 8      -396.349          51.000
G30  20875402.727 8 109700984.240 8      1685.246          51.000    20875403.914 8  85481321.641 8      1313.179          51.000
R02  19412583.320 8 103589309.605 8      -231.867          51.000    19412585.234 8  80569432.239 8      -180.344          50.000
R12  19554439.180 8 104456431.285 8       415.184          51.000    19554442.680 8  81243879.339 8       322.924          48.000
R13  21584867.641 6 115261984.308 6      4054.414          37.000    21584869.297 7  89648194.903 7      3153.430          43.000
C05  39808375.188 6 207292654.714 6       -13.922          36.000    39808371.836 6 160291819.985 6       -10.847          40.000
C21  21794732.555 8 113490909.681 8       642.945          51.000
C22  23332544.070 8 121498672.795 8     -2082.645          51.000
C26  24807189.883 5 129177573.056 5      3359.250          31.000
E02  24595091.344 7 129248058.723 7       559.883          42.000    24595098.508 6  99034242.993 6       429.007          40.000
E07  24294151.734 5 127666628.399 5      1357.145          32.000
E08  21890819.109 8 115037034.109 8      -851.672          51.000    21890819.531 8  88145405.551 8      -652.562          51.000
E25  27191356.523 6 142891539.320 6     -2010.527          37.000
E30  24563522.562 8 129082160.081 8      2853.121          51.000    24563524.922 6  98907117.137 6      2186.101          38.000
> 2020 05 18 01 25 30.0000000  0 15        .000000000000
G02  22925603.562 7 120474881.493 7     -1716.391          47.000    22925601.156 7  93876507.072 7     -1337.447          43.000
G06  23689971.055 6 124491618.366 6     -3397.246          37.000    23689962.273 5  97006457.475 5     -2647.202          31.000
G07  20834694.523 8 109487061.879 8      -520.836          51.000    20834692.703 8  85314587.164 8      -405.846          51.000
G09  22045162.008 5 115848108.474 5     -2310.012          31.000    22045159.445 4  90271243.761 4     -1800.012          28.000
G30  20865806.453 8 109650556.820 8      1672.785          51.000    20865807.773 8  85442027.573 8      1303.472          51.000
R02  19413908.398 8 103596378.889 8      -243.238          51.000    19413910.242 8  80574930.581 8      -189.185          50.000
R12  19552165.852 8 104444286.490 8       390.617          51.000    19552168.594 7  81234433.433 7       303.813          47.000
R13  21562101.414 6 115140420.585 6      4045.406          36.000    21562104.508 7  89553645.308 7      3146.424          43.000
C05  39808437.484 6 207292979.355 6       -10.930          36.000    39808434.172 6 160292071.008 6        -8.720          40.000
C21  21791039.648 8 113471680.850 8       635.258          50.000
C22  23344549.000 8 121561184.379 8     -2088.539          51.000
E02  24591919.148 6 129231388.295 6       547.645          39.000    24591924.086 7  99021469.517 7       419.609          42.000
E08  21895678.898 8 115062572.815 8      -854.742          51.000    21895679.141 8  88164974.156 8      -654.932          51.000
E25  27202845.500 5 142951913.196 5     -2018.477          34.000
E30  24547234.461 8 128996563.079 8      2849.504          51.000    24547230.164 6  98841530.009 6      2183.464          40.000
> 2020 05 18 01 26  0.0000000  0 14        .000000000000
G02  22935447.781 7 120526612.308 7     -1735.129          46.000    22935444.812 7  93916816.776 7     -1352.048          44.000
G06  23709386.859 6 124593642.275 6     -3407.012          37.000    23709399.797 5  97086025.198 5     -2654.814          33.000
G07  20837717.273 8 109502946.186 8      -540.891          51.000    20837715.281 8  85326964.554 8      -421.473          51.000
G09  22058377.852 5 115917588.331 5     -2322.016          31.000    22058379.789 5  90325389.536 5     -1809.363          31.000
G30  20856306.867 8 109600635.766 8      1652.555          51.000    20856307.938 8  85403128.065 8      1287.705          51.000
R02  19415322.766 8 103603925.595 8      -262.676          51.000    19415324.695 8  80580800.237 8      -204.303          50.000
R12  19550056.078 8 104433015.783 8       357.934          51.000    19550058.438 8  81225667.379 8       278.396          48.000
R13  21539412.656 5 115019270.812 5      4027.969          35.000    21539416.836 7  89459417.658 7      3132.865          43.000
C05  39808508.531 6 207293349.060 6       -15.527          36.000    39808505.250 6 160292356.913 6       -12.463          39.000
C21  21787416.961 8 113452817.453 8       619.574          51.000
C22  23356612.453 8 121624002.578 8     -2102.133          51.000
E02  24588840.734 6 129215211.964 6       527.613          38.000    24588845.055 6  99009074.674 6       404.311          40.000
E08  21900580.930 8 115088333.170 8      -865.523          51.000    21900581.031 8  88184712.600 8      -663.169          51.000
E30  24530991.492 8 128911206.005 8      2838.098          50.000    24530986.969 7  98776126.596 7      2174.598          45.000
> 2020 05 18 01 26 30.0000000  0 13        .000000000000
G02  22945364.328 7 120578723.867 7     -1742.711          46.000    22945360.938 7  93957423.146 7     -1357.957          44.000
G06  23728823.625 6 124695783.343 6     -3406.086          36.000    23728835.617 5  97165615.536 5     -2654.096          34.000
G07  20840820.930 8 109519255.338 8      -550.102          51.000    20840819.016 8  85339673.008 8      -428.651          51.000
G30  20846889.812 8 109551147.825 8      1642.906          51.000    20846890.656 8  85364566.046 8      1280.187          51.000
R02  19416812.508 8 103611874.949 8      -271.109          51.000    19416814.484 8  80586983.060 8      -210.863          50.000
R12  19548095.773 8 104422543.749 8       336.395          51.000    19548098.320 8  81217522.504 8       261.640          49.000
R13  21516788.867 6 114898463.823 6      4022.020          37.000    21516793.531 7  89365456.656 7      3128.240          43.000
C05  39808574.258 6 207293691.527 6        -9.961          36.000    39808570.844 6 160292620.949 6        -8.047          40.000
C21  21783850.812 8 113434247.110 8       614.758          51.000
C22  23368720.320 8 121687053.649 8     -2104.945          51.000
E02  24585842.594 5 129199474.098 5       518.848          32.000    24585844.586 6  98997001.983 6       397.517          38.000
E08  21905511.156 8 115114241.260 8      -865.453          51.000    21905511.266 8  88204564.238 8      -663.142          51.000
E30  24514779.703 7 128826016.686 7      2837.438          47.000    24514777.883 8  98710851.654 8      2174.113          48.000
> 2020 05 18 01 27  0.0000000  0 13        .000000000000
G02  22955354.008 7 120631220.640 7     -1756.801          47.000    22955350.680 7  93998329.725 7     -1368.933          44.000
G06  23748282.109 5 124798044.737 5     -3411.621          34.000    23748293.695 5  97245299.767 5     -2658.403          32.000
G07  20844006.414 8 109535994.673 8      -565.648          51.000    20844004.672 8  85352716.658 8      -440.762          51.000
G30  20837556.531 8 109502100.141 8      1627.020          51.000    20837557.391 8  85326347.088 8      1267.807          51.000
R02  19418379.250 8 103620235.133 8      -286.129          51.000    19418380.914 8  80593485.431 8      -222.545          50.000
R12  19546286.047 8 104412877.148 8       308.164          51.000    19546288.836 8  81210004.041 8       239.686          50.000
R13  21494231.867 6 114778009.765 6      4008.441          37.000    21494236.062 7  89271770.163 7      3117.677          42.000
C05  39808635.602 6 207294011.135 6       -11.117          36.000    39808632.266 6 160292868.073 6        -8.433          40.000
C21  21780342.383 8 113415977.218 8       603.355          51.000
C22  23380874.172 8 121750343.571 8     -2114.203          51.000
E02                                                                  24582926.367 6  98985256.647 6       385.505          36.000
E08  21910470.617 8 115140303.665 8      -871.910          51.000    21910470.906 8  88224534.116 8      -668.111          51.000
E30  24498599.914 7 128741003.337 7      2830.402          43.000    24498602.000 8  98645711.531 8      2168.624          50.000
> 2020 05 18 01 27 30.0000000  0 13        .000000000000
G02  22965421.961 7 120684131.219 7     -1770.105          45.000    22965419.570 7  94039558.767 7     -1379.303          45.000
G06  23767767.984 5 124900465.304 5     -3416.066          31.000    23767782.664 5  97325095.435 5     -2661.867          32.000
G07  20847279.258 8 109553194.271 8      -580.523          51.000    20847277.602 8  85366118.952 8      -452.359          51.000
G30  20828313.047 8 109453524.358 8      1611.785          51.000    20828313.906 8  85288495.855 8      1255.936          51.000
R02  19420028.898 8 103629037.950 8      -300.391          51.000    19420030.438 8  80600332.061 8      -233.637          50.000
R12  19544632.938 8 104404047.093 8       280.855          51.000    19544636.156 8  81203136.236 8       218.443          50.000
R13  21471747.391 6 114657943.547 6      3995.969          38.000    21471750.992 6  89178385.319 6      3107.976          41.000
C05  39808698.617 6 207294339.780 6       -10.656          36.000    39808695.258 6 160293121.841 6        -8.316          40.000
C21  21776897.781 8 113398039.341 8       592.781          51.000
C22  23393080.258 8 121813902.458 8     -2122.660          51.000
E02                                                                  24580097.547 5  98973862.568 5       374.527          35.000
E08  21915465.234 8 115166551.374 8      -877.570          51.000    21915465.625 8  88244645.980 8      -672.499          51.000
E30  24482459.922 7 128656198.678 7      2823.680          44.000    24482464.961 8  98580731.275 8      2163.656          50.000
> 2020 05 18 01 28  0.0000000  0 13        .000000000000
G02  22975568.484 7 120737453.502 7     -1783.820          45.000    22975566.797 7  94081108.606 7     -1389.993          45.000
G07  20850639.516 8 109570852.840 8      -595.828          51.000    20850637.969 8  85379878.874 8      -464.282          51.000
G30  20819159.414 8 109405421.306 8      1595.898          51.000    20819160.188 8  85251012.969 8      1243.557          51.000
R02  19421761.695 8 103638284.781 8      -315.234          51.000    19421763.453 8  80607524.040 8      -245.182          49.000
R12  19543136.359 8 104396053.648 8       252.945          51.000    19543139.633 8  81196919.094 8       196.735          50.000
R13  21449336.758 6 114538269.176 6      3983.062          38.000    21449339.172 6  89085305.271 6      3097.937          40.000
C05  39808763.141 6 207294675.989 6       -10.855          36.000    39808759.914 6 160293382.210 6        -8.488          39.000
C21  21773517.070 8 113380434.530 8       581.656          51.000
C22  23405337.984 8 121877729.978 8     -2131.719          51.000
C26  24691448.695 4 128574863.875 4      3334.309          29.000
E02  24577352.969 6 129154858.493 6       473.211          39.000    24577356.531 6  98962819.981 6       362.420          38.000
E08  21920495.250 8 115192984.590 8      -883.766          51.000    21920495.672 8  88264899.963 8      -677.132          51.000
E30  24466361.859 7 128571604.600 7      2816.746          46.000    24466367.320 8  98515912.405 8      2158.265          50.000
> 2020 05 18 01 28 30.0000000  0 13        .000000000000
G02  22985785.086 8 120791142.318 8     -1796.133          48.000    22985783.344 7  94122944.011 7     -1399.584          44.000
G07  20854078.594 8 109588926.092 8      -609.695          50.000    20854077.500 8  85393961.929 8      -475.087          50.000
G30  20810087.297 8 109357748.576 8      1581.609          51.000    20810087.969 8  85213865.393 8      1232.426          51.000
R02  19423569.727 8 103647933.160 8      -328.781          51.000    19423571.578 8  80615028.337 8      -255.719          49.000
R12  19541788.445 8 104388852.840 8       226.461          51.000    19541791.820 8  81191318.460 8       176.136          50.000
R13  21426991.812 6 114418946.407 6      3971.246          39.000    21426993.617 6  88992498.685 6      3088.747          41.000
C05  39808821.227 6 207294977.555 6        -9.297          36.000    39808817.945 6 160293616.173 6        -7.521          40.000
C21  21770191.984 8 113363121.094 8       571.914          51.000
C22  23417638.961 8 121941782.889 8     -2139.250          51.000
C26  24672246.039 5 128474865.838 5      3331.066          34.000
E02  24574687.586 6 129140862.624 6       459.301          40.000    24574693.320 6  98952095.843 6       351.881          39.000
E08  21925552.523 8 115219560.328 8      -888.578          51.000    21925553.047 8  88285263.185 8      -680.880          51.000
E30  24450296.977 8 128487179.692 8      2810.945          49.000    24450301.359 8  98451223.225 8      2153.793          50.000
> 2020 05 18 01 29  0.0000000  0 13        .000000000000
G02  22996078.156 8 120845230.926 8     -1809.191          48.000    22996075.680 7  94165090.944 7     -1409.760          43.000
G07  20857603.297 8 109607448.951 8      -624.551          50.000    20857602.367 8  85408395.333 8      -486.663          50.000
G30  20801103.789 8 109310542.844 8      1566.059          50.000    20801104.648 8  85177081.712 8      1220.305          50.000
R02  19425459.852 8 103658019.750 8      -343.152          51.000    19425461.844 8  80622873.460 8      -266.896          49.000
R12  19540595.477 8 104382481.052 8       198.871          51.000    19540598.664 8  81186362.629 8       154.678          49.000
R13  21404719.984 6 114300016.033 6      3958.188          38.000    21404721.656 6  88899997.276 6      3078.590          40.000
C05  39808879.641 6 207295281.590 6        -9.617          36.000    39808876.414 6 160293851.278 6        -7.633          40.000
C21  21766929.883 8 113346135.587 8       561.047          51.000
C22  23429990.336 8 122006096.444 8     -2147.789          51.000
C26  24653068.148 5 128375016.873 5      3326.145          35.000
E02  24572109.914 7 129127318.797 7       444.113          42.000    24572115.648 7  98941718.065 7       340.477          42.000
E08  21930643.828 8 115246314.714 8      -894.496          51.000    21930644.469 8  88305763.279 8      -685.432          51.000
E30  24434271.781 8 128402961.870 8      2804.074          51.000    24434274.547 8  98386692.719 8      2148.600          49.000
> 2020 05 18 01 29 30.0000000  0 13        .000000000000
G02  23006444.648 7 120899706.304 7     -1822.680          47.000    23006441.250 7  94207539.273 7     -1420.270          44.000
G07  20861211.336 8 109626409.439 8      -639.660          51.000    20861210.352 8  85423169.726 8      -498.436          51.000
G30  20792207.398 8 109263793.820 8      1550.316          51.000    20792208.523 8  85140653.923 8      1208.042          51.000
R02  19427430.516 8 103668535.010 8      -358.031          51.000    19427432.375 8  80631052.014 8      -278.469          49.000
R12  19539555.664 8 104376926.918 8       171.137          51.000    19539558.789 8  81182042.743 8       133.106          49.000
R13  21382520.570 6 114181470.382 6      3944.363          39.000    21382520.930 6  88807795.114 6      3067.838          39.000
C05  39808936.203 6 207295576.187 6        -9.723          36.000    39808933.000 6 160294079.087 6        -7.506          40.000
C21  21763728.883 8 113329468.187 8       549.902          51.000
C22  23442389.164 8 122070659.361 8     -2156.574          51.000
C26  24633917.773 6 128275305.357 6      3320.984          37.000
E02  24569617.203 7 129114216.238 7       428.941          42.000    24569621.633 7  98931678.460 7       328.678          44.000
E08  21935767.016 8 115273236.851 8      -900.578          51.000    21935767.773 8  88326391.910 8      -690.074          51.000
E30  24418284.375 8 128318941.915 8      2796.957          51.000    24418285.445 8  98322313.828 8      2143.075          49.000
> 2020 05 18 01 30  0.0000000  0 13        .000000000000
G02  23016887.438 8 120954584.098 8     -1835.832          48.000    23016884.062 7  94250301.170 7     -1430.518          43.000
G07  20864905.844 8 109645824.060 8      -654.473          51.000    20864904.953 8  85438298.008 8      -509.976          51.000
G30  20783402.039 8 109217520.125 8      1534.777          51.000    20783403.234 8  85104596.519 8      1195.930          51.000
R02  19429484.898 8 103679497.515 8      -372.750          51.000    19429486.445 8  80639578.421 8      -289.917          49.000
R12  19538672.023 8 104372208.359 8       143.652          50.000    19538675.594 8  81178372.778 8       111.730          48.000
R13  21360397.461 6 114063331.391 6      3931.242          39.000    21360395.859 6  88715909.299 6      3057.633          38.000
C05  39808994.367 6 207295879.093 6       -10.613          36.000    39808991.188 6 160294313.293 6        -7.669          40.000
C21  21760592.523 8 113313137.538 8       538.898          51.000
C22  23454838.867 8 122135488.904 8     -2165.188          51.000
C26  24614798.164 6 128175750.969 6      3315.906          38.000
E02  24567211.383 7 129101573.146 7       413.848          44.000    24567215.828 7  98921990.928 7       317.092          45.000
E08  21940925.531 8 115300344.851 8      -906.570          51.000    21940926.391 8  88347162.969 8      -694.657          51.000
E30  24402338.250 8 128235139.595 8      2789.918          51.000    24402337.914 8  98258101.682 8      2137.655          49.000
> 2020 05 18 01 30 30.0000000  0 14        .000000000000
G02  23027383.914 8 121009742.882 8     -1844.848          49.000    23027380.711 7  94293282.027 7     -1437.544          44.000
G07  20868664.008 8 109665572.604 8      -665.480          51.000    20868662.898 8  85453686.500 8      -518.556          51.000
G30  20774664.664 8 109171603.306 8      1523.098          51.000    20774665.781 8  85068817.193 8      1186.829          51.000
R02  19431600.836 8 103690787.984 8      -383.410          51.000    19431602.648 8  80648359.891 8      -298.208          49.000
R12  19537922.219 8 104368203.981 8       119.969          50.000    19537925.750 7  81175258.268 7        93.309          47.000
R13  21338328.367 6 113945481.792 6      3922.051          38.000    21338326.391 6  88624248.554 6      3050.484          40.000
C05  39809031.516 6 207296072.123 6        -6.449          36.000    39809028.234 6 160294462.582 6        -4.643          40.000
C21  21757498.477 8 113297026.680 8       531.805          51.000
C22  23467317.109 8 122200466.579 8     -2169.934          51.000
C26  24595686.461 6 128076237.316 6      3315.195          38.000
E02  24564870.625 7 129089270.659 7       402.910          44.000    24564875.008 7  98912564.353 7       308.696          45.000
E08  21946096.766 8 115327519.733 8      -908.488          51.000    21946097.656 8  88367985.273 8      -696.132          51.000
E25  27321020.109 6 143572895.231 6     -2117.812          37.000    27321021.609 5 110010419.689 5     -1622.710          35.000
E30  24386411.031 8 128151437.634 8      2786.785          51.000    24386410.016 8  98193966.425 8      2135.338          50.000
> 2020 05 18 01 31  0.0000000  0 14        .000000000000
G02  23037976.648 8 121065407.169 8     -1861.852          50.000    23037973.328 7  94336656.734 7     -1450.796          43.000
G07  20872528.547 8 109685880.083 8      -684.246          51.000    20872527.062 8  85469510.500 8      -533.179          51.000
G30  20766038.266 8 109126270.368 8      1503.453          51.000    20766039.336 8  85033492.843 8      1171.522          51.000
R02  19433821.227 8 103702636.831 8      -402.223          51.000    19433823.570 8  80657575.649 8      -312.840          49.000
R12  19537348.812 8 104365143.478 8        88.398          49.000    19537352.477 7  81172877.899 7        68.757          47.000
R13  21316357.016 6 113828155.599 6      3903.844          37.000    21316356.570 7  88532994.871 7      3036.323          43.000
C05  39809090.516 6 207296379.585 6       -10.152          36.000    39809087.250 6 160294700.362 6        -7.995          40.000
C21  21754489.906 8 113281360.837 8       516.805          51.000
C22  23479866.367 8 122265816.270 8     -2182.395          51.000
C26  24576626.031 6 127976990.581 6      3306.152          37.000
E02  24562638.062 7 129077535.339 7       383.676          42.000    24562641.820 7  98903572.342 7       294.123          45.000
E08  21951323.734 8 115354987.978 8      -918.469          51.000    21951324.711 8  88389032.354 8      -703.744          51.000
E25  27333161.141 6 143636700.345 6     -2131.930          36.000    27333162.898 5 110059309.292 5     -1633.326          34.000
E30  24370546.047 8 128068064.171 8      2775.617          51.000    24370545.008 8  98130082.877 8      2126.805          50.000
> 2020 05 18 01 31 30.0000000  0 14        .000000000000
G02  23048640.914 8 121121446.670 8     -1874.121          50.000    23048636.922 7  94380323.867 7     -1460.354          42.000
G07  20876474.867 8 109706618.198 8      -698.250          51.000    20876473.391 8  85485670.084 8      -544.091          51.000
G30  20757499.047 8 109081394.785 8      1488.371          51.000    20757499.898 8  84998524.835 8      1159.770          51.000
R02  19436122.406 8 103714915.947 8      -416.289          51.000    19436124.758 8  80667126.054 8      -323.777          49.000
R12  19536928.258 8 104362897.203 8        61.395          51.000    19536932.117 7  81171130.809 7        47.751          47.000
R13  21294459.820 5 113711226.919 5      3891.027          35.000    21294461.156 7  88442050.350 7      3026.355          44.000
C05  39809147.273 6 207296675.397 6        -9.473          36.000    39809144.070 6 160294929.097 6        -7.307          40.000
C21  21751542.828 8 113266014.949 8       506.305          51.000
C22  23492462.891 8 122331411.445 8     -2190.562          51.000
C26  24557593.375 6 127877886.334 6      3301.555          37.000
E02  24560488.297 6 129066240.058 6       369.383          36.000    24560492.070 7  98894917.546 7       283.210          43.000
E08  21956582.328 8 115382622.529 8      -923.734          51.000    21956583.383 8  88410206.872 8      -707.728          51.000
E25  27345357.773 5 143700797.445 5     -2140.996          34.000    27345359.539 5 110108431.645 5     -1640.504          32.000
E30  24354719.734 8 127984893.818 8      2769.176          51.000    24354718.805 8  98066354.965 8      2121.812          50.000
> 2020 05 18 01 32  0.0000000  0 14        .000000000000
G02  23059378.938 8 121177875.043 8     -1887.383          50.000    23059374.758 7  94424294.018 7     -1470.691          44.000
G07  20880505.930 8 109727801.507 8      -713.496          51.000    20880504.336 8  85502176.563 8      -555.971          51.000
G30  20749049.711 8 109036992.773 8      1472.238          51.000    20749050.539 8  84963925.828 8      1147.199          51.000
R02  19438507.391 8 103727641.834 8      -431.648          51.000    19438509.422 8  80677023.950 8      -335.727          49.000
R12  19536663.219 8 104361480.530 8        33.410          51.000    19536667.305 8  81170028.973 8        25.986          48.000
R13  21272640.250 5 113594715.396 5      3876.215          34.000    21272643.375 7  88351430.254 7      3014.831          45.000
C05  39809204.781 6 207296974.998 6        -9.984          36.000    39809201.664 6 160295160.766 6        -7.585          39.000
C21  21748660.406 8 113251005.432 8       494.688          51.000
C22  23505109.664 8 122397267.060 8     -2199.504          51.000
C26  24538592.000 6 127778941.923 6      3295.547          36.000
E02  24558425.484 6 129055400.675 6       353.652          37.000    24558428.797 7  98886612.065 7       271.094          42.000
E08  21961875.648 8 115410439.158 8      -930.258          51.000    21961876.516 8  88431520.913 8      -712.753          51.000
E25  27357612.805 5 143765225.519 5     -2151.980          31.000    27357613.867 5 110157774.383 5     -1648.510          31.000
E30  24338935.414 8 127901943.976 8      2761.359          51.000    24338934.773 8  98002796.002 8      2115.901          50.000
> 2020 05 18 01 32 30.0000000  0 13        .000000000000
G02  23070188.750 8 121234681.558 8     -1899.656          49.000    23070184.961 7  94468558.851 7     -1480.249          45.000
G07  20884619.828 8 109749420.444 8      -727.664          51.000    20884618.109 8  85519022.499 8      -567.008          51.000
G30  20740688.742 8 108993056.630 8      1456.961          51.000    20740689.773 8  84929689.863 8      1135.297          51.000
R02  19440974.484 8 103740806.893 8      -446.027          51.000    19440976.523 8  80687263.423 8      -346.910          49.000
R12  19536551.969 8 104360884.568 8         6.242          51.000    19536555.703 8  81169565.448 8         4.855          48.000
R13  21250897.414 5 113478616.556 5      3863.363          34.000    21250902.430 7  88261131.134 7      3004.838          44.000
C05  39809261.469 6 207297270.675 6        -9.395          36.000    39809258.328 6 160295388.997 6        -7.310          39.000
C21  21745841.250 8 113236325.073 8       483.938          51.000
C22  23517805.023 8 122463374.429 8     -2207.680          50.000
C26  24519619.938 5 127680150.790 5      3290.895          33.000
E02                                                                  24556452.102 6  98878649.720 6       259.852          41.000
E08  21967202.094 8 115438429.671 8      -935.770          51.000    21967202.578 8  88452968.201 8      -717.006          51.000
E30  24323191.898 8 127819208.187 8      2754.379          51.000    24323191.664 8  97939401.092 8      2110.513          49.000
> 2020 05 18 01 33  0.0000000  0 14        .000000000000
G02  23081067.023 8 121291848.556 8     -1920.305          50.000    23081063.742 7  94513104.566 7     -1496.341          45.000
G06  23983653.578 4 126034947.707 4     -3467.082          28.000    23983651.141 4  98209053.100 4     -2701.625          29.000
G07  20888813.406 8 109771458.230 8      -750.359          51.000    20888811.625 8  85536194.802 8      -584.696          51.000
G30  20732413.547 8 108949571.381 8      1433.219          51.000    20732414.742 8  84895805.247 8      1116.794          51.000
R02  19443521.188 8 103754396.688 8      -469.000          51.000    19443523.211 8  80697833.247 8      -364.778          49.000
R12  19536591.273 8 104361092.847 8       -29.070          51.000    19536594.602 8  81169727.455 8       -22.610          49.000
R13  21229230.422 5 113362918.198 5      3840.945          35.000    21229236.242 7  88171143.525 7      2987.402          43.000
C05  39809314.367 6 207297545.435 6       -17.824          36.000    39809311.242 6 160295601.844 6       -13.580          40.000
C21  21743082.711 8 113221959.337 8       464.965          51.000
C22  23530545.453 8 122529717.667 8     -2224.020          51.000
C26  24500674.398 5 127581499.372 5      3277.582          31.000
E02                                                                  24554556.477 6  98871018.650 6       242.142          37.000
E08  21972558.742 8 115466578.674 8      -949.660          51.000    21972558.953 8  88474536.916 8      -727.704          51.000
E30  24307486.484 8 127736672.644 8      2739.039          50.000    24307485.891 8  97876159.624 8      2098.786          48.000
> 2020 05 18 01 33 30.0000000  0 13        .000000000000
G02  23092041.930 8 121349521.896 8     -1923.016          50.000    23092038.922 7  94558044.797 7     -1498.457          46.000
G07  20893114.820 8 109794062.070 8      -754.977          51.000    20893112.953 8  85553808.190 8      -588.293          51.000
G30  20724252.719 8 108906686.094 8      1427.449          51.000    20724253.805 8  84862388.130 8      1112.298          51.000
R02  19446175.914 8 103768562.667 8      -473.836          51.000    19446177.875 8  80708851.222 8      -368.539          49.000
R12  19536809.227 8 104362255.908 8       -46.633          51.000    19536812.344 8  81170632.048 8       -36.270          50.000
R13  21207667.555 5 113247774.723 5      3836.930          35.000    21207673.383 7  88081587.503 7      2984.279          42.000
C05  39809391.734 6 207297947.813 6        -7.508          36.000    39809388.555 6 160295912.990 6        -6.023          40.000
C21  21740413.062 8 113208056.356 8       463.547          51.000
C22  23543359.422 8 122596443.436 8     -2222.758          51.000
C26  24481784.406 4 127483136.476 4      3281.480          29.000
E02  24552771.492 6 129025699.112 6       310.906          41.000    24552770.594 5  98863832.634 5       238.050          34.000
E08  21977973.836 8 115495034.806 8      -945.832          51.000    21977973.859 8  88496340.969 8      -724.707          51.000
E30  24291847.117 7 127654487.653 7      2741.484          43.000    24291846.055 8  97813186.767 8      2100.603          48.000
> 2020 05 18 01 34  0.0000000  0 14        .000000000000
G02  23103053.547 8 121407387.139 8     -1937.109          51.000    23103050.398 7  94603134.582 7     -1509.436          45.000
G07  20897464.258 8 109816918.565 8      -771.168          51.000    20897462.414 8  85571618.473 8      -600.910          51.000
G09  22274503.414 5 117053311.462 5     -2414.500          35.000    22274519.219 5  91210352.595 5     -1881.435          34.000
G30  20716146.711 8 108864089.115 8      1409.863          51.000    20716147.703 8  84829195.693 8      1098.595          51.000
R02  19448879.203 8 103782988.618 8      -490.477          51.000    19448881.523 8  80720071.374 8      -381.482          49.000
R12  19537146.352 8 104364055.862 8       -75.836          51.000    19537149.250 8  81172032.034 8       -58.984          49.000
R13  21186150.180 5 113132872.685 5      3820.902          34.000    21186155.367 6  87992219.214 6      2971.813          40.000
C05  39809433.977 6 207298168.026 6        -8.859          36.000    39809430.820 6 160296083.288 6        -7.113          40.000
C21  21737772.836 8 113194307.701 8       450.613          51.000
C22  23556187.344 8 122663241.848 8     -2232.973          51.000
C26  24462892.273 5 127384754.408 5      3274.785          33.000
E02  24551039.625 7 129016589.744 7       294.074          42.000    24551044.016 5  98856873.827 5       225.042          31.000
E08  21983388.000 8 115523486.010 8      -953.367          51.000    21983387.727 8  88518141.232 8      -730.517          51.000
E30  24276210.500 7 127572343.058 7      2732.395          43.000    24276214.367 8  97750244.639 8      2093.671          50.000
> 2020 05 18 01 34 30.0000000  0 14        .000000000000
G02  23114154.711 8 121465723.775 8     -1950.121          49.000    23114151.539 7  94648591.696 7     -1519.575          46.000
G07  20901915.273 8 109840308.196 8      -786.199          51.000    20901913.125 8  85589844.162 8      -612.623          51.000
G09  22288306.750 5 117125869.261 5     -2421.195          33.000    22288324.828 5  91266890.982 5     -1886.649          32.000
G30  20708149.156 8 108822062.769 8      1393.750          51.000    20708150.156 8  84796447.913 8      1086.039          51.000
R02  19451685.172 8 103797962.065 8      -505.832          51.000    19451687.328 8  80731717.380 8      -393.425          49.000
R12  19537656.117 8 104366778.174 8      -103.684          51.000    19537658.906 8  81174149.397 8       -80.643          50.000
R13  21164732.508 6 113018502.383 6      3805.566          36.000    21164736.672 6  87903264.547 6      2959.885          38.000
C05  39809494.891 6 207298485.208 6        -9.652          36.000    39809491.719 6 160296328.570 6        -7.844          40.000
C21  21735216.016 8 113180993.565 8       438.895          51.000
C22  23569082.961 8 122730391.655 8     -2241.828          51.000
C26  24444051.906 5 127286634.204 5      3268.883          35.000
E02  24549408.648 7 129008031.067 7       278.398          43.000    24549410.000 5  98850295.465 5       213.324          32.000
E08  21988854.891 8 115552214.231 8      -959.902          51.000    21988854.609 8  88540153.758 8      -735.486          51.000
E30  24260640.117 8 127490521.971 8      2724.262          49.000    24260644.688 8  97687550.532 8      2087.376          51.000
> 2020 05 18 01 35  0.0000000  0 15        .000000000000
G02  23125318.562 8 121524390.681 8     -1961.523          48.000    23125315.742 7  94694306.171 7     -1528.460          47.000
G07  20906440.938 8 109864090.342 8      -799.699          51.000    20906438.688 8  85608375.716 8      -623.139          51.000
G09  22302139.109 5 117198566.138 5     -2426.172          32.000    22302163.914 5  91323537.522 5     -1890.539          31.000
G30  20700234.023 8 108780469.169 8      1378.812          51.000    20700234.930 8  84764037.312 8      1074.399          51.000
R02  19454567.375 8 103813342.455 8      -519.973          51.000    19454569.695 8  80743679.873 8      -404.423          49.000
R11  22187753.000 5 118564622.939 5     -3521.711          35.000
R12  19538311.867 8 104370281.615 8      -130.230          51.000    19538314.773 8  81176874.301 8      -101.290          49.000
R13  21143389.211 6 112904526.238 6      3792.234          38.000    21143392.008 6  87814616.483 6      2949.519          38.000
C05  39809548.047 6 207298762.093 6        -8.410          36.000    39809544.875 6 160296542.669 6        -6.845          40.000
C21  21732716.539 8 113167977.664 8       428.445          51.000
C22  23582019.711 8 122797755.146 8     -2249.547          51.000
C26  24425235.594 5 127188640.375 5      3263.781          35.000
E02  24547858.289 7 128999884.828 7       264.211          44.000    24547864.281 6  98844053.607 6       202.510          38.000
E08  21994348.219 8 115581081.142 8      -964.918          51.000    21994348.156 8  88562272.540 8      -739.272          51.000
E30  24245106.789 8 127408887.769 8      2717.668          51.000    24245110.562 8  97624999.667 8      2082.369          51.000
> 2020 05 18 01 35 30.0000000  0 15        .000000000000
G02  23136552.508 7 121583426.988 7     -1973.980          47.000    23136550.445 7  94740308.495 7     -1538.170          47.000
G07  20911049.227 8 109888306.782 8      -814.312          51.000    20911047.086 8  85627245.686 8      -634.529          51.000
G09  22316007.109 5 117271406.683 5     -2432.367          33.000    22316035.258 5  91380323.990 5     -1895.366          30.000
G30  20692409.539 8 108739350.212 8      1362.680          51.000    20692410.188 8  84731996.566 8      1061.828          51.000
R02  19457533.719 8 103829173.169 8      -535.109          51.000    19457536.406 8  80755992.634 8      -416.196          50.000
R11  22207564.812 5 118670481.800 5     -3535.824          35.000
R12  19539121.367 8 104374607.405 8      -157.836          50.000    19539124.336 8  81180238.811 8      -122.761          49.000
R13  21122128.508 6 112790990.003 6      3777.223          37.000    21122129.867 6  87726310.551 6      2937.843          38.000
C05  39809601.391 6 207299039.728 6        -9.121          36.000    39809598.133 6 160296757.330 6        -7.098          40.000
C21  21730282.391 8 113155301.954 8       416.949          51.000
C22  23595005.008 8 122865372.784 8     -2258.184          51.000
C26  24406452.195 6 127090815.685 6      3258.199          37.000
E02  24546393.883 7 128992192.390 7       248.918          43.000    24546397.273 6  98838159.444 6       190.771          38.000
E08  21999875.883 8 115610128.261 8      -971.148          51.000    21999876.062 8  88584529.401 8      -744.109          51.000
E30  24229617.312 8 127327483.721 8      2709.691          51.000    24229619.961 8  97562625.153 8      2076.296          51.000
> 2020 05 18 01 36  0.0000000  0 15        .000000000000
G02  23147855.961 8 121642827.295 8     -1985.449          49.000    23147854.344 7  94786594.436 7     -1547.103          47.000
G07  20915739.109 8 109912952.619 8      -827.996          51.000    20915736.766 8  85646450.244 8      -645.192          51.000
G09  22329908.477 5 117344459.266 5     -2437.051          32.000    22329928.078 5  91437247.800 5     -1899.007          31.000
G30  20684674.906 8 108698703.501 8      1347.668          51.000    20684675.523 8  84700323.806 8      1050.131          51.000
R02  19460584.297 8 103845452.420 8      -549.566          51.000    19460587.219 8  80768654.254 8      -427.441          50.000
R11  22227454.156 4 118776773.959 4     -3549.977          28.000
R12  19540084.125 8 104379751.823 8      -184.488          51.000    19540087.555 8  81184240.037 8      -143.491          50.000
R13  21100949.844 6 112677895.327 6      3763.363          38.000    21100950.656 6  87638348.043 6      2927.063          39.000
C05  39809654.281 6 207299316.163 6        -8.379          36.000    39809651.008 6 160296970.315 6        -6.585          40.000
C21  21727913.070 8 113142964.523 8       406.258          51.000
C22  23608037.859 8 122933241.224 8     -2265.828          51.000
C26  24387699.453 6 126993159.019 6      3253.262          37.000
E02  24545015.453 7 128984950.990 7       234.359          45.000    24545016.648 6  98832610.866 6       179.640          40.000
E08  22005437.281 8 115639352.878 8      -976.488          51.000    22005437.453 8  88606922.280 8      -748.200          51.000
E30  24214170.906 8 127246308.757 8      2702.621          51.000    24214172.594 8  97500426.174 8      2070.831          51.000
> 2020 05 18 01 36 30.0000000  0 13        .000000000000
G02  23159229.883 8 121702597.360 8     -1999.012          50.000    23159228.047 7  94833168.483 7     -1557.671          46.000
G07  20920511.984 8 109938034.608 8      -843.816          51.000    20920509.555 8  85665994.641 8      -657.519          51.000
G30  20677031.734 8 108658537.612 8      1330.281          51.000    20677032.094 8  84669025.717 8      1036.580          51.000
R02  19463720.719 8 103862188.689 8      -566.086          51.000    19463723.789 8  80781671.348 8      -440.289          50.000
R12  19541201.938 8 104385722.552 8      -213.336          50.000    19541205.383 8  81188883.933 8      -165.928          50.000
R13  21079855.797 6 112565253.300 6      3746.715          38.000    21079856.391 6  87550737.592 6      2914.112          40.000
C05  39809708.195 6 207299596.331 6        -9.809          36.000    39809705.000 6 160297187.742 6        -7.760          40.000
C21  21725610.266 8 113130974.267 8       393.359          51.000
C22  23621120.578 8 123001367.897 8     -2275.750          51.000
C26  24368980.891 6 126895680.140 6      3245.719          37.000
E02  24543724.906 7 128978168.764 7       217.895          42.000    24543723.992 6  98827414.054 6       166.937          40.000
E08  22011033.852 8 115668763.182 8      -984.000          51.000    22011033.953 8  88629457.438 8      -753.899          51.000
E30  24198769.305 8 127165372.656 8      2693.414          51.000    24198770.359 8  97438410.210 8      2063.764          51.000
> 2020 05 18 01 37  0.0000000  0 13        .000000000000
G02  23170671.547 8 121762723.087 8     -2009.820          50.000    23170668.766 7  94880019.681 7     -1566.094          45.000
G07  20925365.328 8 109963539.756 8      -856.789          50.000    20925363.414 8  85685868.802 8      -667.628          50.000
G30  20669478.086 8 108618841.390 8      1315.660          51.000    20669478.109 8  84638093.602 8      1025.190          51.000
R02  19466940.609 8 103879371.325 8      -579.820          51.000    19466943.539 8  80795035.637 8      -450.971          50.000
R12  19542471.867 8 104392506.567 8      -239.320          51.000    19542475.289 8  81194160.395 8      -186.138          50.000
R13  21058844.828 6 112453056.144 6      3732.836          39.000    21058845.266 6  87463473.142 6      2903.317          41.000
C05  39809761.078 6 207299871.792 6        -8.859          36.000    39809757.906 6 160297400.746 6        -6.778          40.000
C21  21723372.242 8 113119320.635 8       383.227          51.000
C22  23634251.211 8 123069740.755 8     -2282.820          51.000
C26  24350293.859 6 126798369.189 6      3241.609          36.000
E02  24542518.844 6 128971833.924 6       204.078          40.000    24542517.547 6  98822560.202 6       156.294          41.000
E08  22016663.445 8 115698347.761 8      -988.695          51.000    22016663.672 8  88652126.130 8      -757.593          51.000
E30  24183410.773 8 127084665.621 8      2686.766          50.000    24183411.648 8  97376569.743 8      2058.738          51.000
> 2020 05 18 01 37 30.0000000  0 14        .000000000000
G02  23182177.188 8 121823185.721 8     -2017.301          50.000    23182173.445 7  94927133.412 7     -1571.923          46.000
G07  20930295.789 8 109989450.462 8      -866.707          51.000    20930294.039 8  85706058.959 8      -675.356          51.000
G30  20662010.695 8 108579599.040 8      1304.121          51.000    20662010.711 8  84607515.172 8      1016.201          51.000
R02  19470241.273 8 103896984.770 8      -590.602          51.000    19470244.562 8  80808734.967 8      -459.357          51.000
R12  19543890.945 8 104400086.707 8      -262.152          51.000    19543894.398 8  81200056.066 8      -203.896          50.000
R13  21037914.695 6 112341290.137 6      3721.781          39.000    21037915.227 6  87376544.031 6      2894.719          41.000
C05  39809809.844 6 207300125.331 6        -4.676          36.000    39809806.602 6 160297596.787 6        -3.320          40.000
C21  21721196.023 8 113107988.417 8       376.023          51.000
C22  23647425.992 8 123138343.221 8     -2286.898          51.000
C26  24331636.367 6 126701211.843 6      3239.730          36.000
E02  24541395.914 6 128965930.558 6       193.242          40.000    24541394.797 7  98818036.819 7       148.144          42.000
E03  27803694.359 5 146109360.585 5     -2315.910          34.000
E08  22022323.141 8 115728090.431 8      -990.414          51.000    22022323.531 8  88674915.944 8      -758.889          51.000
E30  24168092.859 8 127004173.170 8      2683.160          50.000    24168093.750 8  97314893.704 8      2055.877          51.000
> 2020 05 18 01 38  0.0000000  0 15        .000000000000
G02  23193693.430 8 121883704.490 8     -2028.094          49.000    23193689.406 7  94974290.904 7     -1580.333          46.000
G07  20935250.234 8 110015487.026 8      -879.867          51.000    20935248.523 8  85726347.180 8      -685.614          51.000
G09  22385812.219 5 117638226.736 5     -2455.875          34.000
G30  20654576.594 8 108540532.524 8      1289.387          51.000    20654576.945 8  84577073.751 8      1004.717          51.000
R02  19473570.172 8 103914746.748 8      -604.605          51.000    19473573.109 8  80822549.860 8      -470.249          51.000
R11  22307704.656 5 119205557.005 5     -3597.250          32.000    22307708.109 5  92715445.348 5     -2797.861          31.000
R12  19545405.742 8 104408178.649 8      -288.281          51.000    19545408.945 8  81206349.799 8      -224.219          49.000
R13  21017012.930 6 112229676.161 6      3707.516          36.000    21017013.844 7  87289733.177 7      2883.623          42.000
C05  39809801.344 6 207300080.998 6        -3.469          36.000    39809798.109 6 160297562.528 6        -2.688          40.000
C21  21719028.586 8 113096702.649 8       365.566          51.000
C22  23660591.414 8 123206898.827 8     -2294.191          51.000
C26  24312956.172 5 126603933.875 5      3234.758          33.000
E02  24540301.555 6 128960179.946 6       179.316          36.000    24540301.148 7  98813630.582 7       137.270          43.000
E08  22027960.094 8 115757712.932 8      -995.402          51.000    22027960.508 8  88697613.685 8      -762.720          51.000
E30  24152763.531 8 126923618.603 8      2676.145          51.000    24152764.188 8  97253170.092 8      2050.549          50.000
> 2020 05 18 01 38 30.0000000  0 14        .000000000000
G02  23205400.508 7 121945226.948 7     -2047.660          47.000    23205396.906 7  95022230.456 7     -1595.582          47.000
G07  20940409.211 8 110042598.146 8      -901.832          51.000    20940407.812 8  85747472.731 8      -702.726          51.000
G09  22399923.633 5 117712385.832 5     -2468.809          33.000
G30  20647356.547 8 108502592.367 8      1265.715          51.000    20647357.211 8  84547510.011 8       986.271          51.000
R02  19477107.695 8 103933623.192 8      -627.605          51.000    19477110.500 8  80837231.541 8      -488.138          51.000
R12  19547197.180 8 104417747.488 8      -323.445          51.000    19547200.117 8  81213792.231 8      -251.569          49.000
R13  20996319.945 5 112119183.814 5      3684.609          34.000    20996322.180 6  87203794.673 6      2865.807          41.000
C05  39809916.453 6 207300681.778 6       -11.266          36.000    39809913.281 6 160298025.954 6        -8.681          40.000
C21  21717051.117 8 113086405.639 8       346.336          51.000
C22  23673928.336 8 123276348.441 8     -2310.305          51.000
C26  24294434.008 5 126507478.429 5      3220.758          30.000
E02  24539418.328 5 128955532.334 5       156.176          34.000    24539418.062 7  98810069.458 7       119.862          43.000
E08  22033754.953 8 115788165.483 8     -1009.137          51.000    22033755.453 8  88720947.446 8      -773.202          51.000
E30  24137604.086 8 126843953.679 8      2660.445          51.000    24137604.094 8  97192128.169 8      2038.502          49.000
> 2020 05 18 01 39  0.0000000  0 14        .000000000000
G02  23217049.102 8 122006441.119 8     -2059.438          48.000    23217045.797 7  95069929.826 7     -1604.756          47.000
G07  20945523.375 8 110069473.191 8      -916.137          51.000    20945521.906 8  85768414.330 8      -713.873          51.000
G30  20640101.820 8 108464469.576 8      1249.539          51.000    20640102.586 8  84517803.928 8       973.664          51.000
R02  19480605.008 8 103952284.883 8      -643.117          51.000    19480607.797 8  80851746.166 8      -500.202          51.000
R11  22348304.820 5 119422502.394 5     -3631.793          33.000    22348315.141 4  92884181.878 4     -2824.725          28.000
R12  19549015.516 8 104427460.921 8      -350.836          51.000    19549018.438 8  81221347.139 8      -272.872          49.000
R13  20975589.383 6 112008485.816 6      3668.441          37.000    20975592.031 7  87117696.218 7      2853.232          42.000
C05  39809905.938 6 207300626.527 6       -11.035          36.000    39809902.750 6 160297983.620 6        -8.690          40.000
C21  21715014.719 8 113075800.790 8       334.578          51.000
C22  23687187.664 8 123345393.998 8     -2318.770          51.000
C26  24275820.266 5 126410565.709 5      3214.906          30.000
E02                                                                  24538494.633 7  98806350.065 7       108.015          42.000
E08  22039458.461 8 115818138.822 8     -1015.375          51.000    22039459.320 8  88743914.023 8      -778.030          51.000
E30  24122365.188 8 126763870.752 8      2652.160          51.000    24122364.828 8  97130765.953 8      2032.070          49.000
> 2020 05 18 01 39 30.0000000  0 14        .000000000000
G02  23228843.047 8 122068417.568 8     -2068.055          50.000    23228839.977 7  95118223.149 7     -1611.471          47.000
G07  20950796.547 8 110097183.513 8      -927.141          51.000    20950795.039 8  85790006.785 8      -722.447          51.000
G30  20633016.648 8 108427237.457 8      1236.773          51.000    20633017.602 8  84488791.878 8       963.720          51.000
R02  19484266.609 8 103971822.366 8      -655.188          51.000    19484269.094 8  80866941.982 8      -509.590          51.000
R11  22368730.211 4 119531712.558 4     -3641.477          27.000    22368743.578 4  92969164.377 4     -2832.263          27.000
R12  19551064.961 8 104438408.492 8      -374.809          51.000    19551067.695 8  81229861.925 8      -291.518          49.000
R13  20955025.953 6 111898676.371 6      3656.121          38.000    20955028.742 7  87032288.908 7      2843.650          42.000
C05  39809973.898 6 207300980.420 6        -8.379          36.000    39809970.805 6 160298257.644 6        -6.364          39.000
C21  21713123.453 8 113065952.168 8       326.035          51.000
C22  23700573.547 8 123415098.046 8     -2324.066          51.000
C26  24257317.836 5 126314222.575 5      3211.863          30.000
E02  24537738.867 6 128946692.220 6       128.992          38.000    24537734.648 7  98803294.458 7        98.778          42.000
E08  22045275.016 8 115848706.024 8     -1018.316          51.000    22045276.141 8  88767335.622 8      -780.283          51.000
E30  24107251.055 8 126684444.460 8      2647.016          51.000    24107250.984 8  97069906.852 8      2028.266          49.000
> 2020 05 18 01 40  0.0000000  0 15        .000000000000
G02  23240716.109 8 122130809.249 8     -2073.848          51.000    23240712.859 7  95166840.035 7     -1615.985          46.000
G07  20956162.891 8 110125383.484 8      -935.430          51.000    20956161.648 8  85811980.796 8      -728.906          51.000
G09  22442309.164 5 117935120.169 5     -2478.926          31.000    22442306.188 5  91897484.539 5     -1931.618          31.000
G30  20626035.570 8 108390551.952 8      1226.301          51.000    20626036.664 8  84460205.794 8       955.559          51.000
R02  19488026.875 8 103991886.647 8      -664.578          51.000    19488029.133 8  80882547.522 8      -516.894          51.000
R11  22389251.070 5 119641305.492 5     -3648.719          32.000    22389255.258 4  93054416.345 4     -2837.889          24.000
R12  19553279.625 8 104450239.041 8      -396.066          51.000    19553282.109 8  81239063.473 8      -308.052          49.000
R13  20934564.094 6 111789408.707 6      3646.301          38.000    20934566.617 7  86947302.992 7      2836.015          42.000
C05  39810055.055 6 207301402.066 6        -2.617          36.000    39810051.859 6 160298584.103 6        -2.163          40.000
C21  21711311.953 8 113056519.380 8       320.113          51.000
C22  23714020.156 8 123485118.840 8     -2326.777          51.000
C26  24238862.414 5 126218137.627 5      3211.312          30.000
E02  24537074.352 5 128943226.208 5       119.488          35.000    24537075.586 7  98800638.774 7        91.433          43.000
E08  22051139.172 8 115879522.761 8     -1018.652          51.000    22051140.258 8  88790948.434 8      -780.514          51.000
E30  24092196.219 8 126605332.125 8      2644.590          51.000    24092196.953 8  97009288.324 8      2026.341          49.000
> 2020 05 18 01 40 30.0000000  0 15        .000000000000
G02  23252612.156 8 122193322.595 8     -2091.789          50.000    23252608.508 7  95215551.727 7     -1629.969          46.000
G07  20961566.820 8 110153780.859 8      -955.875          51.000    20961565.539 8  85834108.621 8      -744.838          51.000
G09  22456496.766 5 118009676.213 5     -2490.285          32.000    22456493.477 5  91955580.218 5     -1940.479          33.000
G30  20619103.383 8 108354122.458 8      1204.094          51.000    20619104.367 8  84431819.183 8       938.255          51.000
R02  19491830.477 8 104012183.108 8      -686.434          51.000    19491832.570 8  80898333.641 8      -533.893          51.000
R11  22409797.383 5 119751088.097 5     -3668.367          31.000
R12  19555604.094 8 104462655.667 8      -429.742          51.000    19555606.430 8  81248720.855 8      -334.244          49.000
R13  20914148.828 6 111680390.870 6      3623.750          38.000    20914150.930 6  86862511.363 6      2818.472          41.000
C05  39810093.797 6 207301604.661 6        -9.078          36.000    39810090.570 6 160298740.013 6        -7.159          40.000
C21  21709525.172 8 113047214.945 8       302.086          51.000
C22  23727472.391 8 123555167.410 8     -2341.234          51.000
C26  24220399.711 5 126122017.986 5      3198.902          32.000
E02  24536457.891 6 128939991.167 6        97.992          40.000    24536460.797 7  98798159.925 7        74.950          43.000
E08  22056995.500 8 115910298.245 8     -1031.164          51.000    22056996.547 8  88814529.647 8      -790.203          51.000
E30  24077145.789 8 126526244.570 8      2629.750          49.000    24077147.727 8  96948688.785 8      2014.991          50.000
> 2020 05 18 01 41  0.0000000  0 15        .000000000000
G02  23264582.359 8 122256226.406 8     -2102.785          49.000    23264578.898 7  95264567.661 7     -1638.534          47.000
G07  20967059.586 8 110182645.437 8      -969.410          51.000    20967058.109 8  85856600.508 8      -755.385          51.000
G30  20612271.727 8 108318220.671 8      1188.418          51.000    20612272.609 8  84403843.757 8       926.040          51.000
R02  19495729.188 8 104032987.692 8      -701.453          51.000    19495731.477 8  80914514.962 8      -545.575          50.000
R11  22430423.812 5 119861298.731 5     -3679.969          32.000
R12  19558089.555 8 104475932.991 8      -456.398          51.000    19558092.117 8  81259047.673 8      -354.977          49.000
R13  20893832.172 6 111571902.193 6      3607.875          38.000    20893834.258 6  86778131.295 6      2806.128          40.000
C05  39810141.922 6 207301854.566 6        -8.238          36.000    39810138.547 6 160298933.269 6        -6.905          40.000
C21  21707814.805 8 113038308.683 8       290.738          51.000
C22  23740981.352 8 123625512.053 8     -2349.246          51.000
C26  24201983.656 5 126026134.382 5      3192.746          35.000
E02  24535937.086 6 128937258.174 6        83.477          38.000    24535941.023 7  98796065.794 7        63.645          43.000
E03  27896675.750 5 146598014.761 5     -2334.742          32.000
E08  22062895.781 8 115941303.991 8     -1036.906          51.000    22062896.703 8  88838287.271 8      -794.504          51.000
E30  24062151.859 8 126447454.774 8      2621.746          49.000    24062154.969 8  96888317.390 8      2008.918          50.000
> 2020 05 18 01 41 30.0000000  0 15        .000000000000
G02  23276608.914 8 122319426.331 8     -2095.191          49.000    23276605.781 7  95313814.352 7     -1632.617          46.000
G07  20972623.492 8 110211883.836 8      -964.453          51.000    20972622.023 8  85879383.672 8      -751.522          51.000
G09  22484997.133 6 118159434.245 6     -2482.602          37.000    22484993.758 5  92072290.396 5     -1934.495          35.000
G30  20605522.969 8 108282754.847 8      1191.340          51.000    20605524.188 8  84376208.064 8       928.317          51.000
R02  19499705.836 8 104054208.128 8      -697.590          51.000    19499708.172 8  80931019.726 8      -542.570          50.000
R11  22451108.609 5 119971885.462 5     -3673.961          32.000
R12  19560718.516 8 104489976.246 8      -464.164          51.000    19560721.023 8  81269970.211 8      -361.016          49.000
R13  20873597.828 6 111463852.505 6      3610.957          38.000    20873599.641 6  86694092.655 6      2808.522          40.000
C05  39810181.695 6 207302061.499 6         9.910          36.000    39810178.234 6 160299093.267 6         7.793          40.000
C21  21706163.328 8 113029710.227 8       297.695          51.000
C22  23754529.383 8 123696061.013 8     -2338.719          51.000
C26  24183596.547 6 125930397.174 6      3205.367          36.000
E02  24535494.773 6 128934935.027 6        87.004          39.000    24535498.555 7  98794285.754 7        66.528          42.000
E08  22068822.469 8 115972448.033 8     -1024.008          51.000    22068823.297 8  88862150.890 8      -784.650          51.000
E30  24047197.922 8 126368872.372 8      2632.320          51.000    24047202.031 8  96828104.932 8      2016.910          51.000
> 2020 05 18 01 42  0.0000000  0 15        .000000000000
G02  23288710.586 8 122383020.771 8     -2132.297          49.000    23288707.555 7  95363368.448 7     -1661.533          46.000
G07  20978277.445 8 110241595.863 8     -1004.293          51.000    20978276.180 8  85902535.917 8      -782.563          51.000
G09  22499284.594 5 118234568.764 5     -2514.250          33.000    22499291.336 3  92130825.677 3     -1959.165          22.000
G30  20598876.438 8 108247826.400 8      1149.305          51.000    20598877.930 8  84348991.124 8       895.562          51.000
R02  19503779.688 8 104075947.419 8      -739.375          51.000    19503782.039 8  80947928.034 8      -575.069          50.000
R11  22471873.836 5 120082855.208 5     -3711.891          35.000    22471881.391 4  93397827.347 4     -2887.026          26.000
R12  19563509.727 8 104504886.851 8      -517.570          51.000    19563512.398 8  81281567.360 8      -402.555          49.000
R13  20853465.891 6 111356347.880 6      3568.254          39.000    20853467.805 6  86610477.969 6      2775.312          41.000
C05  39810232.336 6 207302325.582 6       -15.406          36.000    39810228.984 6 160299297.477 6       -11.998          40.000
C21  21704590.469 8 113021520.619 8       260.188          51.000
C22  23768135.695 8 123766913.835 8     -2372.676          51.000
C26  24165257.867 6 125834908.247 6      3172.789          39.000
E02  24535149.992 7 128933122.936 7        45.941          42.000    24535153.961 7  98792897.169 7        35.280          44.000
E08  22074794.625 8 116003831.654 8     -1056.023          51.000    22074795.641 8  88886198.068 8      -809.200          51.000
E30  24032303.703 8 126290600.230 8      2597.898          51.000    24032308.289 8  96768130.199 8      1990.618          51.000
> 2020 05 18 01 42 30.0000000  0 15        .000000000000
G02  23300882.102 8 122446981.091 8     -2135.336          49.000    23300878.617 7  95413207.632 7     -1663.898          46.000
G07  20984016.211 8 110271753.462 8     -1009.961          51.000    20984014.867 8  85926035.338 8      -786.983          51.000
G09  22513608.578 6 118309905.224 6     -2511.551          37.000    22513640.625 5  92189528.977 5     -1957.065          30.000
G30  20592327.148 8 108213409.222 8      1141.465          51.000    20592328.578 8  84322172.540 8       889.453          51.000
R02  19507946.008 8 104098179.775 8      -746.523          51.000    19507948.414 8  80965219.859 8      -580.629          49.000
R11  22492715.008 5 120194223.071 5     -3715.738          35.000    22492720.305 4  93484440.756 4     -2890.022          28.000
R12  19566458.062 8 104520636.614 8      -536.133          51.000    19566460.812 8  81293817.177 8      -416.992          49.000
R13  20833431.742 6 111249364.888 6      3560.332          40.000    20833433.781 7  86527268.983 7      2769.147          42.000
C05  39810288.930 6 207302620.637 6        -7.844          36.000    39810285.602 6 160299525.630 6        -5.969          40.000
C21  21703091.484 8 113013714.534 8       256.504          51.000
C22  23781795.141 8 123838043.698 8     -2372.926          51.000
C26  24146962.906 6 125739643.140 6      3174.488          41.000
E02  24534896.812 6 128931795.139 6        38.863          39.000    24534902.188 7  98791879.755 7        29.704          44.000
E08  22080807.266 8 116035428.586 8     -1054.047          51.000    22080808.352 8  88910408.679 8      -807.649          51.000
E30  24017464.172 8 126212613.597 8      2597.504          51.000    24017468.430 8  96708374.228 8      1990.295          51.000
> 2020 05 18 01 43  0.0000000  0 15        .000000000000
G02  23313105.586 8 122511214.393 8     -2144.762          49.000    23313101.391 7  95463259.547 7     -1671.243          46.000
G07  20989822.484 8 110302265.568 8     -1022.336          51.000    20989821.000 8  85949811.003 8      -796.622          51.000
G09  22527973.016 5 118385326.160 5     -2515.969          32.000    22527996.922 5  92248352.214 5     -1960.495          32.000
G30  20585857.672 8 108179413.820 8      1127.008          51.000    20585859.469 8  84295682.625 8       878.188          51.000
R02  19512187.562 8 104120814.579 8      -760.504          51.000    19512189.945 8  80982824.704 8      -591.503          49.000
R11  22513612.570 5 120305861.732 5     -3726.414          34.000    22513620.570 4  93571259.220 4     -2898.331          29.000
R12  19569546.062 8 104537132.935 8      -561.621          51.000    19569549.031 8  81306647.654 8      -436.816          49.000
R13  20813478.820 6 111142816.368 6      3545.133          38.000    20813480.867 7  86444397.909 7      2757.326          43.000
C05  39810334.461 6 207302857.636 6        -6.379          36.000    39810331.047 6 160299708.900 6        -5.032          40.000
C21  21701649.234 8 113006203.884 8       246.176          51.000
C22  23795490.539 8 123909361.036 8     -2379.637          50.000
C26  24128693.906 6 125644514.603 6      3169.324          41.000
E02  24534719.773 6 128930861.728 6        25.086          39.000    24534724.352 7  98791164.519 7        19.314          44.000
E08  22086843.469 8 116067149.168 8     -1058.715          51.000    22086844.570 8  88934714.048 8      -811.259          51.000
E30  24002662.164 8 126134824.444 8      2590.293          51.000    24002665.539 8  96648769.554 8      1984.746          51.000
> 2020 05 18 01 43 30.0000000  0 15        .000000000000
G02  23325393.023 8 122575784.664 8     -2153.277          49.000    23325388.422 7  95513574.032 7     -1677.881          46.000
G07  20995708.484 8 110333197.099 8     -1033.309          51.000    20995707.312 8  85973913.507 8      -805.176          51.000
G09  22542371.961 6 118460962.558 6     -2518.969          37.000    22542380.805 6  92307255.836 6     -1962.833          36.000
G30  20579481.227 8 108145906.885 8      1113.445          51.000    20579483.297 8  84269573.319 8       867.620          51.000
R02  19516517.461 8 104143920.260 8      -773.160          51.000    19516519.961 8  81000795.780 8      -601.347          50.000
R11  22534580.242 5 120417885.726 5     -3735.703          33.000    22534588.508 4  93658411.546 4     -2905.547          27.000
R12  19572786.367 8 104554441.986 8      -585.652          51.000    19572789.383 8  81320110.249 8      -455.507          49.000
R13  20793620.156 6 111036773.261 6      3530.828          36.000    20793622.102 7  86361919.920 7      2746.200          43.000
C05  39810381.477 6 207303102.339 6        -3.555          36.000    39810378.039 6 160299898.126 6        -2.873          40.000
C21  21700276.578 8 112999055.365 8       236.930          51.000
C22  23809234.539 8 123980931.088 8     -2385.141          50.000
C26  24110463.539 6 125549590.066 6      3164.988          39.000
E02  24534630.578 6 128930389.006 6        13.082          39.000    24534634.219 7  98790802.273 7         9.686          45.000
E08  22092915.883 8 116099060.020 8     -1062.199          51.000    22092917.102 8  88959165.188 8      -813.923          51.000
E30  23987910.320 8 126057300.862 8      2584.301          51.000    23987912.977 8  96589368.348 8      1980.176          51.000
> 2020 05 18 01 44  0.0000000  0 15        .000000000000
G02  23337737.977 8 122640658.497 8     -2169.566          48.000    23337733.719 7  95564125.041 7     -1690.571          47.000
G07  21001668.336 8 110364516.184 8     -1052.477          51.000    21001667.148 8  85998317.989 8      -820.112          51.000
G09  22556784.641 5 118536733.655 5     -2529.824          35.000    22556795.242 5  92366298.125 5     -1971.295          34.000
G30  20573192.211 8 108112857.985 8      1091.914          51.000    20573194.172 8  84243820.925 8       850.842          51.000
R02  19520929.859 8 104167465.908 8      -794.352          51.000    19520932.727 8  81019109.037 8      -617.829          51.000
R11  22555607.297 5 120530242.465 5     -3753.301          31.000
R12  19576172.602 8 104572531.090 8      -618.105          51.000    19576175.477 8  81334179.565 8      -480.749          50.000
R13  20773850.352 5 110931206.731 5      3508.316          35.000    20773852.336 7  86279812.606 7      2728.691          43.000
C05  39810424.125 6 207303324.377 6        -8.988          37.000    39810420.695 6 160300069.812 6        -7.065          40.000
C21  21698967.586 8 112992239.372 8       219.633          51.000
C22  23823021.578 8 124052722.882 8     -2398.773          51.000
C26  24092266.406 6 125454840.809 6      3153.395          37.000
E02  24534622.109 6 128930346.127 6        -7.934          41.000    24534626.781 7  98790769.386 7        -5.968          46.000
E08  22099018.797 8 116131130.541 8     -1073.754          51.000    22099019.719 8  88983738.685 8      -822.726          51.000
E30  23973202.664 8 125980013.850 8      2570.172          51.000    23973205.227 8  96530148.412 8      1969.361          51.000
> 2020 05 18 01 44 30.0000000  0 14        .000000000000
G02  23350155.023 7 122705912.313 7     -2178.945          45.000    23350151.562 7  95614972.186 7     -1697.879          45.000
G07  21007716.625 8 110396300.109 8     -1064.605          51.000    21007714.961 8  86023084.676 8      -829.563          51.000
G09  22571241.930 5 118612683.066 5     -2533.992          30.000    22571255.234 5  92425515.178 5     -1974.545          30.000
G30  20567005.383 8 108080346.159 8      1077.414          51.000    20567007.227 8  84218487.034 8       839.543          51.000
R02  19525439.992 8 104191532.448 8      -808.328          51.000    19525442.773 8  81037827.439 8      -628.700          50.000
R12  19579719.812 8 104591478.932 8      -643.273          51.000    19579722.641 8  81348916.781 8      -500.324          50.000
R13  20754185.656 5 110826201.546 5      3493.586          35.000    20754187.953 7  86198141.881 7      2717.234          42.000
C05  39810477.320 6 207303601.756 6        -7.379          36.000    39810474.062 6 160300284.317 6        -6.062          40.000
C21  21697737.484 8 112985834.919 8       209.109          51.000
C22  23836866.750 8 124124813.848 8     -2405.453          51.000
C26  24074118.398 6 125360346.675 6      3148.281          38.000
E02  24534711.039 6 128930811.770 6       -21.359          38.000    24534715.070 7  98791126.113 7       -16.501          46.000
E08  22105167.109 8 116163439.741 8     -1078.387          51.000    22105167.484 8  89008495.085 8      -826.317          51.000
E30  23958554.586 8 125903043.935 8      2562.887          49.000    23958557.828 8  96471171.451 8      1963.779          51.000
> 2020 05 18 01 45  0.0000000  0 13        .000000000000
G02  23362624.375 7 122771440.313 7     -2189.234          46.000    23362621.688 7  95666032.978 7     -1705.897          46.000
G07  21013833.398 8 110428443.950 8     -1077.938          51.000    21013831.664 8  86048131.835 8      -839.951          51.000
G30  20560901.125 8 108048268.321 8      1061.547          51.000    20560902.945 8  84193491.325 8       827.179          51.000
R02  19530028.094 8 104216015.254 8      -823.555          51.000    19530030.656 8  81056869.612 8      -640.543          50.000
R12  19583407.859 8 104611178.961 8      -669.652          51.000    19583410.766 8  81364239.030 8      -520.841          50.000
R13  20734607.047 6 110721655.584 6      3476.793          37.000    20734609.531 6  86116828.330 6      2704.175          41.000
C05  39810521.617 6 207303832.121 6        -7.668          36.000    39810518.266 6 160300462.420 6        -5.706          40.000
C21  21696567.203 8 112979740.360 8       197.496          51.000
C22  23850749.789 8 124197100.961 8     -2413.297          51.000
C26  24056001.062 6 125266006.862 6      3141.512          40.000
E02  24534877.328 5 128931650.161 5       -36.340          35.000    24534880.406 7  98791793.083 7       -27.767          47.000
E08  22111341.156 8 116195884.384 8     -1084.203          51.000    22111341.219 8  89033355.254 8      -830.726          51.000
E30  23943947.359 8 125826289.424 8      2554.449          48.000    23943951.500 8  96412359.540 8      1957.284          51.000
> 2020 05 18 01 45 30.0000000  0 14        .000000000000
G02  23375149.883 8 122837261.511 8     -2203.277          48.000    23375147.594 7  95717322.233 7     -1716.839          45.000
G07  21020022.570 8 110460967.888 8     -1094.918          51.000    21020020.859 8  86073475.161 8      -853.183          51.000
G30  20554883.578 8 108016646.289 8      1042.039          51.000    20554885.523 8  84168850.794 8       811.982          51.000
R02  19534698.586 8 104240937.977 8      -842.574          51.000    19534701.422 8  81076253.931 8      -655.336          51.000
R12  19587240.523 8 104631651.569 8      -699.742          51.000    19587243.422 8  81380162.167 8      -544.244          51.000
R13  20715119.734 6 110617594.347 6      3456.340          38.000    20715122.062 6  86035891.835 6      2688.267          40.000
C05  39810560.883 6 207304036.760 6       -10.727          36.000    39810557.578 6 160300620.668 6        -8.379          40.000
C21  21695460.773 8 112973978.006 8       182.223          51.000
C22  23864673.750 8 124269605.062 8     -2424.738          51.000
C26  24037918.742 6 125171844.388 6      3131.508          40.000
E02  24535124.852 6 128932947.041 6       -54.621          37.000    24535127.234 8  98792786.745 8       -42.002          49.000
E07  23997130.742 5 126105836.095 5      1170.004          32.000    23997129.852 5  96626501.996 5       896.263          34.000
E08  22117545.102 8 116228486.288 8     -1093.730          51.000    22117545.430 8  89058335.908 8      -838.053          51.000
E30  23929386.258 8 125749773.629 8      2542.141          49.000    23929390.766 8  96353730.550 8      1947.889          51.000
> 2020 05 18 01 46  0.0000000  0 14        .000000000000
G02  23387742.812 8 122903436.787 8     -2210.402          48.000    23387741.023 7  95768887.375 7     -1722.391          45.000
G07  21026295.922 8 110493934.255 8     -1104.961          51.000    21026293.992 8  86099163.233 8      -861.009          51.000
G30  20548964.922 8 107985543.905 8      1029.398          51.000    20548966.828 8  84144615.168 8       802.129          51.000
R02  19539463.664 8 104266365.177 8      -854.625          51.000    19539466.625 8  81096030.620 8      -664.708          51.000
R12  19591229.422 8 104652959.778 8      -722.848          51.000    19591232.531 8  81396735.237 8      -562.215          51.000
R13  20695736.062 6 110514085.661 6      3442.320          37.000    20695738.195 6  85955385.114 6      2677.360          40.000
C05  39810607.312 6 207304278.758 6        -7.453          36.000    39810604.062 6 160300807.781 6        -5.630          40.000
C21  21694430.203 8 112968611.772 8       173.566          51.000
C22  23878650.766 8 124342388.540 8     -2429.461          51.000
C26  24019883.766 6 125077924.077 6      3127.738          40.000
E02                                                                  24535467.242 8  98794155.639 8       -50.907          49.000
E07                                                                  23990452.758 6  96599600.004 6       895.260          36.000
E08  22123791.086 8 116261309.206 8     -1096.410          51.000    22123791.633 8  89083485.929 8      -840.121          51.000
E30  23914883.945 8 125673561.828 8      2536.637          51.000    23914887.844 8  96295334.517 8      1943.666          51.000
> 2020 05 18 01 46 30.0000000  0 15        .000000000000
G02  23400391.477 7 122969905.747 7     -2218.840          46.000    23400390.250 7  95820681.374 7     -1728.963          44.000
G07  21032642.195 8 110527283.949 8     -1116.547          51.000    21032640.383 8  86125150.008 8      -870.037          51.000
G09  22629379.648 5 118918145.114 5     -2554.203          30.000
G30  20543134.195 8 107954903.694 8      1015.262          51.000    20543136.062 8  84120739.699 8       791.116          51.000
R02  19544312.523 8 104292239.156 8      -868.211          51.000    19544315.258 8  81116154.820 8      -675.275          50.000
R12  19595363.734 8 104675043.477 8      -747.457          51.000    19595366.578 8  81413911.429 8      -581.355          51.000
R13  20676444.711 5 110411074.933 5      3427.137          34.000    20676448.242 6  85875265.683 6      2665.551          41.000
C05  39810649.953 6 207304500.908 6        -5.398          36.000    39810646.734 6 160300979.581 6        -4.389          40.000
C21  21693464.883 8 112963585.238 8       163.402          51.000
C22  23892670.219 8 124415393.546 8     -2435.742          50.000
C26  24001884.914 6 124984190.346 6      3123.125          38.000
E02  24535897.062 5 128937005.814 5       -79.633          34.000    24535889.086 8  98795855.420 8       -61.086          50.000
E07                                                                  23983798.680 6  96572798.001 6       892.725          36.000
E08  22130068.312 8 116294295.598 8     -1100.809          51.000    22130068.562 8  89108761.212 8      -843.489          51.000
E30  23900429.461 8 125597598.078 8      2529.434          51.000    23900431.773 8  96237128.536 8      1938.179          51.000
> 2020 05 18 01 47  0.0000000  0 14        .000000000000
G02  23413100.172 7 123036691.557 7     -2231.633          43.000    23413099.328 7  95872722.293 7     -1738.932          43.000
G07  21039065.992 8 110561041.076 8     -1132.195          51.000    21039064.367 8  86151454.260 8      -882.230          51.000
G30  20537396.594 8 107924751.291 8       996.812          51.000    20537398.312 8  84097244.326 8       776.737          51.000
R02  19549250.000 8 104318586.464 8      -886.180          51.000    19549252.828 8  81136647.160 8      -689.254          50.000
R12  19599647.406 8 104697926.853 8      -776.254          51.000    19599650.562 8  81431709.618 8      -603.750          51.000
R13  20657252.531 5 110308591.122 5      3407.121          35.000    20657256.664 7  85795555.990 7      2649.980          42.000
C05  39810693.672 6 207304727.531 6        -7.648          36.000    39810690.438 6 160301155.600 6        -6.071          40.000
C21  21692569.805 8 112958924.636 8       149.152          51.000
C22  23906736.477 8 124488644.795 8     -2445.953          48.000
C26  23983927.469 6 124890670.242 6      3113.766          36.000
E02                                                                  24536397.812 8  98797905.458 8       -74.262          51.000
E07                                                                  23977171.805 5  96546115.919 5       887.257          35.000
E08  22136381.359 8 116327471.211 8     -1109.160          51.000    22136381.578 8  89134181.501 8      -849.915          51.000
E30  23886027.391 8 125521909.553 8      2518.238          51.000    23886028.125 8  96179133.451 8      1929.526          50.000
> 2020 05 18 01 47 30.0000000  0 16        .000000000000
G02  23425864.867 7 123103772.698 7     -2236.992          43.000    23425863.852 7  95924993.385 7     -1743.108          42.000
G06  24561903.727 4 129073637.901 4     -3508.945          28.000    24561902.578 4 100576884.751 4     -2734.243          28.000
G07  21045563.336 8 110595184.999 8     -1140.660          51.000    21045561.742 8  86178059.911 8      -888.826          51.000
G09  22658632.203 5 119071849.175 5     -2562.039          30.000
G30  20531748.328 8 107895068.218 8       985.449          51.000    20531749.727 8  84074114.669 8       767.883          51.000
R02  19554272.594 8 104345388.172 8      -897.059          51.000    19554275.680 8  81157492.910 8      -697.712          50.000
R12  19604077.086 8 104721589.153 8      -797.727          51.000    19604080.453 8  81450113.624 8      -620.454          51.000
R13  20638157.414 6 110206618.606 6      3394.551          38.000    20638160.914 7  85716244.006 7      2640.206          44.000
C05  39810734.945 6 207304943.045 6        -3.316          36.000    39810731.648 6 160301321.453 6        -2.410          40.000
C21  21691741.656 8 112954612.156 8       141.746          51.000
C22  23920846.469 8 124562123.059 8     -2449.184          49.000
C26  23966007.961 5 124797346.867 5      3111.156          32.000
E02                                                                  24536990.352 8  98800291.202 8       -82.161          51.000
E07                                                                  23970569.219 5  96519539.837 5       886.763          34.000
E08  22142726.688 8 116360817.437 8     -1110.547          51.000    22142727.148 8  89159732.501 8      -850.953          51.000
E30  23871673.891 8 125446479.197 8      2513.758          51.000    23871673.797 8  96121336.153 8      1926.159          50.000
> 2020 05 18 01 48  0.0000000  0 13        .000000000000
G02  23438693.031 7 123171186.361 7     -2250.758          45.000    23438691.172 7  95977523.497 7     -1753.837          43.000
G07  21052141.664 8 110629754.565 8     -1157.406          51.000    21052140.211 8  86204997.223 8      -901.875          51.000
G30  20526196.867 8 107865894.327 8       966.074          51.000    20526197.922 8  84051381.761 8       752.782          51.000
R02  19559388.125 8 104372685.900 8      -916.191          51.000    19559390.836 8  81178724.475 8      -712.593          49.000
R12  19608659.758 8 104746069.100 8      -827.566          51.000    19608662.992 8  81469153.576 8      -643.663          51.000
R13  20619165.945 6 110105200.702 6      3373.242          38.000    20619169.133 7  85637363.408 7      2623.633          44.000
C05  39810781.234 6 207305183.871 6        -7.328          36.000    39810777.898 6 160301507.651 6        -4.815          40.000
C21  21690988.289 8 112950688.100 8       126.254          51.000
C22  23935008.242 8 124635867.150 8     -2460.594          51.000
E02                                                                  24537673.758 8  98803042.948 8       -96.234          50.000
E07                                                                  23964000.117 5  96493100.601 5       880.624          33.000
E08  22149112.281 8 116394374.266 8     -1120.086          51.000    22149112.617 8  89185444.875 8      -858.197          51.000
E30  23857376.570 8 125371348.428 8      2501.293          50.000    23857376.695 8  96063768.399 8      1916.659          51.000
> 2020 05 18 01 48 30.0000000  0 16        .000000000000
G02  23451561.242 7 123238809.977 7     -2256.172          46.000    23451558.992 7  96030217.185 7     -1758.056          43.000
G06  24602011.422 4 129284438.512 4     -3508.516          29.000
G07  21058777.805 8 110664628.189 8     -1166.027          51.000    21058776.656 8  86232171.467 8      -908.593          51.000
G09  22687996.000 5 119226167.974 5     -2572.285          35.000    22687984.594 5  92903513.319 5     -2004.375          32.000
G30  20520719.469 8 107837109.829 8       954.441          51.000    20520720.312 8  84028952.276 8       743.721          51.000
R02  19564573.797 8 104400358.288 8      -927.137          51.000    19564576.320 8  81200247.447 8      -721.106          50.000
R12  19613372.336 8 104771242.896 8      -849.117          51.000    19613375.516 8  81488733.195 8      -660.424          50.000
R13  20600255.445 6 110004219.942 6      3360.227          37.000    20600259.086 7  85558822.815 7      2613.510          44.000
C05  39810809.617 6 207305332.024 6        -2.000          37.000    39810806.352 6 160301622.246 6        -1.444          40.000
C21  21690286.664 8 112947034.336 8       118.730          51.000
C22  23949198.531 8 124709757.538 8     -2464.031          51.000
C26  23930266.734 5 124611165.423 5      3098.219          32.000
E02                                                                  24538425.102 8  98806068.516 8      -104.307          50.000
E07                                                                  23957443.016 5  96466706.757 5       880.370          33.000
E08  22155515.320 8 116428021.799 8     -1121.645          51.000    22155515.602 8  89211226.743 8      -859.424          51.000
E30  23843113.648 8 125296398.918 8      2496.727          50.000    23843114.453 8  96006339.532 8      1913.091          51.000
> 2020 05 18 01 49  0.0000000  0 15        .000000000000
G02  23464512.867 7 123306871.220 7     -2272.648          46.000    23464511.312 7  96083251.908 7     -1770.895          43.000
G07  21065515.383 8 110700034.901 8     -1185.668          51.000    21065514.484 8  86259761.109 8      -923.897          51.000
G30  20515359.953 8 107808945.533 8       931.906          51.000    20515360.820 8  84007006.069 8       726.158          51.000
R02  19569873.781 8 104428640.293 8      -949.441          51.000    19569876.672 8  81222244.526 8      -738.454          50.000
R11  22769374.062 5 121672576.985 5     -3862.203          30.000
R12  19618258.297 8 104797343.584 8      -881.992          51.000    19618261.336 8  81509033.732 8      -685.991          50.000
R13  20581470.891 6 109903913.054 6      3335.586          37.000    20581475.039 7  85480806.346 7      2594.345          42.000
C05  39810864.148 6 207305616.122 6        -8.730          36.000    39810860.898 6 160301841.941 6        -6.437          40.000
C21  21689681.016 8 112943880.293 8       100.164          51.000
C22  23963460.859 8 124784022.189 8     -2478.387          51.000
C26  23912484.039 6 124518551.087 6      3084.496          37.000
E02  24539289.633 6 128954822.899 6      -157.805          36.000    24539288.336 8  98809544.449 8      -120.709          50.000
E07                                                                  23950941.922 5  96440535.508 5       870.989          32.000
E08  22161979.609 8 116461990.987 8     -1134.273          51.000    22161979.969 8  89237255.064 8      -869.095          51.000
E30  23828929.680 8 125221863.024 8      2481.020          50.000    23828931.359 8  95949227.612 8      1901.041          51.000
> 2020 05 18 01 49 30.0000000  0 16        .000000000000
G02  23477500.242 7 123375119.102 7     -2275.766          47.000    23477499.719 7  96136432.086 7     -1773.324          43.000
G07  21072306.930 8 110735724.713 8     -1192.289          51.000    21072306.109 8  86287571.344 8      -929.056          51.000
G09  22717483.117 5 119381149.934 5     -2584.008          34.000    22717486.359 5  93024285.814 5     -2013.510          32.000
G30  20510071.078 8 107781152.790 8       922.277          51.000    20510071.633 8  83985349.366 8       718.658          51.000
R02  19575241.055 8 104457279.944 8      -958.582          51.000    19575243.555 8  81244519.800 8      -745.564          49.000
R11  22791090.844 5 121788558.649 5     -3866.676          34.000    22791089.031 4  94724524.862 4     -3007.411          24.000
R12  19623270.148 8 104824116.136 8      -901.520          51.000    19623273.203 8  81529856.836 8      -701.182          49.000
R13  20562766.227 6 109804031.334 6      3324.203          37.000    20562770.328 7  85403120.571 7      2585.491          42.000
C05  39810897.523 6 207305789.721 6        -2.012          37.000    39810894.266 6 160301976.190 6        -1.571          40.000
C21  21689124.195 8 112940980.265 8        94.477          51.000
C22  23977747.602 8 124858413.860 8     -2479.777          51.000
C26  23894721.422 6 124426042.636 6      3083.773          41.000
E02                                                                  24540215.742 8  98813279.909 8      -127.273          49.000
E07                                                                  23944449.852 5  96414376.684 5       872.267          33.000
E08  22168457.797 8 116496033.194 8     -1133.945          51.000    22168457.945 8  89263339.352 8      -868.867          51.000
E30  23814777.375 8 125147493.618 8      2478.188          50.000    23814779.938 8  95892243.285 8      1898.865          51.000
> 2020 05 18 01 50  0.0000000  0 15        .000000000000
G02  23490541.055 8 123443646.520 8     -2290.836          49.000    23490541.133 7  96189830.072 7     -1785.064          43.000
G07  21079170.344 8 110771791.818 8     -1210.367          51.000    21079169.398 8  86315675.572 8      -943.143          51.000
G30  20504871.133 8 107753827.393 8       901.188          51.000    20504871.352 8  83964056.857 8       702.227          51.000
R02  19580693.484 8 104486374.856 8      -979.348          51.000    19580695.922 8  81267149.148 8      -761.715          50.000
R11  22812846.875 6 121904807.493 6     -3882.008          36.000
R12  19628425.766 8 104851656.126 8      -932.703          51.000    19628428.633 8  81551276.833 8      -725.436          48.000
R13  20544160.523 6 109704675.050 6      3301.137          39.000    20544164.172 6  85325843.505 6      2567.554          41.000
C05  39810927.789 6 207305947.589 6        -6.797          36.000    39810924.578 6 160302098.258 6        -5.238          40.000
C21  21688634.445 8 112938429.985 8        77.328          51.000
C22  23992076.445 8 124933026.819 8     -2492.559          51.000
C26  23876997.484 7 124333736.610 7      3071.719          44.000
E02  24541230.484 6 128965025.060 6      -186.012          36.000    24541226.094 8  98817347.997 8      -142.484          49.000
E07  23937997.203 6 125795022.114 6      1128.449          37.000    23937985.234 5  96388344.146 5       864.671          35.000
E08  22174968.023 8 116530244.368 8     -1144.984          51.000    22174968.047 8  89289553.085 8      -877.311          51.000
E30  23800675.508 8 125073388.104 8      2463.883          51.000    23800678.445 8  95835461.171 8      1888.000          51.000
> 2020 05 18 01 50 30.0000000  0 15        .000000000000
G02  23503647.484 8 123512519.533 8     -2300.816          49.000    23503647.430 7  96243497.319 7     -1792.844          43.000
G07  21086118.328 8 110808303.370 8     -1223.645          51.000    21086117.211 8  86344126.132 8      -953.489          51.000
G30  20499773.281 8 107727038.156 8       884.781          51.000    20499773.719 8  83943182.167 8       689.443          51.000
R02  19586244.539 8 104515995.480 8      -995.332          51.000    19586246.977 8  81290187.401 8      -774.147          50.000
R11  22834668.539 6 122021413.324 6     -3891.844          38.000
R12  19633737.672 8 104880031.629 8      -959.039          51.000    19633740.461 7  81573346.679 7      -745.919          47.000
R13  20525666.852 6 109605916.899 6      3282.816          40.000    20525669.445 6  85249031.638 6      2553.305          40.000
C05  39810968.195 6 207306157.906 6        -7.148          36.000    39810965.000 6 160302260.871 6        -5.464          40.000
C21  21688225.070 8 112936298.224 8        64.891          51.000
C22  24006459.758 8 125007928.450 8     -2500.688          48.000
C26  23859325.109 7 124241702.768 7      3063.984          44.000
E02  24542337.414 6 128970836.970 6      -201.180          37.000    24542332.781 8  98821801.135 8      -154.139          48.000
E07  23931569.234 5 125761255.335 5      1122.738          34.000    23931560.086 5  96362470.933 5       860.600          34.000
E08  22181523.648 8 116564693.301 8     -1151.449          51.000    22181523.680 8  89315948.998 8      -882.243          51.000
E30  23786637.562 8 124999616.825 8      2454.320          51.000    23786640.586 8  95778935.162 8      1880.568          51.000
> 2020 05 18 01 51  0.0000000  0 16        .000000000000
G02  23516807.758 8 123581676.854 8     -2309.754          48.000    23516806.516 6  96297386.081 6     -1799.808          41.000
G07  21093139.422 8 110845198.905 8     -1235.953          50.000    21093138.172 8  86372875.898 8      -963.077          50.000
G09  22761945.016 5 119614862.418 5     -2604.582          31.000
G30  20494766.281 8 107700726.353 8       869.332          51.000    20494766.906 8  83922679.483 8       677.402          51.000
R02  19591882.828 8 104546082.416 8     -1010.461          51.000    19591885.648 8  81313588.317 8      -785.914          50.000
R11  22856544.969 6 122138312.484 6     -3901.105          39.000
R12  19639194.469 8 104909180.793 8      -984.250          51.000    19639197.125 7  81596018.267 7      -765.528          46.000
R13  20507274.531 6 109507700.541 6      3265.191          40.000    20507275.727 6  85172641.186 6      2539.596          39.000
C05  39811007.414 6 207306362.281 6        -6.676          36.000    39811004.234 6 160302418.928 6        -5.102          40.000
C21  21687885.133 8 112934527.572 8        53.219          51.000
C22  24020887.117 8 125083059.816 8     -2507.973          49.000
C26  23841692.602 7 124149884.480 7      3057.223          44.000
E02                                                                  24543522.531 7  98826593.968 7      -165.210          45.000
E07                                                                  23925163.555 5  96336712.444 5       857.206          35.000
E08  22188113.320 8 116599321.388 8     -1156.945          51.000    22188113.375 8  89342482.203 8      -886.512          51.000
E30  23772652.688 8 124926122.632 8      2445.383          51.000    23772655.406 8  95722621.449 8      1873.804          51.000
> 2020 05 18 01 51 30.0000000  0 15        .000000000000
G02  23530024.086 7 123651130.654 7     -2315.789          46.000    23530020.844 6  96351505.863 6     -1804.514          40.000
G07  21100236.039 8 110882492.067 8     -1245.324          50.000    21100234.922 8  86401935.519 8      -970.379          50.000
G30  20489853.039 8 107674907.024 8       856.828          51.000    20489853.664 8  83902560.538 8       667.658          51.000
R02  19597611.742 8 104576652.163 8     -1022.574          51.000    19597614.273 8  81337364.770 8      -795.336          49.000
R11  22878478.172 6 122255516.634 6     -3907.316          39.000
R12  19644798.586 8 104939117.020 8     -1006.559          51.000    19644801.070 7  81619302.001 7      -782.879          47.000
R13  20488986.797 6 109410045.062 6      3249.910          39.000    20488987.555 6  85096686.955 6      2527.708          39.000
C05  39811048.477 6 207306576.224 6        -2.887          36.000    39811045.227 6 160302583.977 6        -2.513          40.000
C21  21687617.633 8 112933133.650 8        44.504          51.000
C22  24035362.312 8 125158435.108 8     -2512.223          51.000
C26  23824104.008 7 124058298.221 7      3053.316          46.000
E02  24544800.766 6 128983804.125 6      -227.090          39.000    24544799.414 7  98831737.746 7      -174.079          44.000
E07                                                                  23918799.117 6  96311080.668 6       855.626          36.000
E08  22194739.609 8 116634143.863 8     -1159.590          51.000    22194740.250 8  89369164.338 8      -888.565          51.000
E30  23758723.812 8 124852922.200 8      2439.492          51.000    23758726.164 8  95666532.799 8      1869.161          51.000
> 2020 05 18 01 52  0.0000000  0 16        .000000000000
G02  23543289.789 7 123720844.532 7     -2328.938          46.000    23543285.555 6  96405828.335 6     -1814.756          41.000
G07  21107401.758 8 110920148.076 8     -1261.969          51.000    21107400.789 8  86431277.867 8      -983.352          51.000
G09  22791753.375 5 119771465.695 5     -2614.754          30.000
G30  20485027.305 8 107649546.765 8       836.789          51.000    20485027.898 8  83882799.304 8       652.043          51.000
R02  19603424.727 8 104607670.801 8     -1042.234          51.000    19603427.445 8  81361490.363 8      -810.627          50.000
R11  22900460.664 6 122372987.505 6     -3920.898          39.000
R12  19650543.086 8 104969803.904 8     -1036.199          51.000    19650546.242 7  81643169.606 7      -805.933          46.000
R13  20470798.109 6 109312919.043 6      3227.875          39.000    20470799.234 6  85021144.509 6      2510.569          41.000
C05  39811084.852 6 207306764.964 6        -6.410          36.000    39811081.578 6 160302730.310 6        -5.156          40.000
C21  21687416.008 8 112932084.125 8        28.523          51.000
C22  24049878.531 8 125234020.510 8     -2523.730          51.000
C26  23806554.438 8 123966912.448 8      3042.102          48.000
E02  24546160.906 6 128990941.479 6      -245.836          37.000    24546158.406 7  98837206.543 7      -188.218          43.000
E07                                                                  23912460.398 6  96285550.358 6       848.840          36.000
E08  22201396.523 8 116669127.363 8     -1169.590          51.000    22201398.016 8  89395969.865 8      -896.089          51.000
E30  23744844.477 8 124779983.616 8      2426.090          51.000    23744846.586 8  95610644.763 8      1859.000          51.000
> 2020 05 18 01 52 30.0000000  0 16        .000000000000
G02  23556611.328 7 123790850.655 7     -2337.977          47.000    23556607.086 7  96460378.572 7     -1821.800          42.000
G07  21114642.812 8 110958199.924 8     -1274.418          51.000    21114641.859 8  86460928.653 8      -993.056          51.000
G28  23836846.906 6 125263481.137 6      3324.664          36.000
G30  20480295.289 8 107624680.216 8       821.227          51.000    20480295.969 8  83863422.781 8       639.917          51.000
R02  19609328.414 8 104639173.767 8     -1057.742          51.000    19609331.414 8  81385992.644 8      -822.688          49.000
R11  22922499.055 6 122490756.665 6     -3930.008          39.000
R12  19656434.492 8 105001274.939 8     -1061.570          51.000    19656437.547 7  81667647.078 7      -825.666          46.000
R13  20452715.875 6 109216361.309 6      3209.789          38.000    20452717.359 7  84946044.034 7      2496.500          42.000
C05  39811123.125 6 207306964.279 6        -5.926          36.000    39811119.773 6 160302884.429 6        -4.658          40.000
C21  21687287.156 8 112931414.005 8        16.543          51.000
C22  24064441.531 8 125309849.659 8     -2531.156          51.000
C26  23789050.281 8 123875763.047 8      3034.879          48.000
E02  24547602.789 6 128998537.063 6      -260.398          40.000    24547603.312 7  98843026.560 7      -199.451          43.000
E07                                                                  23906152.812 5  96260148.513 5       845.416          35.000
E08  22208090.742 8 116704306.708 8     -1175.395          51.000    22208092.500 8  89422925.476 8      -900.594          51.000
E30  23731021.383 8 124707343.094 8      2416.938          51.000    23731023.758 8  95554985.129 8      1851.960          51.000
> 2020 05 18 01 53  0.0000000  0 17        .000000000000
G02  23569986.047 8 123861134.801 8     -2346.562          48.000    23569982.172 7  96515145.450 7     -1828.490          43.000
G07  21121956.586 8 110996634.340 8     -1286.574          50.000    21121955.516 8  86490877.545 8     -1002.525          50.000
G09  22821675.008 5 119928701.280 5     -2624.660          32.000    22821661.844 5  93450890.823 5     -2045.190          31.000
G28  23817876.227 6 125163788.172 6      3322.809          36.000
G30  20475655.125 8 107600295.800 8       805.617          51.000    20475655.625 8  83844421.941 8       627.754          51.000
R02  19615320.914 8 104671149.926 8     -1072.953          51.000    19615323.469 8  81410862.981 8      -834.519          49.000
R11  22944590.844 6 122608808.352 6     -3938.797          40.000
R12  19662470.148 8 105033516.282 8     -1086.625          51.000    19662473.000 7  81692723.698 7      -845.153          46.000
R13  20434738.195 6 109120362.817 6      3191.492          37.000    20434739.938 7  84871378.504 7      2482.269          43.000
C05  39811161.203 6 207307162.211 6        -5.629          36.000    39811157.789 6 160303037.475 6        -4.316          40.000
C21  21687229.242 8 112931112.599 8         4.699          51.000
C22  24079048.547 8 125385910.331 8     -2538.359          49.000
C26  23771589.352 7 123784840.195 7      3027.773          47.000
E02  24549132.641 7 129006579.217 7      -274.746          43.000    24549133.680 7  98849188.661 7      -210.373          43.000
E07                                                                  23899872.164 5  96234880.732 5       841.474          30.000
E08  22214820.023 8 116739670.477 8     -1181.012          51.000    22214821.602 8  89450022.398 8      -904.982          51.000
E30  23717252.781 8 124634990.665 8      2407.777          51.000    23717255.930 8  95499546.255 8      1844.887          51.000
> 2020 05 18 01 53 30.0000000  0 16        .000000000000
G02  23583416.547 7 123931711.054 7     -2344.250          47.000    23583413.078 7  96570139.907 7     -1826.691          44.000
G07  21129346.117 8 111035466.753 8     -1287.812          50.000    21129344.930 8  86521136.554 8     -1003.490          50.000
G09  22836684.578 5 120007565.358 5     -2618.445          30.000
G28  23798922.312 6 125064191.812 6      3331.445          37.000
G30  20471109.953 8 107576410.209 8       801.102          51.000    20471110.344 8  83825809.786 8       624.235          51.000
R02  19621405.336 8 104703617.434 8     -1076.945          51.000    19621407.688 8  81436115.480 8      -837.624          50.000
R11  22966738.477 6 122727155.620 6     -3936.488          38.000
R12  19668652.656 8 105066542.604 8     -1100.484          51.000    19668655.680 7  81718410.851 7      -855.929          46.000
R13  20416869.234 6 109024944.514 6      3183.938          37.000    20416871.484 7  84797164.246 7      2476.393          44.000
C05  39811202.062 6 207307375.360 6         5.621          36.000    39811198.773 6 160303202.295 6         4.516          40.000
C21  21687245.430 8 112931197.223 8         3.883          51.000
C22  24093701.414 7 125462218.348 7     -2534.566          46.000
C26  23754174.641 7 123694162.099 7      3031.516          46.000
E02  24550750.703 6 129015084.041 6      -277.863          40.000    24550751.992 7  98855705.346 7      -213.013          43.000
E08  22221587.820 8 116775235.528 8     -1175.645          51.000    22221589.203 8  89477273.531 8      -900.696          51.000
E30  23703542.344 8 124562944.652 8      2409.664          51.000    23703546.305 8  95444342.179 8      1846.468          51.000
> 2020 05 18 01 54  0.0000000  0 15        .000000000000
G02  23596899.906 7 124002566.139 7     -2371.930          47.000    23596896.898 7  96625351.623 7     -1848.257          45.000
G07  21136809.086 8 111074685.162 8     -1319.242          49.000    21136807.922 8  86551696.346 8     -1027.981          49.000
G28  23779985.695 6 124964683.723 6      3309.941          38.000
G30  20466657.578 8 107553012.933 8       766.273          51.000    20466658.156 8  83807578.153 8       597.096          51.000
R02  19627579.492 8 104736565.100 8     -1111.898          51.000    19627581.984 8  81461741.424 8      -864.810          50.000
R11  22988939.148 6 122845784.141 6     -3964.586          36.000
R12  19674979.961 8 105100341.335 8     -1145.125          51.000    19674983.188 7  81744698.757 7      -890.653          47.000
R13  20399107.359 6 108930098.164 6      3146.414          38.000    20399110.133 7  84723394.855 7      2447.211          44.000
C05  39811243.891 6 207307593.287 6       -12.613          37.000    39811240.609 6 160303370.844 6        -9.923          40.000
C21  21687333.789 8 112931658.276 8       -27.129          51.000
C22  24108398.828 7 125538762.601 7     -2560.977          45.000
C26  23736804.766 7 123603719.940 7      3005.340          47.000
E02  24552455.156 7 129024040.661 7      -311.582          42.000    24552456.039 7  98862568.229 7      -238.837          44.000
E08  22228391.945 8 116810991.564 8     -1200.633          51.000    22228393.344 8  89504670.994 8      -919.912          51.000
E30  23689889.008 8 124491196.170 8      2381.094          51.000    23689893.047 8  95389366.083 8      1824.480          51.000
> 2020 05 18 01 54 30.0000000  0 15        .000000000000
G02  23610431.172 8 124073673.605 8     -2373.273          48.000    23610428.641 7  96680760.008 7     -1849.304          45.000
G07  21144340.570 8 111114264.062 8     -1324.035          50.000    21144339.469 8  86582537.065 8     -1031.716          50.000
G28  23761062.789 6 124865243.295 6      3314.570          40.000    23761064.516 5  97297586.182 5      2582.782          30.000
G30  20462293.570 8 107530080.348 8       757.824          51.000    20462294.164 8  83789708.597 8       590.512          51.000
R02  19633839.312 8 104769969.808 8     -1119.852          51.000    19633841.836 8  81487722.849 8      -870.999          50.000
R11  23011186.977 5 122964665.816 5     -3965.891          34.000
R12  19681446.930 8 105134886.187 8     -1162.688          51.000    19681450.461 7  81771567.002 7      -904.312          46.000
R13  20381448.891 6 108835803.497 6      3135.328          39.000    20381451.906 7  84650054.572 7      2438.589          43.000
C05  39811282.141 6 207307792.633 6        -5.148          36.000    39811278.961 6 160303524.981 6        -3.915          40.000
C21  21687490.031 8 112932473.027 8       -31.828          51.000
C22  24123138.992 8 125615519.070 8     -2560.855          48.000
C26  23719475.914 7 123513491.932 7      3005.316          47.000
E02  24554240.945 7 129033425.095 7      -318.797          43.000    24554241.797 7  98869758.871 7      -244.210          45.000
E08  22235227.852 8 116846915.143 8     -1199.121          51.000    22235229.203 8  89532196.837 8      -918.774          51.000
E30  23676288.477 8 124419723.205 8      2379.051          51.000    23676291.789 8  95334601.089 8      1822.870          51.000
> 2020 05 18 01 55  0.0000000  0 17        .000000000000
G02  23624003.250 8 124144995.270 8     -2383.906          48.000    23624001.086 7  96736335.349 7     -1857.589          46.000
G07  21151933.797 8 111154166.778 8     -1338.594          49.000    21151932.547 8  86613630.074 8     -1043.060          49.000
G09  22881876.312 5 120245054.916 5     -2647.039          35.000
G28  23742146.594 7 124765838.136 7      3309.785          42.000    23742138.398 4  97220093.488 4      2579.053          28.000
G30  20458011.273 8 107507576.970 8       739.973          51.000    20458012.016 8  83772173.493 8       576.602          51.000
R02  19640178.156 8 104803795.849 8     -1137.648          51.000    19640180.727 8  81514031.996 8      -884.838          50.000
R11  23033474.453 4 123083760.844 4     -3976.742          29.000
R12  19688046.477 8 105170138.934 8     -1189.980          50.000    19688049.625 7  81798985.801 7      -925.537          46.000
R13  20363887.781 6 108742027.256 6      3114.117          41.000    20363890.109 6  84577117.508 6      2422.091          41.000
C05  39811310.164 6 207307938.299 6        -7.574          36.000    39811306.969 6 160303637.611 6        -5.497          40.000
C21  21687707.602 8 112933607.145 8       -46.188          51.000
C22  24137914.094 8 125692451.979 8     -2570.395          51.000
C26  23702181.805 7 123423444.558 7      2995.602          46.000
E02  24556101.000 6 129043201.411 6      -335.340          40.000    24556102.430 7  98877249.836 7      -257.041          46.000
E07  23875062.500 6 125464297.699 6      1075.289          38.000
E08  22242089.320 8 116882971.006 8     -1207.160          51.000    22242090.195 8  89559824.044 8      -925.003          51.000
E30  23662733.836 8 124348491.948 8      2367.230          51.000    23662736.203 8  95280021.293 8      1813.840          51.000
> 2020 05 18 01 55 30.0000000  0 15        .000000000000
G02  23637634.594 8 124216628.336 8     -2391.867          48.000    23637632.852 7  96792153.337 7     -1863.790          46.000
G07  21159607.383 8 111194491.819 8     -1350.152          48.000    21159606.148 8  86645052.198 8     -1052.064          48.000
G28  23723256.812 7 124666570.872 7      3307.742          43.000    23723250.414 5  97142742.361 5      2577.461          32.000
G30  20453829.586 8 107485602.575 8       724.652          51.000    20453830.633 8  83755050.597 8       564.664          51.000
R02  19646615.117 8 104838145.883 8     -1152.609          51.000    19646618.047 8  81540748.694 8      -896.474          51.000
R12  19694796.859 8 105206198.758 8     -1214.324          51.000    19694800.250 7  81827032.359 7      -944.477          47.000
R13  20346443.320 6 108648874.526 6      3095.660          40.000    20346445.406 7  84504665.411 7      2407.736          43.000
C05  39811346.859 6 207308129.160 6        -6.168          37.000    39811343.602 6 160303785.197 6        -4.549          40.000
C21  21688005.688 8 112935160.287 8       -57.715          51.000
C22  24152742.039 8 125769659.533 8     -2577.125          51.000
C26  23684941.898 7 123333678.382 7      2988.469          47.000
E02  24558055.453 6 129053469.003 6      -349.312          40.000    24558056.617 7  98885117.266 7      -267.763          45.000
E07  23868940.188 6 125432095.234 6      1071.340          40.000    23868935.391 5  96110313.609 5       820.879          33.000
E08  22248995.164 8 116919259.179 8     -1212.355          51.000    22248995.422 8  89587629.271 8      -929.011          51.000
E30  23649244.008 8 124277603.778 8      2358.324          51.000    23649245.859 8  95225704.421 8      1806.962          50.000
> 2020 05 18 01 56  0.0000000  0 17        .000000000000
G02  23651308.258 8 124288483.384 8     -2400.371          48.000    23651306.844 7  96848144.282 7     -1870.419          47.000
G05  20831947.984 5 109472626.828 5      1318.453          34.000
G07  21167344.469 8 111235150.441 8     -1362.305          50.000    21167343.445 8  86676734.266 8     -1061.536          50.000
G09  22912126.398 5 120404025.820 5     -2656.184          34.000    22912128.516 5  93821322.270 5     -2069.753          33.000
G28  23704377.164 7 124567357.868 7      3304.762          42.000    23704371.453 5  97065433.563 5      2575.145          30.000
G30  20449732.055 8 107464070.200 8       708.938          51.000    20449733.070 8  83738272.114 8       552.419          51.000
R02  19653133.781 8 104872931.985 8     -1168.301          51.000    19653136.992 8  81567804.555 8      -908.678          51.000
R12  19701681.109 8 105242975.116 8     -1239.359          50.000    19701684.438 7  81855636.199 7      -963.946          47.000
R13  20329098.867 6 108556259.634 6      3076.973          36.000    20329101.906 7  84432631.639 7      2393.201          44.000
C05  39811375.727 6 207308280.232 6        -6.207          36.000    39811372.430 6 160303901.236 6        -4.564          40.000
C21  21688367.820 8 112937047.119 8       -69.961          51.000
C22  24167606.055 8 125847054.817 8     -2584.469          51.000
C26  23667740.672 8 123244108.838 8      2980.977          49.000
E02  24560086.578 6 129064140.533 6      -363.930          38.000    24560086.938 7  98893294.146 7      -278.891          45.000
E07  23862839.688 6 125400013.366 6      1065.629          39.000    23862829.461 5  96085731.448 5       816.847          34.000
E08  22255928.430 8 116955692.930 8     -1218.395          51.000    22255928.078 8  89615546.039 8      -933.584          51.000
E30  23635803.016 8 124206973.353 8      2348.445          50.000    23635805.141 8  95171585.054 8      1799.455          50.000
> 2020 05 18 01 56 30.0000000  0 17        .000000000000
G02  23665032.484 8 124360579.833 8     -2406.926          48.000
G05  20824445.773 6 109433201.710 6      1304.227          36.000    20824433.422 5  85272572.276 5      1016.280          34.000
G07  21175153.406 8 111276185.920 8     -1372.660          50.000    21175152.180 8  86708709.953 8     -1069.605          50.000
G28  23685516.602 7 124468246.629 7      3303.559          42.000    23685511.016 5  96988204.078 5      2574.202          33.000
G30  20445727.312 8 107443024.528 8       694.859          51.000    20445728.383 8  83721872.890 8       541.449          51.000
R02  19659742.805 8 104908199.475 8     -1182.133          51.000    19659745.984 8  81595234.840 8      -919.440          50.000
R11  23100642.070 5 123442763.410 5     -3998.445          30.000    23100648.461 4  96011111.974 4     -3109.902          25.000
R12  19708708.148 8 105280511.491 8     -1262.246          50.000    19708711.711 7  81884831.158 7      -981.747          47.000
R13  20311863.219 5 108464230.908 5      3059.082          33.000    20311867.711 7  84361053.747 7      2379.286          44.000
C05  39811405.211 6 207308433.714 6        -3.359          36.000    39811401.906 6 160304019.979 6        -2.909          40.000
C21  21688803.008 8 112939312.670 8       -80.367          51.000
C22  24182514.180 8 125924681.545 8     -2590.020          51.000
C26  23650587.164 8 123154781.887 8      2974.906          50.000
E02  24562203.031 6 129075260.227 6      -376.625          37.000    24562202.672 7  98901814.456 7      -288.634          45.000
E07  23856769.414 5 125368097.411 5      1062.465          34.000    23856753.617 5  96061276.420 5       814.049          34.000
E08  22262897.727 8 116992317.191 8     -1222.531          50.000    22262897.484 8  89643608.793 8      -936.766          51.000
E30  23622419.914 8 124136647.030 8      2340.535          50.000    23622423.000 8  95117698.682 8      1793.403          51.000
> 2020 05 18 01 57  0.0000000  0 17        .000000000000
G02  23678808.812 8 124432976.784 8     -2417.203          48.000    23678806.383 7  96960755.452 7     -1883.535          47.000
G05  20817064.453 5 109394414.080 5      1285.359          32.000    20817060.797 5  85242382.277 5      1001.579          32.000
G07  21183037.094 8 111317614.231 8     -1386.832          49.000    21183035.250 8  86740991.748 8     -1080.645          49.000
G28  23666679.398 6 124369257.873 6      3298.152          41.000    23666674.070 4  96911070.000 4      2569.995          28.000
G30  20441818.461 8 107422483.038 8       677.039          51.000    20441819.641 8  83705866.556 8       527.563          51.000
R02  19666445.625 8 104943966.920 8     -1199.949          51.000    19666449.172 8  81623053.964 8      -933.294          50.000
R11  23123127.906 5 123562923.545 5     -4008.695          32.000    23123134.312 4  96104570.807 4     -3117.877          26.000
R12  19715880.023 8 105318822.944 8     -1289.230          49.000    19715883.711 7  81914628.967 7     -1002.735          47.000
R13  20294741.977 5 108372809.253 5      3038.184          35.000    20294746.828 7  84289947.924 7      2363.029          44.000
C05  39811438.641 6 207308608.231 6        -5.504          37.000    39811435.320 6 160304154.911 6        -4.377          40.000
C21  21689314.406 8 112941975.173 8       -94.695          51.000
C22  24197469.344 8 126002556.345 8     -2599.309          50.000
C26  23633484.547 8 123065716.581 8      2965.074          51.000
E02  24564408.570 5 129086845.335 5      -393.688          34.000    24564407.688 7  98910691.324 7      -301.229          45.000
E07                                                                  23850712.914 5  96036962.441 5       808.619          34.000
E08  22269906.867 8 117029149.707 8     -1230.555          50.000    22269907.125 8  89671831.100 8      -942.899          51.000
E30  23609098.398 8 124066643.997 8      2328.742          49.000    23609102.367 8  95064059.996 8      1784.343          51.000
> 2020 05 18 01 57 30.0000000  0 17        .000000000000
G02  23692649.484 8 124505711.260 8     -2424.965          48.000    23692646.359 7  97017431.671 7     -1889.583          45.000
G05  20809797.211 5 109356217.459 5      1268.289          33.000    20809792.266 5  85212604.131 5       988.274          32.000
G07  21191006.719 8 111359494.793 8     -1398.531          49.000    21191004.867 8  86773625.964 8     -1089.762          49.000
G28  23647877.656 6 124270455.295 6      3295.383          39.000    23647872.555 5  96834081.020 5      2567.843          34.000
G30  20438017.117 8 107402506.518 8       661.500          51.000    20438017.930 8  83690300.431 8       515.455          51.000
R02  19673253.805 8 104980296.228 8     -1215.207          51.000    19673257.391 8  81651310.095 8      -945.161          49.000
R11  23145675.914 5 123683416.438 5     -4016.332          33.000
R12  19723208.531 8 105357969.375 8     -1313.664          49.000    19723211.570 7  81945076.177 7     -1021.739          47.000
R13  20277748.266 6 108282060.229 6      3018.863          38.000    20277752.023 7  84219365.307 7      2348.002          44.000
C05  39811487.719 6 207308862.967 6        -4.883          36.000    39811484.367 6 160304352.670 6        -3.788          40.000
C21  21689913.859 8 112945095.576 8      -106.684          51.000
C22  24212483.422 8 126080738.773 8     -2606.176          49.000
C26  23616443.711 8 122976974.804 8      2957.609          50.000
E02                                                                  24566712.336 7  98919970.997 7      -312.246          45.000
E07                                                                  23844719.773 5  96012836.727 5       804.791          34.000
E08  22276967.195 8 117066251.561 8     -1236.227          49.000    22276967.781 8  89700259.807 8      -947.194          51.000
E30  23595850.469 8 123997026.685 8      2319.191          49.000    23595855.148 8  95010716.853 8      1777.022          51.000
> 2020 05 18 01 58  0.0000000  0 17        .000000000000
G02  23706517.922 8 124578591.969 8     -2433.512          48.000    23706514.500 7  97074221.842 7     -1896.240          45.000
G05  20802607.195 6 109318429.505 6      1250.539          38.000    20802605.562 6  85183159.002 6       974.449          36.000
G07  21199026.383 8 111401638.250 8     -1411.016          49.000    21199024.922 8  86806465.026 8     -1099.493          49.000
G28  23629076.648 6 124171654.029 6      3291.367          39.000    23629072.031 5  96757092.983 5      2564.699          34.000
G30  20434287.312 8 107382906.932 8       645.203          51.000    20434287.938 8  83675028.034 8       502.756          51.000
R02  19680131.891 8 105016997.470 8     -1231.426          51.000    19680135.062 8  81679855.491 8      -957.776          48.000
R11  23168250.672 5 123804047.487 5     -4025.105          33.000
R12  19730656.734 8 105397757.117 8     -1338.746          49.000    19730659.758 7  81976022.226 7     -1041.247          47.000
R13  20260845.469 6 108191795.233 6      2998.676          39.000    20260848.195 7  84149159.199 7      2332.303          43.000
C05  39811516.680 6 207309013.807 6        -5.387          37.000    39811513.391 6 160304469.313 6        -4.141          40.000
C21  21690565.641 8 112948488.423 8      -119.457          51.000
C22  24227520.180 7 126159041.962 7     -2613.863          47.000
C26  23599428.523 8 122888371.980 8      2949.227          50.000
E02  24569078.945 6 129111379.925 6      -422.438          37.000    24569081.023 7  98929509.098 7      -323.656          45.000
E07                                                                  23838739.594 6  95988755.759 6       800.595          36.000
E08  22284042.547 8 117103434.996 8     -1242.668          48.000    22284043.867 8  89728751.038 8      -952.204          51.000
E30  23582640.703 8 123927608.729 8      2308.680          49.000    23582645.453 8  94957526.456 8      1769.030          51.000
> 2020 05 18 01 58 30.0000000  0 17        .000000000000
G02  23720436.727 7 124651737.067 7     -2442.180          47.000    23720433.586 7  97131218.020 7     -1902.997          46.000
G05  20795517.695 6 109281171.293 6      1233.559          37.000    20795516.836 6  85154126.621 6       961.214          36.000
G07  21207118.734 8 111444164.145 8     -1423.484          49.000    21207117.266 8  86839602.089 8     -1109.209          49.000
G28  23610299.672 6 124072978.162 6      3287.098          37.000    23610295.445 5  96680202.613 5      2561.366          31.000
G30  20430652.227 8 107363805.358 8       628.789          51.000    20430652.914 8  83660143.709 8       489.966          51.000
R02  19687102.969 8 105054194.303 8     -1247.766          51.000    19687105.180 8  81708786.359 8      -970.487          48.000
R11  23190874.008 5 123924935.706 5     -4033.145          31.000
R12  19738248.055 8 105438307.228 8     -1363.957          50.000    19738250.578 8  82007561.184 8     -1060.855          48.000
R13  20244057.141 6 108102141.418 6      2978.680          40.000    20244059.062 7  84079428.454 7      2316.751          43.000
C05  39811548.484 6 207309179.868 6        -5.320          36.000    39811545.312 6 160304597.730 6        -4.350          40.000
C21  21691293.039 8 112952274.479 8      -132.414          51.000
C22  24242603.078 7 126237585.296 7     -2621.582          45.000
C26  23582463.055 8 122800029.746 8      2940.758          51.000
E02  24571534.406 5 129124285.800 5      -437.215          35.000    24571537.258 7  98939398.125 7      -335.179          45.000
E07                                                                  23832795.156 6  95964812.995 6       795.892          36.000
E08  22291156.344 8 117140821.430 8     -1249.180          49.000    22291158.297 8  89757397.786 8      -957.146          51.000
E30  23569492.289 8 123858512.875 8      2298.250          50.000    23569496.328 8  94904582.865 8      1760.994          51.000
> 2020 05 18 01 59  0.0000000  0 17        .000000000000
G02  23734397.586 7 124725102.717 7     -2449.680          45.000    23734395.094 7  97188386.053 7     -1908.841          45.000
G05  20788520.461 5 109244402.993 5      1216.527          32.000    20788517.195 5  85125476.033 5       947.943          31.000
G07  21215275.602 8 111487029.187 8     -1434.949          48.000    21215273.898 8  86873003.434 8     -1118.139          48.000
G09  23003639.836 5 120884914.739 5     -2686.699          32.000    23003631.266 5  94196039.932 5     -2093.526          31.000
G13  22864610.844 6 120154340.169 6      2711.445          36.000
G28  23591538.922 6 123974388.929 6      3284.176          37.000    23591534.227 5  96603387.840 5      2559.113          31.000
G30  20427103.938 8 107345160.069 8       613.371          51.000    20427104.773 8  83645614.890 8       477.952          51.000
R02  19694158.648 8 105091844.168 8     -1263.191          51.000    19694160.500 8  81738069.551 8      -982.482          48.000
R12  19745973.430 8 105479574.818 8     -1388.066          49.000    19745976.414 8  82039658.214 8     -1079.607          48.000
R13  20227375.484 6 108013058.797 6      2959.199          39.000    20227377.062 7  84010141.983 7      2301.602          43.000
C05  39811575.328 6 207309318.961 6        -4.812          36.000    39811572.242 6 160304706.034 6        -3.640          40.000
C21  21692088.133 8 112956413.279 8      -144.426          51.000
C22  24257723.781 7 126316326.924 7     -2628.566          47.000
C26  23565540.578 8 122711908.460 8      2933.121          51.000
E02  24574070.125 6 129137607.638 6      -451.520          39.000    24574071.750 7  98949605.751 7      -346.050          44.000
E08  22298301.445 8 117178369.441 8     -1254.957          51.000    22298303.375 8  89786168.354 8      -961.522          51.000
E30  23556397.664 8 123789699.106 8      2288.484          51.000    23556401.070 8  94851855.416 8      1753.457          51.000
> 2020 05 18 01 59 30.0000000  0 16        .000000000000
G02  23748405.984 7 124798717.089 7     -2453.938          46.000    23748404.297 7  97245747.895 7     -1912.159          46.000
G05  20781621.867 5 109208162.352 5      1203.957          35.000    20781618.406 5  85097232.593 5       938.142          33.000
G07  21223502.805 8 111530263.383 8     -1443.434          49.000    21223501.328 8  86906692.404 8     -1124.753          49.000
G13  22849147.047 5 120073075.305 5      2710.883          34.000
G28  23572801.125 5 123875920.603 5      3284.418          35.000    23572796.320 5  96526659.172 5      2559.299          35.000
G30  20423648.336 8 107327002.104 8       601.047          51.000    20423649.438 8  83631465.817 8       468.345          51.000
R02  19701305.305 8 105129979.274 8     -1275.285          51.000    19701306.656 8  81767730.173 8      -991.888          48.000
R12  19753838.594 8 105521589.168 8     -1408.930          49.000    19753841.438 8  82072336.044 8     -1095.834          49.000
R13  20210806.703 6 107924581.629 6      2943.062          38.000    20210808.594 7  83941326.425 7      2289.049          43.000
C05  39811603.258 6 207309464.032 6        -1.016          36.000    39811600.094 6 160304818.232 6         -.982          40.000
C21  21692956.703 8 112960936.453 8      -153.316          51.000
C22  24272889.305 8 126395296.836 8     -2632.145          49.000
C26  23548666.945 8 122624040.636 8      2928.621          51.000
E02  24576688.906 6 129151375.933 6      -462.711          37.000    24576691.844 7  98960155.526 7      -354.416          44.000
E08  22305483.492 8 117216110.459 8     -1257.406          51.000    22305485.477 8  89815086.818 8      -963.443          51.000
E30  23543363.094 8 123721200.148 8      2281.945          51.000    23543366.008 8  94799369.176 8      1748.477          51.000
