     3.02           OBSERVATION DATA    M (MIXED)           RINEX VERSION / TYPE
SAVERINEX           SC600               20200507 225931 LCL PGM / RUN BY / DATE
       G = GPS       R = GLONASS       C = COMPASS          COMMENT
       S = SBAS      J = QZSS          E = GALILEO          COMMENT
BEAN                                                        MARKER NAME
1                                                           MARKER NUMBER
GEODETIC                                                    MARKER TYPE
Unige DICCA         GTER                                    OBSERVER / AGENCY
SC60291900056       SC600               2.12(191226)        REC # / TYPE / VERS
                    HEMA45          NONE                    ANT # / TYPE
  4509407.8091   693652.4678  4442337.6214                  APPROX POSITION XYZ
        0.0000        0.0000        0.0000                  ANTENNA: DELTA H/E/N
G    8 C1C L1C D1C S1C C2Y L2Y D2Y S2Y                      SYS / # / OBS TYPES
R    8 C1C L1C D1C S1C C2P L2P D2P S2P                      SYS / # / OBS TYPES
C    8 C1I L1I D1I S1I C7I L7I D7I S7I                      SYS / # / OBS TYPES
E    8 C1C L1C D1C S1C C7Q L7Q D7Q S7Q                      SYS / # / OBS TYPES
DBHZ                                                        COMMENT
     30.000                                                 INTERVAL
  2020    05    07    20    00    0.0000000     GPS         TIME OF FIRST OBS
  2020    05    07    20    59   30.0000000     GPS         TIME OF LAST OBS
     0                                                      RCV CLOCK OFFS APPL
G L1C  0.00000                                              SYS / PHASE SHIFT
G L2Y  0.00000                                              SYS / PHASE SHIFT
R L1C  0.00000                                              SYS / PHASE SHIFT
R L2P  0.25000                                              SYS / PHASE SHIFT
C L1I  0.00000                                              SYS / PHASE SHIFT
C L7I  0.00000                                              SYS / PHASE SHIFT
E L1C  0.50000                                              SYS / PHASE SHIFT
E L7Q -0.25000                                              SYS / PHASE SHIFT
 14 R03  5 R04  6 R05  1 R06 -4 R07  5 R09 -2 R10 -5 R14 -7 GLONASS SLOT / FRQ #
    R15  0 R16 -1 R17  4 R18 -3 R19  3 R20  2               GLONASS SLOT / FRQ #
 C1C   71.950 C2C   71.950 C2P   71.950                     GLONASS COD/PHS/BIS
    18                                                      LEAP SECONDS
*** Above antenna height is from mark to ANTENNA BOTTOM.    COMMENT
    17     4        0.0000        ANT MEASURE TYPE/HEIGT    COMMENT
    0.0000    0.0000    0.0458    0.0405    0.0000          COMMENT
                    BASE STATION                            COMMENT
                                                            END OF HEADER
> 2020 05 07 20 00  0.0000000  0 18        .000000000000
G01  20289430.562 8 106621675.388 8       314.012          51.000    20289431.547 8  83081836.692 8       244.684          51.000
G03  21157272.680 7 111182252.172 7      1881.129          44.000    21157276.492 7  86635551.666 7      1465.818          44.000
G08  22912130.336 7 120404056.211 7     -3427.383          46.000    22912133.961 7  93821332.959 7     -2670.688          46.000
G11  20364475.945 8 107016071.291 8     -1769.836          50.000    20364475.688 8  83389122.809 8     -1379.090          49.000
G22  20622683.859 8 108373033.444 8       226.348          51.000    20622680.625 8  84446445.498 8       176.378          51.000
G32  22821507.617 5 119927829.421 5     -2210.637          35.000    22821505.297 5  93450212.935 5     -1722.574          33.000
R05  19261542.172 8 102964014.526 8      -916.855          50.000    19261544.773 7  80083130.796 7      -713.110          47.000
R06  21025070.375 7 112193854.739 7      3299.434          45.000
R19  23036271.250 5 123228495.353 5     -3847.266          34.000    23036274.891 5  95844428.878 5     -2992.318          35.000
R20  19460817.648 6 104065737.685 6      -816.613          39.000    19460822.953 8  80940033.681 8      -635.147          48.000
C05                                                                  39672893.227 6 159746300.973 6       -27.052          36.000
C11  21905350.727 8 114066900.218 8     -1082.398          51.000    21905350.383 8  88203753.696 8      -836.919          51.000
C12  24990091.492 6 130129931.512 6     -3248.812          41.000    24990086.836 6 100624707.103 6     -2512.414          38.000
C14  22490344.203 8 117113119.961 8      1984.637          50.000    22490342.398 8  90559318.275 8      1534.626          51.000
C21  23272668.094 6 121186910.020 6     -2261.371          39.000
E03  25049073.273 8 131633769.836 8      2475.688          50.000    25049080.336 8 100862284.257 8      1896.958          51.000
E05  23785748.883 8 124995044.385 8      -117.730          51.000    23785751.602 8  95775359.877 8       -90.200          51.000
E36  26255566.547 7 137973983.705 7     -2429.453          45.000    26255568.781 6 105720333.576 6     -1861.628          41.000
> 2020 05 07 20 00 30.0000000  0 18        .000000000000
G01  20287658.547 8 106612364.014 8       304.203          51.000    20287660.000 8  83074581.086 8       237.041          51.000
G03  21146552.102 7 111125913.470 7      1872.078          44.000    21146555.242 7  86591651.415 7      1458.765          44.000
G08  22931702.523 7 120506909.738 7     -3431.980          44.000    22931706.719 7  93901478.546 7     -2674.274          43.000
G11  20374612.633 8 107069338.411 8     -1783.828          51.000    20374612.172 8  83430629.652 8     -1389.996          50.000
G14  21994136.492 5 115579970.811 5      -763.914          33.000
G22  20621410.305 8 108366340.479 8       217.336          51.000    20621407.055 8  84441230.219 8       169.353          51.000
R05  19266734.094 8 102991768.342 8      -935.996          50.000    19266736.852 7  80104717.138 7      -727.997          47.000
R06  21006547.195 7 112095008.772 7      3287.727          46.000
R19  23057855.711 5 123343958.399 5     -3853.148          35.000    23057858.805 5  95934233.534 5     -2996.893          34.000
R20  19465442.578 6 104090469.221 6      -834.637          39.000    19465447.812 8  80959269.317 8      -649.162          48.000
C05                                                                  39673079.805 6 159747052.618 6       -25.043          36.000
C11  21911613.695 8 114099513.470 8     -1094.328          51.000    21911613.711 8  88228972.338 8      -846.264          51.000
C12  25008810.891 6 130227404.114 6     -3251.590          41.000    25008807.062 6 100700079.059 6     -2514.311          40.000
C14  22478927.438 8 117053665.717 8      1976.578          49.000    22478924.938 8  90513344.525 8      1528.367          51.000
C21  23285700.547 6 121254776.548 6     -2265.645          41.000
E03  25034947.969 8 131559540.661 8      2470.320          51.000    25034954.906 8 100805407.396 8      1892.879          51.000
E05  23786443.430 8 124998693.692 8      -128.145          51.000    23786446.039 8  95778156.128 8       -98.213          51.000
E36  26269435.773 7 138046867.681 7     -2431.809          46.000    26269437.727 7 105776179.735 7     -1863.439          42.000
> 2020 05 07 20 01  0.0000000  0 19        .000000000000
G01  20285954.023 8 106603407.070 8       299.656          51.000    20285955.812 8  83067601.654 8       233.498          51.000
G03  21135893.773 7 111069902.754 7      1868.828          44.000    21135895.312 7  86548006.735 7      1456.230          44.000
G08  22951311.992 7 120609961.176 7     -3431.246          42.000    22951317.180 7  93981778.414 7     -2673.698          42.000
G11  20384840.828 8 107123085.749 8     -1792.547          51.000    20384840.180 8  83472510.703 8     -1396.790          49.000
G14  21998546.039 5 115603142.694 5      -773.293          34.000
G22  20620200.273 8 108359981.353 8       213.453          51.000    20620196.891 8  84436275.085 8       166.330          51.000
R05  19272045.219 8 103020158.939 8      -949.711          50.000    19272047.852 7  80126798.725 7      -738.664          47.000
R06  20988100.758 7 111996575.626 7      3281.320          44.000
R19  23079482.070 6 123459642.796 6     -3852.957          37.000    23079484.305 6  96024210.320 6     -2996.744          36.000
R20  19470181.820 6 104115810.358 6      -847.855          39.000    19470186.977 8  80978979.091 8      -659.443          49.000
C05                                                                  39673261.250 6 159747782.804 6       -18.595          36.000
C11  21917957.070 8 114132545.241 8     -1101.055          50.000    21917957.164 8  88254514.606 8      -851.281          51.000
C12  25027554.977 6 130325006.442 6     -3248.516          41.000    25027553.414 7 100775551.378 7     -2511.967          43.000
C14  22467568.078 7 116994514.145 7      1973.664          47.000    22467566.016 8  90467604.766 8      1526.331          51.000
C21  23298771.672 6 121322844.822 6     -2265.227          38.000
E03  25020864.930 8 131485533.078 8      2470.438          51.000    25020871.375 8 100748700.328 8      1892.972          51.000
E05  23787208.344 8 125002712.978 8      -133.078          51.000    23787211.031 8  95781235.866 8      -101.918          51.000
E09  24730770.836 5 129961070.780 5     -2465.059          35.000
E36  26283329.969 7 138119881.390 7     -2428.797          47.000    26283331.516 7 105832125.300 7     -1861.026          43.000
> 2020 05 07 20 01 30.0000000  0 20        .000000000000
G01  20284329.352 8 106594869.272 8       278.836          51.000    20284331.234 8  83060948.840 8       217.275          51.000
G03  21125310.094 7 111014284.367 7      1848.621          45.000    21125310.305 7  86504667.784 7      1440.487          45.000
G08  22970971.055 7 120713271.789 7     -3446.691          42.000    22970976.727 7  94062280.250 7     -2685.734          42.000
G11  20395172.250 8 107177376.301 8     -1817.562          51.000    20395171.367 8  83514815.041 8     -1416.282          48.000
G14  22003064.875 5 115626889.917 5      -799.992          35.000
G22  20619065.766 8 108354019.330 8       193.215          51.000    20619062.109 8  84431629.377 8       150.557          51.000
G32  22859668.406 5 120128373.581 5     -2251.648          30.000
R05  19277487.039 8 103049249.217 8      -980.070          50.000    19277489.688 8  80149424.507 8      -762.277          48.000
R06  20969743.922 7 111898623.099 7      3258.340          44.000
R19  23101161.758 6 123575611.416 6     -3869.039          37.000    23101163.688 6  96114408.119 6     -3009.253          37.000
R20  19475047.461 6 104141826.705 6      -877.523          39.000    19475052.203 8  80999214.039 8      -682.518          49.000
C05                                                                  39673449.914 6 159748542.637 6       -24.753          37.000
C11  21924392.945 8 114166058.696 8     -1123.879          49.000    21924393.062 8  88280429.351 8      -869.003          51.000
C12  25046335.680 6 130422800.323 6     -3261.895          41.000    25046336.461 7 100851171.828 7     -2522.038          45.000
C14  22456278.531 7 116935729.186 7      1954.434          47.000    22456277.711 8  90422148.497 8      1511.482          51.000
C21  23311893.305 5 121391176.467 5     -2281.285          35.000
E03  25006836.328 8 131411812.202 8      2453.793          51.000    25006842.086 8 100692212.957 8      1880.221          51.000
E05  23788055.734 8 125007165.674 8      -154.398          51.000    23788058.656 8  95784647.702 8      -118.218          51.000
E09  24744913.453 6 130035381.397 6     -2479.320          36.000
E36  26297261.078 7 138193088.391 7     -2442.242          46.000    26297262.609 7 105888218.951 7     -1871.248          44.000
> 2020 05 07 20 02  0.0000000  0 18        .000000000000
G01  20282770.477 8 106586677.657 8       267.070          51.000    20282772.359 8  83054565.777 8       208.107          51.000
G03  21114787.172 7 110958984.954 7      1837.723          46.000    21114786.789 7  86461577.361 7      1431.992          46.000
G08  22990665.742 7 120816765.687 7     -3453.113          44.000    22990670.570 7  94142924.876 7     -2690.735          44.000
G11  20405592.164 8 107232134.763 8     -1833.281          49.000    20405591.328 7  83557483.984 7     -1428.528          46.000
G22  20617992.625 8 108348380.048 8       182.336          51.000    20617989.008 8  84427235.144 8       142.080          51.000
R05  19283045.188 8 103078961.844 8     -1001.059          50.000    19283048.039 8  80172534.330 8      -778.601          48.000
R06  20951463.602 7 111801077.899 7      3244.438          44.000
R19  23122879.570 6 123691787.047 6     -3875.930          36.000    23122881.555 6  96204766.949 6     -3014.612          38.000
R20  19480025.531 6 104168443.783 6      -897.527          40.000    19480029.859 8  81019916.242 8      -698.074          49.000
C05                                                                  39673631.656 6 159749274.646 6       -24.171          37.000
C11  21930907.383 8 114199980.520 8     -1137.824          50.000    21930907.656 8  88306659.877 8      -879.922          51.000
C12  25065138.742 7 130520711.199 7     -3265.777          42.000    25065140.977 7 100926882.780 7     -2525.442          46.000
C14  22445045.570 8 116877238.288 8      1944.559          48.000    22445045.672 8  90376919.670 8      1503.520          51.000
C21  23325052.039 6 121459696.558 6     -2287.453          37.000
E03  24992848.492 8 131338305.508 8      2446.312          51.000    24992853.398 8 100635889.685 8      1874.378          51.000
E05  23788971.516 8 125011977.541 8      -166.613          51.000    23788974.359 8  95788334.745 8      -127.698          51.000
E09  24759083.266 6 130109841.224 6     -2484.816          37.000
E36  26311214.500 7 138266414.603 7     -2446.531          45.000    26311216.570 7 105944403.964 7     -1874.669          44.000
> 2020 05 07 20 02 30.0000000  0 19        .000000000000
G01  20281284.938 8 106578871.754 8       253.953          51.000    20281286.789 8  83048483.263 8       197.886          51.000
G03  21104332.234 7 110904043.666 7      1825.582          44.000    21104332.609 7  86418765.995 7      1422.534          44.000
G08  23010402.594 7 120920478.938 7     -3460.531          45.000    23010405.609 7  94223740.407 7     -2696.518          45.000
G11  20416108.031 8 107287399.634 8     -1850.312          48.000    20416107.391 7  83600547.526 7     -1441.802          46.000
G22  20616988.078 8 108343101.591 8       170.145          51.000    20616984.680 8  84423122.086 8       132.583          51.000
R04  22451846.328 4 120228616.890 4     -3905.234          29.000
R05  19288726.742 8 103109333.957 8     -1023.125          51.000    19288729.430 8  80196157.083 8      -795.764          48.000
R06  20933267.891 7 111703981.906 7      3229.352          44.000
R19  23144642.734 5 123808207.447 5     -3884.258          33.000    23144644.883 6  96295316.133 6     -3021.089          38.000
R20  19485123.148 6 104195701.367 6      -918.902          41.000    19485127.539 8  81041116.579 8      -714.702          49.000
C05                                                                  39673813.773 6 159750007.463 6       -24.316          37.000
C11  21937507.719 8 114234348.933 8     -1152.762          49.000    21937508.086 8  88333235.739 8      -891.434          51.000
C12  25083971.648 7 130618775.982 7     -3271.121          42.000    25083974.258 7 101002712.732 7     -2529.399          46.000
C14  22433876.766 8 116819080.480 8      1933.266          49.000    22433876.555 8  90331948.410 8      1494.945          49.000
C21  23338254.836 6 121528442.015 6     -2294.957          37.000
E03  24978909.094 8 131265052.913 8      2437.844          51.000    24978913.164 8 100579761.106 8      1868.021          51.000
E05  23789962.758 8 125017186.803 8      -180.086          51.000    23789965.328 8  95792326.275 8      -137.928          51.000
E09  24773288.164 6 130184487.363 6     -2490.711          36.000
E36  26325197.398 7 138339898.355 7     -2451.773          44.000    26325200.695 7 106000709.707 7     -1878.608          45.000
> 2020 05 07 20 03  0.0000000  0 19        .000000000000
G01  20279866.227 8 106571417.242 8       240.738          51.000    20279868.188 8  83042674.553 8       187.588          51.000
G03  21093938.250 7 110849425.822 7      1813.285          42.000    21093940.008 7  86376206.670 7      1412.953          42.000
G08  23030174.023 7 121024373.668 7     -3468.043          45.000    23030173.969 7  94304697.297 7     -2702.374          45.000
G11  20426713.953 8 107343134.684 8     -1867.430          50.000    20426713.180 8  83643977.437 8     -1455.140          48.000
G22  20616045.539 8 108338148.553 8       157.816          51.000    20616042.203 8  84419262.594 8       122.974          51.000
R04  22473754.695 5 120345887.844 5     -3911.527          31.000    22473762.008 4  93602419.603 4     -3042.299          26.000
R05  19294524.711 8 103140327.582 8     -1045.238          51.000    19294527.328 8  80220263.252 8      -812.963          49.000
R06  20915149.656 7 111607301.565 7      3213.953          44.000
R19  23166444.078 5 123924834.742 5     -3892.426          31.000    23166447.195 6  96386026.283 6     -3027.442          38.000
R20  19490333.969 7 104223564.406 7      -940.680          42.000    19490338.008 8  81062787.817 8      -731.640          49.000
C05                                                                  39673989.742 6 159750716.297 6       -24.454          37.000
C11  21944186.961 8 114269129.009 8     -1168.000          50.000    21944187.289 8  88360129.912 8      -903.114          51.000
C12  25102827.172 7 130716958.569 7     -3276.645          42.000    25102829.352 7 101078633.781 7     -2533.498          46.000
C14  22422765.633 8 116761221.580 8      1921.816          50.000    22422764.414 8  90287208.327 8      1486.113          50.000
C21  23351493.422 6 121597376.464 6     -2302.656          38.000
E03  24965011.773 8 131192020.600 8      2428.918          51.000    24965014.930 8 100523801.326 8      1861.149          50.000
E05  23791022.742 8 125022757.880 8      -193.512          51.000    23791025.336 8  95796595.049 8      -148.227          51.000
E09  24787521.102 5 130259283.358 5     -2497.707          34.000
E36  26339203.273 7 138413504.269 7     -2457.270          43.000    26339207.977 7 106057109.071 7     -1882.930          46.000
> 2020 05 07 20 03 30.0000000  0 20        .000000000000
G01  20278520.352 8 106564344.999 8       237.148          51.000    20278522.430 8  83037163.718 8       184.791          51.000
G03  21083611.562 7 110795161.943 7      1810.512          43.000    21083614.531 7  86333923.140 7      1410.788          43.000
G08  23049985.188 7 121128478.133 7     -3465.734          45.000    23049982.820 7  94385817.605 7     -2700.575          45.000
G11  20437415.281 8 107399368.962 8     -1874.973          50.000    20437414.570 8  83687796.353 8     -1461.018          49.000
G14  22022127.250 5 115727068.562 5      -860.902          34.000
G22  20615170.570 8 108333550.277 8       155.043          51.000    20615167.289 8  84415679.539 8       120.813          51.000
G32  22911745.836 5 120402011.237 5     -2299.520          33.000    22911748.961 5  93819776.934 5     -1791.833          31.000
R04  22495677.242 5 120463265.510 5     -3907.211          31.000    22495681.914 4  93693713.349 4     -3038.942          25.000
R05  19300444.430 8 103171971.227 8     -1057.820          51.000    19300447.070 8  80244874.987 8      -822.749          48.000
R06  20897116.047 7 111511069.480 7      3208.090          46.000
R19  23188289.031 5 124041697.602 5     -3890.977          30.000    23188293.500 6  96476919.660 6     -3026.315          37.000
R20  19495663.516 6 104252064.035 6      -952.551          41.000    19495667.273 8  81084954.179 8      -740.873          48.000
C05                                                                  39674165.383 6 159751423.305 6       -17.525          36.000
C11  21950951.125 8 114304350.380 8     -1173.754          50.000    21950950.992 8  88387365.336 8      -907.700          51.000
C12  25121710.711 7 130815287.293 7     -3272.676          42.000    25121712.141 7 101154667.851 7     -2530.577          45.000
C14  22411717.945 8 116703692.093 8      1919.852          50.000    22411716.172 8  90242722.932 8      1484.454          51.000
C21  23364773.656 6 121666528.019 6     -2301.117          39.000
E03  24951162.508 8 131119239.796 8      2429.410          51.000    24951164.547 8 100468034.263 8      1861.460          49.000
E05  23792157.156 8 125028720.364 8      -197.598          51.000    23792160.023 8  95801163.733 8      -151.433          51.000
E36  26353238.555 7 138487262.030 7     -2453.555          43.000    26353244.062 7 106113624.788 7     -1880.047          46.000
> 2020 05 07 20 04  0.0000000  0 20        .000000000000
G01  20277269.438 8 106557771.229 8       212.945          51.000    20277271.547 8  83032041.300 8       165.931          51.000
G03  21073374.633 7 110741367.849 7      1787.754          43.000    21073378.133 7  86292005.656 7      1393.055          43.000
G08  23069857.617 7 121232905.033 7     -3483.812          44.000    23069855.719 7  94467189.188 7     -2714.662          45.000
G11  20448233.422 8 107456216.932 8     -1902.770          51.000    20448232.852 8  83732093.459 8     -1482.681          50.000
G14  22027160.750 5 115753516.240 5      -889.977          34.000
G22  20614384.891 8 108329421.877 8       132.113          51.000    20614381.742 8  84412462.626 8       102.945          51.000
R04  22517648.938 5 120580918.399 5     -3924.363          30.000    22517653.336 4  93785221.192 4     -3052.283          28.000
R05  19306507.125 8 103204379.583 8     -1090.668          51.000    19306509.664 8  80270081.523 8      -848.297          48.000
R06  20879189.266 7 111415404.973 7      3181.766          45.000
R19  23210200.484 5 124158911.335 5     -3910.535          33.000    23210205.727 6  96568085.984 6     -3041.524          37.000
R20  19501133.992 6 104281317.544 6      -985.539          41.000    19501137.555 8  81107706.888 8      -766.530          48.000
C05                                                                  39674362.500 6 159752216.920 6       -25.965          36.000
C11  21957821.977 8 114340127.148 8     -1199.496          51.000    21957821.156 8  88415030.203 8      -927.575          51.000
C12  25140643.727 6 130913874.935 6     -3288.129          41.000    25140644.672 7 101230902.113 7     -2542.777          44.000
C14  22400755.586 8 116646606.858 8      1897.742          49.000    22400754.203 8  90198581.048 8      1467.458          51.000
C21  23378117.031 6 121736009.381 6     -2319.348          39.000
E03  24937383.414 8 131046827.116 8      2409.984          51.000    24937384.156 8 100412549.280 8      1846.599          49.000
E05  23793387.906 8 125035189.100 8      -221.766          51.000    23793390.953 8  95806120.317 8      -169.936          51.000
E09  24816108.875 5 130409532.956 5     -2511.562          33.000
E36  26367324.938 7 138561286.677 7     -2469.562          43.000    26367331.055 7 106170345.003 7     -1892.358          47.000
> 2020 05 07 20 04 30.0000000  0 19        .000000000000
G01  20276084.812 8 106551545.875 8       200.422          51.000    20276086.891 8  83027190.392 8       156.173          51.000
G03  21063198.680 7 110687893.203 7      1775.758          42.000    21063201.836 7  86250337.143 7      1383.710          42.000
G08  23089762.250 7 121337501.295 7     -3490.562          43.000    23089761.828 7  94548692.766 7     -2719.919          43.000
G11  20459139.578 8 107513527.030 8     -1919.309          51.000    20459139.102 8  83776750.682 8     -1495.565          50.000
G14  22032289.883 6 115780466.125 6      -907.953          36.000    22032291.148 5  90218554.890 5      -707.496          32.000
G22  20613659.773 8 108325611.663 8       120.484          51.000    20613656.633 8  84409493.645 8        93.887          51.000
R05  19312683.906 8 103237397.419 8     -1111.988          51.000    19312686.266 8  80295762.070 8      -864.880          49.000
R06  20861340.328 7 111320157.390 7      3166.590          43.000
R19  23232149.273 6 124276320.621 6     -3918.508          36.000    23232154.477 5  96659404.388 5     -3047.728          35.000
R20  19506716.859 6 104311172.200 6     -1006.438          39.000    19506720.094 8  81130927.167 8      -782.785          48.000
C05                                                                  39674552.375 6 159752981.669 6       -25.953          37.000
C11  21964770.508 8 114376309.809 8     -1214.129          51.000    21964769.188 8  88443008.900 8      -938.869          51.000
C12  25159597.195 6 131012570.842 6     -3292.969          40.000    25159597.711 7 101307220.056 7     -2546.335          43.000
C14  22389849.695 8 116589817.093 8      1886.762          48.000    22389849.086 8  90154667.632 8      1458.955          51.000
C21  23391494.094 6 121805669.392 6     -2326.297          37.000
E03  24923645.805 8 130974633.023 8      2401.477          51.000    24923645.523 8 100357231.791 8      1840.080          50.000
E05  23794686.445 8 125042012.843 8      -234.668          51.000    23794689.438 8  95811348.913 8      -179.861          51.000
E09  24830457.781 5 130484937.114 5     -2516.914          35.000
E36  26381433.422 7 138635427.124 7     -2474.695          42.000    26381439.781 7 106227153.946 7     -1896.039          47.000
> 2020 05 07 20 05  0.0000000  0 19        .000000000000
G01  20274968.953 8 106545681.689 8       188.965          51.000    20274970.898 8  83022620.917 8       147.248          51.000
G03  21053086.055 7 110634750.153 7      1765.523          42.000    21053087.938 7  86208927.077 7      1375.736          42.000
G08  23109700.508 6 121442276.397 6     -3495.703          40.000    23109701.398 6  94630335.707 6     -2723.925          41.000
G11  20470135.484 8 107571309.938 8     -1934.250          51.000    20470135.406 8  83821776.340 8     -1507.205          51.000
G14  22037514.922 6 115807927.403 6      -924.141          40.000    22037512.039 4  90239945.307 4      -720.119          26.000
G22  20612997.391 8 108322131.118 8       110.180          51.000    20612994.289 8  84406781.554 8        85.854          51.000
R05  19318976.359 8 103271034.155 8     -1131.895          51.000    19318978.617 8  80321923.983 8      -880.362          48.000
R06  20843570.711 7 111225340.761 7      3153.098          42.000
R19  23254137.453 6 124393935.401 6     -3924.293          39.000    23254141.727 6  96750882.651 6     -3052.225          36.000
R20  19512414.523 6 104341640.389 6     -1026.363          39.000    19512417.688 8  81154624.648 8      -798.283          48.000
C05                                                                  39674737.305 6 159753725.692 6       -24.932          36.000
C11  21971799.156 8 114412909.795 8     -1227.406          51.000    21971797.492 8  88471310.307 8      -949.024          51.000
C12  25178572.953 6 131111385.224 6     -3295.961          40.000    25178573.242 6 101383629.687 6     -2548.930          40.000
C14  22379002.406 8 116533335.196 8      1877.258          48.000    22379002.570 8  90110992.267 8      1451.576          51.000
C21  23404907.547 6 121875518.318 6     -2331.660          38.000
E03  24909951.867 8 130902670.565 8      2394.383          51.000    24909951.312 8 100302091.798 8      1834.690          50.000
E05  23796054.711 8 125049202.927 8      -246.129          51.000    23796057.766 8  95816858.230 8      -188.595          51.000
E09  24844835.648 6 130560493.482 6     -2521.566          37.000
E36  26395565.836 7 138709694.880 7     -2478.168          42.000    26395572.477 7 106284060.421 7     -1898.799          46.000
> 2020 05 07 20 05 30.0000000  0 19        .000000000000
G01  20273926.555 8 106540203.668 8       176.102          51.000    20273928.461 8  83018352.339 8       137.222          51.000
G03  21043040.977 6 110581963.512 6      1753.703          40.000    21043043.055 6  86167794.661 6      1366.522          41.000
G08  23129676.945 6 121547252.433 6     -3502.918          38.000    23129678.367 6  94712135.234 6     -2729.546          38.000
G11  20481225.477 8 107629588.597 8     -1950.965          51.000    20481225.945 8  83867188.302 8     -1520.232          50.000
G14  22042840.789 6 115835916.620 6      -941.930          40.000    22042838.477 5  90261755.016 5      -733.983          32.000
G22  20612402.258 8 108319003.764 8        98.250          51.000    20612399.266 8  84404344.666 8        76.558          51.000
R05  19325388.695 8 103305312.332 8     -1153.383          51.000    19325391.078 8  80348584.801 8      -897.076          48.000
R06  20825887.164 7 111130982.232 7      3137.793          43.000
R19  23276168.391 6 124511778.382 6     -3932.277          38.000    23276171.438 6  96842538.355 6     -3058.435          36.000
R20  19518231.562 6 104372747.187 6     -1047.992          39.000    19518234.406 8  81178818.840 8      -815.102          48.000
C05                                                                  39674922.055 6 159754469.659 6       -24.753          37.000
C11  21978912.391 8 114449950.914 8     -1242.055          51.000    21978910.609 8  88499952.852 8      -960.529          51.000
C12  25197575.766 6 131210340.762 6     -3300.746          39.000    25197575.656 6 101460148.428 6     -2552.458          37.000
C14  22368219.078 8 116477185.720 8      1866.035          49.000    22368219.234 8  90067573.956 8      1442.861          51.000
C21  23418361.945 6 121945578.642 6     -2339.000          39.000
E03  24896306.406 8 130830965.216 8      2385.773          51.000    24896306.320 8 100247148.810 8      1828.048          51.000
E05  23797497.188 8 125056783.110 8      -259.375          51.000    23797500.391 8  95822666.444 8      -198.730          51.000
E09  24859246.609 6 130636222.700 6     -2527.266          38.000
E36  26409727.102 7 138784113.785 7     -2483.383          43.000    26409733.492 7 106341082.689 7     -1902.879          46.000
> 2020 05 07 20 06  0.0000000  0 19        .000000000000
G01  20272957.609 8 106535111.649 8       163.184          51.000    20272959.461 8  83014384.534 8       127.156          51.000
G03  21033063.500 6 110529532.725 6      1741.504          39.000    21033066.344 6  86126939.470 6      1357.016          38.000
G08  23149690.898 5 121652425.491 5     -3509.059          35.000    23149692.789 5  94794088.294 5     -2734.331          34.000
G11  20492409.203 8 107688361.180 8     -1967.465          51.000    20492410.188 8  83912985.117 8     -1533.089          49.000
G14  22048267.094 6 115864431.587 6      -959.289          37.000    22048264.719 5  90283974.513 5      -747.501          35.000
G22  20611874.031 8 108316228.251 8        86.582          51.000    20611871.141 8  84402181.951 8        67.470          51.000
R05  19331920.320 8 103340228.381 8     -1174.543          51.000    19331922.781 8  80375741.734 8      -913.533          48.000
R06  20808290.148 7 111037082.638 7      3122.305          43.000
R19  23298240.438 5 124629846.393 5     -3939.531          35.000    23298242.961 6  96934369.075 6     -3064.080          37.000
R20  19524167.969 6 104404492.059 6     -1068.832          39.000    19524170.758 8  81203509.300 8      -831.314          48.000
C05                                                                  39675106.352 6 159755211.890 6       -24.515          37.000
C11  21986109.602 8 114487431.993 8     -1256.770          51.000    21986108.344 8  88528935.570 8      -971.769          51.000
C12  25216605.352 6 131309435.067 6     -3305.363          38.000    25216604.891 5 101536774.521 5     -2555.892          32.000
C14  22357499.938 8 116421368.274 8      1854.879          49.000    22357499.586 8  90024412.389 8      1434.431          51.000
C21  23431856.836 6 122015847.659 6     -2345.777          38.000
E03  24882709.664 8 130759517.210 8      2377.324          50.000    24882710.461 8 100192402.998 8      1821.544          51.000
E05  23799013.609 8 125064751.815 8      -272.121          51.000    23799016.891 8  95828772.360 8      -208.469          51.000
E09  24873690.219 6 130712122.358 6     -2532.750          38.000
E36  26423916.992 7 138858682.500 7     -2488.270          44.000    26423922.844 7 106398219.740 7     -1906.435          45.000
> 2020 05 07 20 06 30.0000000  0 19        .000000000000
G01  20272061.438 8 106530402.293 8       150.586          51.000    20272063.234 8  83010714.916 8       117.340          51.000
G03  21023153.750 6 110477453.938 6      1729.902          41.000    21023156.156 7  86086358.619 7      1347.976          42.000
G08  23169742.305 5 121757789.489 5     -3515.090          35.000    23169743.469 5  94876190.092 5     -2739.028          35.000
G11  20503686.273 8 107747622.898 8     -1983.562          51.000    20503687.031 7  83959163.066 7     -1545.633          47.000
G14  22053792.445 6 115893467.536 6      -976.102          36.000    22053792.391 5  90306599.990 5      -760.593          35.000
G22  20611411.883 8 108313799.734 8        75.195          51.000    20611408.992 8  84400289.606 8        58.594          51.000
R05  19338570.156 8 103375775.965 8     -1195.406          51.000    19338572.609 8  80403389.857 8      -929.763          48.000
R06  20790779.289 7 110943639.625 7      3107.133          46.000
R19  23320351.977 4 124748157.651 4     -3946.773          29.000    23320355.484 6  97026359.749 6     -3069.716          38.000
R20  19530223.297 6 104436870.928 6     -1090.031          40.000    19530225.789 7  81228692.861 7      -847.802          47.000
C05                                                                  39675289.477 6 159755949.347 6       -24.581          36.000
C11  21993390.625 8 114525348.712 8     -1271.199          51.000    21993389.938 8  88558255.181 8      -982.963          51.000
C12  25235660.445 6 131408662.603 6     -3309.695          38.000    25235663.578 5 101613503.674 5     -2559.221          34.000
C14  22346844.008 8 116365879.421 8      1844.195          49.000    22346843.523 8  89981504.939 8      1426.046          51.000
C21  23445390.695 6 122086319.804 6     -2352.340          38.000
E03  24869161.375 8 130688323.642 8      2368.887          50.000    24869163.266 8 100137852.137 8      1815.094          51.000
E05  23800603.039 8 125073104.455 8      -284.742          51.000    23800606.344 8  95835172.466 8      -218.215          51.000
E09  24888165.125 6 130788186.803 6     -2538.176          38.000
E36  26438134.516 7 138933396.544 7     -2492.961          43.000    26438140.133 7 106455468.169 7     -1910.131          46.000
> 2020 05 07 20 07  0.0000000  0 18        .000000000000
G01  20271240.070 8 106526085.628 8       137.887          51.000    20271241.875 8  83007351.289 8       107.447          51.000
G03  21013312.688 6 110425736.799 6      1718.340          39.000    21013314.664 6  86046059.595 6      1338.966          39.000
G08  23189832.352 5 121863351.253 5     -3521.875          32.000    23189831.930 5  94958446.025 5     -2744.318          31.000
G11  20515058.070 8 107807381.260 8     -1999.719          51.000    20515057.891 7  84005727.978 7     -1558.222          45.000
G14  22059418.102 6 115923032.184 6      -993.332          38.000    22059419.523 6  90329637.495 6      -774.022          36.000
G22  20611017.469 8 108311727.125 8        63.676          51.000    20611014.609 8  84398674.608 8        49.621          51.000
R05  19345339.398 8 103411961.822 8     -1216.277          51.000    19345341.852 8  80431534.427 8      -945.993          48.000
R06  20773357.094 7 110850664.973 7      3091.875          47.000
R20  19536398.672 6 104469893.592 6     -1110.805          39.000    19536400.812 7  81254377.150 7      -863.959          47.000
C05                                                                  39675473.203 6 159756689.159 6       -24.225          36.000
C11  22000757.234 8 114563709.987 8     -1285.531          50.000    22000756.891 8  88587918.558 8      -994.106          51.000
C12  25254742.938 6 131508031.121 6     -3314.121          38.000    25254749.188 5 101690341.776 5     -2562.586          35.000
C14  22336252.812 8 116310728.852 8      1833.277          48.000    22336252.758 8  89938859.074 8      1417.543          51.000
C21  23458964.820 6 122157002.675 6     -2358.785          38.000
E03  24855663.719 8 130617394.948 8      2360.461          50.000    24855666.523 8 100083504.202 8      1808.671          51.000
E05  23802267.180 8 125081849.722 8      -297.543          51.000    23802270.516 8  95841873.405 8      -227.946          51.000
E09  24902672.508 6 130864423.793 6     -2543.559          39.000
E36  26452381.453 7 139008264.804 7     -2497.512          45.000    26452387.320 7 106512834.789 7     -1913.771          46.000
> 2020 05 07 20 07 30.0000000  0 19        .000000000000
G01  20270494.031 8 106522164.823 8       124.156          51.000    20270495.898 8  83004296.130 8        96.745          51.000
G03  21003540.398 6 110374384.148 6      1705.562          40.000    21003543.062 6  86006044.617 6      1329.010          40.000
G08  23209960.516 5 121969110.630 5     -3529.488          33.000    23209958.195 5  95040855.845 5     -2750.251          32.000
G11  20526524.734 8 107867638.137 8     -2016.770          51.000    20526524.023 7  84052681.330 7     -1571.509          46.000
G14  22065144.961 6 115953127.615 6     -1011.844          39.000    22065144.297 5  90353088.411 5      -788.453          32.000
G22  20610690.945 8 108310012.175 8        51.223          51.000    20610688.180 8  84397338.313 8        39.914          51.000
G32  23019734.250 5 120969519.047 5     -2419.688          31.000
R05  19352228.125 8 103448786.118 8     -1238.059          51.000    19352230.539 8  80460175.554 8      -962.934          49.000
R06  20756023.539 7 110758163.217 7      3075.555          46.000
R20  19542694.945 6 104503562.802 6     -1133.250          38.000    19542697.281 7  81280564.299 7      -881.417          47.000
C05                                                                  39675657.891 6 159757433.267 6       -24.744          36.000
C11  22008209.766 8 114602517.908 8     -1300.926          50.000    22008209.586 8  88617927.300 8     -1006.004          51.000
C12  25273852.555 6 131607541.438 6     -3319.023          36.000    25273861.445 6 101767289.586 6     -2566.649          38.000
C14  22325727.125 8 116255919.567 8      1821.309          48.000    22325727.477 8  89896477.109 8      1408.388          51.000
C21  23472579.219 6 122227897.003 6     -2366.629          38.000
E03  24842217.391 8 130546734.709 8      2350.953          51.000    24842220.594 8 100029361.986 8      1801.350          51.000
E05  23804006.414 8 125090989.460 8      -311.203          51.000    23804009.680 8  95848876.612 8      -238.442          51.000
E09  24917212.562 6 130940834.252 6     -2550.027          38.000
E36  26466658.516 7 139083289.413 7     -2503.363          45.000    26466664.453 7 106570321.202 7     -1918.123          46.000
> 2020 05 07 20 08  0.0000000  0 20        .000000000000
G01  20269822.531 8 106518635.820 8       110.863          51.000    20269824.414 8  83001546.268 8        86.390          51.000
G03  20993837.078 7 110323391.560 7      1693.590          43.000    20993839.914 7  85966310.145 7      1319.683          42.000
G08  23230124.133 5 122075060.485 5     -3534.918          33.000    23230120.203 5  95123414.101 5     -2754.488          33.000
G11  20538085.102 8 107928387.535 8     -2033.309          51.000    20538084.438 8  84100018.480 8     -1584.396          48.000
G14  22070971.562 6 115983747.776 6     -1030.281          39.000    22070970.594 5  90376948.332 5      -802.820          34.000
G22  20610431.508 8 108308649.353 8        39.387          51.000    20610428.727 8  84396276.378 8        30.691          51.000
G32  23033601.234 6 121042409.476 6     -2433.430          36.000
R05  19359234.961 8 103486241.776 8     -1259.270          51.000    19359237.570 8  80489307.738 8      -979.432          49.000
R06  20738776.711 7 110666131.570 7      3059.508          42.000
R19  23386937.836 4 125104344.676 4     -3968.668          29.000    23386945.930 7  97303406.021 7     -3086.742          42.000
R20  19549111.016 6 104537873.607 6     -1154.605          38.000    19549113.336 7  81307250.504 7      -898.026          46.000
C05                                                                  39675842.820 6 159758178.030 6       -24.962          37.000
C11  22015747.234 8 114641767.290 8     -1315.875          50.000    22015747.062 8  88648277.418 8     -1017.524          51.000
C12  25292988.062 5 131707187.502 5     -3323.621          33.000    25292999.523 6 101844342.257 6     -2570.288          37.000
C14  22315266.539 8 116201447.239 8      1809.906          49.000    22315266.773 8  89854355.711 8      1399.574          51.000
C21  23486233.172 6 122298996.326 6     -2373.883          39.000
E03  24828821.586 8 130476339.242 8      2341.855          51.000    24828824.688 8  99975422.630 8      1794.421          51.000
E05  23805819.727 8 125100518.223 8      -324.230          51.000    23805822.641 8  95856177.895 8      -248.484          51.000
E09  24931784.094 6 131017411.773 6     -2555.773          37.000
E36  26480964.484 7 139158465.100 7     -2508.641          46.000    26480970.016 7 106627923.357 7     -1922.205          46.000
> 2020 05 07 20 08 30.0000000  0 20        .000000000000
G01  20269226.094 8 106515501.479 8        98.391          51.000    20269228.078 8  82999103.938 8        76.668          51.000
G03  20984202.672 7 110272761.423 7      1682.324          42.000    20984205.211 6  85926858.138 6      1310.902          41.000
G08  23250323.031 6 122181200.672 6     -3540.797          36.000    23250315.445 5  95206120.647 5     -2759.072          35.000
G11  20549739.438 8 107989630.457 8     -2049.137          50.000    20549738.930 8  84147740.275 8     -1596.730          49.000
G14  22076898.422 6 116014893.552 6     -1046.789          36.000    22076898.414 5  90401217.858 5      -815.671          33.000
G22  20610239.453 8 108307640.160 8        28.254          51.000    20610236.680 8  84395490.008 8        22.019          51.000
G32  23047526.656 6 121115603.612 6     -2446.090          37.000
R05  19366359.656 8 103524328.029 8     -1279.418          51.000    19366362.453 8  80518930.384 8      -995.103          48.000
R06  20721617.430 7 110574574.056 7      3044.672          42.000
R19  23409219.648 5 125223524.233 5     -3975.547          33.000    23409225.578 7  97396101.309 7     -3092.089          42.000
R20  19555646.812 6 104572828.398 6     -1175.328          38.000    19555649.758 7  81334437.554 7      -914.144          47.000
C05                                                                  39676028.258 6 159758924.091 6       -24.690          36.000
C11  22023370.203 8 114681460.045 8     -1329.895          51.000    22023369.906 8  88678970.382 8     -1028.280          51.000
C12  25312149.695 5 131806969.846 5     -3327.297          34.000    25312163.422 5 101921500.365 5     -2573.134          35.000
C14  22304871.188 8 116147314.515 8      1799.285          49.000    22304871.000 8  89812496.886 8      1391.403          51.000
C21  23499926.570 6 122370301.213 6     -2379.754          37.000
E03  24815476.883 8 130406211.822 8      2333.750          51.000    24815479.820 8  99921688.671 8      1788.216          51.000
E05  23807707.328 8 125110437.556 8      -336.590          51.000    23807709.984 8  95863778.443 8      -257.808          51.000
E09  24946387.305 6 131094157.022 6     -2560.598          36.000
E36  26495299.648 7 139233793.562 7     -2512.895          47.000    26495304.305 7 106685642.610 7     -1925.453          46.000
> 2020 05 07 20 09  0.0000000  0 20        .000000000000
G01  20268704.875 8 106512762.663 8        84.641          51.000    20268706.984 8  82996969.810 8        65.954          51.000
G03  20974636.891 7 110222494.122 7      1669.375          42.000    20974639.062 7  85887688.896 7      1300.815          42.000
G08  23270557.164 6 122287528.702 6     -3547.105          38.000    23270542.680 6  95288973.499 6     -2763.984          36.000
G11  20561487.227 8 108051365.995 8     -2066.242          50.000    20561487.039 8  84195845.940 8     -1610.059          49.000
G14  22082925.047 6 116046563.924 6     -1064.449          37.000    22082925.312 5  90425896.058 5      -829.441          33.000
G22  20610114.609 8 108306984.199 8        15.766          51.000    20610111.914 8  84394978.902 8        12.288          51.000
G32  23061530.898 6 121189202.249 6     -2460.062          38.000    23061536.648 5  94433137.791 5     -1916.926          33.000
R05  19373601.961 8 103563042.664 8     -1301.090          51.000    19373604.914 8  80549041.772 8     -1011.959          48.000
R06  20704547.883 7 110483493.009 7      3027.773          42.000
R19  23431541.633 5 125342921.583 5     -3983.879          34.000    23431545.297 6  97488965.963 6     -3098.572          40.000
R20  19562303.836 6 104608427.413 6     -1197.324          39.000    19562307.031 7  81362125.656 7      -931.252          46.000
C05                                                                  39676214.297 6 159759673.561 6       -25.182          37.000
C11  22031078.430 8 114721595.775 8     -1345.367          51.000    22031077.938 8  88710005.904 8     -1040.284          51.000
C12  25331338.047 5 131906887.089 5     -3332.777          35.000    25331352.266 6 101998762.797 6     -2577.070          37.000
C14  22294540.922 8 116093522.014 8      1787.227          49.000    22294540.281 8  89770901.122 8      1382.003          51.000
C21  23513658.664 6 122441810.196 6     -2387.215          36.000
E03  24802183.328 8 130336353.690 8      2324.008          51.000    24802186.312 8  99868161.056 8      1780.745          51.000
E05  23809669.188 8 125120746.925 8      -350.242          51.000    23809671.930 8  95871677.869 8      -268.409          51.000
E09  24961022.266 6 131171068.479 6     -2566.332          36.000
E36  26509663.656 7 139309274.510 7     -2518.641          47.000    26509667.664 7 106743478.663 7     -1929.832          47.000
> 2020 05 07 20 09 30.0000000  0 20        .000000000000
G01  20268258.266 8 106510416.039 8        71.723          51.000    20268260.523 8  82995141.281 8        55.888          51.000
G03  20965139.789 7 110172586.095 7      1657.523          43.000    20965141.789 7  85848799.535 7      1291.577          43.000
G08  23290825.484 6 122394038.174 6     -3553.188          36.000    23290809.508 5  95371967.809 5     -2768.724          32.000
G11  20573327.680 8 108113588.848 8     -2082.121          51.000    20573327.797 8  84244331.316 8     -1622.429          50.000
G14  22089051.070 6 116078753.713 6     -1081.523          36.000    22089049.750 5  90450979.005 5      -842.749          32.000
G22  20610056.250 8 108306677.085 8         4.555          51.000    20610053.383 8  84394739.598 8         3.549          51.000
G32  23075611.359 6 121263199.029 6     -2473.590          38.000    23075618.727 5  94490797.586 5     -1927.473          31.000
R05  19380960.672 8 103602378.920 8     -1321.453          51.000    19380963.516 8  80579636.642 8     -1027.797          48.000
R06  20687567.391 7 110392885.794 7      3012.566          43.000
R19  23453901.734 5 125462530.823 5     -3990.883          35.000    23453904.258 6  97581995.415 6     -3104.017          39.000
R20  19569080.492 6 104644666.780 6     -1218.770          39.000    19569083.391 7  81390311.825 7      -947.932          46.000
C05                                                                  39676400.297 6 159760422.455 6       -24.938          36.000
C11  22038870.742 8 114762170.199 8     -1359.703          51.000    22038870.133 8  88741380.640 8     -1051.436          51.000
C12  25350551.461 5 132006933.757 5     -3337.078          35.000    25350564.641 5 102076125.321 5     -2580.477          35.000
C14  22284275.117 8 116040066.155 8      1776.340          48.000    22284274.344 8  89729565.688 8      1373.545          51.000
C21  23527429.008 5 122513517.513 5     -2393.055          34.000
E03  24788940.312 8 130266761.938 8      2315.297          51.000    24788943.375 8  99814837.547 8      1774.095          50.000
E05  23811704.398 8 125131441.676 8      -362.820          51.000    23811707.234 8  95879872.572 8      -277.996          51.000
E09  24975688.008 5 131248140.679 5     -2571.805          35.000
E36  26524055.570 8 139384903.475 8     -2523.293          48.000    26524059.297 7 106801428.120 7     -1933.399          46.000
> 2020 05 07 20 10  0.0000000  0 20        .000000000000
G01  20267884.781 8 106508453.863 8        62.117          51.000    20267887.180 8  82993612.307 8        48.403          51.000
G03  20955709.398 6 110123029.053 6      1649.129          41.000    20955711.398 6  85810183.716 6      1285.039          41.000
G08  23311113.211 5 122500739.473 5     -3555.527          34.000    23311111.133 5  95455107.363 5     -2770.541          32.000
G11  20585259.062 8 108176289.001 8     -2094.727          51.000    20585259.273 8  84293188.592 8     -1632.251          50.000
G14  22095274.391 5 116111453.690 5     -1095.562          32.000    22095271.766 5  90476459.490 5      -853.682          30.000
G22  20610062.406 8 108306709.288 8        -3.520          51.000    20610059.461 8  84394764.705 8        -2.742          51.000
G32  23089765.805 6 121337583.269 6     -2482.859          37.000
R05  19388433.617 8 103642325.758 8     -1338.531          51.000    19388436.367 8  80610706.422 8     -1041.080          48.000
R06  20670675.484 7 110302745.621 7      3000.023          46.000
R19  23476299.031 5 125582340.778 5     -3993.867          34.000    23476300.648 6  97675181.011 6     -3106.338          37.000
R20  19575975.859 6 104681537.783 6     -1236.344          40.000    19575977.922 7  81418989.278 7      -961.601          46.000
C05                                                                  39676584.625 6 159761164.312 6       -22.056          36.000
C11  22046745.211 8 114803174.589 8     -1370.805          50.000    22046745.086 8  88773087.833 8     -1060.087          51.000
C12  25369787.508 5 132107099.891 5     -3337.453          34.000    25369798.133 6 102153580.287 6     -2581.099          38.000
C14  22274072.516 8 115986939.096 8      1768.465          48.000    22274071.562 8  89688484.523 8      1367.483          51.000
C21  23541236.438 6 122585413.354 6     -2396.406          36.000
E03  24775746.492 8 130197429.248 8      2309.832          50.000    24775749.617 8  99761712.528 8      1769.892          49.000
E05  23813811.125 8 125142512.735 8      -372.148          51.000    23813813.734 8  95888355.599 8      -285.222          51.000
E09  24990382.398 5 131325346.577 5     -2573.621          34.000
E36  26538473.625 7 139460671.569 7     -2524.816          47.000    26538477.023 7 106859484.186 7     -1934.603          46.000
> 2020 05 07 20 10 30.0000000  0 18        .000000000000
G01  20267584.336 8 106506875.512 8        44.414          51.000    20267586.820 8  82992382.432 8        34.608          51.000
G03  20946344.969 6 110073822.012 6      1632.582          40.000    20946346.023 6  85771840.627 6      1272.142          40.000
G11  20597280.789 8 108239464.232 8     -2115.594          51.000    20597280.875 8  84342416.056 8     -1648.515          48.000
G14  22101593.562 5 116144657.937 5     -1116.559          34.000
G22  20610132.633 8 108307078.859 8       -19.750          51.000    20610129.977 8  84395052.705 8       -15.387          51.000
G32  23103993.758 5 121412351.318 5     -2500.828          32.000    23104006.406 5  94607027.699 5     -1948.709          32.000
R05  19396020.172 8 103682879.322 8     -1363.668          51.000    19396022.922 8  80642248.109 8     -1060.631          48.000
R06  20653872.016 7 110213073.888 7      2979.328          46.000
R19  23498732.469 5 125702348.063 5     -4005.797          33.000    23498734.562 6  97768520.063 6     -3115.620          36.000
R20  19582988.945 6 104719039.161 6     -1262.332          39.000    19582991.312 7  81448156.977 7      -981.814          46.000
C05                                                                  39676766.789 6 159761898.181 6       -25.282          36.000
C11  22054701.641 8 114844607.212 8     -1390.000          50.000    22054702.305 8  88805126.154 8     -1074.848          51.000
C12  25389046.359 5 132207382.999 5     -3347.312          33.000    25389054.406 6 102231125.504 6     -2587.699          41.000
C14  22263932.945 8 115934139.967 8      1752.766          48.000    22263931.758 8  89647656.960 8      1355.350          51.000
C21  23555079.086 6 122657494.736 6     -2407.754          36.000
E03  24762602.023 8 130128355.384 8      2296.344          50.000    24762604.828 8  99708785.842 8      1759.572          49.000
E05  23815989.117 8 125153958.089 8      -389.551          51.000    23815991.445 8  95897125.438 8      -298.475          51.000
E36  26552917.344 7 139536577.062 7     -2534.266          46.000    26552920.977 7 106917645.538 7     -1941.870          47.000
> 2020 05 07 20 11  0.0000000  0 19        .000000000000
G01  20267371.305 8 106505756.285 8        31.145          51.000    20267373.852 8  82991510.312 8        24.268          51.000
G03  20937061.562 6 110025039.964 6      1620.473          39.000    20937061.039 6  85733828.590 6      1262.703          39.000
G08  23351833.047 5 122714710.356 5     -3571.723          30.000
G11  20609406.938 8 108303188.057 8     -2131.719          51.000    20609406.984 8  84392070.979 8     -1661.080          48.000
G14  22108023.352 5 116178446.144 5     -1134.527          34.000
G22  20610281.266 8 108307859.912 8       -31.328          51.000    20610278.789 8  84395661.329 8       -24.408          51.000
R04  22827883.234 5 122242254.782 5     -3985.781          30.000
R05  19403733.867 8 103724112.899 8     -1384.141          51.000    19403736.258 8  80674318.677 8     -1076.554          48.000
R06  20637169.742 7 110123948.243 7      2963.320          43.000
R19  23521216.234 5 125822626.330 5     -4012.328          32.000    23521219.797 6  97862069.948 6     -3120.694          36.000
R20  19590134.117 6 104757247.102 6     -1283.832          40.000    19590136.430 7  81477874.261 7      -998.536          46.000
C05                                                                  39676961.227 6 159762681.261 6       -25.935          36.000
C11  22062754.805 8 114886541.454 8     -1404.594          51.000    22062755.430 8  88837552.407 8     -1086.178          51.000
C12  25408342.547 5 132307855.134 5     -3351.055          35.000    25408347.656 7 102308816.971 7     -2591.103          42.000
C14  22253870.773 8 115881743.102 8      1741.516          48.000    22253869.352 8  89607140.412 8      1346.493          51.000
C21  23568970.391 5 122729833.911 5     -2413.719          34.000
E03  24749521.398 8 130059615.986 8      2287.242          51.000    24749523.648 8  99656115.436 8      1752.550          49.000
E05  23818252.562 8 125165851.682 8      -402.410          51.000    23818254.945 8  95906238.738 8      -308.370          51.000
E36  26567401.227 7 139612694.057 7     -2539.215          46.000    26567405.438 7 106975968.959 7     -1945.668          47.000
> 2020 05 07 20 11 30.0000000  0 20        .000000000000
G01  20267217.797 8 106504949.645 8        19.391          51.000    20267220.320 8  82990881.761 8        15.110          51.000
G03  20927831.750 6 109976535.818 6      1609.762          40.000    20927830.844 6  85696033.173 6      1254.363          40.000
G08  23372228.406 5 122821884.795 5     -3576.629          35.000    23372225.688 5  95705351.705 5     -2786.984          34.000
G11  20621609.312 8 108367311.819 8     -2146.391          51.000    20621609.102 7  84442037.528 7     -1672.515          46.000
G14  22114535.312 5 116212666.910 5     -1150.301          32.000
G22  20610480.133 8 108308904.402 8       -41.457          51.000    20610477.469 8  84396475.223 8       -32.304          51.000
R04  22850210.250 5 122361826.122 5     -3988.145          30.000
R05  19411546.180 8 103765874.116 8     -1403.113          51.000    19411548.719 8  80706799.636 8     -1091.310          48.000
R06  20620541.242 7 110035220.461 7      2948.586          44.000
R19  23543722.961 5 125943024.089 5     -4018.184          31.000    23543727.398 6  97955712.751 6     -3125.254          37.000
R20  19597383.641 6 104796011.426 6     -1303.875          41.000    19597385.664 7  81508024.285 7     -1014.125          47.000
C05                                                                  39677139.898 6 159763400.752 6       -24.693          36.000
C11  22070876.211 8 114928831.020 8     -1417.816          50.000    22070876.570 8  88870253.420 8     -1096.312          51.000
C12  25427647.133 6 132408369.041 6     -3353.766          36.000    25427649.156 6 102386540.710 6     -2592.943          41.000
C14  22243857.695 8 115829603.086 8      1731.402          49.000    22243856.461 8  89566822.434 8      1338.894          51.000
C21  23582882.461 6 122802283.466 6     -2418.660          36.000
E03  24736476.727 8 129991064.926 8      2279.652          51.000    24736478.852 8  99603589.356 8      1746.699          49.000
E05  23820572.961 8 125178045.591 8      -413.727          51.000    23820575.453 8  95915582.146 8      -316.990          51.000
E09  25034649.633 5 131557970.704 5     -2591.957          32.000
E36  26581897.773 8 139688874.912 8     -2542.781          48.000    26581902.391 7 107034341.319 7     -1948.161          47.000
> 2020 05 07 20 12  0.0000000  0 20        .000000000000
G01  20267147.953 8 106504582.516 8         5.758          51.000    20267150.523 8  82990595.691 8         4.487          51.000
G03  20918679.141 7 109928436.037 7      1597.449          42.000    20918679.234 7  85658552.924 7      1244.769          42.000
G08  23392663.258 6 122929272.194 6     -3582.207          37.000    23392659.719 5  95789030.210 5     -2791.333          35.000
G11  20633911.648 8 108431960.707 8     -2162.824          51.000    20633910.492 7  84492413.274 7     -1685.318          45.000
G14  22121153.180 6 116247445.091 6     -1167.770          38.000
G22  20610753.047 8 108310338.159 8       -53.414          51.000    20610750.094 8  84397592.453 8       -41.621          51.000
R04  22872569.227 4 122481551.086 4     -3991.609          27.000
R05  19419480.562 8 103808288.563 8     -1423.727          51.000    19419483.352 8  80739788.658 8     -1107.343          48.000
R06  20604013.078 7 109947021.010 7      2932.184          45.000
R19  23566275.047 5 126063667.272 5     -4024.082          30.000    23566280.914 6  98049546.397 6     -3129.842          37.000
R20  19604760.953 6 104835460.526 6     -1325.465          40.000    19604763.461 7  81538706.910 7     -1030.917          47.000
C05                                                                  39677326.789 6 159764153.415 6       -24.947          36.000
C11  22079089.289 8 114971600.636 8     -1432.695          50.000    22079090.180 8  88903325.590 8     -1107.869          51.000
C12  25446982.609 5 132509048.272 5     -3358.203          35.000    25446982.562 6 102464392.301 6     -2596.519          39.000
C14  22233918.289 8 115777845.414 8      1719.773          49.000    22233917.086 8  89526800.137 8      1329.895          51.000
C21  23596840.445 6 122874966.842 6     -2425.688          39.000
E03  24723492.062 8 129922829.543 8      2270.230          51.000    24723494.578 8  99551305.149 8      1739.488          50.000
E05  23822974.430 8 125190665.351 8      -426.875          51.000    23822976.562 8  95925251.854 8      -327.038          51.000
E09  25049465.633 5 131635830.374 5     -2597.762          31.000
E36  26596431.047 8 139765245.363 8     -2547.883          49.000    26596435.656 8 107092858.994 8     -1952.271          48.000
> 2020 05 07 20 12 30.0000000  0 18        .000000000000
G01  20267161.445 8 106504653.276 8        -7.172          51.000    20267164.039 8  82990650.835 8        -5.585          51.000
G03  20909602.969 6 109880738.684 6      1585.625          41.000    20909603.836 6  85621386.246 6      1235.558          41.000
G08  23413136.852 5 123036867.608 5     -3587.586          35.000    23413136.531 5  95872870.784 5     -2795.525          35.000
G11  20646313.195 8 108497131.125 8     -2178.664          51.000    20646311.477 7  84543195.393 7     -1697.660          45.000
G14  22127875.961 5 116282777.263 5     -1184.645          33.000
G22  20611099.469 8 108312158.315 8       -64.676          51.000    20611096.422 8  84399010.779 8       -50.397          51.000
R05  19427536.367 8 103851351.380 8     -1443.797          50.000    19427539.062 8  80773281.958 8     -1122.953          48.000
R06  20587584.047 7 109859349.146 7      2915.914          45.000
R19  23588873.164 5 126184564.687 5     -4030.910          31.000    23588878.953 5  98143567.671 5     -3135.149          35.000
R20  19612265.609 6 104875592.194 6     -1346.668          39.000    19612268.516 8  81569920.421 8     -1047.408          48.000
C05                                                                  39677521.508 6 159764937.571 6       -24.445          36.000
C11  22087394.008 8 115014847.502 8     -1447.098          50.000    22087395.234 8  88936766.789 8     -1119.045          51.000
C12  25466348.086 5 132609889.031 5     -3361.695          32.000    25466347.562 6 102542368.835 6     -2599.588          36.000
C14  22224052.305 8 115726468.280 8      1708.656          49.000    22224050.508 8  89487072.104 8      1321.247          51.000
C21  23610842.672 6 122947880.209 6     -2432.129          36.000
E03  24710567.023 8 129854908.666 8      2261.094          51.000    24710570.227 8  99499261.911 8      1732.592          51.000
E05  23825456.547 8 125203708.005 8      -439.316          51.000    23825458.438 8  95935245.602 8      -336.679          51.000
E36  26610999.898 8 139841802.734 8     -2552.633          49.000    26611004.500 8 107151519.862 8     -1955.952          48.000
> 2020 05 07 20 13  0.0000000  0 18        .000000000000
G01  20267241.039 8 106505071.711 8       -19.867          51.000    20267243.602 8  82990976.888 8       -15.478          51.000
G03  20900585.703 6 109833353.082 6      1574.238          38.000    20900586.492 6  85584462.426 6      1226.679          38.000
G08  23433632.398 6 123144578.128 6     -3592.129          36.000    23433634.898 5  95956801.041 5     -2799.061          35.000
G11  20658796.586 8 108562730.687 8     -2193.895          51.000    20658794.641 7  84594311.923 7     -1709.528          46.000
G14  22134686.820 6 116318571.208 6     -1201.008          39.000
G22  20611501.969 8 108314273.116 8       -75.625          51.000    20611498.820 8  84400658.687 8       -58.926          51.000
R04  22917319.750 4 122721205.898 4     -3999.098          29.000
R05  19435695.602 8 103894967.389 8     -1463.316          51.000    19435698.344 8  80807205.530 8     -1138.132          48.000
R06  20571236.648 7 109772114.807 7      2900.414          45.000
R19  23611498.180 5 126305595.398 5     -4037.504          32.000    23611503.562 5  98237702.816 5     -3140.275          34.000
R20  19619880.438 6 104916313.575 6     -1367.371          38.000    19619883.875 8  81601592.602 8     -1063.511          48.000
C05                                                                  39677706.789 6 159765683.612 6       -24.509          36.000
C11  22095773.211 8 115058481.018 8     -1461.094          51.000    22095773.945 8  88970506.979 8     -1129.705          51.000
C12  25485726.766 5 132710799.583 5     -3364.770          31.000    25485726.984 5 102620399.440 5     -2601.708          34.000
C14  22214241.953 8 115675381.982 8      1697.879          49.000    22214239.648 8  89447568.987 8      1312.947          51.000
E03  24697684.750 8 129787212.368 8      2252.645          51.000    24697688.484 8  99447390.773 8      1726.082          51.000
E05  23828001.469 8 125217081.896 8      -451.410          51.000    23828003.547 8  95945493.150 8      -345.889          51.000
E36  26625586.680 8 139918455.606 8     -2556.898          49.000    26625591.391 8 107210253.901 8     -1959.119          48.000
> 2020 05 07 20 13 30.0000000  0 18        .000000000000
G01  20267400.828 8 106505911.236 8       -34.836          51.000    20267403.250 8  82991631.066 8       -27.145          51.000
G03  20891641.094 6 109786352.297 6      1560.523          36.000    20891643.219 6  85547838.463 6      1215.992          37.000
G08  23454163.047 5 123252473.413 5     -3599.465          34.000    23454167.109 5  96040875.339 5     -2804.775          35.000
G11  20671375.328 8 108628831.048 8     -2211.469          51.000    20671373.055 7  84645818.696 7     -1723.222          47.000
G14  22141599.523 6 116354898.576 6     -1220.113          36.000
G22  20611974.172 8 108316754.444 8       -88.602          51.000    20611970.914 8  84402592.202 8       -69.040          51.000
R05  19443971.742 8 103939207.814 8     -1484.809          50.000    19443974.312 7  80841614.772 7     -1154.848          47.000
R06  20554985.594 7 109685393.520 7      2882.363          47.000
R19  23634164.906 5 126426844.474 5     -4045.418          35.000    23634168.320 5  98332007.717 5     -3146.433          34.000
R20  19627618.984 6 104957698.783 6     -1390.367          36.000    19627623.500 8  81633781.102 8     -1081.397          48.000
C05                                                                  39677896.242 6 159766446.256 6       -25.841          36.000
C11  22104240.820 8 115102572.920 8     -1477.184          51.000    22104240.430 8  89004601.646 8     -1142.231          51.000
C12                                                                  25505133.141 6 102698538.648 6     -2606.496          36.000
C14  22204501.266 8 115624659.058 8      1684.922          50.000    22204498.945 8  89408346.836 8      1302.843          51.000
C21  23638940.961 5 123094168.544 5     -2445.434          30.000
E03  24684859.367 8 129719814.506 8      2241.887          51.000    24684863.461 8  99395748.314 8      1717.812          51.000
E05  23830623.156 8 125230859.106 8      -465.797          51.000    23830625.188 8  95956049.721 8      -356.888          51.000
E36  26640204.992 8 139995276.263 8     -2563.281          48.000    26640209.898 7 107269116.503 7     -1964.085          47.000
> 2020 05 07 20 14  0.0000000  0 17        .000000000000
G01  20267634.383 8 106507138.290 8       -47.160          51.000    20267636.680 8  82992587.229 8       -36.748          51.000
G03  20882763.211 6 109739702.490 6      1549.254          40.000    20882767.086 6  85511487.967 6      1207.208          40.000
G08  23474721.422 5 123360517.155 5     -3603.289          30.000    23474727.453 5  96125065.348 5     -2807.755          31.000
G11  20684042.320 8 108695396.664 8     -2226.355          51.000    20684040.070 8  84697687.999 8     -1734.822          48.000
G14  22148606.930 6 116391723.763 6     -1235.645          39.000    22148610.320 5  90694848.364 5      -962.840          31.000
G22  20612509.516 8 108319567.754 8       -99.070          51.000    20612506.297 8  84404784.413 8       -77.198          51.000
R05  19452357.477 8 103984035.419 8     -1503.727          50.000    19452360.008 7  80876480.716 7     -1169.565          47.000
R06  20538824.367 7 109599152.368 7      2866.965          46.000
R20  19635475.062 6 104999712.816 6     -1410.738          37.000    19635480.469 8  81666458.685 8     -1097.244          48.000
C05                                                                  39678083.836 6 159767201.375 6       -24.690          36.000
C11  22112789.867 8 115147088.672 8     -1490.730          51.000    22112788.578 8  89039024.044 8     -1152.673          51.000
C12                                                                  25524559.156 6 102776759.087 6     -2608.302          36.000
C14  22194823.664 8 115574265.947 8      1674.441          49.000    22194822.125 8  89369379.711 8      1294.851          51.000
C21  23653047.906 5 123167610.683 5     -2450.426          33.000
E03  24672084.578 8 129652681.918 8      2233.531          51.000    24672088.516 8  99344309.125 8      1711.443          50.000
E05  23833314.977 8 125245004.663 8      -477.422          51.000    23833316.852 8  95966888.539 8      -365.775          51.000
E36  26654848.547 8 140072230.017 8     -2567.043          49.000    26654853.141 7 107328081.096 7     -1966.982          47.000
> 2020 05 07 20 14 30.0000000  0 17        .000000000000
G01  20267947.086 8 106508781.602 8       -60.602          51.000    20267949.312 8  82993867.750 8       -47.222          51.000
G03  20873957.891 6 109693431.610 6      1537.023          40.000    20873962.156 6  85475432.744 6      1197.684          40.000
G11  20696802.727 8 108762454.199 8     -2242.422          50.000    20696800.984 8  84749940.644 8     -1747.342          49.000
G14  22155714.438 6 116429073.838 6     -1252.660          38.000    22155710.727 4  90723931.208 4      -976.099          27.000
G22  20613113.250 8 108322740.389 8      -110.754          51.000    20613110.141 8  84407256.600 8       -86.302          51.000
R05  19460858.047 8 104029475.716 8     -1523.875          49.000    19460860.453 7  80911823.200 7     -1185.236          46.000
R06  20522757.648 7 109513421.353 7      2850.168          44.000
R20  19643454.750 6 105042384.159 6     -1432.234          39.000    19643460.227 8  81699647.511 8     -1113.960          48.000
C05                                                                  39678274.500 6 159767969.570 6       -24.844          36.000
C11  22121425.609 8 115192055.644 8     -1505.480          51.000    22121423.922 8  89073795.347 8     -1164.006          51.000
C12                                                                  25544010.578 6 102855081.126 6     -2611.368          37.000
C14  22185214.555 8 115524230.885 8      1662.773          48.000    22185213.992 8  89330689.445 8      1285.837          51.000
C21  23667190.023 5 123241243.951 5     -2457.367          33.000
E03  24659365.945 8 129585843.701 8      2224.035          51.000    24659368.922 8  99293095.500 8      1704.122          50.000
E05  23836081.875 8 125259545.901 8      -490.215          51.000    23836083.852 8  95978030.547 8      -375.577          51.000
E09  25123990.883 5 132027463.365 5     -2622.535          33.000    25123999.578 6 101163924.656 6     -2009.385          37.000
E36  26669522.812 8 140149344.475 8     -2572.055          48.000    26669526.820 7 107387168.798 7     -1970.873          47.000
> 2020 05 07 20 15  0.0000000  0 18        .000000000000
G01  20268326.266 8 106510774.759 8       -73.652          50.000    20268328.328 8  82995420.890 8       -57.388          50.000
G03  20865212.281 6 109647473.004 6      1525.473          41.000    20865215.859 7  85439620.859 7      1188.680          42.000
G11  20709643.758 8 108829935.444 8     -2257.816          51.000    20709642.789 8  84802523.452 8     -1759.337          49.000
G14  22162908.672 5 116466880.077 5     -1269.723          35.000    22162906.086 5  90753393.628 5      -989.382          32.000
G22  20613772.453 8 108326204.648 8      -121.617          51.000    20613769.383 8  84409956.037 8       -94.764          51.000
R04  23007125.289 5 123202092.011 5     -4011.180          31.000    23007125.398 4  95823856.620 4     -3119.806          27.000
R05  19469459.922 8 104075458.138 8     -1543.074          50.000    19469462.500 7  80947587.316 7     -1200.169          46.000
R06  20506774.031 7 109428135.037 7      2833.922          44.000
R20  19651544.812 6 105085644.430 6     -1453.098          40.000    19651549.836 8  81733294.382 8     -1130.187          48.000
C05                                                                  39678455.688 6 159768698.455 6       -24.823          36.000
C11  22130135.211 8 115237406.732 8     -1519.535          51.000    22130133.375 8  89108863.709 8     -1174.968          51.000
C12  25563471.414 4 133115693.944 4     -3380.012          29.000    25563473.383 6 102933452.268 6     -2614.262          37.000
C14  22175661.266 8 115474487.801 8      1651.914          48.000    22175661.430 8  89292224.957 8      1277.328          51.000
C21  23681355.242 5 123315008.632 5     -2462.734          33.000
E03  24646690.773 8 129519233.820 8      2215.219          51.000    24646692.672 8  99242056.830 8      1697.328          49.000
E05  23838911.352 8 125274415.036 8      -502.500          51.000    23838913.164 8  95989423.803 8      -385.071          51.000
E09  25138971.578 5 132106186.314 5     -2627.004          32.000    25138978.461 6 101224241.778 6     -2012.723          38.000
E36  26684214.961 8 140226552.116 8     -2576.590          49.000    26684218.164 7 107446327.887 7     -1974.207          46.000
> 2020 05 07 20 15 30.0000000  0 17        .000000000000
G01  20268795.836 8 106513243.497 8       -89.004          49.000    20268797.844 8  82997344.607 8       -69.351          49.000
G03  20856550.031 7 109601951.893 7      1511.293          43.000    20856552.836 7  85404149.940 7      1177.634          43.000
G11  20722589.109 8 108897963.951 8     -2275.523          51.000    20722588.719 8  84855532.710 8     -1773.135          49.000
G14  22170213.438 6 116505266.063 6     -1287.957          37.000    22170208.781 5  90783301.909 5     -1003.597          30.000
G22  20614510.844 8 108330084.917 8      -135.102          51.000    20614507.711 8  84412979.641 8      -105.274          51.000
R05  19478186.508 8 104122106.994 8     -1564.805          48.000    19478189.086 7  80983869.772 7     -1217.070          46.000
R06  20490898.578 7 109343421.148 7      2815.430          45.000
R20  19659768.625 6 105129620.310 6     -1476.551          40.000    19659773.258 8  81767497.853 8     -1148.428          48.000
C05                                                                  39678651.234 6 159769485.847 6       -26.563          36.000
C11  22138942.055 8 115283265.353 8     -1535.918          51.000    22138940.508 8  89144324.521 8     -1187.624          51.000
C12  25582971.523 4 133217242.426 4     -3387.082          29.000    25582971.234 6 103011967.021 6     -2618.793          39.000
C14  22166187.789 7 115425160.945 7      1638.375          47.000    22166188.258 8  89254082.325 8      1266.953          51.000
C21  23695569.172 5 123389027.127 5     -2470.184          33.000
E03  24634082.945 8 129452978.364 8      2203.715          51.000    24634083.953 8  99191289.709 8      1688.609          49.000
E05  23841826.820 8 125289736.364 8      -517.062          51.000    23841828.516 8  96001163.541 8      -396.242          51.000
E09                                                                  25153999.117 6 101284725.642 6     -2017.922          38.000
E36  26698948.516 8 140303977.520 8     -2583.395          49.000    26698951.000 7 107505653.850 7     -1979.400          46.000
> 2020 05 07 20 16  0.0000000  0 18        .000000000000
G01  20269327.773 8 106516039.430 8      -100.480          50.000    20269329.703 8  82999523.274 8       -78.296          50.000
G03  20847943.117 7 109556719.617 7      1501.195          44.000    20847944.852 7  85368904.018 7      1169.763          44.000
G08  23557254.945 5 123794211.860 5     -3624.059          34.000    23557256.188 5  96463028.073 5     -2823.936          35.000
G11  20735610.047 8 108966389.344 8     -2289.215          51.000    20735610.086 8  84908851.209 8     -1783.804          49.000
G14  22177599.875 6 116544081.641 6     -1302.770          37.000    22177594.484 4  90813542.758 4     -1015.151          27.000
G22  20615299.867 8 108334231.509 8      -144.465          51.000    20615296.633 8  84416210.762 8      -112.570          51.000
R05  19487008.773 8 104169268.007 8     -1582.410          48.000    19487011.492 7  81020550.570 7     -1230.763          45.000
R06  20475102.883 7 109259130.780 7      2800.719          45.000
R20  19668097.867 6 105174160.026 6     -1495.953          40.000    19668102.273 8  81802139.838 8     -1163.519          48.000
C05                                                                  39678832.648 6 159770216.692 6       -24.914          36.000
C11  22147817.461 8 115329483.369 8     -1548.348          51.000    22147816.680 8  89180063.229 8     -1197.299          51.000
C12                                                                  25602476.289 6 103090510.060 6     -2619.934          40.000
C14  22156766.469 8 115376103.087 8      1628.961          48.000    22156766.742 8  89216147.728 8      1259.631          51.000
C21  23709804.211 5 123463150.280 5     -2473.918          35.000
E03  24621514.156 8 129386929.360 8      2196.379          51.000    24621514.352 8  99140680.762 8      1682.934          48.000
E05  23844799.773 8 125305360.136 8      -527.652          51.000    23844801.617 8  96013135.021 8      -404.305          51.000
E09                                                                  25169032.633 6 101345260.965 6     -2020.068          37.000
E36  26713694.898 8 140381471.172 8     -2585.984          48.000    26713697.508 7 107565032.131 7     -1981.627          45.000
> 2020 05 07 20 16 30.0000000  0 19        .000000000000
G01  20269938.203 8 106519247.041 8      -112.438          50.000    20269939.797 8  83002022.752 8       -87.611          50.000
G03  20839407.086 7 109511860.073 7      1490.355          44.000    20839408.133 7  85333948.563 7      1161.316          43.000
G08  23577959.203 5 123902994.048 5     -3628.039          34.000    23577957.578 5  96547793.434 5     -2827.043          35.000
G11  20748722.258 8 109035294.273 8     -2303.520          51.000    20748722.484 8  84962543.375 8     -1794.950          49.000
G14  22185083.773 6 116583409.426 6     -1318.203          38.000
G22  20616155.414 8 108338727.367 8      -154.336          51.000    20616152.070 8  84419714.037 8      -120.259          51.000
G32  23280483.742 5 122339760.611 5     -2648.699          33.000    23280480.867 5  95329682.653 5     -2063.921          32.000
R05  19495942.484 8 104217023.431 8     -1600.320          48.000    19495945.438 7  81057693.685 7     -1244.694          45.000
R06  20459402.867 7 109175350.669 7      2785.559          46.000
R20  19676548.469 6 105219348.785 6     -1515.680          39.000    19676552.359 7  81837286.659 7     -1178.859          47.000
C05                                                                  39679016.000 6 159770955.246 6       -23.820          36.000
C11  22156777.672 8 115376143.273 8     -1561.523          51.000    22156777.375 8  89216143.632 8     -1207.348          51.000
C12  25622013.125 5 133420555.393 5     -3390.547          31.000    25622004.188 6 103169144.407 6     -2621.596          38.000
C14  22147413.508 8 115327397.594 8      1618.984          50.000    22147413.242 8  89178485.606 8      1251.874          51.000
C21  23724074.852 5 123537459.618 5     -2478.469          35.000
E03  24609000.523 8 129321171.662 8      2188.406          51.000    24609000.227 8  99090295.015 8      1676.840          48.000
E05  23847846.172 8 125321369.425 8      -538.750          51.000    23847848.250 8  96025401.894 8      -412.817          51.000
E09                                                                  25184094.703 6 101405910.777 6     -2022.459          38.000
E36  26728469.945 8 140459116.430 8     -2589.340          48.000    26728473.234 7 107624526.573 7     -1984.049          46.000
> 2020 05 07 20 17  0.0000000  0 19        .000000000000
G01  20270629.914 8 106522881.601 8      -127.801          50.000    20270631.234 8  83004854.899 8       -99.585          50.000
G03  20830944.172 7 109467388.194 7      1476.461          43.000    20830946.133 7  85299295.171 7      1150.489          44.000
G08  23598695.203 5 124011945.485 5     -3634.363          33.000    23598690.906 5  96632690.640 5     -2831.968          34.000
G11  20761928.258 8 109104691.678 8     -2321.102          51.000    20761928.453 8  85016619.271 8     -1808.651          48.000
G14  22192667.719 5 116623262.642 5     -1336.320          34.000
G22  20617080.148 8 108343586.832 8      -167.613          51.000    20617076.789 8  84423500.648 8      -130.608          51.000
G32  23295649.930 6 122419468.263 6     -2662.727          36.000    23295651.586 6  95391784.440 6     -2074.858          36.000
R05  19504989.492 8 104265385.669 8     -1621.762          48.000    19504992.555 7  81095308.792 7     -1261.370          44.000
R06  20443801.445 7 109092097.607 7      2766.871          46.000
R20  19685123.156 6 105265200.754 6     -1539.180          39.000    19685126.609 7  81872949.309 7     -1197.140          47.000
C05                                                                  39679204.070 6 159771711.745 6       -25.288          36.000
C11  22165825.164 8 115423258.919 8     -1577.746          51.000    22165825.352 8  89252576.441 8     -1219.953          51.000
C12                                                                  25641557.875 6 103247880.170 6     -2626.063          37.000
C14  22138131.156 8 115279059.334 8      1605.488          50.000    22138130.289 8  89141107.437 8      1241.514          51.000
C21  23738382.766 5 123611968.119 5     -2487.219          31.000
E03  24596545.375 8 129255720.913 8      2176.969          51.000    24596545.250 8  99040144.473 8      1668.094          49.000
E05  23850968.523 8 125337778.050 8      -553.180          51.000    23850970.812 8  96037974.766 8      -423.817          51.000
E09                                                                  25199187.742 6 101466685.180 6     -2027.601          38.000
E36  26743276.539 7 140536927.407 7     -2596.051          47.000    26743280.984 7 107684148.010 7     -1989.125          47.000
> 2020 05 07 20 17 30.0000000  0 18        .000000000000
G01  20271405.992 8 106526959.894 8      -145.609          51.000    20271407.453 8  83008032.797 8      -113.459          51.000
G03  20822557.984 7 109423320.344 7      1460.199          43.000    20822560.766 7  85264956.550 7      1137.818          42.000
G11  20775230.609 8 109174596.495 8     -2340.672          50.000    20775230.555 7  85071090.553 7     -1823.900          46.000
G14  22200354.477 6 116663656.237 6     -1357.695          40.000
G22  20618076.891 8 108348825.025 8      -183.039          51.000    20618073.602 8  84427582.381 8      -142.628          51.000
G32  23310894.352 6 122499577.491 6     -2679.391          37.000    23310896.492 5  95454207.266 5     -2087.837          33.000
R05  19514152.883 8 104314368.147 8     -1645.125          48.000    19514155.180 7  81133406.256 7     -1279.545          44.000
R06  20428301.500 7 109009388.701 7      2745.820          44.000
R20  19693825.016 6 105311732.418 6     -1564.516          39.000    19693827.953 7  81909140.577 7     -1216.849          45.000
C05                                                                  39679399.992 6 159772500.662 6       -28.659          36.000
C11  22174963.312 8 115470845.736 8     -1596.203          51.000    22174963.750 8  89289373.586 8     -1234.310          51.000
C12                                                                  25661140.000 5 103326728.439 5     -2631.878          33.000
C14  22128922.320 8 115231104.650 8      1589.918          50.000    22128920.734 8  89104025.868 8      1229.510          51.000
C21  23752729.812 4 123686689.848 4     -2495.680          28.000
E03  24584152.000 8 129190594.250 8      2163.273          51.000    24584152.781 8  98990242.270 8      1657.600          50.000
E05  23854169.875 8 125354601.404 8      -569.789          51.000    23854172.195 8  96050865.414 8      -436.619          51.000
E09                                                                  25214314.594 6 101527595.388 6     -2034.614          38.000
E36  26758117.641 7 140614919.806 7     -2604.887          46.000    26758123.148 7 107743908.466 7     -1996.033          47.000
> 2020 05 07 20 18  0.0000000  0 17        .000000000000
G01  20272236.680 8 106531325.253 8      -156.055          51.000    20272238.500 8  83011434.381 8      -121.598          51.000
G03  20814218.938 7 109379499.350 7      1451.035          44.000    20814221.250 7  85230810.307 7      1130.677          43.000
G11  20788599.164 8 109244849.964 8     -2353.227          50.000    20788598.836 7  85125833.501 7     -1833.683          45.000
G14  22208113.805 6 116704431.225 6     -1371.004          38.000
G22  20619115.867 8 108354284.181 8      -191.281          51.000    20619112.438 8  84431836.274 8      -149.050          51.000
G32  23326183.852 5 122579928.808 5     -2688.379          34.000    23326185.062 5  95516818.693 5     -2094.841          33.000
R05  19523401.500 8 104363808.113 8     -1661.340          48.000    19523403.992 7  81171859.610 7     -1292.153          44.000
R06  20412874.039 7 108927066.684 7      2731.918          44.000
R20  19702624.039 6 105358783.171 6     -1582.809          39.000    19702625.969 7  81945735.613 7     -1231.073          45.000
C05                                                                  39679573.609 6 159773200.508 6       -26.478          36.000
C11  22184162.078 8 115518747.264 8     -1607.648          51.000    22184162.445 8  89326414.074 8     -1243.100          51.000
C12  25680718.945 5 133726233.635 5     -3403.754          33.000
C14  22119757.109 8 115183378.046 8      1581.453          50.000    22119754.930 8  89067120.658 8      1222.847          51.000
E03  24571790.781 8 129125635.456 8      2156.844          51.000    24571792.922 8  98940468.693 8      1652.655          51.000
E05  23857420.055 8 125371681.427 8      -579.324          51.000    23857422.406 8  96063952.719 8      -443.865          51.000
E09                                                                  25229444.906 6 101588519.738 6     -2035.557          38.000
E36  26772963.484 7 140692935.844 7     -2606.777          45.000    26772969.430 7 107803687.027 7     -1997.296          47.000
> 2020 05 07 20 18 30.0000000  0 18        .000000000000
G01  20273170.242 8 106536230.815 8      -168.078          51.000    20273172.414 8  83015256.898 8      -130.970          51.000
G03  20805975.281 7 109336177.964 7      1440.242          44.000    20805977.234 7  85197053.397 7      1122.267          44.000
G08  23661058.547 5 124339655.888 5     -3646.973          32.000    23661052.555 5  96888061.854 5     -2841.791          31.000
G11  20802082.008 8 109315703.142 8     -2367.320          51.000    20802081.438 7  85181043.746 7     -1844.665          45.000
G14  22215993.609 6 116745838.849 6     -1386.742          36.000
G22  20620244.672 8 108360215.959 8      -201.156          51.000    20620241.203 8  84436458.449 8      -156.742          51.000
G32  23341566.328 5 122660772.251 5     -2699.207          31.000    23341567.742 4  95579813.719 4     -2103.281          27.000
R05  19532783.617 8 104413959.679 8     -1679.035          48.000    19532785.617 7  81210866.384 7     -1305.916          43.000
R06  20397567.836 7 108845389.643 7      2716.156          45.000
R20  19711568.078 6 105406609.818 6     -1602.594          40.000    19711570.227 7  81982934.062 7     -1246.462          46.000
C05                                                                  39679773.141 6 159774004.793 6       -25.376          36.000
C11  22193469.578 8 115567213.106 8     -1620.520          51.000    22193469.250 8  89363890.956 8     -1253.161          49.000
C12  25700343.344 5 133828426.821 5     -3405.301          34.000
C14  22110683.609 8 115136130.088 8      1571.359          49.000    22110681.211 8  89030585.553 8      1214.990          51.000
E03  24559509.750 8 129061098.027 8      2148.605          51.000    24559513.297 8  98891017.971 8      1646.328          51.000
E05  23860766.938 8 125389269.825 8      -590.445          51.000    23860769.375 8  96077429.558 8      -452.416          51.000
E09                                                                  25244626.539 6 101649650.575 6     -2037.772          37.000
E36  26787861.656 7 140771227.538 7     -2609.992          45.000    26787867.898 7 107863676.806 7     -1999.855          47.000
> 2020 05 07 20 19  0.0000000  0 18        .000000000000
G01  20274163.656 8 106541450.964 8      -179.992          51.000    20274166.094 8  83019324.540 8      -140.254          51.000
G03  20797783.617 7 109293130.094 7      1429.691          43.000    20797785.562 7  85163509.658 7      1114.045          44.000
G11  20815635.773 8 109386928.644 8     -2381.164          51.000    20815635.266 7  85236544.109 7     -1855.453          45.000
G14  22223950.531 5 116787651.545 5     -1401.320          33.000
G22  20621420.227 8 108366393.661 8      -210.715          51.000    20621416.695 8  84441272.257 8      -164.193          51.000
G32  23356999.234 5 122741863.252 5     -2708.406          30.000    23357002.820 3  95643019.022 3     -2110.449          22.000
R05  19542255.297 8 104464589.784 8     -1696.297          48.000    19542257.062 7  81250245.387 7     -1319.342          42.000
R06  20382339.797 7 108764129.150 7      2700.953          45.000
R20  19720614.031 6 105454981.438 6     -1622.133          40.000    19720616.844 7  82020556.407 7     -1261.659          47.000
C05                                                                  39679955.695 6 159774738.237 6       -23.998          36.000
C11  22202842.633 8 115616018.438 8     -1633.164          51.000    22202841.078 8  89401630.342 8     -1262.896          48.000
C12  25719970.172 6 133930631.164 6     -3407.391          37.000
C14  22101658.680 8 115089136.912 8      1561.578          48.000    22101656.680 8  88994247.456 8      1207.442          51.000
C21  23795958.461 5 123911784.593 5     -2507.055          32.000
E03  24547265.789 8 128996756.717 8      2140.680          51.000    24547270.656 8  98841717.503 8      1640.258          51.000
E05  23864167.406 8 125407139.586 8      -601.059          51.000    23864169.930 8  96091121.980 8      -460.572          51.000
E09                                                                  25259816.180 6 101710813.457 6     -2040.085          37.000
E36  26802769.016 7 140849568.124 7     -2612.828          44.000    26802775.359 7 107923704.039 7     -2002.100          47.000
> 2020 05 07 20 19 30.0000000  0 17        .000000000000
G01  20275235.070 8 106547080.614 8      -195.402          51.000    20275237.359 8  83023711.284 8      -152.262          51.000
G03  20789662.266 7 109250450.315 7      1415.738          45.000    20789663.758 7  85130252.744 7      1103.176          46.000
G11  20829278.156 8 109458619.264 8     -2398.371          51.000    20829277.711 7  85292406.928 7     -1868.861          45.000
G22  20622660.531 8 108372910.911 8      -223.828          51.000    20622656.859 8  84446350.635 8      -174.412          51.000
G32  23372498.305 5 122823297.778 5     -2721.953          32.000
R05  19551833.953 8 104515791.673 8     -1717.133          49.000    19551835.344 7  81290069.074 7     -1335.548          42.000
R06  20367207.930 7 108683382.996 7      2681.984          44.000
R20  19729779.742 6 105503993.849 6     -1645.551          40.000    19729783.148 8  82058677.182 8     -1279.873          48.000
C05                                                                  39680139.070 6 159775477.204 6       -25.321          36.000
C11  22212298.703 8 115665256.102 8     -1649.426          51.000    22212296.070 8  89439704.033 8     -1275.401          48.000
C12  25739617.086 6 134032938.579 6     -3413.285          36.000
C14  22092700.414 7 115042492.287 7      1548.117          47.000    22092699.352 8  88958178.897 8      1197.036          51.000
C21  23810414.812 5 123987117.725 5     -2514.559          34.000
E03  24535077.336 8 128932706.803 8      2129.191          51.000    24535082.570 8  98792640.321 8      1631.485          51.000
E05  23867639.141 8 125425384.207 8      -615.344          51.000    23867641.898 8  96105101.637 8      -471.461          51.000
E09                                                                  25275031.453 6 101772079.514 6     -2044.728          37.000
E36  26817703.703 7 140928051.432 7     -2619.488          45.000    26817709.461 7 107983840.616 7     -2007.137          47.000
> 2020 05 07 20 20  0.0000000  0 17        .000000000000
G01  20276385.602 8 106553126.360 8      -207.520          51.000    20276387.664 8  83028422.259 8      -161.704          51.000
G03  20781612.000 7 109208144.734 7      1404.863          44.000    20781613.336 7  85097287.404 7      1094.699          44.000
G11  20843009.859 8 109530779.584 8     -2412.113          51.000    20843009.242 7  85348635.767 7     -1879.569          45.000
G22  20623966.367 8 108379772.919 8      -233.578          51.000    20623962.578 8  84451697.669 8      -182.009          51.000
G32  23388069.969 5 122905119.291 5     -2732.527          33.000    23388080.562 5  95770260.356 5     -2129.239          34.000
R05  19561520.156 8 104567568.552 8     -1734.414          48.000    19561522.305 7  81330340.028 7     -1348.989          42.000
R06  20352173.133 7 108603159.233 7      2666.379          44.000
R20  19739066.312 6 105553652.470 6     -1665.047          40.000    19739070.336 8  82097300.547 8     -1295.036          50.000
C05                                                                  39680324.617 6 159776224.318 6       -24.430          36.000
C11  22221838.789 8 115714931.305 8     -1662.199          51.000    22221835.352 8  89478116.051 8     -1285.327          49.000
C12  25759284.414 5 134135353.437 5     -3415.043          34.000
C14  22083810.547 8 114996202.340 8      1538.066          48.000    22083810.312 8  88922384.641 8      1189.234          51.000
C21  23824908.188 5 124062626.264 5     -2518.969          35.000
E03  24522945.984 8 128868955.270 8      2120.969          51.000    24522950.492 8  98743791.760 8      1625.191          51.000
E05  23871183.250 8 125444008.866 8      -626.230          51.000    23871186.078 8  96119372.495 8      -479.860          51.000
E09                                                                  25290273.188 6 101833452.176 6     -2046.877          37.000
E36  26832666.977 7 141006682.925 7     -2622.477          46.000    26832671.773 7 108044090.739 7     -2009.565          47.000
> 2020 05 07 20 20 30.0000000  0 16        .000000000000
G01  20277617.289 8 106559598.939 8      -222.797          51.000    20277619.133 8  83033465.820 8      -173.608          51.000
G03  20773634.148 7 109166223.656 7      1390.941          43.000    20773636.117 7  85064621.647 7      1083.853          43.000
G11  20856832.625 8 109603417.902 8     -2429.188          51.000    20856831.672 7  85405237.076 7     -1892.873          45.000
G22  20625339.602 8 108386989.284 8      -246.414          51.000    20625335.602 8  84457320.824 8      -192.011          51.000
R05  19571314.891 8 104619927.649 8     -1754.891          48.000    19571316.375 6  81371063.771 6     -1364.915          41.000
R06  20337239.195 7 108523468.917 7      2647.430          46.000
R20  19748475.664 6 105603967.003 6     -1688.164          40.000    19748479.852 8  82136434.082 8     -1313.016          50.000
C05                                                                  39680514.195 6 159776987.350 6       -25.669          36.000
C11  22231464.742 8 115765053.459 8     -1678.133          51.000    22231460.711 8  89516873.662 8     -1297.551          49.000
C12  25778974.219 5 134237884.208 5     -3419.816          31.000
C14  22074991.219 8 114950277.489 8      1524.773          49.000    22074991.242 8  88886872.682 8      1179.127          51.000
C21  23839440.672 5 124138318.723 5     -2526.367          34.000
E03  24510873.719 8 128805513.152 8      2109.625          51.000    24510877.180 8  98695180.306 8      1616.514          51.000
E05  23874801.453 8 125463022.821 8      -640.090          51.000    23874804.133 8  96133941.647 8      -490.497          51.000
E09                                                                  25305543.227 6 101894938.051 6     -2051.127          37.000
E36  26847660.562 7 141085472.209 7     -2628.836          45.000    26847664.711 8 108104461.758 8     -2014.222          48.000
> 2020 05 07 20 21  0.0000000  0 18        .000000000000
G01  20278920.172 8 106566445.550 8      -232.645          51.000    20278921.945 8  83038800.841 8      -181.281          51.000
G03  20765719.609 7 109124633.894 7      1382.570          46.000    20765721.703 7  85032214.032 7      1077.328          46.000
G08  23765480.656 5 124888450.088 5     -3665.949          33.000    23765472.203 5  97315620.015 5     -2856.584          33.000
G11  20870736.047 8 109676479.748 8     -2440.574          51.000    20870734.523 7  85462168.384 7     -1901.746          45.000
G22  20626769.961 8 108394505.827 8      -253.746          51.000    20626765.938 8  84463177.883 8      -197.724          51.000
G32  23419409.336 5 123069823.144 5     -2753.027          33.000    23419415.305 5  95898588.564 5     -2145.213          33.000
R05  19581207.992 7 104672812.140 7     -1769.660          47.000    19581209.969 7  81412196.149 7     -1376.402          42.000
R06  20322396.438 7 108444259.966 7      2634.125          47.000
R20  19757997.375 6 105654882.907 6     -1705.289          39.000    19758001.523 8  82176035.349 8     -1326.333          50.000
C05                                                                  39680697.477 6 159777725.539 6       -22.715          36.000
C11  22241165.773 8 115815569.010 8     -1688.594          51.000    22241161.727 8  89555935.475 8     -1305.667          50.000
C12  25798677.125 4 134340480.967 4     -3418.672          29.000
C14  22066232.031 8 114904665.199 8      1517.039          49.000    22066231.922 8  88851602.399 8      1173.074          51.000
C21  23854000.578 5 124214140.857 5     -2527.840          32.000
E03  24498850.211 8 128742328.145 8      2103.723          51.000    24498853.078 8  98646765.848 8      1611.949          51.000
E05  23878483.453 8 125482371.949 8      -648.641          51.000    23878486.094 8  96148767.618 8      -496.986          51.000
E09                                                                  25320831.078 6 101956495.254 6     -2051.926          37.000
E36  26862673.914 7 141164365.453 7     -2629.648          46.000    26862677.906 8 108164912.455 8     -2014.910          49.000
> 2020 05 07 20 21 30.0000000  0 15        .000000000000
G01  20280304.391 8 106573719.497 8      -248.781          51.000    20280306.344 8  83044468.843 8      -193.856          51.000
G03  20757878.523 7 109083428.245 7      1367.824          46.000    20757880.023 7  85000105.752 7      1065.837          46.000
G11  20884729.742 8 109750016.102 8     -2458.301          51.000    20884727.367 7  85519469.442 7     -1915.562          46.000
G22  20628267.273 8 108402374.563 8      -267.352          51.000    20628263.484 8  84469309.391 8      -208.326          51.000
G32  23435177.977 5 123152684.033 5     -2767.137          34.000    23435180.703 5  95963155.506 5     -2156.204          33.000
R05  19591208.773 7 104726272.517 7     -1790.832          46.000    19591210.906 6  81453776.448 6     -1392.869          41.000
R06  20307654.000 7 108365587.290 7      2614.293          46.000
R20  19767641.070 6 105706453.119 6     -1728.980          37.000    19767645.305 8  82216145.548 8     -1344.763          50.000
C11  22250951.570 8 115866529.449 8     -1705.285          50.000    22250948.445 8  89595341.305 8     -1318.644          50.000
C14  22057542.734 8 114859417.889 8      1502.914          48.000    22057542.711 8  88816614.341 8      1162.179          51.000
C21  23868594.781 5 124290143.260 5     -2535.129          35.000
E03  24486885.539 8 128679453.852 8      2091.441          51.000    24486888.461 8  98598589.465 8      1602.521          51.000
E05  23882239.289 8 125502108.064 8      -663.488          51.000    23882241.852 8  96163890.113 8      -508.411          51.000
E09                                                                  25336146.422 6 102018162.861 6     -2056.631          37.000
E36  26877716.719 7 141243414.755 7     -2636.828          45.000    26877721.453 8 108225482.741 8     -2020.364          50.000
> 2020 05 07 20 22  0.0000000  0 17        .000000000000
G01  20281767.281 8 106581406.931 8      -262.871          51.000    20281769.344 8  83050459.050 8      -204.835          51.000
G03  20750107.742 7 109042592.465 7      1355.289          45.000    20750109.023 7  84968285.702 7      1056.072          45.000
G11  20898810.711 8 109824011.189 8     -2473.879          51.000    20898808.273 8  85577127.961 8     -1927.698          48.000
G22  20629828.672 8 108410580.185 8      -278.883          51.000    20629824.977 8  84475703.411 8      -217.308          51.000
G32  23451012.109 6 123235889.385 6     -2778.816          36.000    23451012.734 5  96027990.810 5     -2165.311          35.000
R05  19601313.828 7 104780291.387 7     -1809.520          46.000    19601316.586 6  81495791.148 6     -1407.401          41.000
R06  20293008.844 7 108287437.481 7      2596.449          44.000
R20  19777403.930 6 105758662.262 6     -1750.520          37.000    19777408.484 8  82256752.694 8     -1361.515          49.000
C05                                                                  39681072.984 6 159779237.486 6       -25.424          36.000
C11  22260819.914 8 115917919.708 8     -1719.863          50.000    22260817.891 8  89635079.511 8     -1329.907          50.000
C12  25838152.672 4 134546048.826 4     -3428.207          28.000
C14  22048921.016 8 114814521.592 8      1490.973          49.000    22048920.906 8  88781897.686 8      1152.921          51.000
C21  23883220.906 6 124366310.132 6     -2541.406          38.000
E03  24474977.305 8 128616876.838 8      2081.172          51.000    24474980.617 8  98550640.860 8      1594.661          51.000
E05  23886065.773 8 125522215.923 8      -676.145          51.000    23886068.148 8  96179297.454 8      -518.091          51.000
E09                                                                  25351486.172 6 102079928.865 6     -2060.169          37.000
E36  26892785.352 7 141322605.209 7     -2641.703          42.000    26892792.008 8 108286161.200 8     -2024.273          50.000
> 2020 05 07 20 22 30.0000000  0 18        .000000000000
G01  20283308.414 8 106589505.536 8      -275.840          51.000    20283310.680 8  83056769.641 8      -214.940          51.000
G03  20742406.859 7 109002123.814 7      1343.801          46.000    20742409.070 7  84936751.704 7      1047.117          46.000
G08  23828425.477 5 125219220.711 5     -3680.785          31.000
G11  20912978.016 8 109898460.411 8     -2488.305          51.000    20912976.016 8  85635140.325 8     -1938.939          48.000
G22  20631453.758 8 108419119.515 8      -289.277          51.000    20631449.719 8  84482357.440 8      -225.411          51.000
G32  23466910.523 5 123319434.024 5     -2789.625          35.000    23466909.992 5  96093090.508 5     -2173.734          34.000
R05  19611522.352 7 104834862.701 7     -1827.434          46.000    19611525.078 6  81538235.510 6     -1421.337          40.000
R06  20278459.789 7 108209809.479 7      2579.738          43.000
R20  19787285.211 6 105811506.924 6     -1771.074          37.000    19787290.375 7  82297854.110 7     -1377.502          47.000
C05                                                                  39681261.828 6 159779998.135 6       -24.856          36.000
C11  22270769.992 8 115969736.284 8     -1733.398          48.000    22270769.164 8  89675147.390 8     -1340.452          51.000
C12  25857915.719 4 134648954.710 4     -3431.355          27.000
C14  22040366.469 8 114769973.620 8      1480.039          50.000    22040365.836 8  88747450.389 8      1144.412          51.000
C21  23897878.312 6 124442637.210 6     -2545.859          37.000
E03  24463125.406 8 128554595.061 8      2072.059          51.000    24463128.891 8  98502918.483 8      1587.681          51.000
E05  23889962.258 8 125542691.748 8      -687.773          51.000    23889964.516 8  96194986.742 8      -526.977          51.000
E09                                                                  25366849.461 6 102141789.849 6     -2062.926          37.000
E36  26907879.812 7 141401933.372 7     -2645.605          42.000    26907888.586 8 108346945.185 8     -2027.233          51.000
> 2020 05 07 20 23  0.0000000  0 18        .000000000000
G01  20284928.000 8 106598016.110 8      -290.969          51.000    20284930.266 8  83063401.247 8      -226.729          51.000
G03  20734776.258 7 108962022.659 7      1330.012          47.000    20734778.766 7  84905504.057 7      1036.373          47.000
G11  20927231.414 8 109973362.500 8     -2504.840          51.000    20927229.602 8  85693505.615 8     -1951.823          48.000
G14  22290998.172 5 117140000.595 5     -1533.828          34.000
G22  20633142.180 8 108427991.937 8      -301.770          51.000    20633138.039 8  84489271.027 8      -235.145          51.000
G32  23482872.945 5 123403315.744 5     -2802.238          34.000    23482873.023 5  96158452.920 5     -2183.562          33.000
R05  19621834.039 7 104889983.747 7     -1846.980          45.000    19621836.344 6  81581107.439 6     -1436.540          40.000
R06  20264009.703 7 108132705.330 7      2560.996          45.000
R20  19797286.188 6 105864986.852 6     -1793.820          38.000    19797290.867 7  82339449.610 7     -1395.194          47.000
C05                                                                  39681451.344 6 159780760.410 6       -25.947          36.000
C11  22280801.688 8 116021978.645 8     -1749.148          48.000    22280801.922 8  89715544.480 8     -1352.380          50.000
C12                                                                  25877689.969 5 104198745.209 5     -2655.803          33.000
C14  22031878.805 8 114725774.580 8      1466.953          50.000    22031877.297 8  88713272.898 8      1134.341          51.000
C21  23912566.625 6 124519123.154 6     -2552.766          36.000
E03  24451330.195 8 128492609.765 8      2060.719          51.000    24451333.469 8  98455423.276 8      1578.986          51.000
E05  23893928.711 8 125563534.948 8      -701.359          51.000    23893931.008 8  96210957.533 8      -537.444          51.000
E09                                                                  25382235.992 6 102203744.918 6     -2067.406          36.000
E36  26923001.156 7 141481399.000 7     -2651.672          44.000    26923010.898 8 108407834.482 8     -2031.786          50.000
> 2020 05 07 20 23 30.0000000  0 18        .000000000000
G01  20286658.594 8 106607109.908 8      -305.684          51.000    20286660.742 8  83070487.327 8      -238.195          51.000
G03  20727247.992 7 108922459.799 7      1316.867          46.000    20727249.984 7  84874675.864 7      1026.130          46.000
G11  20941602.938 8 110048886.753 8     -2520.688          51.000    20941601.609 8  85752355.707 8     -1964.172          48.000
G14  22299822.797 5 117186380.671 5     -1550.484          34.000
G22  20634926.141 8 108437367.226 8      -313.898          51.000    20634922.305 8  84496576.467 8      -244.593          51.000
G32  23498931.312 5 123487702.815 5     -2814.043          33.000    23498932.742 5  96224209.059 5     -2192.764          34.000
R05  19632280.625 7 104945825.549 7     -1866.020          44.000    19632282.695 6  81624539.949 6     -1451.349          39.000
R06  20249691.828 7 108056299.060 7      2542.621          46.000
R20  19807438.391 6 105919274.712 6     -1815.781          39.000    19807442.711 7  82381673.466 7     -1412.277          47.000
C05                                                                  39681673.938 6 159781657.150 6       -26.388          36.000
C11  22290948.094 8 116074815.160 8     -1763.965          49.000    22290948.539 8  89756401.029 8     -1363.970          51.000
C12                                                                  25897512.477 5 104278578.254 5     -2658.697          35.000
C14  22023490.461 8 114682093.792 8      1454.434          50.000    22023488.008 8  88679496.164 8      1124.706          51.000
C21  23927318.438 5 124595935.553 5     -2558.809          32.000
E03  24439624.195 8 128431092.524 8      2049.844          51.000    24439627.438 8  98408286.736 8      1570.701          51.000
E05  23897997.133 8 125584915.327 8      -714.520          51.000    23897999.477 8  96227339.919 8      -547.462          51.000
E09                                                                  25397678.016 5 102265923.711 5     -2070.606          35.000
E36  26938181.992 7 141561172.219 7     -2657.066          45.000    26938191.195 8 108468959.483 8     -2035.898          49.000
> 2020 05 07 20 24  0.0000000  0 17        .000000000000
G01  20288399.758 8 106616259.242 8      -315.520          51.000    20288401.766 8  83077616.687 8      -245.859          51.000
G03  20719721.242 7 108882907.130 7      1309.020          45.000    20719723.188 7  84843855.647 7      1020.018          45.000
G11  20955991.930 8 110124503.727 8     -2531.480          50.000    20955991.461 8  85811278.032 8     -1972.582          49.000
G22  20636705.242 8 108446716.960 8      -320.449          51.000    20636701.539 8  84503861.982 8      -249.701          51.000
G32  23514984.500 5 123572064.673 5     -2821.332          32.000    23514986.977 4  96289945.580 4     -2198.444          25.000
R05  19642760.531 7 105001847.356 7     -1879.910          43.000    19642763.125 6  81668112.515 6     -1462.149          39.000
R06  20235404.023 7 107980055.984 7      2529.191          45.000
R20  19817641.492 6 105973832.628 6     -1832.766          40.000    19817645.547 7  82424107.391 7     -1425.484          47.000
C05                                                                  39681829.203 5 159782282.717 5       -23.560          35.000
C11  22301108.398 8 116127721.666 8     -1774.035          49.000    22301108.672 8  89797311.696 8     -1371.730          51.000
C12                                                                  25917284.805 6 104358205.034 6     -2658.144          37.000
C14  22015101.250 8 114638408.046 8      1446.949          51.000    22015098.094 8  88645715.595 8      1118.888          51.000
C21  23942033.070 5 124672448.720 5     -2560.430          31.000
E03  24427906.938 8 128369516.068 8      2044.180          51.000    24427910.172 8  98361104.819 8      1566.314          51.000
E05  23902067.172 8 125606303.786 8      -722.441          51.000    23902069.359 8  96243728.498 8      -553.535          51.000
E09                                                                  25413074.734 5 102327920.434 5     -2070.304          33.000
E36  26953321.086 7 141640724.285 7     -2657.332          47.000    26953328.922 7 108529915.015 7     -2036.129          47.000
> 2020 05 07 20 24 30.0000000  0 18        .000000000000
G01  20290261.734 8 106626044.247 8      -332.879          51.000    20290263.656 8  83085241.378 8      -259.386          51.000
G03  20712306.883 7 108843944.419 7      1292.684          45.000    20712308.656 7  84813495.130 7      1007.286          45.000
G08  23912658.953 5 125661849.385 5     -3696.852          31.000
G11  20970508.625 8 110200790.751 8     -2550.176          50.000    20970508.789 8  85870722.494 8     -1987.150          48.000
G22  20638589.648 8 108456619.677 8      -335.348          51.000    20638585.711 8  84511578.393 8      -261.307          51.000
G32  23531141.945 5 123656978.493 5     -2835.461          32.000    23531146.703 5  96356112.132 5     -2209.447          32.000
R05  19653384.133 7 105058636.088 7     -1901.859          43.000    19653386.414 6  81712281.504 6     -1479.227          37.000
R06  20221257.016 7 107904566.723 7      2507.578          45.000
R20  19828004.844 6 106029249.534 6     -1857.555          41.000    19828008.977 8  82467209.437 8     -1444.765          48.000
C05                                                                  39682027.453 5 159783080.217 5       -26.330          35.000
C11  22311392.586 8 116181271.678 8     -1791.871          50.000    22311392.453 8  89838719.991 8     -1385.685          51.000
C12  25937112.758 4 135061348.073 4     -3442.691          29.000    25937116.156 6 104438068.477 6     -2662.977          36.000
C14  22006821.500 8 114595291.934 8      1431.559          50.000    22006818.172 8  88612375.494 8      1106.996          51.000
C21  23956819.906 5 124749437.424 5     -2569.406          32.000
E03  24416288.641 8 128308460.934 8      2030.355          51.000    24416291.844 8  98314322.345 8      1555.751          51.000
E05  23906249.000 8 125628279.079 8      -738.457          51.000    23906251.172 8  96260566.725 8      -565.813          51.000
E09                                                                  25428536.242 5 102390178.154 5     -2076.963          32.000
E36  26968528.359 8 141720634.271 8     -2665.785          48.000    26968534.422 7 108591144.776 7     -2042.630          46.000
> 2020 05 07 20 25  0.0000000  0 18        .000000000000
G01  20292217.242 8 106636321.174 8      -344.973          51.000    20292219.195 8  83093249.377 8      -268.807          51.000
G03  20704977.414 7 108805427.375 7      1282.352          45.000    20704978.477 7  84783481.857 7       999.235          45.000
G08  23933789.516 5 125772907.919 5     -3698.797          32.000    23933791.797 5  98004875.684 5     -2882.179          31.000
G11  20985125.125 8 110277602.103 8     -2563.289          51.000    20985125.477 7  85930575.504 7     -1997.368          47.000
G14  22326758.523 6 117327914.869 6     -1596.426          36.000
G22  20640551.766 8 108466930.323 8      -344.656          51.000    20640547.688 8  84519612.675 8      -268.563          51.000
G32  23547376.617 5 123742297.434 5     -2845.215          31.000    23547382.477 5  96422594.446 5     -2217.047          30.000
R05  19664122.742 7 105116042.143 7     -1917.801          44.000    19664125.461 6  81756930.672 6     -1491.623          38.000
R06  20207224.086 7 107829685.379 7      2491.805          45.000
R20  19838501.570 6 106085377.908 6     -1876.859          41.000    19838505.445 8  82510864.843 8     -1459.780          48.000
C05                                                                  39682241.250 5 159783941.191 5       -25.400          35.000
C11  22321772.492 8 116235321.318 8     -1804.273          48.000    22321772.430 8  89880514.621 8     -1395.197          51.000
C12  25956977.250 5 135164792.390 5     -3444.914          30.000    25956978.930 5 104518056.690 5     -2663.512          33.000
C14  21998623.375 8 114552602.586 8      1421.523          50.000    21998620.586 8  88579365.396 8      1099.245          51.000
C21  23971650.070 4 124826672.003 4     -2570.773          28.000
E03  24404741.812 8 128247783.616 8      2022.016          51.000    24404744.930 8  98267829.371 8      1549.307          51.000
E05  23910514.625 8 125650695.898 8      -748.910          51.000    23910516.938 8  96277743.274 8      -573.792          51.000
E36  26983775.766 8 141800757.235 8     -2668.566          48.000    26983780.312 7 108652537.705 7     -2044.755          46.000
> 2020 05 07 20 25 30.0000000  0 15        .000000000000
G01  20294203.555 8 106646759.933 8      -365.062          51.000    20294205.469 8  83101383.497 8      -284.461          51.000
G03  20697669.500 7 108767025.536 7      1264.078          45.000    20697670.594 7  84753558.352 7       984.999          45.000
G08  23954900.914 5 125883815.204 5     -3708.891          35.000    23954896.594 5  98091297.013 5     -2890.036          34.000
G11  20999778.336 8 110354606.039 8     -2584.137          50.000    20999778.711 7  85990578.561 7     -2013.613          46.000
G22  20642528.500 8 108477317.771 8      -361.535          51.000    20642524.547 8  84527706.810 8      -281.713          51.000
G32  23563625.602 5 123827687.627 5     -2861.461          30.000    23563631.734 5  96489132.994 5     -2229.707          31.000
R05  19674914.438 7 105173726.094 7     -1941.953          44.000    19674918.219 6  81801795.996 6     -1510.405          38.000
R06  20193242.836 7 107755078.005 7      2468.004          46.000
R20  19849068.406 7 106141880.667 7     -1904.309          42.000    19849071.711 8  82554811.423 8     -1481.129          48.000
C05                                                                  39682407.516 5 159784611.311 5       -29.970          35.000
C11  22332184.859 8 116289542.345 8     -1824.258          48.000    22332185.484 8  89922441.772 8     -1410.683          51.000
C14  21990444.398 8 114510012.727 8      1403.973          51.000    21990442.289 8  88546432.235 8      1085.595          51.000
E03  24393203.828 8 128187154.516 8      2006.043          51.000    24393206.664 8  98221373.315 8      1537.038          51.000
E05  23914801.219 8 125673222.844 8      -766.906          51.000    23914803.477 8  96295004.201 8      -587.644          51.000
E36  26999000.422 8 141880762.084 8     -2679.070          48.000    26999003.961 7 108713840.117 7     -2052.797          45.000
> 2020 05 07 20 26  0.0000000  0 15        .000000000000
G01  20296300.625 8 106657780.692 8      -369.469          51.000    20296302.414 8  83109971.119 8      -287.898          51.000
G03  20690463.883 7 108729158.661 7      1260.934          46.000    20690465.039 7  84724051.725 7       982.549          46.000
G08  23976056.062 5 125994992.672 5     -3702.855          34.000    23976050.977 5  98177928.832 5     -2885.339          33.000
G11  21014547.906 8 110432220.181 8     -2589.746          51.000    21014547.773 7  86051057.099 7     -2017.984          45.000
G22  20644599.547 8 108488200.993 8      -363.523          51.000    20644595.656 8  84536187.255 8      -283.265          51.000
G32  23579968.250 5 123913568.254 5     -2863.949          32.000    23579974.734 5  96556052.948 5     -2231.646          33.000
R05  19685836.586 7 105232111.994 7     -1950.082          44.000    19685839.828 6  81847207.270 6     -1516.730          36.000
R06  20179393.188 7 107681172.069 7      2459.281          46.000
R20  19859784.531 6 106199183.977 6     -1915.836          41.000    19859787.742 8  82599380.652 8     -1490.098          48.000
C05                                                                  39682606.336 5 159785411.276 5       -22.993          35.000
C11  22342709.836 8 116344349.717 8     -1829.145          48.000    22342711.188 8  89964822.317 8     -1414.414          51.000
C14  21982364.586 8 114467938.339 8      1401.324          51.000    21982362.812 8  88513897.655 8      1083.662          51.000
E03  24381755.062 8 128126994.083 8      2005.090          51.000    24381757.281 8  98175276.377 8      1536.394          50.000
E05  23919188.617 8 125696278.620 8      -769.742          51.000    23919190.883 8  96312670.312 8      -589.796          51.000
E36  27014282.023 8 141961067.878 8     -2674.270          48.000    27014285.445 7 108775373.123 7     -2049.065          46.000
> 2020 05 07 20 26 30.0000000  0 15        .000000000000
G01  20298447.898 8 106669064.946 8      -386.348          51.000    20298449.672 8  83118764.057 8      -301.050          51.000
G03  20683299.336 7 108691507.802 7      1245.379          45.000    20683300.320 7  84694713.455 7       970.428          45.000
G08  23997201.562 5 126106118.287 5     -3708.781          35.000    23997198.883 6  98264520.170 6     -2889.959          36.000
G11  21029372.797 8 110510124.039 8     -2607.461          51.000    21029371.875 7  86111761.398 7     -2031.788          46.000
G22  20646703.969 8 108499260.148 8      -377.457          51.000    20646700.086 8  84544804.794 8      -294.122          51.000
G32  23596343.117 5 123999619.778 5     -2876.594          31.000    23596349.070 5  96623103.766 5     -2241.499          30.000
R05  19696828.766 7 105290871.920 7     -1970.773          46.000    19696831.961 6  81892909.450 6     -1532.824          37.000
R06  20165614.516 7 107607645.209 7      2438.551          46.000
R20  19870589.555 6 106256962.504 6     -1940.055          40.000    19870592.539 7  82644319.511 7     -1508.931          47.000
C05                                                                  39682776.844 6 159786098.617 6       -25.941          36.000
C11  22353286.938 8 116399426.444 8     -1846.238          49.000    22353288.430 8  90007411.142 8     -1427.662          51.000
C14  21974322.742 8 114426063.513 8      1386.676          50.000    21974321.281 8  88481517.434 8      1072.263          51.000
E03  24370335.281 8 128066984.213 8      1991.848          51.000    24370336.555 8  98129294.834 8      1526.266          49.000
E05  23923615.758 8 125719543.290 8      -784.879          51.000    23923618.172 8  96330496.510 8      -601.413          51.000
E36  27029559.992 8 142041355.055 8     -2681.902          48.000    27029563.773 7 108836891.886 7     -2054.803          46.000
> 2020 05 07 20 27  0.0000000  0 17        .000000000000
G01  20300696.523 8 106680881.987 8      -400.430          51.000    20300698.445 8  83127972.150 8      -312.023          51.000
G03  20676226.445 7 108654341.754 7      1233.172          44.000    20676227.773 7  84665752.958 7       960.913          44.000
G08  24018388.695 5 126217458.994 5     -3712.188          35.000    24018387.922 5  98351279.163 5     -2892.617          34.000
G11  21044303.719 8 110588584.767 8     -2622.285          51.000    21044302.117 7  86172899.624 7     -2043.339          46.000
G14  22363929.750 5 117523244.048 5     -1659.430          33.000
G22  20648892.812 8 108510763.113 8      -388.500          51.000    20648889.023 8  84553768.153 8      -302.727          51.000
G32  23612800.180 5 124086102.726 5     -2887.504          31.000    23612806.094 4  96690492.128 4     -2250.009          26.000
R05  19707941.711 7 105350276.644 7     -1988.586          45.000    19707945.141 6  81939113.129 6     -1546.678          37.000
R06  20151958.219 7 107534771.216 7      2420.660          47.000
R20  19881533.914 6 106315488.484 6     -1960.902          39.000    19881537.398 8  82689839.693 8     -1525.146          48.000
C05                                                                  39682970.492 5 159786877.327 5       -25.802          35.000
C11  22363966.977 8 116455038.015 8     -1860.301          49.000    22363968.008 8  90050413.560 8     -1438.424          51.000
C14  21966370.352 8 114384654.714 8      1374.824          50.000    21966369.016 8  88449497.579 8      1063.207          51.000
C21  24031153.633 5 125136523.052 5     -2591.719          31.000
E03  24358995.664 8 128007394.517 8      1981.719          51.000    24358996.094 8  98083635.242 8      1518.481          49.000
E05  23928133.570 8 125743284.678 8      -796.859          51.000    23928136.039 8  96348687.987 8      -610.619          51.000
E36  27044885.414 8 142121891.773 8     -2686.316          48.000    27044889.586 7 108898601.860 7     -2058.298          46.000
> 2020 05 07 20 27 30.0000000  0 15        .000000000000
G01  20303043.180 8 106693214.333 8      -414.758          51.000    20303045.273 8  83137581.789 8      -323.188          51.000
G03  20669242.203 7 108617642.793 7      1220.473          42.000    20669244.430 6  84637156.337 6       951.018          41.000
G08  24039612.414 5 126328993.660 5     -3716.121          34.000    24039612.609 5  98438189.375 5     -2895.676          34.000
G11  21059336.773 8 110667582.876 8     -2637.344          51.000    21059334.953 7  86234456.594 7     -2055.073          46.000
G22  20651162.711 8 108522691.671 8      -399.781          51.000    20651159.047 8  84563063.148 8      -311.518          51.000
R05  19719170.930 7 105410304.906 7     -2006.242          46.000    19719173.852 5  81985801.788 5     -1560.414          35.000
R06  20138421.398 8 107462533.713 8      2402.324          48.000
R20  19892614.180 6 106374742.897 6     -1982.258          36.000    19892618.289 7  82735926.477 7     -1541.753          47.000
C05                                                                  39683183.555 5 159787735.737 5       -26.276          35.000
C11  22374745.906 8 116511165.762 8     -1874.711          49.000    22374746.547 8  90093815.120 8     -1449.612          51.000
C14  21958504.492 8 114343694.423 8      1362.730          51.000    21958503.141 8  88417824.502 8      1053.750          51.000
C21  24046118.477 4 125214461.455 4     -2596.828          29.000
E03  24347732.859 8 127948207.936 8      1971.082          51.000    24347733.070 8  98038284.528 8      1510.295          49.000
E05  23932738.664 8 125767483.927 8      -809.336          51.000    23932741.070 8  96367230.278 8      -620.132          51.000
E36  27060254.812 8 142202659.551 8     -2691.242          48.000    27060258.875 7 108960488.883 7     -2062.088          45.000
> 2020 05 07 20 28  0.0000000  0 15        .000000000000
G01  20305443.836 8 106705830.550 8      -424.043          51.000    20305446.094 8  83147412.597 8      -330.423          51.000
G03  20662303.133 7 108581178.907 7      1212.824          44.000    20662305.859 7  84608742.902 7       945.058          44.000
G08  24060828.250 5 126440488.647 5     -3714.398          31.000    24060828.891 5  98525068.563 5     -2894.336          31.000
G11  21074427.422 8 110746884.379 8     -2647.172          51.000    21074425.805 7  86296249.967 7     -2062.731          46.000
G22  20653469.195 8 108534812.780 8      -405.957          51.000    20653465.750 8  84572508.186 8      -316.327          51.000
R05  19730472.547 7 105470717.546 7     -2018.805          43.000    19730474.258 5  82032789.360 5     -1570.181          35.000
R06  20124959.820 8 107390697.829 8      2389.070          48.000
R20  19903786.109 6 106434488.996 6     -1998.500          36.000    19903791.367 8  82782395.692 8     -1554.386          48.000
C05                                                                  39683372.102 5 159788495.149 5       -22.651          35.000
C11  22385579.602 8 116567579.008 8     -1883.926          50.000    22385579.852 8  90137437.458 8     -1456.846          51.000
C14  21950680.352 8 114302952.853 8      1355.711          50.000    21950679.578 8  88386320.549 8      1048.219          51.000
C21  24061085.273 4 125292384.534 4     -2597.180          29.000
E03  24336502.984 8 127889193.330 8      1965.500          51.000    24336503.492 8  97993065.573 8      1506.000          50.000
E05  23937386.531 8 125791908.105 8      -816.836          51.000    23937388.984 8  96385944.918 8      -625.818          51.000
E36  27075624.055 8 142283425.808 8     -2690.914          48.000    27075628.281 7 109022374.730 7     -2061.794          46.000
> 2020 05 07 20 28 30.0000000  0 14        .000000000000
G01  20307935.320 8 106718923.799 8      -435.645          51.000    20307937.641 8  83157615.137 8      -339.463          51.000
G03  20655445.961 7 108545142.822 7      1202.809          45.000    20655448.188 7  84580662.888 7       937.256          45.000
G11  21089612.211 8 110826680.396 8     -2659.145          51.000    21089610.789 7  86358428.679 7     -2072.061          46.000
G22  20655848.836 8 108547318.692 8      -414.492          51.000    20655845.695 8  84582253.076 8      -322.978          51.000
R05  19741881.359 7 105531707.750 7     -2033.605          44.000    19741884.547 5  82080226.232 5     -1581.693          35.000
R06  20111609.852 7 107319460.739 7      2373.543          46.000
R20  19915087.203 6 106494921.992 6     -2016.977          39.000    19915093.031 8  82829399.125 8     -1568.760          48.000
C05                                                                  39683572.664 5 159789302.336 5       -20.830          35.000
C11  22396504.789 8 116624467.803 8     -1895.477          51.000    22396504.750 8  90181427.469 8     -1465.654          51.000
C14  21942934.328 8 114262621.146 8      1346.289          48.000    21942934.547 8  88355133.535 8      1041.063          51.000
C21  24076090.195 4 125370519.192 4     -2599.457          29.000
E03  24325342.992 8 127830544.256 8      1957.715          51.000    24325343.922 8  97948126.705 8      1500.034          51.000
E05  23942113.523 8 125816748.981 8      -826.125          51.000    23942116.297 8  96404978.856 8      -632.954          51.000
E36  27091029.914 8 142364382.729 8     -2692.938          48.000    27091034.531 7 109084406.682 7     -2063.438          47.000
> 2020 05 07 20 29  0.0000000  0 14        .000000000000
G01  20310496.273 8 106732381.519 8      -462.285          51.000    20310498.680 8  83168101.670 8      -360.222          51.000
G03  20648648.891 7 108509421.611 7      1177.824          46.000    20648650.539 7  84552828.211 7       917.782          46.000
G04  23553769.477 6 123775887.008 6      3678.527          40.000    23553769.211 6  96448753.744 6      2866.385          37.000
G08  24103324.992 4 126663826.682 4     -3730.117          29.000
G11  21104869.250 8 110906856.390 8     -2686.430          51.000    21104867.844 7  86420903.502 7     -2093.322          46.000
G22  20658280.055 8 108560095.597 8      -437.984          51.000    20658277.117 8  84592209.106 8      -341.287          51.000
R05  19753376.820 6 105593157.470 6     -2063.711          40.000    19753379.289 5  82128020.450 5     -1605.105          35.000
R06  20098350.328 7 107248709.258 7      2342.559          45.000
R20  19926495.609 6 106555925.857 6     -2050.594          40.000    19926501.000 8  82876846.557 8     -1594.906          48.000
C11  22407499.922 8 116681719.192 8     -1921.969          51.000    22407499.375 8  90225697.883 8     -1486.119          51.000
C14  21935245.812 8 114222587.423 8      1321.914          49.000    21935246.148 8  88324176.958 8      1022.309          51.000
E03  24314231.273 8 127772148.539 8      1934.824          51.000    24314232.570 8  97903381.964 8      1482.474          51.000
E05  23946898.289 8 125841892.581 8      -850.723          51.000    23946901.359 8  96424244.741 8      -651.778          51.000
E36  27106450.500 7 142445416.664 7     -2710.027          47.000    27106455.570 8 109146497.639 8     -2076.502          48.000
> 2020 05 07 20 29 30.0000000  0 13        .000000000000
G01  20313125.977 8 106746200.225 8      -469.195          51.000    20313128.469 8  83178869.501 8      -365.607          51.000
G03  20641910.805 7 108474011.386 7      1172.473          45.000    20641912.195 7  84525235.814 7       913.615          44.000
G04  23532733.789 6 123665344.578 6      3680.824          39.000    23532733.750 5  96362616.782 5      2868.178          35.000
G11  21120197.211 8 110987406.865 8     -2693.715          50.000    21120195.977 7  86483670.117 7     -2098.999          45.000
G22  20660761.977 8 108573138.718 8      -441.664          51.000    20660759.055 8  84602372.580 8      -344.154          51.000
R05  19764956.250 7 105655059.512 7     -2073.348          43.000    19764958.766 5  82176166.521 5     -1612.604          34.000
R06  20085181.469 7 107178440.354 7      2331.766          45.000
R20  19938010.062 6 106617495.462 6     -2064.199          40.000    19938014.930 8  82924733.995 8     -1605.488          48.000
C11  22418563.781 8 116739328.339 8     -1928.676          51.000    22418562.766 8  90270244.923 8     -1491.420          51.000
C14  21927614.125 8 114182847.933 8      1317.316          49.000    21927613.812 8  88293447.885 8      1018.611          51.000
E03  24303166.859 8 127714003.034 8      1931.445          51.000    24303168.672 8  97858828.930 8      1479.989          51.000
E05  23951739.797 8 125867333.981 8      -855.492          51.000    23951742.812 8  96443738.802 8      -655.519          51.000
E36  27121884.891 7 142526523.017 7     -2707.176          47.000    27121890.406 8 109208644.093 8     -2074.395          49.000
> 2020 05 07 20 30  0.0000000  0 14        .000000000000
G01  20315846.812 8 106760498.427 8      -483.039          51.000    20315849.500 8  83190010.945 8      -376.394          51.000
G03  20635253.898 7 108439030.213 7      1160.516          44.000    20635255.641 7  84497977.770 7       904.298          44.000
G04  23511739.383 6 123555021.036 6      3675.418          37.000    23511740.266 4  96276650.447 4      2863.974          28.000
G11  21135618.344 8 111068447.982 8     -2708.129          50.000    21135617.523 7  86546819.046 7     -2110.230          45.000
G22  20663316.875 8 108586565.457 8      -452.441          51.000    20663314.039 8  84612834.969 8      -352.552          51.000
R05  19776643.000 7 105717530.875 7     -2090.234          42.000    19776644.977 6  82224755.341 6     -1625.735          36.000
R06  20072126.469 7 107108775.161 7      2313.535          46.000
R20  19949652.086 6 106679750.105 6     -2084.934          39.000    19949656.742 8  82973154.236 8     -1621.618          49.000
C05                                                                  39684138.344 5 159791580.489 5       -25.666          35.000
C11  22429718.438 8 116797411.355 8     -1942.391          51.000    22429717.070 8  90315158.385 8     -1502.116          51.000
C14  21920061.203 8 114143519.793 8      1305.520          48.000    21920060.898 8  88263036.892 8      1009.486          51.000
E03  24292172.148 8 127656226.613 8      1921.230          51.000    24292175.000 8  97814558.700 8      1472.067          51.000
E05  23956659.992 8 125893190.272 8      -867.457          51.000    23956662.938 8  96463550.772 8      -664.615          51.000
E36  27137355.148 7 142607819.301 7     -2711.613          46.000    27137360.961 8 109270936.076 8     -2077.703          49.000
> 2020 05 07 20 30 30.0000000  0 14        .000000000000
G01  20318645.195 8 106775203.961 8      -496.957          51.000    20318647.898 8  83201469.785 8      -387.239          51.000
G03  20628664.891 7 108404405.526 7      1148.113          45.000    20628667.258 7  84470997.480 7       894.634          45.000
G04  23490773.359 5 123444846.346 5      3669.758          35.000    23490776.766 4  96190799.922 4      2859.530          28.000
G11  21151118.898 8 111149905.386 8     -2722.238          51.000    21151118.367 7  86610292.354 7     -2121.225          45.000
G22  20665930.961 8 108600302.533 8      -463.137          51.000    20665928.211 8  84623539.192 8      -360.886          51.000
R05  19788421.375 7 105780494.864 7     -2107.070          44.000    19788425.141 6  82273727.388 6     -1638.829          37.000
R06  20059171.031 7 107039641.124 7      2295.539          46.000
R20  19961407.484 5 106742614.699 5     -2106.090          35.000    19961412.289 8  83022048.919 8     -1638.070          48.000
C05                                                                  39684330.352 5 159792353.884 5       -25.632          34.000
C11  22440949.977 8 116855895.301 8     -1956.223          51.000    22440948.211 8  90360381.861 8     -1512.618          51.000
C14  21912573.508 8 114104531.069 8      1293.934          48.000    21912573.508 8  88232888.393 8      1000.524          51.000
E03  24281233.719 8 127598747.461 8      1911.039          51.000    24281237.578 8  97770516.242 8      1464.300          51.000
E05  23961645.195 8 125919387.827 8      -878.867          51.000    23961648.250 8  96483624.235 8      -673.424          51.000
E36  27152847.391 7 142689232.238 7     -2715.656          46.000    27152853.445 8 109333317.478 8     -2080.911          48.000
> 2020 05 07 20 31  0.0000000  0 14        .000000000000
G01  20321521.977 8 106790320.643 8      -510.316          51.000    20321524.562 8  83213249.019 8      -397.646          51.000
G03  20622144.688 7 108370140.778 7      1136.770          45.000    20622147.188 7  84444297.656 7       885.794          46.000
G04  23469836.930 5 123334826.439 5      3664.871          33.000    23469841.266 5  96105070.235 5      2855.747          33.000
G11  21166699.367 8 111231780.776 8     -2735.758          50.000    21166698.688 7  86674091.347 7     -2131.759          45.000
G22  20668604.711 8 108614352.509 8      -473.121          51.000    20668601.812 8  84634487.236 8      -368.666          51.000
R05  19800292.750 7 105843951.633 7     -2122.887          43.000    19800295.008 5  82323082.652 5     -1651.137          34.000
R06  20046315.383 7 106971043.404 7      2278.180          45.000
R20  19973276.406 5 106806091.548 5     -2125.641          34.000    19973282.719 8  83071419.837 8     -1653.273          49.000
C05                                                                  39684521.672 5 159793124.099 5       -25.651          34.000
C11  22452258.453 8 116914782.564 8     -1969.098          50.000    22452256.477 8  90405917.232 8     -1522.731          50.000
C14  21905152.328 8 114065885.341 8      1282.867          50.000    21905151.742 8  88203005.066 8       992.085          51.000
E03  24270352.766 8 127541569.783 8      1901.348          51.000    24270356.945 8  97726704.801 8      1456.832          51.000
E05  23966695.906 8 125945929.130 8      -890.039          51.000    23966698.961 8  96503961.078 8      -681.984          51.000
E36  27168362.031 7 142770764.739 7     -2719.422          44.000    27168368.383 7 109395790.438 7     -2083.560          47.000
> 2020 05 07 20 31 30.0000000  0 14        .000000000000
G01  20324477.453 8 106805850.789 8      -523.707          51.000    20324479.781 8  83225350.440 8      -408.083          51.000
G03  20615693.141 7 108336237.730 7      1124.949          46.000    20615695.812 7  84417879.764 7       876.587          46.000
G04  23448930.828 5 123224965.922 5      3659.887          33.000    23448937.336 5  96019464.554 5      2851.857          31.000
G11  21182359.625 8 111314074.428 8     -2749.223          51.000    21182358.430 7  86738216.243 7     -2142.251          45.000
G22  20671338.195 8 108628716.661 8      -483.109          51.000    20671334.992 8  84645680.093 8      -376.449          51.000
R05  19812255.695 7 105907900.335 7     -2138.770          44.000    19812257.195 6  82372820.525 6     -1663.484          36.000
R06  20033560.516 7 106902983.816 7      2260.516          44.000
R20  19985261.062 6 106870181.752 6     -2145.660          37.000    19985267.891 8  83121267.811 8     -1668.844          48.000
C05                                                                  39684712.461 5 159793891.545 5       -25.149          34.000
C11  22463644.164 8 116974073.997 8     -1982.289          49.000    22463642.227 8  90451765.157 8     -1532.847          50.000
C14  21897797.672 8 114027584.565 8      1271.758          50.000    21897796.188 8  88173388.477 8       983.355          51.000
E03  24259530.008 8 127484696.223 8      1891.488          51.000    24259533.539 8  97683126.380 8      1449.316          51.000
E05  23971811.773 8 125972815.000 8      -901.223          50.000    23971814.773 8  96524561.961 8      -690.511          51.000
E36  27183899.766 7 142852417.945 7     -2723.027          45.000    27183905.805 7 109458355.930 7     -2086.502          45.000
> 2020 05 07 20 32  0.0000000  0 15        .000000000000
G01  20327513.734 8 106821806.463 8      -538.867          51.000    20327515.828 8  83237783.446 8      -419.897          51.000
G03  20609312.789 7 108302708.212 7      1111.457          47.000    20609315.367 7  84391752.893 7       866.067          47.000
G04  23428057.438 5 123115278.813 5      3653.555          31.000    23428065.039 4  95933994.144 4      2846.929          27.000
G11  21198101.320 8 111396795.923 8     -2764.547          51.000    21198099.789 7  86802674.526 7     -2154.192          46.000
G22  20674133.367 8 108643405.874 8      -495.004          51.000    20674130.164 8  84657126.249 8      -385.714          51.000
G32  23780532.867 5 124967543.153 5     -2987.816          31.000
R05  19824312.672 7 105972349.642 7     -2156.535          44.000    19824314.891 6  82422947.774 6     -1677.305          36.000
R06  20020909.484 7 106835476.591 7      2241.188          45.000
R20  19997363.695 6 106934895.888 6     -2167.328          39.000    19997369.633 7  83171601.025 7     -1685.700          47.000
C05                                                                  39684905.188 5 159794667.254 5       -26.025          35.000
C11  22475109.055 8 117033780.237 8     -1996.969          48.000    22475107.883 8  90497933.834 8     -1544.292          50.000
C14  21890511.109 8 113989640.327 8      1258.996          49.000    21890509.320 8  88144047.605 8       973.433          51.000
E03  24248767.844 8 127428139.227 8      1879.980          51.000    24248770.258 8  97639790.539 8      1440.508          51.000
E05  23976995.336 8 126000056.134 8      -913.836          51.000    23976998.172 8  96545435.053 8      -700.254          51.000
E36  27199462.688 7 142934202.942 7     -2728.340          44.000    27199468.047 7 109521022.403 7     -2090.522          45.000
> 2020 05 07 20 32 30.0000000  0 14        .000000000000
G01  20330635.680 8 106838212.999 8      -540.871          51.000    20330637.703 8  83250567.772 8      -421.458          51.000
G03  20603008.133 7 108269577.073 7      1111.113          46.000    20603010.211 7  84365936.432 7       865.803          46.000
G11  21213928.984 8 111479968.785 8     -2766.289          51.000    21213927.055 7  86867484.553 7     -2155.547          46.000
G22  20676994.961 8 108658444.199 8      -493.520          51.000    20676991.984 8  84668844.441 8      -384.561          51.000
G32  23797642.555 5 125057434.581 5     -2984.898          32.000
R05  19836467.102 7 106037321.622 7     -2160.547          43.000    19836470.039 6  82473481.551 6     -1680.422          38.000
R06  20008366.914 7 106768547.254 7      2235.055          46.000
R20  20009587.617 6 107000258.355 6     -2175.566          40.000    20009592.500 7  83222438.475 7     -1692.107          47.000
C05                                                                  39685104.344 5 159795469.357 5       -16.341          35.000
C11  22486658.523 8 117093924.964 8     -1998.785          49.000    22486657.680 8  90544441.557 8     -1545.370          49.000
C14  21883297.578 8 113952077.422 8      1259.238          49.000    21883295.758 8  88115001.584 8       973.835          51.000
E03  24238071.070 8 127371924.501 8      1881.742          51.000    24238072.117 8  97596716.954 8      1441.926          51.000
E05  23982251.273 8 126027676.460 8      -913.145          50.000    23982254.172 8  96566598.669 8      -699.715          51.000
E36  27215055.500 7 143016144.014 7     -2720.199          44.000    27215060.266 7 109583808.463 7     -2084.279          45.000
> 2020 05 07 20 33  0.0000000  0 14        .000000000000
G01  20333831.758 8 106855008.998 8      -566.699          51.000    20333833.859 8  83263655.584 8      -441.581          51.000
G03  20596767.305 7 108236782.414 7      1087.160          47.000    20596769.250 7  84340382.192 7       847.138          47.000
G11  21229830.250 8 111563528.953 8     -2792.031          51.000    21229828.227 7  86932596.398 7     -2175.606          47.000
G22  20679911.172 8 108673769.104 8      -515.832          51.000    20679908.250 8  84680785.937 8      -401.947          51.000
G32  23814777.883 5 125147488.953 5     -3006.547          33.000    23814777.922 5  97517537.176 5     -2342.761          32.000
R05  19848707.219 7 106102750.745 7     -2188.793          43.000    19848710.391 6  82524370.879 6     -1702.395          36.000
R06  19995921.609 7 106702134.600 7      2205.023          46.000
R20  20021920.805 6 107066204.889 6     -2208.113          40.000    20021924.453 7  83273730.210 7     -1717.421          46.000
C05                                                                  39685298.328 5 159796250.577 5       -25.823          35.000
C11  22498281.094 8 117154445.840 8     -2023.926          50.000    22498279.266 7  90591240.123 7     -1565.037          47.000
C14  21876145.789 8 113914834.672 8      1235.828          50.000    21876143.922 8  88086203.127 8       955.663          51.000
E03  24227427.875 8 127315990.974 8      1859.477          51.000    24227427.578 8  97553858.841 8      1424.878          51.000
E05  23987567.203 8 126055613.052 8      -936.707          50.000    23987570.430 8  96588004.665 8      -717.737          51.000
E36  27230666.312 7 143098178.716 7     -2736.238          43.000    27230670.891 7 109646666.251 7     -2096.535          46.000
> 2020 05 07 20 33 30.0000000  0 16        .000000000000
G01  20337090.617 8 106872134.920 8      -573.695          51.000    20337092.891 8  83277000.476 8      -447.035          51.000
G03  20590579.414 7 108204264.493 7      1081.902          47.000    20590581.547 7  84315043.538 7       843.038          47.000
G04  23365625.727 5 122787189.216 5      3643.203          33.000    23365627.125 5  95678342.859 5      2838.860          31.000
G08  24295220.422 5 127672235.191 5     -3738.078          31.000    24295223.719 5  99484877.341 5     -2912.788          32.000
G11  21245793.211 8 111647415.100 8     -2798.934          51.000    21245791.508 8  86997962.233 8     -2180.984          48.000
G22  20682870.438 8 108689320.096 8      -519.488          51.000    20682867.359 8  84692903.595 8      -404.796          51.000
G32  23831951.766 5 125237737.280 5     -3008.832          35.000    23831951.805 5  97587860.546 5     -2344.544          34.000
R05  19861020.141 7 106168572.603 7     -2197.887          43.000    19861022.312 6  82575565.657 6     -1709.467          37.000
R06  19983561.992 7 106636178.519 7      2193.641          46.000
R20  20034351.297 6 107132673.254 6     -2221.723          39.000    20034354.227 7  83325427.815 7     -1728.007          47.000
C05                                                                  39685475.633 5 159796965.042 5       -20.715          35.000
C11  22509964.750 8 117215282.567 8     -2030.559          51.000    22509960.633 7  90638282.916 7     -1570.308          45.000
C14  21869044.055 8 113877852.806 8      1231.027          50.000    21869042.523 8  88057606.416 8       951.839          51.000
E03  24216826.633 8 127260279.502 8      1855.949          51.000    24216825.680 8  97511170.886 8      1422.034          51.000
E05  23992931.938 8 126083805.073 8      -941.375          50.000    23992934.969 8  96609606.359 8      -721.298          51.000
E36  27246283.055 6 143180246.553 6     -2733.395          40.000    27246288.250 7 109709549.438 7     -2094.587          47.000
> 2020 05 07 20 34  0.0000000  0 17        .000000000000
G01  20340444.938 8 106889762.051 8      -590.016          51.000    20340447.273 8  83290735.913 8      -459.749          51.000
G03  20584476.594 7 108172194.033 7      1067.695          47.000    20584478.945 7  84290053.585 7       831.973          47.000
G04  23344883.797 5 122678187.510 5      3634.465          34.000    23344884.281 5  95593406.367 5      2832.051          33.000
G08  24316606.141 4 127784628.365 4     -3742.281          29.000    24316609.789 5  99572456.564 5     -2916.066          30.000
G11  21261850.234 8 111731796.420 8     -2815.188          51.000    21261849.195 8  87063713.909 8     -2193.653          49.000
G22  20685905.078 8 108705267.253 8      -532.270          51.000    20685901.922 8  84705329.961 8      -414.755          51.000
G32  23849194.773 6 125328348.122 6     -3020.527          36.000    23849194.617 6  97658466.416 6     -2353.658          36.000
R05  19873439.305 7 106234958.200 7     -2216.332          44.000    19873441.742 6  82627198.853 6     -1723.817          38.000
R06  19971320.484 7 106570854.252 7      2172.969          46.000
R20  20046911.094 6 107199836.449 6     -2244.449          36.000    20046914.375 8  83377665.853 8     -1745.680          48.000
C05                                                                  39685669.016 5 159797743.731 5       -22.630          35.000
C11  22521741.422 8 117276603.378 8     -2046.305          50.000    22521735.875 7  90685700.057 7     -1582.411          46.000
C14  21862024.680 8 113841301.116 8      1216.910          50.000    21862023.609 8  88029342.363 8       940.929          51.000
C21  24242759.141 5 126238420.774 5     -2648.883          32.000
E03  24206299.820 8 127204961.709 8      1843.141          51.000    24206299.211 8  97468784.560 8      1412.214          51.000
E05  23998377.836 8 126112422.346 8      -955.340          50.000    23998380.312 8  96631533.882 8      -731.975          50.000
E36  27261936.859 5 143262517.633 5     -2740.219          35.000    27261944.508 8 109772588.418 8     -2099.495          48.000
> 2020 05 07 20 34 30.0000000  0 16        .000000000000
G01  20343843.719 8 106907622.665 8      -610.410          51.000    20343845.992 8  83304653.292 8      -475.644          51.000
G03  20578407.867 7 108140302.960 7      1048.773          47.000    20578409.945 7  84265203.412 7       817.229          47.000
G04  23324139.195 6 122569178.235 6      3622.270          38.000    23324138.914 5  95508464.143 5      2822.560          35.000
G11  21277950.117 8 111816402.807 8     -2835.219          51.000    21277949.547 8  87129640.968 8     -2209.261          49.000
G22  20688963.914 8 108721341.821 8      -549.141          51.000    20688960.805 8  84717855.617 8      -427.899          51.000
G32  23866455.773 6 125419050.850 6     -3035.984          37.000    23866455.008 6  97729143.867 6     -2365.702          37.000
R05  19885912.430 6 106301631.657 6     -2238.793          39.000    19885914.172 6  82679055.990 6     -1741.280          38.000
R06  19959146.086 7 106505890.002 7      2148.027          46.000
R20  20059548.477 5 107267419.854 5     -2270.941          34.000    20059553.062 8  83430230.770 8     -1766.282          49.000
C05                                                                  39685827.367 5 159798381.229 5       -27.031          35.000
C11  22533559.180 8 117338141.575 8     -2065.973          49.000    22533554.195 8  90733285.286 8     -1597.514          49.000
C14  21855036.680 8 113804914.063 8      1199.020          50.000    21855035.789 8  88001205.634 8       927.116          51.000
C21  24258020.383 5 126317900.019 5     -2659.363          35.000
E03  24195796.703 8 127149770.227 8      1826.320          51.000    24195797.289 8  97426495.022 8      1399.382          51.000
E05  24003853.336 8 126141195.708 8      -973.039          51.000    24003855.688 8  96653581.027 8      -745.608          50.000
E36  27277577.492 5 143344723.221 5     -2750.219          35.000    27277588.219 8 109835577.296 8     -2107.379          48.000
> 2020 05 07 20 35  0.0000000  0 17        .000000000000
G01  20347361.969 8 106926111.714 8      -621.957          51.000    20347364.367 8  83319060.337 8      -484.642          51.000
G03  20572448.398 7 108108985.830 7      1039.070          47.000    20572449.938 7  84240800.456 7       809.662          46.000
G04  23303468.438 6 122460558.484 6      3618.848          40.000    23303468.375 5  95423825.421 5      2819.881          34.000
G08  24359386.320 5 128009446.308 5     -3750.730          30.000    24359389.039 5  99747614.584 5     -2922.647          32.000
G11  21294167.570 8 111901626.958 8     -2846.211          51.000    21294167.359 8  87196049.425 8     -2217.827          49.000
G22  20692121.969 8 108737937.608 8      -557.016          51.000    20692118.766 8  84730787.417 8      -434.038          51.000
G32  23883808.719 6 125510237.655 6     -3042.848          39.000    23883807.445 6  97800198.526 6     -2371.047          38.000
R05  19898512.547 6 106368991.025 6     -2251.805          41.000    19898515.984 6  82731446.679 6     -1751.401          39.000
R06  19947114.773 7 106441687.651 7      2132.258          47.000
R20  20072339.219 5 107335823.883 5     -2288.914          35.000    20072345.297 8  83483433.974 8     -1780.266          49.000
C05                                                                  39686025.617 5 159799180.011 5       -25.373          35.000
C11  22545493.070 8 117400287.053 8     -2076.984          48.000    22545489.797 8  90781340.104 8     -1605.908          51.000
C14  21848155.203 8 113769082.621 8      1189.887          49.000    21848154.398 8  87973498.529 8       920.096          51.000
C21  24273345.617 5 126397707.717 5     -2660.570          34.000
E03  24185392.727 8 127095100.333 8      1818.469          51.000    24185394.914 8  97384605.143 8      1393.381          51.000
E05  24009433.391 8 126170518.685 8      -981.773          51.000    24009435.734 8  96676049.311 8      -752.262          49.000
E36  27293284.328 6 143427257.489 6     -2751.906          40.000    27293294.289 8 109898817.892 8     -2108.556          49.000
> 2020 05 07 20 35 30.0000000  0 15        .000000000000
G01  20350952.508 8 106944980.550 8      -635.668          51.000    20350955.047 8  83333763.329 8      -495.326          51.000
G03  20566550.516 7 108077993.606 7      1027.305          46.000    20566551.938 7  84216650.685 7       800.500          46.000
G04  23282825.320 7 122352081.932 7      3613.223          42.000    23282826.008 6  95339298.311 6      2815.498          36.000
G11  21310454.875 8 111987218.133 8     -2859.664          50.000    21310455.031 8  87262743.865 8     -2228.310          48.000
G22  20695331.688 8 108754805.000 8      -567.129          51.000    20695328.359 8  84743930.843 8      -441.919          51.000
G32  23901205.445 6 125601657.046 6     -3051.418          40.000    23901204.555 6  97871434.397 6     -2377.728          40.000
R05  19911193.945 6 106436780.127 6     -2267.246          40.000    19911197.250 6  82784171.510 6     -1763.414          38.000
R06  19935178.969 7 106377994.884 7      2114.027          47.000
R20  20085237.281 6 107404794.450 6     -2308.891          39.000    20085243.492 8  83537077.752 8     -1795.804          48.000
C11  22557495.883 8 117462792.011 8     -2089.930          48.000    22557494.570 8  90829672.908 8     -1616.054          51.000
C14  21841333.188 8 113733560.131 8      1178.477          49.000    21841332.609 8  87946030.316 8       911.306          51.000
C21  24288687.898 5 126477595.437 5     -2665.363          32.000
E03  24175040.766 8 127040703.811 8      1808.207          51.000    24175044.516 8  97342924.716 8      1385.533          51.000
E05  24015070.586 8 126200141.286 8      -992.859          51.000    24015072.312 8  96698747.153 8      -760.691          48.000
E36  27309007.172 7 143509870.639 7     -2755.461          43.000    27309015.250 8 109962118.919 8     -2111.333          49.000
> 2020 05 07 20 36  0.0000000  0 16        .000000000000
G01  20354627.172 8 106964291.235 8      -650.172          51.000    20354629.750 8  83348810.610 8      -506.627          51.000
G03  20560726.523 7 108047387.941 7      1014.742          47.000    20560727.766 7  84192802.145 7       790.711          47.000
G04  23262221.758 7 122243812.839 7      3606.254          43.000    23262223.141 5  95254932.858 5      2810.068          35.000
G11  21326823.414 8 112073236.061 8     -2873.504          50.000    21326823.695 8  87329770.862 8     -2239.091          48.000
G22  20698604.656 8 108772004.790 8      -577.984          51.000    20698601.312 8  84757333.290 8      -450.377          51.000
G32  23918657.492 6 125693368.290 6     -3060.742          41.000    23918657.289 6  97942897.688 6     -2384.994          41.000
R05  19923966.430 6 106505058.441 6     -2283.398          40.000    19923968.938 6  82837276.895 6     -1775.977          39.000
R06  19923350.617 7 106314875.843 7      2095.344          47.000
R20  20098253.266 7 107474392.598 7     -2329.672          42.000    20098258.641 7  83591209.627 7     -1811.967          47.000
C05                                                                  39686411.820 5 159800734.400 5       -25.790          35.000
C11  22569579.453 8 117525716.559 8     -2103.578          49.000    22569579.547 8  90878330.179 8     -1626.599          51.000
C14  21834582.297 8 113698407.761 8      1166.535          48.000    21834582.070 8  87918848.310 8       901.976          51.000
C21  24304058.352 4 126557608.304 4     -2669.840          28.000
E03  24164752.852 8 126986643.041 8      1797.234          51.000    24164757.531 8  97301501.543 8      1377.117          51.000
E05  24020776.117 8 126230124.117 8     -1004.602          50.000    24020777.344 8  96721721.024 8      -769.700          48.000
E36  27324756.523 7 143592623.766 7     -2759.984          45.000    27324762.695 8 110025527.161 8     -2114.650          49.000
> 2020 05 07 20 36 30.0000000  0 16        .000000000000
G01  20358407.008 8 106984154.756 8      -662.316          51.000    20358409.773 8  83364288.678 8      -516.091          51.000
G03  20554997.359 7 108017279.457 7      1004.270          47.000    20554998.219 7  84169341.024 7       782.548          47.000
G04  23241679.203 7 122135864.375 7      3601.938          42.000    23241681.500 6  95170817.225 6      2806.708          37.000
G11  21343293.836 8 112159789.607 8     -2884.930          51.000    21343294.227 7  87397215.214 7     -2247.994          46.000
G14  22559630.094 5 118551651.120 5     -1942.699          33.000
G22  20701961.844 8 108789646.893 8      -586.488          51.000    20701958.555 8  84771080.402 8      -457.004          51.000
G32  23936185.648 7 125785479.627 7     -3067.828          42.000    23936186.125 7  98014672.739 7     -2390.515          42.000
R05  19936851.984 6 106573935.649 6     -2296.785          39.000    19936853.672 6  82890848.016 6     -1786.388          39.000
R06  19911650.961 8 106252443.488 8      2078.734          48.000
R20  20111407.422 7 107544729.545 7     -2347.727          42.000    20111411.359 7  83645916.104 7     -1826.013          46.000
C05                                                                  39686632.781 5 159801624.172 5       -24.161          34.000
C11  22581764.781 8 117589169.234 8     -2114.930          49.000    22581765.797 8  90927395.825 8     -1635.346          51.000
C14  21827923.766 8 113663735.128 8      1156.598          49.000    21827923.547 8  87892037.250 8       894.500          51.000
E03  24154550.273 8 126933029.379 8      1788.750          51.000    24154554.859 8  97260420.940 8      1370.604          51.000
E05  24026570.945 8 126260576.814 8     -1013.836          51.000    24026572.508 8  96745054.922 8      -776.871          48.000
E36  27340552.859 7 143675626.789 7     -2761.836          47.000    27340557.523 8 110089126.923 8     -2116.242          48.000
> 2020 05 07 20 37  0.0000000  0 17        .000000000000
G01  20362229.977 8 107004244.882 8      -681.180          51.000    20362232.781 8  83379943.320 8      -530.789          51.000
G03  20549300.391 7 107987341.550 7       987.324          46.000    20549301.383 7  84146012.818 7       769.344          46.000
G04  23221136.133 6 122027912.689 6      3590.602          41.000    23221139.125 5  95086699.068 5      2797.871          32.000
G11  21359803.773 8 112246550.479 8     -2903.199          51.000    21359803.977 7  87464821.104 7     -2262.233          44.000
G14  22570763.922 6 118610174.094 6     -1962.375          37.000
G22  20705341.031 8 108807404.251 8      -601.566          51.000    20705337.719 8  84784917.322 8      -468.753          51.000
G32  23953727.203 6 125877662.045 6     -3081.562          41.000    23953728.289 6  98086503.159 6     -2401.221          41.000
R05  19949785.367 7 106643076.208 7     -2316.910          42.000    19949788.617 6  82944624.077 6     -1802.041          39.000
R06  19900018.000 7 106190367.430 7      2055.309          47.000
R20  20124637.102 6 107615471.669 6     -2372.848          41.000    20124640.312 7  83700937.722 7     -1845.551          47.000
C05                                                                  39686817.109 5 159802366.481 5       -28.064          35.000
C11  22593989.461 8 117652825.225 8     -2132.914          50.000    22593991.039 8  90976618.697 8     -1649.289          51.000
C14  21821295.445 8 113629218.680 8      1140.273          49.000    21821294.859 8  87865346.956 8       881.777          51.000
C21  24334881.867 4 126718119.199 4     -2680.012          29.000
E03  24144371.047 8 126879536.971 8      1773.359          51.000    24144375.055 8  97219433.262 8      1358.769          51.000
E05  24032393.008 8 126291171.723 8     -1029.848          50.000    24032394.828 7  96768497.790 7      -789.083          47.000
E36  27356334.078 7 143758552.514 7     -2770.535          47.000    27356337.609 7 110152667.439 7     -2122.881          47.000
> 2020 05 07 20 37 30.0000000  0 15        .000000000000
G01  20366147.359 8 107024830.973 8      -693.387          51.000    20366150.086 8  83395984.425 8      -540.301          51.000
G03  20543686.898 7 107957843.245 7       976.969          45.000    20543688.227 7  84123027.125 7       761.274          45.000
G04  23200644.000 6 121920229.299 6      3585.891          38.000    23200648.594 5  95002789.985 5      2794.213          35.000
G11  21376404.125 8 112333785.654 8     -2914.719          51.000    21376403.523 7  87532796.560 7     -2271.209          42.000
G22  20708793.109 8 108825544.864 8      -610.035          51.000    20708789.805 8  84799052.873 8      -475.349          51.000
G32  23971333.070 6 125970182.097 6     -3088.426          39.000    23971334.719 6  98158596.702 6     -2406.566          39.000
R05  19962819.516 7 106712750.940 7     -2330.492          43.000    19962823.367 6  82998815.524 6     -1812.605          38.000
R06  19888502.695 7 106128921.402 7      2038.664          47.000
R20  20137993.094 6 107686891.253 6     -2390.715          39.000    20137996.281 8  83756486.293 8     -1859.445          48.000
C05                                                                  39687015.984 5 159803167.484 5       -26.904          34.000
C11  22606304.281 8 117716950.060 8     -2144.281          50.000    22606306.148 8  91026204.080 8     -1658.124          51.000
C14  21814748.211 8 113595125.032 8      1130.430          48.000    21814747.102 8  87838983.587 8       874.069          51.000
E03  24134266.547 8 126826435.515 8      1764.461          51.000    24134269.789 8  97178745.153 8      1351.966          51.000
E05  24038293.086 8 126322176.797 8     -1039.344          50.000    24038294.484 7  96792254.948 7      -796.455          47.000
E36  27372151.031 8 143841669.355 8     -2772.754          48.000    27372154.039 7 110216354.371 7     -2124.545          47.000
> 2020 05 07 20 38  0.0000000  0 15        .000000000000
G01  20370136.711 8 107045794.839 8      -708.344          51.000    20370139.367 8  83412319.903 8      -551.956          51.000
G03  20538134.289 7 107928665.928 7       963.930          45.000    20538136.234 7  84100291.556 7       751.114          44.000
G04  23180180.484 5 121812698.313 5      3578.352          35.000    23180187.500 5  94918999.484 5      2788.326          34.000
G11  21393071.961 8 112421375.104 8     -2928.809          51.000    21393070.242 7  87601048.046 7     -2282.189          42.000
G22  20712295.352 8 108843949.705 8      -621.180          51.000    20712292.180 8  84813394.307 8      -484.036          51.000
G32  23988980.039 6 126062918.896 6     -3098.324          39.000    23988982.266 6  98230859.141 6     -2414.282          39.000
R05  19975930.562 6 106782835.924 6     -2346.387          40.000    19975934.344 6  83053326.081 6     -1824.964          37.000
R06  19877083.266 7 106067986.873 7      2019.297          47.000
R20  20151452.203 6 107758866.285 6     -2411.637          38.000    20151456.281 8  83812466.900 8     -1875.717          48.000
C05                                                                  39687206.891 5 159803936.399 5       -27.366          34.000
C11  22618686.430 8 117781425.173 8     -2158.262          51.000    22618688.391 8  91076060.315 8     -1668.850          51.000
C14  21808259.438 8 113561336.672 8      1117.980          48.000    21808257.797 8  87812856.296 8       864.524          51.000
E03  24124214.062 8 126773607.183 8      1753.156          51.000    24124216.648 8  97138266.344 8      1343.363          51.000
E05  24044248.375 8 126353472.493 8     -1051.219          50.000    24044249.508 7  96816234.762 7      -805.494          47.000
E36  27387981.438 8 143924858.078 8     -2777.426          48.000    27387984.188 7 110280096.405 7     -2128.172          45.000
> 2020 05 07 20 38 30.0000000  0 15        .000000000000
G01  20374215.109 8 107067226.582 8      -718.398          51.000    20374217.633 8  83429019.967 8      -559.794          50.000
G03  20532660.156 7 107899899.279 7       955.754          46.000    20532662.312 7  84077876.015 7       744.746          47.000
G04  23159764.484 6 121705412.122 6      3575.707          37.000    23159773.430 5  94835399.795 5      2786.268          33.000
G11  21409823.812 8 112509406.450 8     -2937.875          50.000    21409821.539 7  87669643.868 7     -2289.253          44.000
G22  20715864.688 8 108862707.744 8      -627.387          51.000    20715861.789 8  84828010.961 8      -488.873          51.000
G32  24006685.062 6 126155959.748 6     -3102.754          37.000    24006687.523 6  98303358.468 6     -2417.730          36.000
R05  19989134.992 7 106853419.480 7     -2357.352          42.000    19989138.523 5  83108224.465 5     -1833.493          35.000
R06  19865777.172 8 106007654.778 8      2004.797          48.000
R20  20165032.617 6 107831486.883 6     -2427.586          40.000    20165036.906 7  83868949.597 7     -1888.122          47.000
C05                                                                  39687406.945 5 159804741.126 5       -24.548          34.000
C11  22631152.305 8 117846338.403 8     -2167.398          49.000    22631154.312 8  91126255.339 8     -1675.816          51.000
C14  21801846.617 8 113527942.585 8      1110.270          48.000    21801844.555 8  87787033.881 8       858.579          51.000
E03  24114230.688 8 126721142.461 8      1746.527          51.000    24114232.680 8  97098066.156 8      1338.311          51.000
E05  24050275.961 8 126385147.479 8     -1058.273          50.000    24050277.648 7  96840505.221 7      -810.906          47.000
E36  27403842.250 7 144008207.808 7     -2777.320          47.000    27403844.828 7 110343961.808 7     -2128.020          45.000
> 2020 05 07 20 39  0.0000000  0 15        .000000000000
G01  20378357.172 8 107088992.603 8      -732.070          51.000    20378359.539 8  83445980.509 8      -570.444          51.000
G03  20527239.148 8 107871409.400 8       944.145          48.000    20527241.039 8  84055676.125 8       735.697          48.000
G04  23139370.852 6 121598239.245 6      3569.410          40.000    23139381.680 4  94751898.404 4      2781.377          24.000
G11  21426633.953 8 112597743.853 8     -2950.770          51.000    21426632.039 7  87738478.198 7     -2299.301          46.000
G22  20719475.773 8 108881684.267 8      -637.191          51.000    20719472.961 8  84842797.864 8      -496.513          51.000
G32  24024421.594 5 126249168.335 5     -3110.984          33.000    24024424.297 5  98375988.500 5     -2424.147          34.000
R05  20002406.516 6 106924362.405 6     -2371.703          41.000    20002409.812 5  83163402.298 5     -1844.658          33.000
R06  19854558.391 7 105947790.142 7      1986.617          46.000
R20  20178708.391 6 107904615.240 6     -2446.883          40.000    20178712.070 7  83925827.208 7     -1903.131          46.000
C05                                                                  39687590.781 5 159805482.063 5       -24.621          35.000
C11  22643675.859 8 117911555.922 8     -2180.141          48.000    22643678.273 8  91176685.671 8     -1685.811          51.000
C14  21795484.047 8 113494810.076 8      1099.000          49.000    21795482.000 8  87761413.733 8       849.741          51.000
E03  24104291.039 8 126668908.106 8      1736.137          51.000    24104292.094 8  97058042.482 8      1330.293          50.000
E05  24056350.047 8 126417066.816 8     -1069.254          50.000    24056352.297 7  96864962.922 7      -819.236          47.000
E36  27419707.742 7 144091583.982 7     -2780.855          47.000    27419710.703 7 110407847.488 7     -2130.723          44.000
> 2020 05 07 20 39 30.0000000  0 14        .000000000000
G01  20382589.883 8 107111235.341 8      -749.621          51.000    20382592.234 8  83463312.519 8      -584.120          51.000
G03  20521897.594 7 107843338.327 7       928.391          46.000    20521899.461 7  84033802.589 7       723.424          46.000
G04  23119026.359 7 121491324.391 7      3559.172          42.000    23119019.547 4  94668531.730 4      2773.393          28.000
G11  21443529.188 8 112686527.975 8     -2967.016          51.000    21443527.727 7  87807660.645 7     -2311.957          46.000
G22  20723155.492 8 108901020.832 8      -650.707          51.000    20723152.477 8  84857865.327 8      -507.044          51.000
R05  20015771.664 6 106995806.049 6     -2389.871          41.000    20015774.266 5  83218969.552 5     -1858.792          31.000
R06  19843454.391 7 105888538.396 7      1964.602          47.000
R20  20192505.570 6 107978394.336 6     -2470.383          40.000    20192508.875 7  83983210.891 7     -1921.412          47.000
C11  22656284.641 8 117977217.284 8     -2196.141          48.000    22656287.398 8  91227459.217 8     -1698.262          51.000
C14  21789198.852 8 113462079.907 8      1084.105          49.000    21789196.672 8  87736104.680 8       838.323          51.000
C21  24412249.742 5 127120998.507 5     -2696.551          31.000
E03  24094422.172 8 126617046.900 8      1722.316          51.000    24094422.227 8  97018304.703 8      1319.679          49.000
E05  24062497.406 8 126449371.510 8     -1083.477          50.000    24062499.289 7  96889715.874 7      -830.232          46.000
E36  27435604.953 7 144175128.039 7     -2787.816          46.000    27435608.086 7 110471861.792 7     -2136.092          43.000
> 2020 05 07 20 40  0.0000000  0 16        .000000000000
G01  20386870.711 8 107133731.186 8      -745.156          51.000    20386872.984 8  83480841.742 8      -580.641          51.000
G03  20516592.750 7 107815462.098 7       934.977          46.000    20516594.602 7  84012080.883 7       728.553          46.000
G04  23098688.578 7 121384446.287 7      3571.090          43.000    23098684.734 5  94585250.164 5      2782.673          34.000
G11  21460466.227 8 112775532.290 8     -2961.461          51.000    21460465.188 7  87877014.687 7     -2307.632          47.000
G14  22639339.594 6 118970466.010 6     -2026.785          36.000
G22  20726860.914 8 108920492.668 8      -642.363          51.000    20726857.703 8  84873038.197 8      -500.543          51.000
R05  20029186.781 6 107067519.468 6     -2385.809          39.000    20029188.102 5  83274746.656 5     -1855.629          32.000
R06  19832422.961 7 105829673.027 7      1965.027          47.000
R20  20206381.734 6 108052594.756 6     -2471.312          40.000    20206384.781 8  84040922.332 8     -1922.132          49.000
C05                                                                  39687947.852 5 159806919.110 5       -12.671          35.000
C11  22668936.031 7 118043099.586 7     -2190.922          47.000    22668938.836 8  91278403.620 8     -1694.072          51.000
C14  21782948.227 8 113429530.222 8      1090.883          49.000    21782946.039 8  87710935.223 8       843.561          51.000
C21  24427754.938 5 127201737.418 5     -2681.469          31.000
E03  24084581.391 8 126565335.624 8      1730.234          49.000    24084581.344 8  96978681.787 8      1325.767          50.000
E05  24068675.414 8 126481836.595 8     -1075.684          51.000    24068676.898 7  96914591.713 7      -824.252          46.000
E36  27451491.039 7 144258615.421 7     -2772.844          44.000    27451494.117 7 110535832.667 7     -2124.769          42.000
> 2020 05 07 20 40 30.0000000  0 16        .000000000000
G01  20391277.750 8 107156890.335 8      -794.703          51.000    20391279.836 8  83498887.836 8      -619.249          51.000
G03  20511403.062 7 107788190.548 7       887.457          46.000    20511404.203 7  83990830.326 7       691.525          46.000
G04  23078435.734 7 121278017.490 7      3528.477          43.000    23078434.367 5  94502318.684 5      2749.471          35.000
G11  21477522.727 8 112865165.087 8     -3009.977          51.000    21477522.023 7  87946858.453 7     -2345.436          46.000
G14  22651070.594 6 119032082.256 6     -2076.293          36.000
G22  20730669.898 8 108940509.121 8      -687.953          51.000    20730666.695 8  84888635.447 8      -536.067          51.000
R05  20042730.031 6 107139916.642 6     -2436.438          40.000    20042730.977 5  83331055.589 5     -1895.007          32.000
R06  19821541.969 7 105771611.112 7      1910.168          47.000
R20  20220413.555 6 108127632.445 6     -2526.664          36.000    20220417.562 8  84099285.008 8     -1965.180          50.000
C05                                                                  39688156.539 5 159807759.868 5       -40.376          34.000
C11  22681708.273 8 118109607.779 8     -2239.062          48.000    22681710.648 8  91329832.007 8     -1731.361          51.000
C14  21776809.867 8 113397567.171 8      1043.977          48.000    21776808.180 8  87686219.397 8       807.314          51.000
C21  24443326.227 4 127282813.772 4     -2720.098          29.000
E03  24074846.562 8 126514184.821 8      1683.957          48.000    24074847.938 8  96939488.329 8      1290.269          51.000
E05  24074961.609 8 126514870.880 8     -1122.289          51.000    24074963.922 7  96939903.724 7      -860.011          46.000
E36  27467444.016 7 144342455.342 7     -2812.258          44.000    27467447.258 7 110600073.677 7     -2155.015          42.000
> 2020 05 07 20 41  0.0000000  0 14        .000000000000
G01  20395770.555 8 107180499.844 8      -788.367          51.000    20395772.305 8  83517284.863 8      -614.312          51.000
G03  20506287.852 7 107761310.410 7       895.625          45.000    20506289.227 7  83969884.772 7       697.890          45.000
G04  23058227.680 6 121171827.257 6      3541.891          41.000    23058228.688 5  94419573.076 5      2759.915          33.000
G11  21494657.500 8 112955211.405 8     -3002.258          48.000    21494657.156 7  88017024.445 7     -2339.422          46.000
G22  20734541.750 8 108960856.228 8      -677.668          51.000    20734538.719 8  84904490.350 8      -528.050          51.000
R05  20056359.625 6 107212777.636 6     -2430.109          39.000    20056360.648 5  83387725.241 5     -1890.088          33.000
R06  19810771.477 7 105714136.938 7      1912.219          47.000
R20  20234560.430 6 108203288.799 6     -2526.078          36.000    20234565.891 8  84158128.865 8     -1964.724          50.000
C05                                                                  39688370.977 5 159808623.178 5       -24.152          35.000
C11  22694560.695 8 118176529.431 8     -2231.590          50.000    22694562.188 8  91381580.104 8     -1725.549          51.000
C14  21770743.305 7 113365979.442 7      1052.852          47.000    21770742.281 8  87661793.789 8       814.117          51.000
E03  24065178.133 8 126463381.891 8      1693.906          49.000    24065181.156 8  96900561.427 8      1297.886          51.000
E05  24081315.344 8 126548260.067 8     -1112.727          50.000    24081318.133 7  96965487.663 7      -852.588          45.000
E36  27483423.117 7 144426433.891 7     -2795.285          42.000    27483427.000 6 110664420.892 6     -2141.758          41.000
> 2020 05 07 20 41 30.0000000  0 14        .000000000000
G01  20400322.320 8 107204419.113 8      -804.738          51.000    20400323.789 8  83535923.262 8      -627.069          51.000
G03  20501220.148 7 107734680.636 7       881.082          44.000    20501222.734 7  83949134.359 7       686.560          44.000
G04  23038038.242 6 121065737.341 6      3532.309          41.000    23038039.711 5  94336905.633 5      2752.451          33.000
G11  21511843.656 7 113045528.517 7     -3017.480          47.000    21511844.477 7  88087401.411 7     -2351.283          47.000
G22  20738449.578 8 108981392.281 8      -689.918          51.000    20738446.797 8  84920492.472 8      -537.598          51.000
R05  20070048.945 7 107285955.964 7     -2446.965          43.000    20070051.461 5  83444641.698 5     -1903.198          35.000
R06  19800084.602 7 105657108.178 7      1891.203          47.000
R20  20248797.148 6 108279418.906 6     -2547.988          37.000    20248802.656 8  84217341.226 8     -1981.769          49.000
C05                                                                  39688564.148 5 159809401.215 5       -26.243          35.000
C11  22707465.500 8 118243723.645 8     -2246.566          51.000    22707466.172 8  91433538.947 8     -1737.212          51.000
C14  21764722.117 7 113334627.359 7      1038.887          47.000    21764721.586 8  87637550.374 8       803.300          51.000
E03  24055549.984 8 126412786.625 8      1680.703          51.000    24055553.945 8  96861793.646 8      1287.844          51.000
E05  24087709.703 8 126581862.162 8     -1125.945          51.000    24087711.445 7  96991234.730 7      -862.737          45.000
E36  27499401.844 7 144510409.604 7     -2801.406          42.000    27499405.883 6 110728765.925 6     -2146.460          40.000
> 2020 05 07 20 42  0.0000000  0 15        .000000000000
G01  20404956.398 8 107228771.058 8      -818.730          51.000    20404958.016 8  83554898.793 8      -637.972          51.000
G03  20496223.648 7 107708423.892 7       869.223          44.000    20496226.750 7  83928674.586 7       677.316          44.000
G04  23017891.859 6 120959872.976 6      3525.180          41.000    23017893.516 5  94254413.976 5      2746.899          30.000
G11  21529104.281 7 113136237.152 7     -3029.898          46.000    21529105.953 7  88158083.480 7     -2360.960          46.000
G22  20742416.609 8 109002239.320 8      -699.844          51.000    20742414.047 8  84936736.916 8      -545.333          51.000
R05  20083821.508 6 107359573.252 6     -2460.914          39.000    20083823.984 5  83501899.556 5     -1914.044          35.000
R06  19789504.164 7 105600649.764 7      1872.543          46.000
R20  20263145.969 6 108356145.773 6     -2567.535          39.000    20263150.906 8  84277017.719 8     -1996.972          48.000
C05                                                                  39688759.484 5 159810187.937 5       -26.131          34.000
C11  22720445.422 8 118311310.792 8     -2259.215          50.000    22720445.562 8  91485801.626 8     -1747.001          51.000
C14  21758769.508 7 113303632.431 7      1027.473          47.000    21758769.656 8  87613583.155 8       794.447          51.000
C21  24490130.406 4 127526535.352 4     -2712.039          29.000
E03  24045985.438 8 126362522.254 8      1670.078          51.000    24045989.750 8  96823279.413 8      1279.700          51.000
E05  24094167.609 8 126615798.719 8     -1136.535          51.000    24094168.797 7  97017238.064 7      -870.888          45.000
E36  27515403.883 7 144594504.343 7     -2804.852          42.000    27515406.867 6 110793202.207 6     -2149.301          39.000
> 2020 05 07 20 42 30.0000000  0 15        .000000000000
G01  20409671.211 8 107253547.160 8      -832.539          51.000    20409672.883 8  83574204.842 8      -648.735          51.000
G03  20491296.430 7 107682531.296 7       857.328          43.000    20491299.102 7  83908498.505 7       668.045          42.000
G04  22997787.141 6 120854227.942 6      3518.355          39.000    22997787.938 6  94172093.206 6      2741.573          36.000
G11  21546437.797 8 113227326.277 8     -3042.238          48.000    21546439.852 7  88229062.035 7     -2370.575          47.000
G22  20746441.156 8 109023387.892 8      -709.738          51.000    20746438.516 8  84953216.325 8      -553.043          51.000
R05  20097672.594 7 107433617.429 7     -2474.848          42.000    20097675.680 5  83559489.516 5     -1924.882          34.000
R06  19779028.594 7 105544753.277 7      1854.188          46.000
R20  20277604.180 6 108433458.852 6     -2586.711          38.000    20277608.711 7  84337150.127 7     -2011.886          46.000
C05                                                                  39688955.367 5 159810976.766 5       -26.221          34.000
C11  22733498.203 8 118379280.990 8     -2271.785          50.000    22733498.383 8  91538360.494 8     -1756.685          51.000
C14  21752883.797 7 113272985.932 7      1016.094          47.000    21752884.320 8  87589885.369 8       785.681          51.000
C21  24505763.828 5 127607953.455 5     -2714.500          32.000
E03  24036482.531 8 126312580.671 8      1659.715          51.000    24036486.891 8  96785012.501 8      1271.703          51.000
E05  24100687.234 8 126650059.895 8     -1147.227          50.000    24100689.195 7  97043490.162 7      -879.089          45.000
E36  27531427.055 7 144678708.712 7     -2808.246          42.000    27531429.391 6 110857722.473 6     -2151.991          39.000
> 2020 05 07 20 43  0.0000000  0 14        .000000000000
G01  20414465.289 8 107278739.317 8      -846.469          51.000    20414466.594 8  83593835.097 8      -659.586          51.000
G03  20486436.500 6 107656994.428 6       845.562          41.000    20486439.109 6  83888599.637 6       658.883          41.000
G04  22977722.883 6 120748796.398 6      3510.934          37.000    22977725.133 4  94089938.957 4      2735.805          26.000
G11  21563842.227 8 113318785.815 8     -3054.562          49.000    21563843.836 8  88300329.233 8     -2380.179          48.000
G22  20750521.344 8 109044828.965 8      -719.438          51.000    20750518.445 8  84969923.661 8      -560.601          51.000
R05  20111602.539 6 107508077.183 6     -2488.707          40.000    20111604.961 5  83617402.622 5     -1935.658          35.000
R06  19768657.938 8 105489411.735 8      1835.652          48.000
R20  20292169.805 6 108511348.124 6     -2605.598          39.000    20292174.086 7  84397730.648 7     -2026.579          44.000
C11  22746622.617 8 118447624.745 8     -2284.262          50.000    22746622.836 8  91591208.210 8     -1766.348          51.000
C14  21747063.992 8 113242679.533 8      1004.785          49.000    21747063.695 8  87566450.547 8       776.873          51.000
C21  24521412.711 4 127689434.060 4     -2718.043          28.000
E03  24027039.492 8 126262954.138 8      1649.133          51.000    24027043.812 8  96746986.999 8      1263.630          51.000
E05  24107266.805 8 126684636.189 8     -1157.586          51.000    24107269.328 7  97069983.721 7      -886.975          44.000
E36  27547469.695 7 144763013.701 7     -2811.754          42.000    27547473.000 6 110922319.787 6     -2154.365          41.000
> 2020 05 07 20 43 30.0000000  0 14        .000000000000
G01  20419338.461 8 107304347.439 8      -860.156          51.000    20419339.531 8  83613789.481 8      -670.252          51.000
G03  20481644.602 7 107631812.811 7       834.059          43.000    20481647.086 7  83868977.636 7       649.916          43.000
G04  22957700.711 5 120643580.679 5      3503.688          33.000    22957704.320 5  94007952.800 5      2730.161          31.000
G11  21581317.039 8 113410613.349 8     -3066.680          51.000    21581317.727 7  88371883.190 7     -2389.621          46.000
G22  20754656.898 8 109066561.313 8      -728.957          51.000    20754653.977 8  84986857.982 8      -568.018          51.000
R05  20125609.102 6 107582948.757 6     -2502.062          37.000    20125611.531 5  83675636.105 5     -1946.043          35.000
R06  19758391.492 8 105434625.184 8      1817.473          48.000
R20  20306842.844 6 108589811.690 6     -2624.449          39.000    20306846.227 7  84458757.787 7     -2041.241          43.000
C05                                                                  39689343.906 5 159812540.501 5       -25.853          34.000
C11  22759818.758 8 118516340.446 8     -2296.363          50.000    22759818.875 8  91644343.519 8     -1775.709          51.000
C14  21741309.805 8 113212712.762 8       993.609          49.000    21741308.523 8  87543278.366 8       768.325          51.000
E03  24017656.406 8 126213642.938 8      1638.758          51.000    24017660.477 8  96709203.114 8      1255.675          51.000
E05  24113906.219 8 126719526.225 8     -1167.785          50.000    24113907.930 7  97096717.656 7      -894.841          43.000
E36  27563531.805 7 144847418.277 7     -2814.801          42.000    27563536.969 7 110986993.433 7     -2156.807          44.000
> 2020 05 07 20 44  0.0000000  0 14        .000000000000
G01  20424274.117 8 107330284.698 8      -873.898          51.000    20424275.375 8  83634000.325 8      -680.960          51.000
G03  20476904.008 7 107606899.332 7       821.988          42.000    20476906.383 7  83849564.578 7       640.510          42.000
G11  21598844.938 8 113502720.162 8     -3078.684          51.000    21598844.883 7  88443654.743 7     -2398.974          46.000
G22  20758831.156 8 109088497.176 8      -738.453          51.000    20758828.469 8  85003950.882 8      -575.418          51.000
R05  20139674.789 6 107658140.690 6     -2515.488          41.000    20139677.570 5  83734118.741 5     -1956.491          35.000
R06  19748212.445 7 105380305.690 7      1798.988          47.000
R20  20321606.523 6 108668759.078 6     -2643.602          39.000    20321609.016 7  84520161.280 7     -2056.138          44.000
C05                                                                  39689520.000 5 159813249.585 5       -25.645          34.000
C11  22773070.039 8 118585340.487 8     -2308.555          50.000    22773069.555 8  91697698.736 8     -1785.036          51.000
C14  21735603.977 8 113182999.256 8       982.469          49.000    21735602.500 8  87520302.030 8       759.777          51.000
C21  24552746.539 5 127852527.676 5     -2723.609          33.000
E03  24008316.844 8 126164560.578 8      1628.551          51.000    24008320.266 8  96671594.569 8      1247.851          51.000
E05  24120588.516 8 126754641.750 8     -1178.043          50.000    24120589.266 7  97123624.383 7      -902.704          43.000
E36  27579596.320 6 144931834.623 6     -2817.895          41.000    27579603.492 7 111051676.113 7     -2159.097          46.000
> 2020 05 07 20 44 30.0000000  0 15        .000000000000
G01  20429319.977 8 107356801.686 8      -890.066          51.000    20429321.625 8  83654662.897 8      -693.558          51.000
G03  20472261.711 6 107582504.105 6       808.117          41.000    20472264.031 6  83830555.356 6       629.702          41.000
G04  22917780.914 5 120433789.366 5      3487.324          35.000    22917784.414 5  93844484.128 5      2717.408          32.000
G11  21616473.094 8 113595354.488 8     -3093.020          51.000    21616472.008 7  88515837.344 7     -2410.145          44.000
G22  20763091.617 8 109110886.323 8      -750.289          51.000    20763089.094 8  85021396.987 8      -584.641          51.000
R05  20153848.320 6 107733904.298 6     -2531.457          40.000    20153851.578 6  83793045.989 6     -1968.911          38.000
R06  19738168.484 7 105326708.103 7      1778.102          47.000
R20  20336507.906 6 108748443.421 6     -2665.188          38.000    20336510.117 7  84582138.006 7     -2072.924          46.000
C05                                                                  39689726.023 5 159814079.451 5       -26.771          34.000
C11  22786423.211 8 118654871.666 8     -2322.922          49.000    22786422.000 8  91751464.680 8     -1796.212          51.000
C14  21729994.430 8 113153787.055 8       968.906          50.000    21729992.812 8  87497713.296 8       749.322          51.000
C21  24568477.023 5 127934380.763 5     -2728.840          33.000
E03  23999068.297 8 126115958.023 8      1615.727          51.000    23999071.195 8  96634353.671 8      1238.042          51.000
E05  24127361.008 8 126790232.039 8     -1190.562          50.000    24127361.883 7  97150894.894 7      -912.366          44.000
E36  27595710.266 6 145016512.470 6     -2823.125          41.000    27595719.344 8 111116559.175 8     -2163.266          48.000
> 2020 05 07 20 45  0.0000000  0 14        .000000000000
G01  20434437.789 8 107383696.712 8      -903.133          51.000    20434439.719 8  83675620.046 8      -703.740          51.000
G03  20467679.750 6 107558425.363 6       796.648          40.000    20467681.883 6  83811792.704 6       620.765          41.000
G04  22897890.594 6 120329273.905 6      3480.504          39.000    22897894.695 5  93763043.499 5      2712.081          35.000
G11  21634162.438 8 113688312.273 8     -3104.199          50.000    21634160.820 7  88588271.976 7     -2418.857          44.000
G22  20767399.781 8 109133526.266 8      -759.137          51.000    20767397.133 8  85039038.503 8      -591.535          51.000
R05  20168089.336 6 107810031.299 6     -2543.953          39.000    20168093.602 6  83852255.976 6     -1978.624          38.000
R06  19728221.586 7 105273628.466 7      1760.316          47.000
R20  20351508.156 6 108828657.337 6     -2682.684          37.000    20351511.070 7  84644526.607 7     -2086.532          47.000
C05                                                                  39689923.641 5 159814875.602 5       -26.318          34.000
C11  22799839.359 7 118724732.836 7     -2334.453          47.000    22799837.602 8  91805485.816 8     -1805.138          50.000
C14  21724442.711 8 113124876.034 8       958.371          49.000    21724440.578 8  87475357.454 8       741.119          51.000
E03  23989872.430 8 126067633.997 8      1605.867          51.000    23989875.148 8  96597326.189 8      1230.479          51.000
E05  24134185.250 8 126826094.105 8     -1200.082          49.000    24134186.664 7  97178373.641 7      -919.612          44.000
E36  27611835.461 6 145101249.230 6     -2825.918          41.000    27611845.617 8 111181487.380 8     -2165.203          49.000
> 2020 05 07 20 45 30.0000000  0 14        .000000000000
G01  20439631.312 8 107410990.257 8      -916.699          51.000    20439633.664 8  83696887.726 8      -714.311          51.000
G03  20463161.617 6 107534683.179 6       785.652          40.000    20463164.000 6  83793292.305 6       612.200          40.000
G04  22878039.688 6 120224966.178 6      3473.211          40.000    22878044.055 5  93681764.762 5      2706.401          32.000
G11  21651916.750 8 113781611.840 8     -3115.895          50.000    21651914.805 7  88660972.930 7     -2427.970          43.000
G22  20771759.414 8 109156436.463 8      -768.484          51.000    20771756.586 8  85056890.606 8      -598.819          51.000
R05  20182402.133 7 107886539.214 7     -2556.750          42.000    20182404.250 6  83911762.121 6     -1988.586          37.000
R06  19718374.875 7 105221087.401 7      1742.082          46.000
R20  20366610.977 6 108909420.187 6     -2701.227          37.000    20366614.828 8  84707342.173 8     -2100.951          48.000
C05                                                                  39690116.836 5 159815653.531 5       -25.805          35.000
C11  22813322.125 8 118794942.721 8     -2346.508          48.000    22813320.227 8  91859776.624 8     -1814.432          49.000
C14  21718952.094 8 113096286.119 8       947.320          48.000    21718949.578 8  87453249.950 8       732.534          51.000
E03  23980733.492 8 126019609.328 8      1595.508          51.000    23980736.117 8  96560528.070 8      1222.514          51.000
E05  24141064.867 8 126862247.081 8     -1210.266          49.000    24141066.508 7  97206075.292 7      -927.352          44.000
E36  27627975.562 7 145186064.386 7     -2828.703          42.000    27627986.055 8 111246475.709 8     -2167.598          49.000
> 2020 05 07 20 46  0.0000000  0 15        .000000000000
G01  20444903.977 8 107438699.487 8      -931.051          51.000    20444906.609 8  83718479.329 8      -725.494          51.000
G03  20458711.031 7 107511294.392 7       773.160          43.000    20458712.797 7  83775067.282 7       602.462          43.000
G04  22858232.750 6 120120885.653 6      3465.523          39.000    22858236.828 5  93600663.107 5      2700.411          35.000
G11  21669738.906 8 113875268.286 8     -3128.250          50.000    21669737.031 7  88733951.976 7     -2437.597          44.000
G22  20776173.531 8 109179633.075 8      -778.395          51.000    20776170.727 8  85074965.880 8      -606.541          51.000
R05  20196788.672 6 107963442.289 6     -2570.535          40.000    20196789.836 6  83971575.571 6     -1999.305          39.000
R06  19708632.234 7 105169102.415 7      1723.160          46.000
R20  20381819.438 6 108990746.916 6     -2720.914          38.000    20381823.922 8  84770596.308 8     -2116.263          48.000
C05                                                                  39690308.742 5 159816426.410 5       -26.064          35.000
C11  22826874.844 8 118865516.858 8     -2359.070          49.000    22826873.070 8  91914349.063 8     -1824.095          49.000
C14  21713526.094 8 113068034.041 8       935.691          48.000    21713523.461 8  87431403.704 8       723.476          51.000
C21  24615703.859 5 128180427.342 5     -2737.000          34.000
E03  23971654.992 8 125971901.535 8      1584.555          51.000    23971657.438 8  96523972.756 8      1214.103          51.000
E05  24148002.859 8 126898706.753 8     -1220.824          48.000    24148004.406 7  97234011.952 7      -935.437          44.000
E36  27644133.461 6 145270974.287 6     -2832.387          41.000    27644143.930 8 111311536.617 8     -2170.255          48.000
> 2020 05 07 20 46 30.0000000  0 14        .000000000000
G01  20450258.914 8 107466841.241 8      -946.527          51.000    20450261.711 8  83740407.977 8      -737.554          51.000
G03  20454330.992 7 107488275.499 7       759.910          44.000    20454331.492 7  83757130.480 7       592.138          44.000
G04  22838473.656 6 120017051.608 6      3455.820          41.000    22838476.438 6  93519753.479 6      2692.850          37.000
G11  21687631.734 8 113969296.315 8     -3141.715          50.000    21687630.250 7  88807220.566 7     -2448.089          44.000
G22  20780645.273 8 109203132.108 8      -789.664          51.000    20780642.508 8  85093276.821 8      -615.323          51.000
R05  20211251.086 6 108040754.268 6     -2585.191          41.000    20211253.531 6  84031707.170 6     -2010.704          40.000
R06  19698997.820 7 105117691.794 7      1702.848          47.000
R20  20397136.203 6 109072653.156 6     -2741.215          39.000    20397140.984 8  84834301.177 8     -2132.056          48.000
C11  22840500.844 8 118936470.367 8     -2372.672          51.000    22840498.953 8  91969214.811 8     -1834.737          48.000
C14  21708168.062 7 113040136.244 7       922.750          46.000    21708165.891 8  87409831.364 8       713.493          51.000
C21  24631480.789 5 128262576.580 5     -2741.449          35.000
E03  23962639.945 8 125924527.824 8      1572.164          51.000    23962642.477 8  96487673.438 8      1204.645          51.000
E05  24155002.164 8 126935488.712 8     -1232.617          48.000    24155004.023 7  97262195.556 7      -944.593          45.000
E36  27660312.266 7 145355994.846 7     -2837.152          42.000    27660322.281 8 111376682.313 8     -2173.919          48.000
> 2020 05 07 20 47  0.0000000  0 14        .000000000000
G01  20455700.148 8 107495435.570 8      -960.754          51.000    20455702.961 8  83762689.270 8      -748.639          51.000
G03  20450024.977 7 107465646.221 7       747.488          44.000    20450025.117 7  83739497.304 7       582.458          44.000
G04  22818766.562 7 119913486.341 7      3447.277          43.000    22818768.977 5  93439053.325 5      2686.190          34.000
G11  21705598.672 8 114063713.660 8     -3153.918          50.000    21705597.289 7  88880792.542 7     -2457.598          44.000
G22  20785178.180 8 109226952.673 8      -799.613          51.000    20785175.359 8  85111838.310 8      -623.072          51.000
R05  20225793.633 6 108118492.346 6     -2598.523          41.000    20225796.414 6  84092170.079 6     -2021.074          39.000
R06  19689474.742 7 105066875.562 7      1683.750          46.000
R20  20412564.789 6 109155157.028 6     -2760.328          38.000    20412569.828 8  84898470.866 8     -2146.922          48.000
C05                                                                  39690702.312 5 159818010.696 5       -27.270          34.000
C11  22854203.578 8 119007821.650 8     -2385.078          51.000    22854201.000 8  92024388.120 8     -1844.354          48.000
C14  21702881.406 7 113012612.206 7       911.055          45.000    21702880.398 8  87388548.004 8       704.512          51.000
C21  24647279.805 5 128344842.321 5     -2744.477          33.000
E03  23953692.211 8 125877508.592 8      1561.230          51.000    23953695.125 8  96451645.743 8      1196.268          51.000
E05  24162066.492 8 126972611.645 8     -1243.348          48.000    24162069.133 7  97290640.414 7      -952.581          45.000
> 2020 05 07 20 47 30.0000000  0 13        .000000000000
G01  20461218.109 8 107524432.530 8      -975.465          51.000    20461221.031 8  83785284.322 8      -760.102          51.000
G03  20445783.609 7 107443356.380 7       735.105          44.000    20445784.391 7  83722128.637 7       572.812          44.000
G04  22799101.531 7 119810142.289 7      3438.902          44.000    22799103.914 6  93358525.539 6      2679.667          38.000
G11  21723629.688 8 114158468.269 8     -3166.246          49.000    21723628.688 7  88954627.296 7     -2467.205          45.000
G22  20789762.688 8 109251044.070 8      -809.750          51.000    20789759.594 8  85130610.838 8      -630.974          51.000
R05  20240405.281 6 108196602.129 6     -2612.242          40.000    20240408.117 6  84152922.169 6     -2031.744          38.000
R06  19680053.617 7 105016603.853 7      1664.348          47.000
R20  20428094.977 6 109238205.920 6     -2779.500          39.000    20428100.578 7  84963064.434 7     -2161.833          47.000
C05                                                                  39690898.078 5 159818799.050 5       -27.635          34.000
C11  22867972.898 8 119079519.765 8     -2397.930          51.000    22867969.984 8  92079829.630 8     -1854.304          49.000
C14  21697657.000 7 112985412.162 7       898.934          45.000    21697657.445 8  87367515.215 8       695.112          51.000
E03  23944802.648 8 125830794.326 8      1549.801          51.000    23944805.773 8  96415851.709 8      1187.531          51.000
E05  24169186.023 8 127010024.293 8     -1254.215          48.000    24169189.227 7  97319307.292 7      -961.025          45.000
> 2020 05 07 20 48  0.0000000  0 13        .000000000000
G01  20466811.922 8 107553828.303 8      -986.332          51.000    20466814.891 8  83808190.121 8      -768.570          51.000
G03  20441605.891 7 107421401.848 7       726.684          43.000    20441606.984 7  83705021.223 7       566.250          43.000
G04  22779477.898 7 119707018.060 7      3433.930          44.000    22779480.281 6  93278169.043 6      2675.792          39.000
G11  21741723.680 8 114253554.092 8     -3174.953          48.000    21741723.336 7  89028720.139 7     -2473.989          46.000
G22  20794397.867 8 109275401.567 8      -816.168          51.000    20794394.367 8  85149590.714 8      -635.975          51.000
R05  20255086.078 6 108275077.009 6     -2621.793          40.000    20255088.594 6  84213958.147 6     -2039.175          38.000
R06  19670734.078 7 104966872.579 7      1649.000          47.000
R20  20443726.398 6 109321793.706 6     -2794.977          39.000    20443731.914 7  85028077.143 7     -2173.871          47.000
C05                                                                  39691089.219 5 159819568.159 5       -25.065          34.000
C11  22881807.727 8 119151559.339 8     -2406.691          51.000    22881805.156 8  92135535.183 8     -1861.106          51.000
C14  21692495.023 7 112958531.997 7       890.801          47.000    21692496.000 8  87346729.795 8       688.872          51.000
E03  23935970.578 8 125784381.558 8      1542.207          51.000    23935973.641 8  96380288.692 8      1181.685          51.000
E05  24176359.719 8 127047721.549 8     -1261.195          48.000    24176362.578 7  97348192.214 7      -966.293          44.000
> 2020 05 07 20 48 30.0000000  0 12        .000000000000
G01  20472487.609 8 107583653.852 8     -1002.082          51.000    20472490.469 8  83831430.822 8      -780.843          51.000
G03  20437497.641 7 107399813.341 7       712.812          44.000    20437498.594 7  83688198.984 7       555.438          44.000
G04  22759901.969 7 119604146.987 7      3424.250          43.000    22759904.398 6  93198009.811 6      2668.250          40.000
G11  21759886.102 8 114348999.780 8     -3188.168          48.000    21759886.570 7  89103093.410 7     -2484.287          47.000
G22  20799089.367 8 109300055.361 8      -827.492          51.000    20799085.633 8  85168801.466 8      -644.799          50.000
R05  20269839.422 6 108353944.767 6     -2636.195          38.000    20269841.898 6  84275299.774 6     -2050.374          36.000
R06  19661521.922 7 104917714.105 7      1628.332          46.000
R20  20459463.930 6 109405949.885 6     -2815.594          38.000    20459469.242 7  85093531.931 7     -2189.906          47.000
C11  22895713.594 8 119223969.611 8     -2420.531          50.000    22895711.703 8  92191527.414 8     -1871.778          51.000
C14  21687400.898 8 112932002.164 8       877.770          48.000    21687401.336 8  87326215.259 8       678.783          51.000
E03  23927201.781 8 125738301.604 8      1529.746          51.000    23927204.750 8  96344980.695 8      1172.137          51.000
E05  24183593.203 8 127085733.060 8     -1272.930          48.000    24183595.562 7  97377317.949 7      -975.499          44.000
> 2020 05 07 20 49  0.0000000  0 14        .000000000000
G01  20478247.859 8 107613923.064 8     -1014.090          51.000    20478250.484 8  83855017.225 8      -790.200          51.000
G03  20433461.750 7 107378604.438 7       702.887          45.000    20433462.961 7  83671672.553 7       547.704          45.000
G04  22740377.094 7 119501545.383 7      3417.727          43.000    22740380.094 6  93118060.529 6      2663.164          41.000
G11  21778119.102 7 114444817.407 7     -3197.906          46.000    21778120.375 7  89177756.543 7     -2491.875          46.000
G22  20803839.633 8 109325018.478 8      -835.078          51.000    20803835.930 8  85188253.241 8      -650.710          51.000
R05  20284668.766 6 108433216.666 6     -2646.844          41.000    20284671.461 6  84336955.606 6     -2058.659          37.000
R06  19652419.680 7 104869142.275 7      1611.434          46.000
R07  23365691.336 6 125078374.101 6      3795.926          40.000    23365696.867 6  97283201.670 6      2952.387          36.000
R20  20475310.445 6 109490686.683 6     -2831.879          38.000    20475314.688 7  85159438.329 7     -2202.572          47.000
C05                                                                  39691478.297 5 159821135.191 5       -24.865          34.000
C11  22909692.477 8 119296762.865 8     -2430.543          50.000    22909691.562 8  92247815.774 8     -1879.456          51.000
C14  21682376.492 8 112905836.118 8       868.277          48.000    21682376.047 8  87305982.022 8       671.452          51.000
E03  23918498.930 8 125692568.762 8      1520.914          51.000    23918501.883 8  96309938.673 8      1165.346          51.000
E05  24190888.828 7 127124071.449 7     -1281.230          47.000    24190891.375 7  97406694.124 7      -981.569          44.000
> 2020 05 07 20 49 30.0000000  0 14        .000000000000
G01  20484076.703 8 107644552.908 8     -1033.629          51.000    20484079.133 8  83878884.636 8      -805.425          51.000
G03  20429482.102 7 107357691.799 7       685.562          44.000    20429483.977 7  83655376.972 7       534.205          43.000
G04  22720888.297 7 119399132.542 7      3404.066          43.000    22720891.828 7  93038258.332 7      2652.519          42.000
G11  21796406.695 7 114540921.496 7     -3214.980          46.000    21796408.594 7  89252642.913 7     -2505.177          46.000
G22  20808632.734 8 109350206.928 8      -849.945          51.000    20808629.125 8  85207880.609 8      -662.295          51.000
R05  20299557.750 6 108512804.876 6     -2664.477          37.000    20299561.438 6  84398857.600 6     -2072.365          37.000
R06  19643411.867 7 104821073.038 7      1587.160          47.000
R07  23344436.219 7 124964598.468 7      3783.105          43.000    23344442.562 6  97194709.554 6      2942.418          37.000
R20  20491249.305 6 109575917.238 6     -2855.867          38.000    20491253.008 8  85225728.793 8     -2221.230          48.000
C11  22923728.414 8 119369855.252 8     -2447.988          49.000    22923728.281 8  92304335.453 8     -1892.888          49.000
C14  21677406.023 8 112879951.267 8       851.562          49.000    21677404.977 8  87285966.235 8       658.464          51.000
C21  24726474.523 5 128757241.486 5     -2760.316          31.000
E03  23909846.367 8 125647100.340 8      1504.539          51.000    23909849.352 8  96275099.260 8      1152.805          51.000
E05  24198230.477 7 127162652.351 7     -1296.738          47.000    24198233.398 7  97436256.150 7      -993.566          44.000
> 2020 05 07 20 50  0.0000000  0 15        .000000000000
G01  20489991.219 8 107675633.146 8     -1040.379          51.000    20489993.594 8  83903102.997 8      -810.685          51.000
G03  20425575.547 7 107337164.899 7       681.020          43.000    20425577.977 7  83639382.013 7       530.665          43.000
G04  22701453.227 7 119297000.677 7      3402.824          44.000    22701456.789 7  92958675.062 7      2651.551          43.000
G11  21814765.938 7 114637399.644 7     -3219.090          47.000    21814767.766 7  89327820.743 7     -2508.382          46.000
G22  20813485.781 8 109375709.846 8      -852.277          51.000    20813482.250 8  85227753.027 8      -664.112          50.000
R05  20314521.547 6 108592797.572 6     -2669.797          41.000    20314524.656 6  84461074.141 6     -2076.509          38.000
R06  19634515.320 7 104773598.069 7      1575.812          46.000
R07  23323226.719 7 124851066.165 7      3783.469          42.000    23323233.789 6  97106406.708 6      2942.698          39.000
R20  20507297.398 6 109661731.192 6     -2866.766          39.000    20507301.281 8  85292472.994 8     -2229.707          49.000
C05                                                                  39691852.922 5 159822643.234 5       -23.684          34.000
C11  22937838.523 8 119443334.233 8     -2452.586          50.000    22937838.141 7  92361154.056 7     -1896.498          47.000
C14  21672506.773 8 112854436.283 8       847.402          50.000    21672505.219 8  87266236.459 8       655.178          51.000
C21  24742358.703 5 128839950.431 5     -2755.762          31.000
E03  23901261.648 8 125601986.492 8      1500.926          51.000    23901264.461 8  96240531.522 8      1150.048          51.000
E05  24205635.164 7 127201564.249 7     -1299.531          45.000    24205637.562 7  97466071.798 7      -995.724          43.000
> 2020 05 07 20 50 30.0000000  0 15        .000000000000
G01  20496007.781 8 107707250.079 8     -1059.363          51.000    20496010.156 8  83927739.559 8      -825.478          51.000
G03  20421759.109 7 107317109.836 7       664.184          45.000    20421761.266 7  83623754.699 7       517.546          45.000
G04  22682088.750 7 119195238.478 7      3389.312          45.000    22682091.516 7  92879379.841 7      2641.023          43.000
G11  21833212.820 8 114734336.156 8     -3235.328          49.000    21833213.664 7  89403355.701 7     -2521.035          44.000
G22  20818415.031 8 109401612.550 8      -866.516          51.000    20818411.367 8  85247936.968 8      -675.207          51.000
R05  20329577.445 6 108673279.367 6     -2687.586          38.000    20329579.523 6  84523671.097 6     -2090.339          39.000
R06  19625745.961 7 104726805.141 7      1551.879          45.000
R07  23302078.648 6 124737866.890 6      3771.324          41.000    23302085.539 6  97018362.915 6      2933.255          40.000
R20  20523470.414 6 109748214.032 6     -2890.371          39.000    20523474.789 8  85359737.427 8     -2248.066          50.000
C05                                                                  39692064.680 5 159823496.551 5       -26.735          34.000
C11  22952039.500 8 119517283.810 8     -2469.328          50.000    22952037.789 7  92418336.563 7     -1909.471          46.000
C14  21667694.750 8 112829376.419 8       831.172          49.000    21667692.711 8  87246858.586 8       642.742          51.000
C21  24758280.086 5 128922850.577 5     -2762.879          32.000
E03  23892761.180 8 125557313.936 8      1485.289          51.000    23892763.719 8  96206301.894 8      1138.052          51.000
E05  24213118.883 7 127240892.203 7     -1314.422          44.000    24213120.000 7  97496206.243 7     -1007.139          42.000
> 2020 05 07 20 51  0.0000000  0 14        .000000000000
G01  20502081.188 8 107739166.345 8     -1072.793          51.000    20502083.516 8  83952609.388 8      -835.943          51.000
G03  20417987.266 7 107297289.010 7       652.922          43.000    20417989.219 7  83608309.907 7       508.770          43.000
G04  22662750.039 7 119093611.039 7      3381.375          46.000    22662751.562 7  92800189.661 7      2634.841          44.000
G11  21851701.477 8 114831491.180 8     -3246.105          50.000    21851700.148 6  89479060.909 6     -2529.433          41.000
G22  20823375.094 8 109427677.094 8      -875.461          51.000    20823371.242 8  85268247.019 8      -682.177          51.000
R05  20344678.688 6 108754005.607 6     -2698.555          37.000    20344681.125 6  84586458.185 6     -2098.876          39.000
R06  19617059.812 7 104680453.862 7      1533.574          47.000
R07  23280947.562 6 124624760.446 6      3764.645          40.000    23280954.703 6  96930391.330 6      2928.057          39.000
R20  20539722.477 6 109835122.302 6     -2908.590          36.000    20539727.172 8  85427332.758 8     -2262.237          49.000
C05                                                                  39692252.852 5 159824254.326 5       -26.436          34.000
C11  22966285.953 8 119591467.371 8     -2480.586          50.000    22966283.227 8  92475699.998 8     -1918.255          48.000
C14  21662924.477 8 112804536.255 8       820.414          49.000    21662922.117 8  87227650.605 8       634.342          51.000
E03  23884299.594 8 125512845.664 8      1474.770          51.000    23884301.852 8  96172228.818 8      1130.003          51.000
E05  24220636.211 7 127280397.592 7     -1323.707          43.000    24220636.844 7  97526476.645 7     -1014.413          42.000
> 2020 05 07 20 51 30.0000000  0 14        .000000000000
G01  20508245.391 8 107771560.677 8     -1084.453          51.000    20508247.734 8  83977851.737 8      -845.025          51.000
G03  20414293.617 7 107277880.809 7       643.477          43.000    20414296.133 7  83593186.656 7       501.410          43.000
G04  22643471.391 7 118992299.436 7      3375.035          47.000    22643471.828 7  92721245.601 7      2629.901          43.000
G11  21870265.242 8 114929041.629 8     -3254.914          51.000    21870261.336 6  89555074.224 6     -2536.297          39.000
G22  20828399.766 8 109454081.189 8      -882.477          51.000    20828395.680 8  85288821.648 8      -687.644          51.000
R05  20359859.023 5 108835154.952 5     -2708.270          35.000    20359860.930 6  84649574.386 6     -2106.432          39.000
R06  19608490.312 7 104634725.538 7      1517.195          46.000
R07  23259867.492 6 124511931.231 6      3759.797          37.000    23259876.430 6  96842635.313 6      2924.286          40.000
R20  20556087.312 6 109922635.544 6     -2923.902          36.000    20556092.461 8  85495398.649 8     -2274.143          48.000
C05                                                                  39692451.484 5 159825053.442 5       -24.799          34.000
C11  22980610.922 8 119666060.464 8     -2489.965          49.000    22980608.344 8  92533380.096 8     -1925.384          50.000
C14  21658230.188 8 112780092.526 8       811.492          50.000    21658227.672 8  87208749.179 8       627.482          51.000
E03  23875910.664 8 125468760.727 8      1466.305          51.000    23875912.781 8  96138449.475 8      1123.580          51.000
E05  24228221.062 7 127320257.837 7     -1331.137          43.000    24228222.742 7  97557018.917 7     -1019.866          43.000
> 2020 05 07 20 52  0.0000000  0 14        .000000000000
G01  20514482.531 8 107804338.158 8     -1100.516          51.000    20514485.266 8  84003392.627 8      -857.545          51.000
G03  20410660.891 7 107258790.151 7       629.590          44.000    20410663.234 7  83578310.824 7       490.589          44.000
G04  22624234.953 7 118891211.202 7      3364.199          46.000    22624234.617 6  92642475.593 6      2621.457          41.000
G11  21888885.562 8 115026890.305 8     -3268.074          51.000    21888880.375 6  89631319.928 6     -2546.554          40.000
G22  20833470.805 8 109480729.205 8      -893.914          51.000    20833466.578 8  85309586.341 8      -696.556          51.000
R05  20375099.758 5 108916627.713 5     -2722.422          35.000    20375102.625 6  84712942.088 6     -2117.439          39.000
R06  19600019.250 7 104589524.110 7      1496.461          47.000
R07  23238821.711 5 124399284.026 5      3750.582          34.000    23238832.398 6  96755020.824 6      2917.119          39.000
R20  20572547.359 6 110010654.929 6     -2943.816          38.000    20572552.562 7  85563858.206 7     -2289.635          47.000
C05                                                                  39692642.555 5 159825823.184 5       -26.116          34.000
C11  22994995.617 8 119740967.531 8     -2503.695          48.000    22994994.227 8  92591302.996 8     -1935.962          51.000
C14  21653593.961 8 112755950.869 8       798.117          50.000    21653591.555 8  87190081.338 8       617.233          51.000
E03  23867576.664 8 125424964.631 8      1453.578          51.000    23867578.469 8  96104891.446 8      1113.846          51.000
E05  24235855.203 6 127360376.733 6     -1343.059          41.000    24235858.383 7  97587759.419 7     -1029.073          44.000
> 2020 05 07 20 52 30.0000000  0 14        .000000000000
G01  20520805.375 8 107837565.308 8     -1114.680          51.000    20520808.359 8  84029283.929 8      -868.579          51.000
G03  20407101.219 7 107240083.246 7       617.469          43.000    20407103.430 7  83563734.033 7       481.148          43.000
G04  22605053.344 7 118790415.314 7      3355.438          43.000    22605053.148 6  92563933.377 6      2614.627          41.000
G11  21907574.680 8 115125101.576 8     -3279.367          51.000    21907569.922 7  89707848.154 7     -2555.351          42.000
G22  20838600.719 8 109507687.137 8      -903.344          51.000    20838596.641 8  85330592.536 8      -703.904          51.000
R05  20390412.750 5 108998488.371 5     -2734.375          34.000    20390417.328 6  84776611.610 6     -2126.733          39.000
R06  19591660.281 8 104544917.321 8      1477.316          49.000
R07  23217825.422 6 124286888.497 6      3742.742          37.000    23217835.539 6  96667602.128 6      2911.025          38.000
R20  20589114.578 6 110099246.624 6     -2962.172          39.000    20589119.742 7  85632762.847 7     -2303.911          46.000
C05                                                                  39692838.664 5 159826612.608 5       -26.152          34.000
C11  23009452.805 7 119816252.944 7     -2515.426          47.000    23009452.898 8  92649518.494 8     -1945.051          51.000
C14  21649028.406 8 112732177.026 8       786.727          50.000    21649026.188 8  87171697.913 8       608.365          51.000
E03  23859310.195 8 125381524.339 8      1442.480          51.000    23859311.719 8  96071606.055 8      1105.235          51.000
E05  24243551.109 6 127400819.652 6     -1353.227          40.000    24243554.328 7  97618748.171 7     -1036.777          43.000
> 2020 05 07 20 53  0.0000000  0 15        .000000000000
G01  20527185.695 8 107871093.707 8     -1124.000          51.000    20527188.555 8  84055409.973 8      -875.844          51.000
G03  20403585.719 7 107221611.450 7       610.473          43.000    20403588.664 7  83549340.450 7       475.693          43.000
G04  22585898.992 7 118689765.820 7      3351.168          42.000    22585899.242 6  92485505.207 6      2611.300          41.000
G11  21926304.336 8 115223524.798 8     -3285.562          51.000    21926300.398 7  89784541.532 7     -2560.182          43.000
G22  20843761.148 8 109534805.698 8      -908.012          51.000    20843757.391 8  85351723.879 8      -707.542          51.000
R05  20405770.516 6 109080583.008 6     -2741.855          41.000    20405775.453 6  84840462.963 6     -2132.557          39.000
R06  19583384.305 7 104500754.791 7      1463.316          47.000
R07  23196849.211 6 124174595.240 6      3740.191          38.000    23196857.633 6  96580262.999 6      2909.038          36.000
R20  20605760.359 6 110188256.930 6     -2975.488          40.000    20605764.859 7  85701993.030 7     -2314.272          44.000
C05                                                                  39693011.797 5 159827309.978 5       -22.920          34.000
C11  23023954.219 7 119891768.229 7     -2522.375          47.000    23023955.625 8  92707911.732 8     -1950.382          51.000
C14  21644505.086 8 112708623.619 8       780.082          50.000    21644503.172 8  87153484.927 8       603.293          51.000
C21  24837972.625 5 129337789.689 5     -2769.383          35.000
E03  23851082.898 8 125338291.755 8      1436.254          51.000    23851084.586 8  96038479.813 8      1100.548          51.000
E05  24251280.445 6 127441436.853 6     -1358.008          38.000    24251282.164 7  97649870.447 7     -1040.492          43.000
> 2020 05 07 20 53 30.0000000  0 14        .000000000000
G01  20533694.539 8 107905297.096 8     -1147.031          51.000    20533696.930 8  84082061.982 8      -893.791          51.000
G03  20400186.477 7 107203748.306 7       589.738          45.000    20400189.453 7  83535421.123 7       459.539          45.000
G04  22566845.141 7 118589638.868 7      3333.309          44.000    22566845.266 6  92407484.212 6      2597.383          41.000
G11  21945145.273 8 115322531.806 8     -3305.551          51.000    21945142.008 7  89861689.808 7     -2575.757          42.000
G22  20849023.031 8 109562457.574 8      -926.277          51.000    20849019.492 8  85373270.797 8      -721.775          51.000
R05  20421243.102 6 109163288.537 6     -2762.316          36.000    20421247.977 6  84904789.479 6     -2148.468          37.000
R06  19575262.398 8 104457416.066 8      1435.414          48.000
R07  23175963.742 6 124062786.553 6      3723.465          38.000    23175969.812 6  96493300.815 6      2896.031          36.000
R20  20622555.742 6 110278064.223 6     -3002.336          41.000    20622558.281 7  85771843.102 7     -2335.150          44.000
C11  23038571.297 8 119967882.151 8     -2542.797          48.000    23038573.258 8  92766767.872 8     -1966.216          51.000
C14  21640095.133 8 112685660.747 8       759.895          50.000    21640093.617 8  87135728.602 8       587.620          51.000
C21  24854002.133 6 129421180.462 6     -2780.629          36.000
E03  23842966.242 8 125295640.994 8      1416.445          51.000    23842968.461 8  96005799.396 8      1085.277          51.000
E05  24259114.039 6 127482600.849 6     -1376.848          38.000    24259115.047 7  97681411.717 7     -1055.068          44.000
> 2020 05 07 20 54  0.0000000  0 15        .000000000000
G01  20540256.609 8 107939779.551 8     -1155.398          51.000    20540258.695 8  84108931.431 8      -900.310          51.000
G03  20396827.758 7 107186097.604 7       583.504          45.000    20396830.047 7  83521667.341 7       454.678          45.000
G04  22547816.648 7 118489640.880 7      3329.801          46.000    22547816.547 7  92329563.728 7      2594.650          42.000
G11  21964021.414 8 115421724.254 8     -3310.770          51.000    21964018.133 7  89938982.623 7     -2579.820          42.000
G22  20854311.047 8 109590246.487 8      -929.828          51.000    20854307.406 8  85394924.507 8      -724.538          50.000
R05  20436754.648 5 109246199.269 5     -2768.660          32.000    20436756.914 5  84969275.532 5     -2153.402          34.000
R06  19567219.828 8 104414499.029 8      1422.250          49.000
R07  23155093.539 6 123951061.436 6      3721.355          40.000    23155098.492 6  96406403.589 6      2894.388          36.000
R20  20639424.109 6 110368263.383 6     -3014.422          39.000    20639425.641 7  85841997.960 7     -2344.550          44.000
C05                                                                  39693426.867 5 159828981.363 5       -25.213          34.000
C11  23053227.945 8 120044200.864 8     -2548.707          49.000    23053229.766 8  92825782.358 8     -1970.740          51.000
C14  21635723.156 8 112662895.729 8       754.215          50.000    21635721.875 8  87118125.276 8       583.201          51.000
C21  24870007.031 5 129504498.199 5     -2777.008          35.000
E03  23834885.219 8 125253176.513 8      1411.047          51.000    23834888.125 8  95973261.696 8      1081.216          51.000
E05  24266976.148 6 127523914.501 6     -1380.887          38.000    24266977.797 7  97713067.620 7     -1058.160          45.000
> 2020 05 07 20 54 30.0000000  0 15        .000000000000
G01  20546894.766 8 107974661.881 8     -1169.570          51.000    20546896.875 8  84136112.456 8      -911.353          51.000
G03  20393532.289 7 107168779.999 7       571.391          45.000    20393534.141 7  83508173.112 7       445.239          45.000
G04  22528836.281 8 118389895.144 8      3320.414          48.000    22528836.070 7  92251839.820 7      2587.339          43.000
G11  21982954.922 8 115521220.802 8     -3321.660          51.000    21982951.492 7  90016512.441 7     -2588.304          43.000
G22  20859648.016 8 109618292.339 8      -939.328          51.000    20859644.078 8  85416778.434 8      -731.941          50.000
R05  20452321.430 5 109329380.565 5     -2779.715          32.000    20452329.977 5  85033985.285 5     -2162.003          35.000
R06  19559279.203 7 104372127.015 7      1403.156          47.000
R07  23134261.789 6 123839544.515 6      3713.438          40.000    23134266.875 5  96319668.295 5      2888.229          35.000
R20  20656387.234 6 110458975.400 6     -3032.258          36.000    20656389.570 7  85912551.761 7     -2358.423          46.000
C05                                                                  39693616.547 5 159829744.695 5       -25.346          34.000
C11  23067946.812 8 120120842.697 8     -2560.176          50.000    23067947.844 8  92885046.662 8     -1979.727          49.000
C14  21631411.945 8 112640448.116 8       742.777          49.000    21631410.773 8  87100767.371 8       574.468          51.000
C21  24886016.367 5 129587861.551 5     -2779.852          32.000
E03  23826862.812 8 125211019.546 8      1399.918          51.000    23826866.461 8  95940959.633 8      1072.682          51.000
E05  24274889.008 6 127565497.312 6     -1390.727          37.000    24274891.492 7  97744929.815 7     -1065.490          45.000
> 2020 05 07 20 55  0.0000000  0 15        .000000000000
G01  20553619.703 8 108010000.640 8     -1184.824          51.000    20553621.617 8  84163649.133 8      -923.240          51.000
G03  20390311.078 7 107151851.754 7       558.523          45.000    20390312.977 7  83494982.284 7       435.216          45.000
G04  22509915.164 8 118290460.690 8      3310.137          49.000    22509914.844 7  92174358.457 7      2579.330          43.000
G11  22001956.109 8 115621075.942 8     -3333.645          50.000    22001953.547 7  90094321.686 7     -2597.645          45.000
G22  20865044.516 8 109646650.825 8      -949.684          51.000    20865040.438 8  85438875.963 8      -740.013          51.000
R05  20467969.195 6 109412995.754 6     -2792.523          36.000    20467971.797 5  85099019.217 5     -2171.966          34.000
R06  19551451.195 7 104330356.935 7      1383.223          47.000
R07  23113479.031 6 123728295.122 6      3704.762          40.000    23113485.562 6  96233141.063 6      2881.484          36.000
R20  20673456.297 5 110550255.243 5     -3051.215          35.000    20673460.195 7  85983547.219 7     -2373.164          47.000
C05                                                                  39693812.680 5 159830535.109 5       -26.158          34.000
C11  23082738.352 8 120197862.050 8     -2572.793          51.000    23082737.727 8  92944602.893 8     -1989.468          49.000
C14  21627172.258 8 112618373.636 8       730.402          48.000    21627171.336 8  87083698.012 8       564.709          51.000
C21  24902045.812 5 129671485.336 5     -2782.855          31.000
E03  23818909.883 8 125169226.998 8      1387.754          51.000    23818913.789 8  95908936.813 8      1063.377          51.000
E05  24282863.617 6 127607404.742 6     -1401.648          39.000    24282865.641 7  97777040.684 7     -1073.975          46.000
> 2020 05 07 20 55 30.0000000  0 15        .000000000000
G01  20560421.617 8 108045744.408 8     -1198.020          51.000    20560423.188 8  84191501.406 8      -933.522          51.000
G03  20387154.055 7 107135261.317 7       547.598          45.000    20387156.383 7  83482054.700 7       426.703          45.000
G04  22491043.969 8 118191288.587 8      3301.422          50.000    22491043.406 7  92097081.525 7      2572.540          44.000
G11  22021015.094 8 115721236.125 8     -3343.477          49.000    22021013.719 7  90172368.620 7     -2605.306          46.000
G22  20870490.531 8 109675270.033 8      -958.129          51.000    20870486.641 8  85461176.657 8      -746.594          50.000
R05  20483673.398 5 109496934.712 5     -2803.059          32.000    20483668.805 5  85164305.094 5     -2180.151          32.000
R06  19543726.648 8 104289137.549 8      1365.102          48.000
R07  23092735.797 6 123617262.855 6      3697.723          38.000    23092744.305 6  96146782.684 6      2876.007          36.000
R20  20690620.773 5 110642048.761 5     -3068.004          34.000    20690626.594 8  86054942.189 8     -2386.228          48.000
C05                                                                  39694005.312 5 159831310.192 5       -25.436          34.000
C11  23097592.156 8 120275206.566 8     -2583.348          51.000    23097590.258 8  93004410.559 8     -1997.548          49.000
C14  21622994.602 8 112596621.121 8       719.848          48.000    21622993.914 8  87066877.594 8       556.726          51.000
C21  24918083.719 5 129754997.730 5     -2785.344          30.000
E03  23811016.844 8 125127747.866 8      1377.625          51.000    23811020.023 8  95877154.138 8      1055.580          51.000
E05  24290890.031 6 127649584.128 6     -1410.156          37.000    24290891.891 7  97809359.906 7     -1080.572          46.000
> 2020 05 07 20 56  0.0000000  0 15        .000000000000
G01  20567288.578 8 108081830.134 8     -1212.234          51.000    20567289.906 8  84219620.151 8      -944.598          51.000
G03  20384049.117 7 107118945.415 7       535.422          44.000    20384051.445 7  83469341.012 7       417.212          44.000
G04  22472211.141 8 118092318.205 8      3291.895          50.000    22472210.367 7  92019961.773 7      2565.113          46.000
G11  22040119.680 8 115821636.118 8     -3354.520          49.000    22040119.672 7  90250602.397 7     -2613.911          47.000
G22  20875974.039 8 109704086.556 8      -967.629          51.000    20875970.383 8  85483631.095 8      -753.997          50.000
R05  20499422.289 6 109581130.824 6     -2814.426          37.000    20499419.086 5  85229790.961 5     -2189.001          33.000
R06  19536093.133 7 104248404.432 7      1346.027          47.000
R07  23072019.570 5 123506385.323 5      3689.938          33.000    23072031.219 6  96060544.624 6      2869.951          37.000
R20  20707869.547 6 110734289.446 6     -3086.297          36.000    20707876.289 7  86126684.956 7     -2400.453          47.000
C05                                                                  39694182.844 5 159832025.760 5       -25.635          35.000
C11  23112495.688 8 120352812.119 8     -2594.934          50.000    23112493.273 8  93064420.102 8     -2006.486          51.000
C14  21618866.891 8 112575127.847 8       708.422          49.000    21618866.406 8  87050257.643 8       547.860          51.000
C21  24934094.844 4 129838374.420 4     -2786.578          28.000
E03  23803171.492 8 125086519.519 8      1366.332          51.000    23803173.742 8  95845563.597 8      1046.936          51.000
E05  24298953.000 5 127691866.084 5     -1420.309          31.000    24298958.672 7  97841838.283 7     -1088.067          47.000
> 2020 05 07 20 56 30.0000000  0 14        .000000000000
G01  20574274.703 8 108118542.440 8     -1227.488          51.000    20574276.055 8  84248227.133 8      -956.484          51.000
G03  20381050.711 7 107103188.484 7       522.680          45.000    20381052.539 7  83457062.878 7       407.283          46.000
G04  22453471.102 8 117993836.677 8      3281.219          49.000    22453470.320 7  91943222.956 7      2556.797          46.000
G11  22059324.195 8 115922558.776 8     -3366.086          49.000    22059325.109 7  90329243.446 7     -2622.924          46.000
G22  20881549.164 8 109733383.941 8      -977.891          51.000    20881545.547 8  85506460.230 8      -761.990          50.000
R05  20515275.336 6 109665870.537 6     -2826.762          39.000    20515273.219 5  85295699.597 5     -2198.592          34.000
R06  19528605.156 7 104208447.117 7      1325.805          47.000
R07  23051390.008 5 123395954.577 5      3680.816          35.000    23051400.867 6  95974654.046 6      2862.857          38.000
R20  20725257.094 6 110827264.710 6     -3104.938          39.000    20725262.883 7  86198999.027 7     -2414.951          47.000
C05                                                                  39694399.086 5 159832895.900 5       -26.191          34.000
C11  23127503.195 8 120430959.431 8     -2607.223          50.000    23127500.914 8  93124848.556 8     -2016.019          51.000
C14  21614843.289 8 112554175.608 8       696.078          50.000    21614842.836 8  87034056.053 8       538.243          51.000
E03  23795427.984 8 125045826.928 8      1354.277          51.000    23795429.781 8  95814383.576 8      1037.657          51.000
E05                                                                  24307118.586 7  97874692.948 7     -1096.256          47.000
> 2020 05 07 20 57  0.0000000  0 14        .000000000000
G01  20581317.367 8 108155551.554 8     -1240.363          51.000    20581318.594 8  84277065.405 8      -966.517          51.000
G03  20378096.000 7 107087660.603 7       512.242          45.000    20378097.445 7  83444963.241 7       399.153          45.000
G04  22434760.922 7 117895516.729 7      3272.859          47.000    22434760.750 7  91866610.008 7      2550.277          47.000
G11  22078565.234 8 116023671.922 8     -3375.430          48.000    22078566.383 7  90408032.900 7     -2630.205          44.000
G22  20887152.914 8 109762831.743 8      -985.930          51.000    20887149.289 8  85529406.571 8      -768.257          50.000
R05  20531166.000 6 109750815.142 6     -2836.867          36.000    20531164.000 5  85361767.649 5     -2206.449          32.000
R06  19521199.648 8 104168930.401 8      1308.043          48.000
R07  23030784.070 6 123285636.241 6      3673.703          39.000    23030791.414 6  95888850.938 6      2857.325          39.000
R20  20742719.547 6 110920636.830 6     -3120.730          41.000    20742723.695 7  86271621.768 7     -2427.235          47.000
C05                                                                  39694591.672 5 159833671.177 5       -25.708          34.000
C11  23142551.625 8 120509320.098 8     -2617.363          49.000    23142549.742 8  93185442.031 8     -2023.954          51.000
C14  21610861.188 8 112533437.386 8       685.887          50.000    21610860.344 8  87018019.961 8       530.332          51.000
E03  23787723.711 8 125005340.762 8      1344.254          51.000    23787725.508 8  95783361.715 8      1029.989          51.000
E05  24315306.961 6 127777802.436 6     -1439.035          37.000    24315308.086 7  97907670.358 7     -1102.775          47.000
> 2020 05 07 20 57 30.0000000  0 14        .000000000000
G01  20588437.766 8 108192969.292 8     -1253.027          51.000    20588438.742 8  84306222.093 8      -976.385          51.000
G03  20375205.875 7 107072473.279 7       501.836          44.000    20375207.281 7  83433129.028 7       391.044          44.000
G04  22416102.625 7 117797472.675 7      3264.500          47.000    22416103.422 7  91790212.010 7      2543.763          47.000
G11  22097863.531 7 116125085.175 7     -3384.336          47.000    22097864.234 7  90487056.221 7     -2637.142          43.000
G22  20892806.484 8 109792541.386 8      -993.570          51.000    20892802.758 8  85552556.942 8      -774.211          50.000
R05  20547115.484 5 109836075.720 5     -2846.242          31.000    20547111.422 5  85428069.284 5     -2213.747          31.000
R06  19513898.328 8 104129968.081 8      1290.617          48.000
R07  23010220.578 7 123175545.834 7      3666.953          42.000    23010225.484 6  95803225.153 6      2852.078          40.000
R20  20760276.859 7 111014517.430 7     -3136.664          42.000    20760279.625 7  86344640.039 7     -2439.628          47.000
C11  23157661.352 7 120588003.379 7     -2626.965          47.000    23157660.664 8  93246284.966 8     -2031.405          51.000
C14  21606941.305 8 112513023.709 8       676.207          49.000    21606939.969 8  87002234.834 8       522.838          51.000
C21  24982349.234 5 130089644.825 5     -2791.781          33.000
E03  23780080.117 8 124965173.183 8      1334.621          51.000    23780082.016 8  95752583.963 8      1022.668          51.000
E05  24323547.648 6 127821111.559 6     -1447.074          36.000    24323549.406 7  97940855.220 7     -1108.743          47.000
> 2020 05 07 20 58  0.0000000  0 15        .000000000000
G01  20595645.773 8 108230847.436 8     -1269.582          51.000    20595646.727 8  84335737.548 8      -989.285          51.000
G03  20372390.531 7 107057678.265 7       487.461          45.000    20372391.648 7  83421600.430 7       379.840          45.000
G04  22397508.117 8 117699758.611 8      3252.328          49.000    22397509.000 7  91714071.188 7      2534.282          47.000
G11  22117228.125 7 116226848.182 7     -3397.297          44.000    22117228.688 7  90566352.017 7     -2647.244          42.000
G22  20898519.508 8 109822563.930 8     -1005.262          51.000    20898515.711 8  85575951.138 8      -783.321          50.000
R05  20563132.867 5 109921701.658 5     -2860.465          31.000    20563131.531 5  85494667.233 5     -2224.806          34.000
R06  19506710.836 8 104091612.833 8      1269.129          49.000
R07  22989708.836 7 123065738.144 7      3656.348          42.000    22989712.727 6  95717819.276 6      2843.826          40.000
R20  20777938.133 6 111108956.780 6     -3156.598          41.000    20777940.547 8  86418092.879 8     -2455.132          49.000
C05                                                                  39694979.008 5 159835230.948 5       -26.146          34.000
C11  23172842.375 7 120667059.137 7     -2640.793          47.000    23172842.828 8  93307415.924 8     -2041.926          51.000
C14  21603093.352 8 112492985.650 8       662.434          49.000    21603091.641 8  86986740.147 8       512.215          51.000
C21  24998450.062 5 130173491.940 5     -2795.641          34.000
E03  23772507.102 8 124925376.350 8      1321.129          51.000    23772509.125 8  95722090.304 8      1012.276          51.000
E05                                                                  24331852.391 7  97974286.320 7     -1117.857          47.000
> 2020 05 07 20 58 30.0000000  0 14        .000000000000
G01  20602932.461 8 108269139.540 8     -1288.039          51.000    20602933.422 8  84365575.567 8     -1003.664          51.000
G03  20369641.148 7 107043228.878 7       471.164          45.000    20369641.703 7  83410341.147 7       367.141          45.000
G04  22378968.695 8 117602330.646 8      3238.039          51.000    22378968.953 7  91638153.329 7      2523.147          47.000
G11  22136649.789 7 116328912.592 7     -3411.969          44.000    22136650.719 7  90645882.745 7     -2658.677          43.000
G22  20904282.984 8 109852852.063 8     -1018.801          51.000    20904279.344 8  85599552.277 8      -793.871          50.000
R05  20579210.164 5 110007642.857 5     -2874.512          30.000    20579211.570 5  85561510.494 5     -2235.725          34.000
R06  19499628.383 8 104053817.518 8      1245.613          49.000
R07  22969240.359 7 122956167.921 7      3643.633          42.000    22969244.234 6  95632598.106 6      2833.940          39.000
R20  20795694.234 6 111203905.737 6     -3178.219          40.000    20795696.664 8  86491942.080 8     -2471.948          49.000
C11  23188086.367 8 120746439.929 8     -2656.141          49.000    23188087.156 8  93368798.198 8     -2053.884          51.000
C14  21599308.820 8 112473277.039 8       646.660          50.000    21599306.664 8  86971500.195 8       500.108          51.000
C21  25014560.281 5 130257390.147 5     -2802.602          35.000
E03  23764995.836 8 124885904.260 8      1305.590          51.000    23764997.914 8  95691845.481 8      1000.393          51.000
E05  24340204.070 6 127908636.105 6     -1472.828          37.000    24340207.055 7  98007927.205 7     -1128.492          47.000
> 2020 05 07 20 59  0.0000000  0 14        .000000000000
G01  20610297.047 8 108307841.234 8     -1294.672          51.000    20610298.047 8  84395732.739 8     -1008.832          51.000
G03  20366956.375 7 107029120.593 7       466.906          45.000    20366957.031 7  83399347.697 7       363.826          44.000
G04  22360483.406 8 117505186.958 8      3235.523          50.000    22360482.992 7  91562456.982 7      2521.187          46.000
G11  22156127.500 7 116431271.671 7     -3414.781          45.000    22156129.461 7  90725643.098 7     -2660.865          44.000
G22  20910096.148 8 109883400.911 8     -1020.406          51.000    20910092.719 8  85623356.580 8      -795.122          51.000
R06  19492649.930 8 104016577.967 8      1234.301          49.000
R07  22948815.375 6 122846832.358 6      3642.781          41.000    22948818.641 6  95547559.428 6      2833.277          38.000
R20  20813543.109 6 111299357.200 6     -3187.957          37.000    20813546.414 8  86566182.115 8     -2479.522          48.000
C05                                                                  39695368.367 5 159836798.629 5       -24.158          34.000
C11  23203392.336 8 120826139.878 8     -2659.805          51.000    23203392.523 8  93430427.246 8     -2056.681          51.000
C14  21595586.539 8 112453893.228 8       642.852          49.000    21595584.258 8  86956511.416 8       497.148          51.000
C21  25030680.289 6 130341334.052 6     -2796.766          37.000
E03  23757545.500 8 124846752.963 8      1301.781          51.000    23757547.555 8  95661846.453 8       997.505          51.000
E05  24348610.055 6 127952808.627 6     -1474.820          39.000    24348612.477 7  98041773.620 7     -1129.949          47.000
> 2020 05 07 20 59 30.0000000  0 15        .000000000000
G01  20617735.414 8 108346931.229 8     -1310.078          51.000    20617736.617 8  84426192.471 8     -1020.840          51.000
G03  20364332.445 7 107015331.924 7       453.668          45.000    20364333.258 7  83388603.315 7       353.511          45.000
G04  22342048.344 8 117408308.709 8      3224.117          48.000    22342047.531 7  91486967.463 7      2512.299          46.000
G11  22175657.531 7 116533902.045 7     -3426.223          46.000    22175659.508 7  90805614.859 7     -2669.784          44.000
G22  20915954.844 8 109914188.589 8     -1030.926          51.000    20915951.438 8  85647346.978 8      -803.319          51.000
R05  20611534.539 5 110180442.621 5     -2889.973          31.000    20611526.367 5  85695880.226 5     -2247.757          30.000
R06  19485771.312 8 103979872.530 8      1214.051          49.000
R07  22928430.047 6 122737711.729 6      3633.137          41.000    22928432.367 6  95462687.890 6      2825.776          37.000
R20  20831480.250 5 111395287.238 5     -3206.371          34.000    20831485.477 7  86640794.369 7     -2493.844          47.000
C05                                                                  39695555.711 5 159837553.157 5       -25.494          34.000
C11  23218755.266 8 120906136.375 8     -2672.223          50.000    23218755.062 8  93492285.597 8     -2066.302          51.000
C14  21591922.266 8 112434812.937 8       630.176          49.000    21591920.250 8  86941757.336 8       487.316          51.000
C21  25046804.922 5 130425301.655 5     -2799.738          35.000
E03  23750151.891 8 124807901.485 8      1289.418          51.000    23750154.266 8  95632077.189 8       987.936          51.000
E05  24357062.617 5 127997226.927 5     -1485.328          35.000    24357065.219 7  98075808.376 7     -1138.177          46.000
