     3.04           OBSERVATION DATA    M (MIXED)           RINEX VERSION / TYPE
Convert 2.6.2       NovAtel             20200518 125149 UTC PGM / RUN BY / DATE 
Rinex Version 3.04 Observation File                         COMMENT             
                                                            MARKER NAME         
                                                            MARKER NUMBER       
                                                            MARKER TYPE         
                                                            OBSERVER / AGENCY   
                    NovAtel GPSCard                         REC # / TYPE / VERS 
                                                            ANT # / TYPE        
        0.0000        0.0000        0.0000                  APPROX POSITION XYZ 
        0.0000        0.0000        0.0000                  ANTENNA: DELTA H/E/N
G    8 C1C L1C D1C S1C C2W L2W D2W S2W                      SYS / # / OBS TYPES 
R    8 C1C L1C D1C S1C C2P L2P D2P S2P                      SYS / # / OBS TYPES 
E    8 C1C L1C D1C S1C C7Q L7Q D7Q S7Q                      SYS / # / OBS TYPES 
C    4 C2I L2I D2I S2I                                      SYS / # / OBS TYPES 
DBHZ                                                        SIGNAL STRENGTH UNIT
    30.000                                                  INTERVAL            
  2020    05    17    21    00    0.0000000     GPS         TIME OF FIRST OBS   
  2020    05    17    21    59   30.0000000     GPS         TIME OF LAST OBS    
G L1C  0.00000  09 G17 G04 G09 G03 G22 G11 G01 G31 G19      SYS / PHASE SHIFT   
G L2W  0.00000  09 G04 G09 G03 G22 G11 G01 G17 G31 G19      SYS / PHASE SHIFT   
R L1C  0.00000  08 R08 R23 R01 R22 R07 R09 R24 R02          SYS / PHASE SHIFT   
R L2P  0.25000  08 R08 R23 R01 R22 R07 R09 R24 R02          SYS / PHASE SHIFT   
E L1C  0.50000  04 E08 E05 E03 E15                          SYS / PHASE SHIFT   
E L7Q -0.25000  04 E08 E03 E15 E05                          SYS / PHASE SHIFT   
C L2I  0.00000  04 C29 C19 C22 C20                          SYS / PHASE SHIFT   
  8 R08  6 R23  3 R01  1 R22 -3 R07  5 R09 -2 R24  2 R02 -4 GLONASS SLOT / FRQ #
 C1C  -71.950 C2C  -71.950 C2P  -71.950                     GLONASS COD/PHS/BIS 
     0     0     0     0GPS                                 LEAP SECONDS        
                                                            END OF HEADER       
> 2020 05 17 21 00  0.0000000  0 19      -0.000000000000
G17  22041965.336 4 115831309.46524       137.535          29.000                                                                  
G04  21056822.172 8 110654471.118 8      2159.320          50.000    21056823.258 7  86224227.038 7      1682.588          47.000  
G09  23490017.586 6 123440862.262 6      3539.754          38.000    23490018.281 6  96187692.185 6      2758.251          38.000  
G03  20383596.523 8 107116551.346 8      -507.852          51.000    20383598.094 8  83467446.416 8      -395.729          51.000  
G22  21612968.930 7 113576931.909 7     -1736.141          42.000    21612967.000 6  88501499.263 6     -1352.840          37.000  
G11  23931619.656 6 125761438.417 6     -3989.020          40.000    23931608.016 4  97995949.554 4     -3108.343          27.000  
G01  21518844.922 8 113082275.684 8     -2428.832          51.000    21518847.195 8  88116062.802 8     -1892.597          51.000  
R08  19413474.406 6 103957980.499 6      -671.324          40.000    19413477.914 6  80856153.750 6      -522.141          40.000  
R23  19202101.516 8 102717927.625 8       -38.551          51.000    19202105.336 7  79891728.856 7       -29.984          42.000  
R01  20598661.133 6 110111263.301 6      2274.734          36.000    20598667.781 5  85642135.494 5      1769.235          32.000  
R22  21996450.641 7 117418159.628 7     -4109.203          44.000    21996464.773 5  91325233.952 5     -3196.029          30.000  
E08  24138980.586 8 126851183.572 8      2501.324          48.000    24138979.914 7  97197802.177 7      1916.474          45.000  
E05  25206738.062 6 132462309.558 6     -2091.422          37.000                                                                  
E03  23362825.984 8 122772481.717 8       381.301          51.000    23362828.547 8  94072464.701 8       292.106          51.000  
E15  23119891.094 8 121495859.190 8       107.652          51.000    23119893.531 8  93094233.459 8        82.523          51.000  
C29  24878015.016 5 129546294.512 5     -3410.668          32.000  
C19  21518727.430 8 112053635.640 8      -373.527          51.000  
C22  23755316.492 6 123700153.789 6      2149.715          36.000  
C20  24435334.828 5 127241150.318 5     -2510.637          34.000  
> 2020 05 17 21 00 30.0000000  0 18      -0.000000000000
G17  22041259.000 4 115827581.94424       112.871          29.000                                                                  
G04  21044538.227 8 110589916.759 8      2139.832          51.000    21044539.156 8  86173924.985 8      1667.405          48.000  
G09  23469831.031 6 123334782.120 6      3528.332          38.000    23469832.562 6  96105032.388 6      2749.354          38.000  
G03  20386525.734 8 107131944.659 8      -522.688          51.000    20386527.133 8  83479441.201 8      -407.289          51.000  
G22  21622899.758 7 113629118.609 7     -1747.320          43.000    21622897.711 6  88542164.228 6     -1361.546          37.000  
G11  23954403.914 6 125881168.824 6     -3996.992          36.000                                                                  
G01  21532745.383 8 113155324.211 8     -2445.309          51.000    21532747.680 8  88172983.721 8     -1905.436          51.000  
R08  19417280.547 6 103978359.576 6      -691.652          40.000    19417282.930 6  80872004.095 6      -537.955          38.000  
R23  19202393.469 8 102719489.503 8       -70.066          51.000    19202397.125 7  79892943.646 7       -54.496          42.000  
R01  20585935.891 5 110043239.233 5      2256.047          34.000    20585943.031 5  85589227.921 5      1754.707          34.000  
R22  22019575.336 7 117541593.391 7     -4124.211          45.000    22019589.508 6  91421238.144 6     -3207.717          39.000  
E08  24124718.516 7 126776234.449 7      2490.969          47.000    24124718.242 7  97140373.648 7      1908.692          45.000  
E05  25218693.102 5 132525126.502 5     -2101.344          32.000                                                                  
E03  23360679.969 8 122761204.398 8       366.078          51.000    23360682.547 8  94063823.645 8       280.508          51.000  
E15  23119312.875 8 121492819.726 8        90.535          51.000    23119315.266 8  93091904.518 8        69.398          51.000  
C19  21520906.133 8 112064981.570 8      -387.176          51.000  
C22  23742952.203 5 123635764.294 5      2138.766          34.000  
C20  24449819.227 5 127316522.487 5     -2517.766          33.000  
> 2020 05 17 21 01  0.0000000  0 17      -0.000000000000
G04  21032353.297 8 110525883.056 8      2124.855          50.000    21032354.211 8  86124028.618 8      1655.732          49.000  
G09  23449693.805 6 123228955.456 6      3522.250          40.000    23449695.438 6  96022570.107 6      2744.611          40.000  
G03  20389526.500 8 107147713.860 8      -532.703          51.000    20389527.805 8  83491728.883 8      -415.093          51.000  
G22  21632882.305 7 113681576.680 7     -1753.930          44.000    21632880.258 6  88583040.637 6     -1366.696          38.000  
G11  23977219.703 5 126001063.313 5     -3999.773          32.000                                                                  
G01  21546727.273 8 113228799.642 8     -2457.242          51.000    21546729.383 8  88230237.294 8     -1914.735          51.000  
R08  19421186.758 6 103999274.845 6      -707.074          40.000    19421188.461 6  80888271.532 6      -549.944          39.000  
R23  19202848.898 8 102721925.922 8       -96.766          51.000    19202852.680 7  79894838.629 7       -75.265          43.000  
R01  20573298.219 5 109975695.002 5      2242.449          34.000    20573308.367 5  85536693.579 5      1744.125          33.000  
R22  22042770.961 8 117665405.138 8     -4134.266          48.000    22042781.344 7  91517536.232 7     -3215.538          42.000  
E08  24110501.328 7 126701524.544 7      2485.434          46.000    24110501.828 7  97083128.433 7      1904.433          45.000  
E03  23358606.648 8 122750309.175 8       355.910          51.000    23358609.266 8  94055475.371 8       272.725          51.000  
E15  23118818.914 8 121490222.666 8        78.293          51.000    23118821.312 8  93089914.553 8        60.075          51.000  
C29  24917361.906 5 129751233.515 5     -3421.520          32.000  
C19  21523150.234 8 112076667.084 8      -396.109          51.000  
C22  23730639.961 5 123571643.114 5      2132.590          32.000  
C20  24464328.773 5 127392036.637 5     -2520.574          33.000  
> 2020 05 17 21 01 30.0000000  0 16      -0.000000000000
G04  21020253.594 8 110462298.402 8      2112.312          50.000    21020254.594 8  86074482.140 8      1645.955          48.000  
G09  23429591.383 7 123123311.263 7      3518.875          42.000    23429593.094 7  95940250.017 7      2741.981          42.000  
G03  20392584.805 8 107163785.532 8      -540.418          51.000    20392586.234 8  83504252.275 8      -421.105          51.000  
G22  21642902.500 7 113734232.574 7     -1758.129          45.000    21642899.898 6  88624071.220 6     -1369.971          36.000  
G01  21560776.273 8 113302627.933 8     -2466.453          50.000    21560778.289 8  88287765.796 8     -1921.915          50.000  
R08  19425178.867 6 104020650.166 6      -719.629          41.000    19425180.328 6  80904896.790 6      -559.715          37.000  
R23  19203454.211 8 102725163.061 8      -120.898          51.000    19203458.156 7  79897356.393 7       -94.032          43.000  
R01  20560738.156 6 109908556.942 6      2231.266          36.000    20560748.469 4  85484475.115 4      1735.429          27.000  
R22  22066022.883 8 117789517.625 8     -4141.691          49.000    22066029.500 7  91614068.223 7     -3221.316          44.000  
E08  24096315.508 7 126626981.602 7      2482.398          45.000    24096316.594 7  97026011.122 7      1901.925          45.000  
E05  25242716.430 6 132651374.618 6     -2108.957          38.000                                                                  
E03  23356592.086 8 122739722.688 8       348.191          51.000    23356594.711 8  94047363.659 8       266.760          51.000  
E15  23118395.312 8 121487995.773 8        68.453          51.000    23118397.594 8  93088208.230 8        52.415          51.000  
C29  24937069.320 5 129853869.258 5     -3422.492          35.000  
C19  21525445.523 8 112088619.163 8      -402.434          51.000  
C20  24478853.836 5 127467619.497 5     -2520.445          31.000  
> 2020 05 17 21 02  0.0000000  0 16      -0.000000000000
G04  21008238.195 8 110399157.814 8      2096.977          50.000    21008239.102 8  86025281.662 8      1634.008          48.000  
G09  23409522.695 6 123017845.185 6      3512.332          41.000    23409524.531 6  95858068.691 6      2736.886          41.000  
G03  20395699.391 8 107180152.838 8      -550.801          51.000    20395700.859 8  83517006.028 8      -429.196          51.000  
G22  21652958.836 7 113787079.322 7     -1764.961          45.000    21652955.852 6  88665250.532 6     -1375.295          36.000  
G11  24022899.039 5 126241189.867 5     -4003.828          34.000                                                                  
G01  21574890.750 8 113376801.645 8     -2478.395          48.000    21574893.008 8  88345563.470 8     -1931.217          48.000  
R08  19429255.156 6 104042477.130 6      -735.488          40.000    19429255.625 6  80921873.324 6      -572.047          36.000  
R23  19204207.922 8 102729195.131 8      -147.910          51.000    19204212.148 7  79900492.446 7      -115.041          44.000  
R01  20548254.305 5 109841818.952 5      2217.238          35.000    20548261.805 4  85432567.842 4      1724.519          28.000  
R22  22089328.922 8 117913921.175 8     -4151.828          49.000    22089333.492 7  91710826.564 7     -3229.200          46.000  
E08  24082160.484 7 126552599.908 7      2476.336          45.000    24082161.711 7  96969017.345 7      1897.459          45.000  
E05  25254771.586 6 132714719.930 6     -2113.887          37.000                                                                  
E03  23354635.047 8 122729438.134 8       337.457          51.000    23354637.477 8  94039483.290 8       258.583          51.000  
E15  23118041.023 8 121486133.351 8        55.645          51.000    23118043.203 8  93086781.163 8        42.703          51.000  
C29  24956796.703 6 129956595.947 6     -3425.840          39.000  
C19  21527790.672 8 112100830.704 8      -411.586          51.000  
> 2020 05 17 21 02 30.0000000  0 17      -0.000000000000
G04  20996312.906 8 110336491.209 8      2081.078          50.000    20996313.695 8  85976450.508 8      1621.620          48.000  
G09  23389493.414 6 122912587.651 6      3505.363          41.000    23389495.734 6  95776049.873 6      2731.456          41.000  
G03  20398875.578 8 107196843.839 8      -561.637          51.000    20398877.094 8  83530011.999 8      -437.639          51.000  
G22  21663056.898 7 113840144.973 7     -1772.402          46.000    21663053.703 5  88706600.342 5     -1381.096          34.000  
G11  24045764.656 5 126361359.185 5     -4006.988          33.000    24045796.570 5  98463515.888 5     -3122.330          30.000  
G01  21589075.898 7 113451348.195 7     -2490.930          47.000    21589079.008 8  88403651.699 8     -1940.982          48.000  
R08  19433420.578 6 104064783.160 6      -751.320          40.000    19433420.969 6  80939222.456 6      -584.360          37.000  
R23  19205115.773 8 102734051.885 8      -175.512          51.000    19205120.273 7  79904269.917 7      -136.509          43.000  
R01  20535854.258 4 109775501.269 4      2203.957          29.000    20535853.641 4  85380933.346 4      1714.186          27.000  
R22  22112693.797 8 118038640.977 8     -4162.422          48.000    22112697.578 7  91807830.891 7     -3237.437          45.000  
E08  24068042.219 7 126478408.519 7      2470.051          47.000    24068043.117 7  96912169.441 7      1892.661          45.000  
E05  25266859.992 5 132778244.056 5     -2119.477          34.000    25266863.258 5 101739188.617 5     -1624.291          30.000  
E03  23352740.695 8 122719483.568 8       326.391          51.000    23352742.922 8  94031855.756 8       250.116          51.000  
E15  23117761.719 8 121484664.583 8        42.500          51.000    23117763.797 8  93085655.742 8        32.586          51.000  
C29  24976546.680 6 130059439.781 6     -3429.723          38.000  
C19  21530191.156 8 112113329.253 8      -421.266          51.000  
C22  23693924.539 5 123380494.852 5      2113.164          33.000  
> 2020 05 17 21 03  0.0000000  0 16      -0.000000000000
G17  22039332.297 4 115817472.12624        20.191          29.000                                                                  
G04  20984474.406 8 110274280.379 8      2065.656          50.000    20984475.430 8  85927974.550 8      1609.603          48.000  
G09  23369500.305 6 122807521.177 6      3498.840          39.000    23369502.672 6  95694179.909 6      2726.370          39.000  
G03  20402109.570 8 107213838.570 8      -571.934          51.000    20402111.133 8  83543254.656 8      -445.663          51.000  
G22  21673192.953 8 113893409.671 8     -1779.250          48.000    21673189.102 5  88748105.332 5     -1386.429          34.000  
G01  21603328.250 8 113526247.040 8     -2502.926          48.000    21603332.172 8  88462014.460 8     -1950.332          48.000  
R08  19437670.047 6 104087546.230 6      -766.574          39.000    19437672.492 6  80956927.158 6      -596.221          37.000  
R23  19206173.922 8 102739713.807 8      -202.527          51.000    19206178.922 7  79908673.646 7      -157.524          43.000  
R01  20523523.992 4 109709628.134 4      2189.094          27.000    20523528.547 4  85329718.207 4      1702.635          28.000  
R22  22136113.070 7 118163654.297 7     -4172.207          47.000    22136116.656 7  91905063.549 7     -3245.048          42.000  
E08  24053957.305 8 126404388.702 8      2464.055          48.000    24053957.172 7  96855452.996 7      1888.169          45.000  
E03  23350905.180 8 122709839.061 8       315.973          51.000    23350907.688 8  94024465.801 8       242.163          51.000  
E15  23117553.656 8 121483570.692 8        29.848          51.000    23117555.562 8  93084817.556 8        22.903          51.000  
C29  24996314.852 6 130162379.444 6     -3433.270          39.000  
C19  21532642.844 8 112126094.757 8      -430.355          51.000  
C22  23681768.188 5 123317178.248 5      2107.133          35.000  
> 2020 05 17 21 03 30.0000000  0 17      -0.000000000000
G04  20972725.625 8 110212540.205 8      2049.520          50.000    20972726.906 8  85879865.348 8      1597.029          49.000  
G09  23349545.797 6 122702661.311 6      3490.949          37.000    23349548.938 6  95612470.895 6      2720.221          38.000  
G03  20405403.812 8 107231150.101 8      -582.824          51.000    20405405.453 8  83556744.155 8      -454.149          51.000  
G22  21683369.289 7 113946886.318 7     -1786.738          47.000    21683365.508 5  88789775.455 5     -1392.264          35.000  
G01  21617650.617 8 113601510.590 8     -2515.348          49.000    21617654.438 8  88520661.387 8     -1960.015          49.000  
R08  19442007.984 6 104110778.622 6      -782.441          41.000    19442009.906 6  80974996.706 6      -608.569          36.000  
R23  19207385.211 8 102746195.674 8      -230.238          50.000    19207390.781 7  79913715.076 7      -179.074          42.000  
R01  20511277.195 5 109644144.997 5      2174.488          33.000    20511277.469 4  85278778.995 4      1691.272          27.000  
R22  22159589.055 7 118288971.319 7     -4182.871          45.000    22159593.227 6  92002532.467 6     -3253.339          39.000  
E08  24039907.820 7 126330554.555 7      2457.473          47.000    24039906.578 7  96798878.814 7      1882.847          45.000  
E05  25291120.430 5 132905734.760 5     -2130.512          35.000                                                                  
E03  23349131.203 8 122700517.621 8       304.781          51.000    23349134.125 8  94017323.405 8       233.519          51.000  
E15  23117419.344 8 121482865.814 8        16.367          51.000    23117421.258 8  93084277.453 8        12.583          51.000  
C29  25016104.305 6 130265426.125 6     -3437.145          39.000  
C19  21535148.141 8 112139139.789 8      -439.984          51.000  
C22  23669652.641 5 123254075.020 5      2098.688          35.000  
C20  24537035.312 5 127770796.130 5     -2531.078          31.000  
> 2020 05 17 21 04  0.0000000  0 16      -0.000000000000
G04  20961065.562 8 110151265.388 8      2031.930          51.000    20961066.672 8  85832118.756 8      1583.322          48.000  
G09  23329629.375 5 122598003.251 5      3482.211          35.000    23329633.727 5  95530919.090 5      2713.406          35.000  
G03  20408756.992 8 107248771.292 8      -595.328          51.000    20408758.781 8  83570474.948 8      -463.892          51.000  
G22  21693584.578 7 114000567.476 7     -1795.551          46.000    21693581.156 6  88831604.922 6     -1399.131          38.000  
G01  21632041.016 8 113677131.150 8     -2529.379          50.000    21632044.672 8  88579586.452 8     -1970.948          49.000  
R08  19446431.883 6 104134471.464 6      -800.250          41.000    19446434.289 6  80993424.501 6      -622.417          38.000  
R23  19208748.875 8 102753490.869 8      -259.547          51.000    19208754.227 7  79919389.117 7      -201.870          42.000  
R01  20499112.812 6 109579089.101 6      2158.645          36.000    20499106.930 4  85228180.092 4      1678.949          29.000  
R22  22183119.742 7 118414581.956 7     -4194.758          44.000    22183125.922 6  92100229.803 6     -3262.587          38.000  
E08  24025892.070 7 126256900.093 7      2449.414          45.000    24025890.898 7  96742442.302 7      1876.936          46.000  
E05  25303296.844 6 132969717.737 6     -2138.391          37.000                                                                  
E03  23347417.664 8 122691512.148 8       292.098          51.000    23347420.258 8  94010423.103 8       223.863          51.000  
E15  23117357.766 8 121482543.971 8         1.582          51.000    23117360.000 8  93084030.836 8         1.200          51.000  
C29  25035912.172 6 130368571.216 6     -3442.535          37.000  
C19  21537705.625 8 112152457.060 8      -451.172          51.000  
C22  23657575.156 5 123191178.745 5      2090.320          34.000  
> 2020 05 17 21 04 30.0000000  0 17      -0.000000000000
G04  20949494.562 8 110090458.336 8      2019.121          51.000    20949495.359 8  85784736.653 8      1573.342          48.000  
G09  23309752.695 6 122493550.066 6      3478.375          36.000    23309755.703 5  95449526.878 5      2710.420          35.000  
G03  20412169.320 8 107266702.787 8      -602.852          51.000    20412171.227 8  83584447.539 8      -469.755          51.000  
G22  21703838.836 7 114054453.972 7     -1799.582          47.000    21703835.570 6  88873594.391 6     -1402.269          36.000  
G11  24137404.953 5 126842893.78125     -4019.535          32.000                                                                  
G01  21646499.344 8 113753108.774 8     -2538.398          50.000    21646502.922 8  88638789.749 8     -1977.973          50.000  
R08  19450942.219 7 104158624.040 7      -812.676          42.000    19450945.156 6  81012209.834 6      -632.084          37.000  
R23  19210265.352 8 102761601.244 8      -283.906          51.000    19210270.148 7  79925697.182 7      -220.816          42.000  
R01  20487025.500 5 109514453.090 5      2147.664          34.000    20487018.289 5  85177907.591 5      1670.400          31.000  
R22  22206704.844 7 118540483.887 7     -4201.480          43.000    22206713.141 6  92198153.633 6     -3267.816          39.000  
E08  24011910.539 7 126183427.059 7      2446.160          45.000    24011910.539 7  96686144.807 7      1874.421          47.000  
E05  25315502.930 6 133033854.875 6     -2140.234          36.000                                                                  
E03  23345764.484 8 122682823.275 8       284.477          51.000    23345766.344 8  94003765.392 8       217.964          51.000  
E15  23117369.703 8 121482606.888 8        -8.414          51.000    23117372.414 8  93084079.037 8        -6.444          51.000  
C29  25055738.859 6 130471813.719 6     -3442.734          36.000  
C19  21540315.289 8 112166046.865 8      -457.469          51.000  
C22  23645538.031 4 123128521.24124      2086.297          27.000  
> 2020 05 17 21 05  0.0000000  0 17      -0.000000000000
G17  22039762.422 5 115819711.92325       -57.730          31.000                                                                  
G04  20938015.172 8 110030132.940 8      2002.152          50.000    20938015.969 8  85737729.882 8      1560.119          48.000  
G09  23289918.352 6 122389316.255 6      3469.930          38.000    23289914.227 6  95368305.567 6      2703.842          38.000  
G03  20415643.016 8 107284956.738 8      -614.379          51.000    20415644.891 8  83598671.389 8      -478.740          51.000  
G22  21714134.344 7 114108557.672 7     -1807.812          47.000    21714131.148 6  88915753.121 6     -1408.682          36.000  
G11  24160353.906 6 126963522.753 6     -4022.449          36.000                                                                  
G01  21661027.602 8 113829454.722 8     -2551.719          50.000    21661031.250 8  88698280.070 8     -1988.353          50.000  
R08  19455540.672 6 104183247.236 6      -829.266          40.000    19455542.375 6  81031361.212 6      -644.984          38.000  
R23  19211936.727 8 102770539.967 8      -312.422          51.000    19211941.000 7  79932649.496 7      -242.995          42.000  
R01  20474997.547 5 109450246.895 5      2132.184          32.000    20475006.867 5  85127974.683 5      1658.362          30.000  
R22  22230346.586 7 118666686.658 7     -4212.203          42.000    22230355.039 6  92296311.421 6     -3276.156          41.000  
E08  23997966.125 7 126110148.740 7      2438.629          46.000    23997967.117 8  96629996.483 8      1868.678          48.000  
E05  25327740.297 6 133098157.654 6     -2146.984          36.000                                                                  
E03  23344173.656 8 122674463.137 8       272.641          51.000    23344175.336 8  93997359.582 8       208.931          51.000  
E15  23117457.484 8 121483067.848 8       -22.590          51.000    23117460.422 8  93084432.235 8       -17.351          51.000  
C29  25075587.078 5 130575164.079 5     -3447.672          30.000  
C19  21542979.484 8 112179920.980 8      -467.855          51.000  
> 2020 05 17 21 05 30.0000000  0 19      -0.000000000000
G17  22040122.008 5 115821623.80125       -75.465          32.000                                                                  
G04  20926605.852 8 109970177.104 8      1987.105          50.000    20926606.727 7  85691011.078 7      1548.394          47.000  
G09  23270104.688 6 122285190.339 6      3463.500          38.000    23270096.844 6  95287168.477 6      2698.832          38.000  
G03  20419156.469 8 107303419.294 8      -624.254          51.000    20419158.117 8  83613057.798 8      -486.432          51.000  
G22  21724449.656 8 114162764.669 8     -1813.848          48.000    21724446.516 5  88957992.339 5     -1413.388          34.000  
G11  24183302.195 6 127084117.786 6     -4024.488          37.000    24183304.289 5  99026585.434 5     -3135.966          33.000  
G01  21675603.969 8 113906054.541 8     -2562.789          49.000    21675607.961 8  88757968.241 8     -1996.979          49.000  
R08  19460204.508 7 104208224.020 7      -843.832          42.000    19460206.992 6  81050787.608 6      -656.314          39.000  
R23  19213741.328 8 102780191.948 8      -339.062          51.000    19213745.523 7  79940156.592 7      -263.718          43.000  
R01  20463050.969 5 109386361.356 5      2118.586          33.000    20463055.469 5  85078285.900 5      1647.792          31.000  
R22  22254022.570 6 118793071.674 6     -4221.379          41.000    22254030.516 7  92394610.942 7     -3283.295          43.000  
R07  22023488.039 4 117892949.661 4     -3352.895          29.000                                                                  
E08  23984037.055 7 126036952.277 7      2433.566          45.000    23984038.625 8  96573910.896 8      1864.604          48.000  
E05  25339985.906 5 133162530.253 5     -2150.902          34.000                                                                  
E03  23342623.609 8 122666317.858 8       262.746          51.000    23342625.438 8  93991118.409 8       201.424          51.000  
E15  23117599.273 8 121483814.058 8       -34.703          51.000    23117602.180 8  93085004.004 8       -26.588          51.000  
C19  21545676.547 8 112193966.272 8      -476.211          51.000  
C22  23621570.977 5 123003736.576 5      2071.195          31.000  
C20  24595451.742 5 128074900.476 5     -2540.934          33.000  
> 2020 05 17 21 06  0.0000000  0 16      -0.000000000000
G04  20915324.797 8 109910896.375 8      1970.219          48.000    20915325.688 7  85644818.341 7      1535.236          46.000  
G09  23250369.922 6 122181478.689 6      3455.688          38.000    23250360.773 6  95206354.166 6      2692.741          38.000  
G03  20422767.406 8 107322394.308 8      -635.531          51.000    20422768.938 8  83627843.522 8      -495.219          51.000  
G22  21734842.312 8 114217378.849 8     -1821.664          48.000    21734838.672 5  89000548.845 5     -1419.479          34.000  
G11  24206304.438 6 127204994.345 6     -4028.336          36.000    24206301.211 4  99120755.620 4     -3138.964          29.000  
G01  21690286.453 8 113983211.441 8     -2575.738          51.000    21690290.453 8  88818090.486 8     -2007.069          51.000  
R08  19464992.359 6 104233862.204 6      -859.977          41.000    19464994.609 6  81070728.411 6      -668.874          38.000  
R23  19215737.297 8 102790867.525 8      -367.371          51.000    19215741.461 7  79948459.841 7      -285.733          43.000  
R01  20451219.711 5 109323103.598 5      2103.816          34.000    20451222.922 5  85029085.521 5      1636.305          32.000  
R22  22277789.438 6 118919944.445 6     -4231.379          36.000    22277797.406 7  92493289.831 7     -3291.070          43.000  
E08  23970181.258 7 125964142.655 7      2425.879          46.000    23970183.359 8  96518121.718 8      1858.941          48.000  
E05  25352300.469 5 133227236.939 5     -2158.555          32.000                                                                  
E03  23341172.320 8 122658691.267 8       251.020          51.000    23341174.125 8  93985274.670 8       192.337          51.000  
E15  23117853.148 8 121485150.448 8       -48.918          51.000    23117856.375 8  93086027.995 8       -37.483          51.000  
C19  21548464.250 8 112208483.519 8      -486.332          51.000  
C20  24610122.977 5 128151262.465 5     -2544.770          34.000  
> 2020 05 17 21 06 30.0000000  0 18      -0.000000000000
G04  20904099.070 7 109851906.917 7      1956.656          46.000    20904099.891 7  85598852.553 7      1524.668          46.000  
G09  23230640.891 5 122077798.071 5      3451.773          35.000    23230631.711 5  95125564.052 5      2689.694          35.000  
G03  20426402.406 8 107341496.190 8      -643.492          51.000    20426403.992 8  83642728.107 8      -501.423          51.000  
G22  21745239.180 7 114272014.742 7     -1826.469          46.000    21745235.297 6  89043122.248 6     -1423.223          37.000  
G11  24229286.211 6 127325765.219 6     -4028.684          36.000    24229284.148 5  99214866.953 5     -3139.235          31.000  
G01  21705001.805 8 114060539.134 8     -2585.164          51.000    21705005.180 8  88878345.823 8     -2014.414          51.000  
R08  19469830.125 6 104259767.181 6      -872.496          41.000    19469831.594 6  81090876.709 6      -678.608          39.000  
R23  19217851.242 8 102802174.989 8      -392.328          51.000    19217855.414 7  79957254.537 7      -305.144          42.000  
R01  20439431.641 5 109260082.441 5      2091.570          32.000    20439433.742 4  84980069.082 4      1626.777          28.000  
R22  22301573.180 6 119046910.474 6     -4238.680          36.000    22301581.484 7  92592041.226 7     -3296.749          42.000  
R07  22061099.492 5 118094329.058 5     -3358.395          35.000    22061104.781 4  91851216.066 4     -2612.088          29.000  
E08  23956326.188 8 125891335.281 8      2422.113          48.000    23956328.484 8  96462334.291 8      1855.915          49.000  
E03  23339746.398 8 122651197.712 8       242.836          51.000    23339748.000 8  93979532.863 8       186.054          51.000  
E15  23118146.320 8 121486692.491 8       -59.590          51.000    23118149.984 8  93087209.552 8       -45.666          51.000  
C29  25135222.664 4 130885691.614 4     -3455.527          28.000  
C19  21551269.203 8 112223090.373 8      -493.086          51.000  
C22  23597786.039 5 122879892.894 5      2059.660          31.000  
C20  24624769.945 5 128227515.045 5     -2544.773          32.000  
> 2020 05 17 21 07  0.0000000  0 16      -0.000000000000
G04  20892992.602 7 109793545.147 7      1938.504          43.000    20892993.344 7  85553375.875 7      1510.523          44.000  
G03  20430125.164 8 107361059.681 8      -656.113          51.000    20430126.805 8  83657972.388 8      -511.257          51.000  
G22  21755703.844 7 114327006.802 7     -1835.391          46.000    21755700.445 6  89085973.204 6     -1430.175          38.000  
G11  24252310.859 6 127446762.749 6     -4033.328          36.000                                                                  
G01  21719813.438 8 114138371.674 8     -2599.191          51.000    21719816.195 8  88938994.542 8     -2025.348          51.000  
R08  19474781.016 6 104286279.200 6      -889.863          41.000    19474783.141 6  81111497.193 6      -692.116          39.000  
R23  19220147.156 8 102814455.455 8      -421.836          51.000    19220150.891 7  79966806.007 7      -328.098          42.000  
R01  20427749.773 5 109197639.029 5      2075.938          31.000    20427750.961 4  84931505.860 4      1614.615          26.000  
R22  22325439.297 5 119174307.111 5     -4249.711          35.000    22325446.148 6  92691127.529 6     -3305.328          40.000  
R07  22079949.664 5 118195226.831 5     -3363.816          33.000    22079955.969 4  91929692.010 4     -2616.305          27.000  
E08  23942535.930 8 125818866.035 8      2413.730          49.000    23942538.000 8  96406805.929 8      1849.423          49.000  
E03  23338409.445 8 122644171.897 8       230.121          51.000    23338410.961 8  93974149.454 8       176.306          51.000  
E15  23118542.805 8 121488775.956 8       -74.789          51.000    23118546.609 8  93088805.976 8       -57.297          51.000  
C19  21554155.188 8 112238118.212 8      -504.352          51.000  
C22  23585961.344 6 122818336.714 6      2049.461          36.000  
C20  24639458.203 5 128304119.362 5     -2549.129          30.000  
> 2020 05 17 21 07 30.0000000  0 16      -0.000000000000
G04  20881962.820 7 109735585.500 7      1922.176          43.000    20881963.156 7  85508212.554 7      1497.803          43.000  
G09  23191335.422 5 121871294.33425      3432.871          31.000    23191340.883 5  94964634.88625      2674.965          30.000  
G03  20433892.539 8 107380857.581 8      -667.016          51.000    20433894.148 8  83673399.319 8      -519.753          51.000  
G22  21766192.852 7 114382127.790 7     -1842.750          46.000    21766190.180 6  89128924.621 6     -1435.910          38.000  
G11  24275335.156 5 127567758.011 5     -4037.047          35.000                                                                  
G01  21734677.617 8 114216481.092 8     -2611.469          51.000    21734679.898 8  88999858.998 8     -2034.914          51.000  
R08  19479802.133 7 104313165.128 7      -905.707          42.000    19479803.523 6  81132408.472 6      -704.439          38.000  
R23  19222581.820 8 102827478.644 8      -449.758          51.000    19222585.125 6  79976935.124 6      -349.815          41.000  
R01  20416132.656 5 109135542.983 5      2060.805          35.000    20416135.664 4  84883209.083 4      1602.851          27.000  
R22  22349342.164 5 119301900.154 5     -4259.887          32.000    22349347.391 6  92790366.650 6     -3313.243          38.000  
E08  23928767.195 8 125746508.738 8      2406.977          50.000    23928768.711 8  96351363.372 8      1844.245          50.000  
E03  23337118.320 8 122637386.573 8       218.953          51.000    23337119.914 8  93968950.312 8       167.817          51.000  
E15  23118999.234 8 121491174.703 8       -88.414          51.000    23119003.094 8  93090643.980 8       -67.719          51.000  
C19  21557078.727 8 112253341.540 8      -513.816          51.000  
C22  23574162.750 6 122756917.814 6      2041.637          36.000  
C20  24654142.906 5 128380539.69625     -2552.270          30.000  
> 2020 05 17 21 08  0.0000000  0 17      -0.000000000000
G17  22043669.156 4 115840245.869 4      -170.113          29.000                                                                  
G04  20871030.578 7 109678136.298 7      1909.238          45.000    20871030.562 7  85463446.938 7      1487.719          44.000  
G09  23171752.625 5 121768375.075 5      3428.914          35.000    23171751.742 5  94884439.571 5      2671.885          34.000  
G03  20437724.844 8 107400996.478 8      -674.223          51.000    20437726.438 8  83689091.960 8      -525.368          51.000  
G22  21776726.734 7 114437484.503 7     -1846.281          45.000    21776724.086 6  89172059.748 6     -1438.661          40.000  
G11  24298379.562 5 127688855.677 5     -4036.082          32.000                                                                  
G01  21749614.438 8 114294973.307 8     -2619.984          51.000    21749616.352 8  89061021.734 8     -2041.550          51.000  
R08  19484912.781 7 104340531.885 7      -917.336          42.000    19484914.297 6  81153693.739 6      -713.484          39.000  
R23  19225175.695 8 102841353.460 8      -473.938          51.000    19225178.805 6  79987726.631 6      -368.618          41.000  
R01  20404603.258 5 109073903.733 5      2049.934          35.000    20404607.422 4  84835267.552 4      1594.399          29.000  
R22  22373300.984 6 119429795.452 6     -4265.531          36.000    22373305.570 5  92889840.866 5     -3317.633          35.000  
E08  23915040.164 8 125674371.078 8      2403.699          50.000    23915040.938 8  96296089.097 8      1841.797          49.000  
E03  23335893.148 8 122630948.293 8       211.535          51.000    23335895.211 8  93964017.090 8       162.091          51.000  
E15  23119536.133 8 121493996.400 8       -98.328          51.000    23119540.203 8  93092806.054 8       -75.366          51.000  
C19  21560060.047 8 112268865.810 8      -519.734          51.000  
C22  23562407.469 5 122695742.519 5      2038.012          33.000  
C20  24668846.547 5 128457111.750 5     -2550.812          33.000  
> 2020 05 17 21 08 30.0000000  0 18      -0.000000000000
G17  22044699.844 5 115845675.218 5      -190.102          34.000                                                                  
G04  20860183.805 7 109621134.854 7      1892.070          47.000    20860183.758 7  85419030.188 7      1474.341          45.000  
G09  23152205.164 6 121665648.613 6      3419.879          36.000    23152198.453 6  94804393.075 6      2664.844          36.000  
G03  20441609.844 8 107421412.070 8      -685.648          51.000    20441611.383 8  83705000.213 8      -534.272          51.000  
G22  21787293.188 7 114493012.313 7     -1854.395          44.000    21787290.508 6  89215328.175 6     -1444.983          38.000  
G11  24321431.734 5 127809989.903 5     -4039.207          32.000                                                                  
G01  21764611.305 8 114373783.230 8     -2632.863          49.000    21764612.961 8  89122432.068 8     -2051.583          49.000  
R08  19490101.477 6 104368313.002 6      -933.547          41.000    19490102.891 6  81175301.293 6      -726.089          39.000  
R23  19227916.562 8 102856015.607 8      -502.348          51.000    19227919.617 6  79999130.519 6      -390.715          41.000  
R01  20393146.070 5 109012656.595 5      2034.395          32.000    20393150.992 4  84787630.758 4      1582.301          25.000  
R22  22397304.219 7 119557924.619 7     -4275.402          42.000    22397307.344 4  92989496.847 4     -3325.313          29.000  
E08  23901342.664 8 125602389.829 8      2396.262          50.000    23901342.898 8  96240934.659 8      1836.086          49.000  
E03  23334721.719 8 122624792.670 8       200.023          51.000    23334724.188 8  93959300.452 8       153.268          51.000  
E15  23120141.789 8 121497177.749 8      -112.570          51.000    23120145.945 8  93095243.709 8       -86.246          51.000  
C29  25215004.203 5 131301127.076 5     -3467.562          30.000  
C19  21563086.898 8 112284626.907 8      -529.852          51.000  
C22  23550686.242 5 122634747.937 5      2029.527          31.000  
C20  24683554.883 6 128533722.043 6     -2554.871          36.000  
> 2020 05 17 21 09  0.0000000  0 19      -0.000000000000
G17  22045838.922 5 115851671.53225      -210.422          31.000                                                                  
G04  20849427.992 7 109564610.861 7      1875.418          47.000    20849428.352 7  85374985.512 7      1461.365          47.000  
G09  23132698.883 6 121563142.954 6      3412.727          37.000    23132686.594 5  94724518.702 5      2659.277          34.000  
G03  20445552.898 8 107442132.478 8      -696.566          51.000    20445554.156 8  83721145.989 8      -542.779          51.000  
G22  21797897.836 7 114548739.431 7     -1861.500          43.000    21797894.883 6  89258751.854 6     -1450.523          41.000  
G11  24344495.016 5 127931186.598 5     -4041.930          33.000    24344493.953 5  99686626.515 5     -3149.557          32.000  
G01  21779673.133 8 114452938.272 8     -2644.996          48.000    21779675.297 8  89184111.365 8     -2061.037          48.000  
R08  19495371.867 6 104396535.555 6      -948.953          41.000    19495372.406 6  81197252.164 6      -738.078          38.000  
R23  19230809.781 8 102871493.834 8      -530.398          51.000    19230813.320 6  80011169.117 6      -412.532          41.000  
R01  20381765.211 5 108951830.850 5      2019.594          32.000                                                                  
R22  22421356.719 7 119686313.196 7     -4284.746          45.000                                                                  
R07  22155470.141 5 118599511.150 5     -3375.418          31.000    22155467.562 4  92244120.157 4     -2625.326          25.000  
E08  23887680.289 8 125530594.118 8      2389.398          50.000    23887680.500 8  96185922.392 8      1830.812          50.000  
E03  23333609.586 8 122618947.783 8       188.934          51.000    23333611.781 8  93954821.892 8       144.779          51.000  
E15  23120821.508 8 121500747.843 8      -126.215          51.000    23120825.602 8  93097979.237 8       -96.686          51.000  
C29  25234985.719 5 131405169.084 5     -3469.293          31.000  
C19  21566164.406 8 112300652.400 8      -539.309          51.000  
C22  23539011.000 5 122573962.276 5      2021.832          35.000  
C20  24698277.977 5 128610397.362 5     -2558.199          33.000  
> 2020 05 17 21 09 30.0000000  0 17      -0.000000000000
G04  20838777.273 8 109508638.762 8      1859.523          48.000    20838777.977 8  85331370.928 8      1448.980          48.000  
G09  23113249.492 5 121460933.407 5      3404.867          35.000    23113238.039 5  94644875.151 5      2653.153          35.000  
G03  20449567.758 8 107463230.514 8      -706.590          51.000    20449568.789 8  83737586.025 8      -550.590          51.000  
G22  21808554.312 7 114604738.377 7     -1868.172          44.000    21808551.156 6  89302387.429 6     -1455.722          40.000  
G11  24367583.227 5 128052516.666 5     -4043.602          33.000    24367582.227 5  99781169.515 5     -3150.862          32.000  
G01  21794814.711 8 114532510.566 8     -2656.527          49.000    21794817.352 8  89246115.794 8     -2070.022          49.000  
R08  19500738.273 6 104425271.949 6      -963.355          41.000    19500738.703 6  81219602.674 6      -749.277          40.000  
R23  19233869.883 8 102887862.760 8      -557.500          51.000    19233873.578 7  80023900.490 7      -433.611          42.000  
R01  20370473.242 5 108891486.71425      2005.984          30.000                                                                  
R22  22445471.391 7 119815032.243 7     -4293.176          46.000    22445477.688 5  93189477.100 5     -3339.140          31.000  
E08  23874067.359 8 125459057.808 8      2383.230          50.000    23874067.648 8  96131108.899 8      1826.038          50.000  
E03  23332570.344 8 122613486.362 8       178.535          51.000    23332572.344 8  93950637.172 8       136.791          51.000  
E15  23121589.125 8 121504780.541 8      -139.148          51.000    23121593.172 8  93101069.227 8      -106.632          51.000  
C29  25254992.789 4 131509375.05024     -3471.887          28.000  
C19  21569306.484 8 112317014.170 8      -548.047          51.000  
C22  23527392.141 6 122513458.565 6      2015.164          39.000  
C20  24713028.297 4 128687224.10124     -2560.035          27.000  
> 2020 05 17 21 10  0.0000000  0 13      -0.000000000000
G04  20828203.359 8 109453070.832 8      1842.465          49.000    20828204.094 8  85288071.278 8      1435.690          48.000  
G03  20453626.000 8 107484556.902 8      -717.781          51.000    20453627.047 8  83754203.985 8      -559.310          51.000  
G22  21819233.906 6 114660860.037 6     -1875.848          40.000    21819230.836 6  89346118.584 6     -1461.700          41.000  
G11  24390667.695 5 128173828.968 5     -4046.195          34.000    24390668.016 4  99875698.623 4     -3152.865          29.000  
G01  21810007.703 8 114612349.994 8     -2668.996          50.000    21810010.469 8  89308328.325 8     -2079.738          50.000  
R08  19506172.609 6 104454368.725 6      -978.879          40.000    19506173.000 6  81242233.504 6      -761.350          39.000  
R23  19237068.367 8 102904971.236 8      -585.789          51.000    19237071.703 6  80037207.088 6      -455.614          41.000  
R22  22469618.812 7 119943927.202 7     -4302.523          44.000    22469625.203 6  93289728.716 6     -3346.408          37.000  
E08  23860475.562 8 125387632.636 8      2375.922          50.000    23860476.055 8  96076380.532 8      1820.528          50.000  
E03  23331575.516 8 122608258.987 8       167.309          51.000    23331577.859 8  93946631.797 8       128.219          51.000  
E15  23122416.609 8 121509127.523 8      -153.266          51.000    23122420.328 8  93104400.027 8      -117.378          51.000  
C19  21572484.891 8 112333563.971 8      -557.812          51.000  
C22  23515800.258 6 122453089.518 6      2007.012          38.000  
> 2020 05 17 21 10 30.0000000  0 16      -0.000000000000
G04  20817716.133 8 109397959.194 8      1826.719          50.000    20817717.078 8  85245127.160 8      1423.418          48.000  
G09  23074459.977 5 121257061.215 5      3388.969          32.000    23074455.273 5  94486043.519 5      2640.765          32.000  
G03  20457737.273 8 107506162.098 8      -727.531          51.000    20457738.500 8  83771039.188 8      -566.908          51.000  
G22  21829946.523 6 114717154.720 6     -1881.793          41.000    21829943.672 6  89389984.564 6     -1466.333          40.000  
G11  24413758.594 5 128295166.86225     -4047.660          30.000    24413759.758 4  99970264.43924     -3154.022          28.000  
G01  21825261.031 8 114692506.348 8     -2679.820          50.000    21825263.594 8  89370787.814 8     -2088.172          50.000  
R08  19511682.789 6 104483876.039 6      -993.164          41.000    19511682.625 6  81265183.627 6      -772.461          39.000  
R23  19240414.266 8 102922870.853 8      -612.559          51.000    19240417.875 7  80051129.011 7      -476.435          42.000  
R22  22493808.195 7 120073046.473 7     -4310.324          43.000    22493813.305 6  93390154.757 6     -3352.475          39.000  
R07  22212256.742 4 118903545.00924     -3384.531          29.000                                                                  
E08  23846914.500 8 125316370.106 8      2370.098          50.000    23846915.711 8  96021776.795 8      1816.023          50.000  
E03  23330634.875 8 122603316.103 8       157.488          51.000    23330637.352 8  93942844.404 8       120.694          51.000  
E15  23123313.555 8 121513840.233 8      -165.746          51.000    23123316.953 8  93108011.069 8      -127.018          51.000  
C29  25295019.031 5 131717792.222 5     -3477.926          31.000  
C19  21575708.867 8 112350351.504 8      -566.160          51.000  
C22  23504245.055 6 122392905.769 6      2000.234          38.000  
> 2020 05 17 21 11  0.0000000  0 16      -0.000000000000
G04  20807324.711 8 109343351.726 8      1807.516          49.000    20807326.172 8  85202575.903 8      1408.457          49.000  
G09  23055122.508 6 121155453.274 6      3378.551          37.000    23055118.141 6  94406868.605 6      2632.641          37.000  
G03  20461910.359 8 107528092.457 8      -740.680          51.000    20461911.812 8  83788127.779 8      -577.153          51.000  
G22  21840699.969 6 114773668.711 6     -1891.758          36.000    21840697.992 6  89434021.538 6     -1474.091          36.000  
G11  24436864.164 5 128416581.03825     -4052.512          30.000                                                                  
G01  21840583.211 8 114773025.130 8     -2694.176          49.000    21840585.828 8  89433529.715 8     -2099.358          48.000  
R08  19517278.484 6 104513839.353 6     -1010.574          41.000    19517279.195 6  81288488.435 6      -786.002          40.000  
R23  19243916.781 8 102941609.144 8      -642.934          51.000    19243920.945 7  80065703.235 7      -500.060          42.000  
R22  22518048.250 6 120202433.991 6     -4321.637          40.000    22518051.844 6  93490789.479 6     -3361.277          41.000  
E08  23833393.539 8 125245317.618 8      2360.680          50.000    23833395.312 8  95967334.002 8      1808.801          51.000  
E03  23329757.109 8 122598703.965 8       143.949          51.000    23329759.312 8  93939310.430 8       110.317          51.000  
E15  23124288.891 8 121518966.022 8      -182.027          51.000    23124292.391 8  93111938.614 8      -139.449          51.000  
C29  25315053.742 4 131822118.077 4     -3483.594          28.000  
C19  21578987.117 8 112367422.400 8      -577.969          51.000  
C22  23492735.625 5 122332953.881 5      1990.441          34.000  
C20  24757274.867 4 128917631.093 4     -2570.223          29.000  
> 2020 05 17 21 11 30.0000000  0 15      -0.000000000000
G04  20797028.492 8 109289245.032 8      1796.973          50.000    20797030.055 8  85160414.870 8      1400.239          48.000  
G09  23035832.695 6 121054093.450 6      3375.879          37.000    23035828.086 6  94327887.017 6      2630.562          38.000  
G03  20466144.445 8 107550343.026 8      -745.184          51.000    20466146.000 8  83805465.885 8      -580.663          51.000  
G22  21851493.398 5 114830331.477 5     -1892.461          32.000    21851493.258 5  89478192.660 5     -1474.642          33.000  
G11  24459980.570 5 128538065.25525     -4048.344          31.000    24459978.844 3 100159524.24123     -3154.554          23.000  
G01  21855972.969 8 114853900.603 8     -2699.898          48.000    21855976.141 8  89496549.532 8     -2103.818          48.000  
R08  19522957.641 6 104544252.279 6     -1019.422          40.000    19522959.000 6  81312142.967 6      -792.884          39.000  
R23  19247575.617 8 102961181.300 8      -664.480          51.000    19247579.680 7  80080926.031 7      -516.818          42.000  
R22  22542336.703 5 120332081.669 5     -4323.828          33.000    22542339.344 6  93591626.513 6     -3362.981          41.000  
E08  23819911.930 8 125174471.246 8      2360.020          51.000    23819913.562 8  95913049.126 8      1808.256          50.000  
E05                                                                  25489374.375 5 102635139.315 5     -1691.309          34.000  
E03  23328941.125 8 122594417.478 8       139.203          51.000    23328943.312 8  93936025.979 8       106.716          51.000  
E15  23125342.070 8 121524500.857 8      -189.438          51.000    23125345.609 8  93116179.583 8      -145.195          51.000  
C19  21582318.805 8 112384771.470 8      -581.125          51.000  
C20  24772067.484 4 128994634.701 4     -2565.711          29.000  
> 2020 05 17 21 12  0.0000000  0 16      -0.000000000000
G17  22054972.602 5 115899686.84825      -326.609          33.000                                                                  
G04  20786827.703 8 109235638.418 8      1776.828          50.000    20786828.656 8  85118643.509 8      1384.545          48.000  
G09  23016588.930 6 120952981.723 6      3364.383          39.000    23016586.102 6  94249098.749 6      2621.601          40.000  
G03  20470439.039 8 107572911.512 8      -759.246          51.000    20470440.672 8  83823051.721 8      -591.620          51.000  
G22  21862330.297 6 114887272.429 6     -1903.688          36.000    21862328.922 5  89522562.267 5     -1483.390          35.000  
G01  21871430.031 8 114935129.765 8     -2715.090          48.000    21871433.664 8  89559844.990 8     -2115.655          48.000  
R08  19528720.320 6 104575111.175 6     -1037.684          39.000    19528720.711 6  81336144.251 6      -807.087          38.000  
R23  19251390.094 8 102981585.911 8      -695.656          51.000    19251394.125 7  80096796.282 7      -541.063          43.000  
R01  20315169.242 5 108595852.023 5      1932.953          34.000    20315182.117 4  84463471.02924      1503.408          24.000  
E08  23806469.438 8 125103829.765 8      2349.809          51.000    23806470.352 8  95858921.259 8      1800.420          50.000  
E05                                                                  25501999.164 5 102685969.974 5     -1697.523          33.000  
E03  23328186.750 8 122590454.378 8       125.207          51.000    23328189.172 8  93932989.334 8        95.983          51.000  
E15  23126472.883 8 121530443.520 8      -206.395          51.000    23126476.078 8  93120733.046 8      -158.141          51.000  
C19  21585703.586 8 112402396.220 8      -593.688          51.000  
C22  23469836.922 5 122213615.74825      1976.875          30.000  
C20  24786869.422 4 129071726.14924     -2571.023          28.000  
> 2020 05 17 21 12 30.0000000  0 17      -0.000000000000
G17  22056881.555 6 115909694.496 6      -341.570          37.000    22056884.648 5  90319176.461 5      -266.156          35.000  
G04  20776720.320 8 109182522.639 8      1764.023          50.000    20776721.078 8  85077254.608 8      1374.564          49.000  
G09  22997390.344 7 120852109.793 7      3360.031          42.000    22997389.188 7  94170497.305 7      2618.210          42.000  
G03  20474792.203 8 107595787.357 8      -766.031          51.000    20474793.859 8  83840877.056 8      -596.908          51.000  
G22  21873204.680 6 114944414.733 6     -1906.695          37.000    21873203.414 6  89567088.760 6     -1485.737          37.000  
G01  21886952.531 8 115016701.040 8     -2723.113          49.000    21886956.312 8  89623407.067 8     -2121.907          49.000  
R08  19534563.391 5 104606403.772 5     -1048.297          35.000    19534565.148 6  81360482.979 6      -815.336          39.000  
R23  19255357.781 8 103002811.892 8      -719.512          51.000    19255361.883 6  80113305.374 6      -559.620          41.000  
R01  20304354.180 5 108538019.314 5      1922.121          31.000                                                                  
R22  22591055.477 5 120592156.002 5     -4340.258          32.000    22591053.945 6  93793905.291 6     -3375.760          40.000  
E08  23793064.219 8 125033383.461 8      2346.664          51.000    23793064.508 8  95804942.950 8      1798.079          50.000  
E05                                                                  25514649.898 5 102736906.876 5     -1697.966          32.000  
E03  23327491.977 8 122586803.788 8       118.227          51.000    23327494.594 8  93930192.136 8        90.577          51.000  
E15  23127679.312 8 121536784.172 8      -216.238          51.000    23127682.289 8  93125591.460 8      -165.683          51.000  
C19  21589139.211 8 112420285.658 8      -599.082          51.000  
C22  23458458.000 5 122154333.432 5      1974.320          35.000  
C20  24801685.445 4 129148883.13024     -2569.793          28.000  
> 2020 05 17 21 13  0.0000000  0 15      -0.000000000000
G17  22058889.602 5 115920223.216 5      -361.270          35.000    22058891.391 5  90327380.722 5      -281.503          34.000  
G04  20766696.688 8 109129847.826 8      1746.789          49.000    20766697.484 8  85036209.313 8      1361.135          49.000  
G09  22978228.547 7 120751428.614 7      3351.227          43.000    22978228.234 7  94092044.481 7      2611.349          43.000  
G03  20479194.141 8 107618919.094 8      -777.043          51.000    20479195.695 8  83858901.798 8      -605.488          51.000  
G22  21884107.438 6 115001706.877 6     -1913.734          37.000    21884104.609 6  89611732.049 6     -1491.219          37.000  
G01  21902530.445 8 115098562.287 8     -2735.074          49.000    21902534.273 8  89687195.077 8     -2131.224          49.000  
R08  19540477.141 6 104638075.630 6     -1063.625          38.000    19540480.086 6  81385116.648 6      -827.264          36.000  
R23  19259468.852 8 103024807.321 8      -747.719          51.000    19259473.281 6  80130412.935 6      -581.559          41.000  
R07  22307270.336 5 119412064.565 5     -3396.195          32.000    22307267.812 4  92876127.06024     -2641.486          25.000  
E08  23779686.266 8 124963081.974 8      2339.316          51.000    23779686.352 8  95751075.602 8      1792.512          49.000  
E05                                                                  25527317.555 5 102787928.169 5     -1702.614          32.000  
E03  23326846.898 8 122583414.224 8       106.961          51.000    23326849.570 8  93927594.942 8        81.948          51.000  
E15  23128951.812 8 121543472.413 8      -230.387          51.000    23128954.820 8  93130716.200 8      -176.554          51.000  
C19  21592615.609 8 112438388.571 8      -608.625          51.000  
C22  23447105.148 5 122095217.630 5      1966.016          34.000  
> 2020 05 17 21 13 30.0000000  0 15      -0.000000000000
G04  20756786.000 8 109077767.612 8      1734.391          48.000    20756786.578 8  84995627.320 8      1351.474          48.000  
G09  22959132.500 7 120651092.593 7      3347.062          43.000    22959133.891 7  94013860.624 7      2608.104          43.000  
G03  20483673.695 8 107642458.920 8      -783.262          51.000    20483675.227 8  83877244.522 8      -610.334          51.000  
G22  21895067.875 6 115059301.183 6     -1916.191          37.000    21895064.742 6  89656610.767 6     -1493.137          37.000  
G01  21918192.398 8 115180864.925 8     -2742.492          49.000    21918196.023 8  89751327.019 8     -2137.008          49.000  
R08  19546491.000 6 104670280.855 6     -1074.027          39.000    19546492.836 6  81410165.120 6      -835.355          36.000  
R23  19263753.008 8 103047726.878 8      -771.031          51.000    19263757.781 6  80148239.228 6      -599.691          41.000  
R22  22639951.625 5 120853185.229 5     -4352.844          35.000    22639947.562 6  93996921.942 6     -3385.543          38.000  
E08  23766364.820 8 124893078.464 8      2336.750          51.000    23766364.805 8  95697436.568 8      1790.543          49.000  
E05  25540021.039 5 134213716.808 5     -2222.258          34.000    25540031.250 5 102839120.799 5     -1703.180          31.000  
E03  23326280.359 8 122580437.721 8       100.602          51.000    23326283.117 8  93925314.250 8        77.087          51.000  
E15  23130319.781 8 121550661.288 8      -239.684          51.000    23130322.680 8  93136224.546 8      -183.660          51.000  
C19  21596161.883 8 112456855.540 8      -613.500          51.000  
C22  23435810.641 5 122036419.300 5      1962.926          30.000  
C20  24831374.898 5 129303393.226 5     -2572.383          32.000  
> 2020 05 17 21 14  0.0000000  0 16      -0.000000000000
G17  22063237.602 5 115943098.049 5      -398.250          34.000    22063232.227 5  90345246.632 5      -310.325          34.000  
G04  20746944.055 7 109026049.593 7      1714.680          47.000    20746944.852 7  84955327.555 7      1336.115          47.000  
G09  22940058.719 7 120550870.168 7      3335.789          44.000    22940062.094 7  93935765.297 7      2599.317          44.000  
G03  20488186.297 8 107666172.912 8      -796.496          51.000    20488187.875 8  83895722.961 8      -620.646          51.000  
G01  21933893.602 8 115263374.148 8     -2756.734          49.000    21933896.422 8  89815619.910 8     -2148.105          49.000  
R08  19552560.102 6 104702779.220 6     -1091.328          37.000    19552562.117 6  81435441.654 6      -848.808          36.000  
R23  19268165.859 8 103071333.126 8      -801.375          51.000    19268170.234 6  80166599.633 6      -623.295          40.000  
R22  22664449.133 5 120983950.299 5     -4364.082          31.000    22664444.070 5  94098628.128 5     -3394.287          35.000  
R07  22345348.109 5 119616013.631 5     -3399.430          31.000                                                                  
E08  23753056.156 8 124823140.020 8      2327.242          51.000    23753056.133 8  95643847.407 8      1783.234          49.000  
E05  25552731.258 5 134280518.699 5     -2229.945          35.000    25552745.398 5 102890315.978 5     -1708.762          31.000  
E03  23325747.922 8 122577640.238 8        87.391          51.000    23325750.781 8  93923170.740 8        66.947          51.000  
E15  23131738.758 8 121558117.812 8      -256.012          51.000    23131741.492 8  93141937.978 8      -196.180          51.000  
C19  21599733.578 8 112475454.384 8      -625.137          51.000  
C22  23424533.297 5 121977697.116 5      1952.848          30.000  
C20  24846205.883 5 129380646.895 5     -2577.125          35.000  
> 2020 05 17 21 14 30.0000000  0 18      -0.000000000000
G17  22065569.836 6 115955368.665 6      -410.223          36.000    22065560.164 5  90354808.185 5      -319.657          32.000  
G04  20737207.500 7 108974886.562 7      1705.523          46.000    20737209.008 7  84915460.243 7      1328.980          46.000  
G09  22921044.242 7 120450955.049 7      3334.723          45.000    22921049.430 7  93857909.397 7      2598.489          44.000  
G03  20492768.430 8 107690252.431 8      -799.492          51.000    20492769.938 8  83914486.231 8      -622.981          51.000  
G31  23354775.891 6 122730176.461 6      -644.828          37.000                                                                  
G01  21949670.266 8 115346280.484 8     -2760.613          48.000    21949671.820 8  89880222.212 8     -2151.128          48.000  
R08  19558719.656 5 104735764.553 5     -1098.082          35.000    19558722.188 6  81461096.905 6      -854.061          36.000  
R23  19272744.000 8 103095820.808 8      -821.316          51.000    19272747.820 6  80185645.582 6      -638.802          41.000  
R01  20261872.523 5 108310946.972 5      1872.742          30.000                                                                  
R22  22688991.109 5 121115041.969 5     -4363.672          32.000    22688994.242 5  94200582.714 5     -3393.974          33.000  
R07  22364425.758 5 119718087.003 5     -3394.293          30.000    22364438.734 4  93114161.054 4     -2640.003          26.000  
E08  23739796.906 8 124753458.971 8      2327.867          51.000    23739797.094 8  95590455.491 8      1783.692          49.000  
E05  25565481.430 5 134347504.525 5     -2227.055          33.000                                                                  
E03  23325286.188 8 122575213.058 8        84.117          51.000    23325288.953 8  93921310.951 8        64.564          51.000  
E15  23133244.945 8 121566034.222 8      -262.102          51.000    23133247.828 8  93148003.785 8      -200.822          51.000  
C19  21603366.828 8 112494374.466 8      -626.672          51.000  
C22  23413310.805 4 121919254.451 4      1951.520          28.000  
C20  24861059.055 6 129458022.142 6     -2572.535          36.000  
> 2020 05 17 21 15  0.0000000  0 16      -0.000000000000
G17  22067996.180 4 115968110.11424      -431.906          28.000                                                                  
G04  20727561.820 7 108924199.415 7      1684.984          46.000    20727563.648 7  84875963.783 7      1312.978          46.000  
G09  22902073.898 7 120351269.079 7      3322.344          42.000    22902080.172 7  93780232.034 7      2588.843          42.000  
G03  20497404.836 8 107714617.028 8      -813.539          51.000    20497406.188 8  83933471.629 8      -633.927          51.000  
G31  23358555.898 5 122750045.142 5      -669.043          31.000    23358556.562 5  95649386.001 5      -521.341          32.000  
G22  21928131.648 5 115233068.707 5     -1936.504          35.000    21928116.484 5  89792014.768 5     -1508.971          30.000  
G01  21965506.820 7 115429502.672 7     -2776.027          47.000    21965506.992 7  89945070.612 7     -2163.139          47.000  
R08  19564954.227 6 104769153.257 6     -1116.469          36.000    19564957.625 5  81487065.907 5      -868.362          35.000  
R23  19277471.609 8 103121108.113 8      -852.914          51.000    19277474.859 6  80205313.467 6      -663.378          40.000  
R22  22713585.195 5 121246299.533 5     -4374.879          34.000    22713582.797 4  94302671.955 4     -3402.684          29.000  
E08  23726571.594 8 124683955.890 8      2317.145          51.000    23726571.891 8  95537199.930 8      1775.547          48.000  
E03  23324879.586 8 122573075.542 8        69.777          51.000    23324882.375 8  93919673.130 8        53.484          51.000  
E15  23134823.594 8 121574330.995 8      -279.523          51.000    23134826.609 8  93154361.035 8      -214.186          51.000  
C19  21607046.367 8 112513535.755 8      -639.441          51.000  
C22  23402126.461 5 121861013.313 5      1942.059          32.000  
C20  24875919.039 5 129535439.008 5     -2578.227          33.000  
> 2020 05 17 21 15 30.0000000  0 16      -0.000000000000
G17  22070549.820 4 115981513.58724      -455.133          28.000                                                                  
G04  20718006.086 8 108873983.238 8      1664.668          49.000    20718007.586 8  84836834.298 8      1297.144          49.000  
G09  22883146.789 6 120251808.190 6      3310.141          40.000    22883153.070 6  93702730.043 6      2579.331          41.000  
G03  20502094.281 8 107739260.371 8      -827.457          51.000    20502095.516 8  83952674.230 8      -644.772          51.000  
G31  23362446.469 6 122770486.755 6      -692.262          36.000    23362451.438 6  95665314.497 6      -539.425          37.000  
G22  21939217.312 5 115291342.742 5     -1946.715          35.000    21939206.898 5  89837423.183 5     -1516.921          35.000  
G01  21981402.289 8 115513033.482 8     -2790.855          48.000    21981402.484 8  90010159.503 8     -2174.696          49.000  
R08  19571263.453 6 104802937.446 6     -1133.898          38.000    19571266.039 5  81513342.422 5      -881.921          35.000  
R23  19282347.195 8 103147188.667 8      -883.910          51.000    19282350.523 6  80225598.342 6      -687.489          41.000  
R01  20241081.508 5 108199791.79025      1835.730          31.000                                                                  
R22  22738213.086 6 121377751.424 6     -4386.512          37.000    22738211.391 4  94404887.447 4     -3411.726          28.000  
E08  23713378.664 8 124614625.365 8      2306.816          51.000    23713379.203 8  95484076.589 8      1767.556          48.000  
E03  23324526.844 8 122571221.176 8        55.777          51.000    23324529.680 8  93918252.266 8        42.765          51.000  
E15  23136473.750 8 121583002.586 8      -296.645          51.000    23136476.867 8  93161005.497 8      -227.317          51.000  
C19  21610771.242 8 112532931.610 8      -651.738          51.000  
C22  23390981.914 5 121802966.904 5      1930.199          32.000  
> 2020 05 17 21 16  0.0000000  0 14      -0.000000000000
G04  20708550.914 8 108824294.489 8      1648.277          50.000    20708551.930 8  84798115.776 8      1284.372          49.000  
G09  22864273.508 6 120152629.750 6      3301.984          40.000    22864278.461 6  93625448.124 6      2572.976          39.000  
G03  20506847.211 8 107764237.501 8      -837.422          51.000    20506848.422 8  83972136.914 8      -652.537          51.000  
G31  23366455.695 5 122791556.399 5      -712.277          35.000    23366460.211 6  95681732.431 6      -555.018          36.000  
G01  21997367.031 8 115596927.050 8     -2801.684          50.000    21997368.039 8  90075531.102 8     -2183.131          50.000  
R08  19577657.188 6 104837171.723 6     -1147.992          36.000    19577660.438 6  81539969.130 6      -892.880          36.000  
R23  19287381.703 8 103174118.484 8      -911.055          51.000    19287385.508 6  80246543.745 6      -708.595          41.000  
R01  20230818.672 5 108144928.524 5      1822.164          30.000                                                                  
R22  22762884.852 6 121509450.744 6     -4393.762          37.000    22762889.305 5  94507320.238 5     -3417.374          31.000  
E08  23700228.641 8 124545523.463 8      2300.391          50.000    23700229.891 8  95431128.411 8      1762.668          48.000  
E03  23324238.562 8 122569704.893 8        45.684          51.000    23324241.156 8  93917090.445 8        35.016          51.000  
E15  23138205.711 8 121592104.910 8      -309.840          51.000    23138209.047 8  93167980.003 8      -237.413          51.000  
C19  21614551.656 8 112552616.346 8      -660.203          51.000  
C20  24905703.945 5 129690490.705 5     -2585.621          35.000  
> 2020 05 17 21 16 30.0000000  0 15      -0.000000000000
G04  20699189.711 8 108775099.667 8      1630.801          51.000    20699190.383 8  84759782.146 8      1270.757          50.000  
G09  22845447.828 6 120053701.123 6      3292.707          39.000    22845449.516 6  93548360.937 6      2565.750          38.000  
G03  20511657.062 8 107789513.539 8      -848.379          51.000    20511658.328 8  83991832.512 8      -661.075          51.000  
G31  23370578.805 6 122813219.023 6      -732.688          36.000    23370577.695 6  95698612.314 6      -570.932          37.000  
G01  22013394.031 8 115681147.684 8     -2813.531          51.000    22013395.789 8  90141157.566 8     -2192.363          51.000  
R08  19584127.328 6 104871818.705 6     -1162.863          37.000    19584129.828 5  81566916.722 5      -904.452          33.000  
R23  19292568.367 8 103201861.808 8      -939.168          51.000    19292572.344 7  80268121.886 7      -730.464          42.000  
R01  20220637.664 4 108090510.72024      1807.539          28.000                                                                  
R22  22787595.641 6 121641359.057 6     -4401.273          37.000    22787601.500 5  94609915.575 5     -3423.213          31.000  
E08  23687115.055 8 124476616.254 8      2292.832          49.000    23687117.367 8  95378329.389 8      1756.888          49.000  
E03  23324007.906 8 122568491.647 8        34.543          51.000    23324010.320 8  93916160.821 8        26.525          51.000  
E15  23140013.086 8 121601603.967 8      -323.988          51.000    23140016.414 8  93175258.505 8      -248.260          51.000  
C29  25536250.508 4 132973962.83824     -3500.629          27.000  
C19  21618380.719 8 112572555.050 8      -669.613          51.000  
C20  24920601.734 6 129768086.459 6     -2588.359          36.000  
> 2020 05 17 21 17  0.0000000  0 14      -0.000000000000
G04  20689924.977 8 108726412.002 8      1615.273          51.000    20689925.359 8  84721843.714 8      1258.655          49.000  
G09  22826672.789 6 119955036.495 6      3285.141          39.000    22826671.695 6  93471479.481 6      2559.851          38.000  
G03  20516526.055 8 107815100.401 8      -857.305          51.000    20516527.500 8  84011770.307 8      -668.030          51.000  
G31  23374816.797 6 122835486.435 6      -751.633          38.000    23374813.500 5  95715963.520 5      -585.694          35.000  
G01  22029485.188 8 115765706.434 8     -2823.668          49.000    22029487.164 8  90207047.498 8     -2200.261          49.000  
R08  19590677.742 5 104906889.707 5     -1175.234          33.000    19590678.797 5  81594194.113 5      -914.074          34.000  
R23  19297909.188 8 103230430.420 8      -965.273          51.000    19297913.359 7  80290341.902 7      -750.768          43.000  
R22  22812347.031 5 121773485.251 5     -4407.547          35.000    22812352.805 5  94712680.368 5     -3428.093          32.000  
E08  23674041.430 8 124407916.577 8      2287.215          50.000    23674044.086 8  95325689.396 8      1752.572          50.000  
E05  25629611.445 5 134684490.529 5     -2256.125          32.000                                                                  
E03  23323837.125 8 122567593.185 8        25.418          51.000    23323839.688 8  93915472.406 8        19.464          51.000  
E15  23141898.508 8 121611512.510 8      -336.383          51.000    23141901.789 8  93182850.776 8      -257.721          51.000  
C19  21622260.734 8 112592759.239 8      -677.125          51.000  
C20  24935509.391 5 129845748.235 5     -2589.039          33.000  
> 2020 05 17 21 17 30.0000000  0 13      -0.000000000000
G04  20680753.672 8 108678214.815 8      1596.543          51.000    20680753.648 8  84684287.463 8      1244.060          49.000  
G09  22807945.102 6 119856620.004 6      3274.668          40.000    22807944.523 6  93394791.410 6      2551.693          41.000  
G03  20521450.703 8 107840980.001 8      -869.453          51.000    20521452.250 8  84031936.217 8      -677.496          51.000  
G01  22045636.445 8 115850584.274 8     -2836.496          48.000    22045638.367 8  90273186.104 8     -2210.254          48.000  
R08  19597299.984 5 104942363.800 5     -1191.090          34.000    19597302.969 5  81621785.229 5      -926.400          31.000  
R23  19303400.414 8 103259806.297 8      -994.586          51.000    19303405.125 7  80313189.780 7      -773.567          43.000  
R22  22837133.828 5 121905808.219 5     -4415.691          34.000    22837140.898 5  94815598.175 5     -3434.424          30.000  
R07  22479077.109 5 120331822.754 5     -3417.684          32.000    22479070.414 4  93591433.748 4     -2658.199          26.000  
E08  23661004.727 8 124339407.324 8      2278.578          50.000    23661007.094 8  95273195.330 8      1745.978          50.000  
E05  25642509.383 5 134752292.420 5     -2262.340          34.000                                                                  
E03  23323722.695 8 122566991.260 8        13.344          51.000    23323725.422 8  93915011.193 8        10.233          51.000  
E15  23143858.883 8 121621813.278 8      -351.758          51.000    23143862.219 8  93190743.575 8      -269.493          51.000  
C19  21626188.219 8 112613210.716 8      -687.656          51.000  
> 2020 05 17 21 18  0.0000000  0 16      -0.000000000000
G17  22084898.500 5 116056925.971 5      -550.488          33.000    22084889.250 5  90433942.541 5      -428.946          32.000  
G04  20671660.312 8 108630428.155 8      1580.656          51.000    20671660.172 8  84647051.123 8      1231.681          48.000  
G09  22789249.625 7 119758372.825 7      3267.004          43.000    22789251.070 7  93318235.221 7      2545.721          43.000  
G03  20526415.711 8 107867071.162 8      -878.652          51.000    20526417.273 8  84052266.986 8      -684.664          51.000  
G31  23383611.797 6 122881717.061 6      -792.512          36.000    23383609.312 6  95751972.908 6      -617.548          36.000  
G11  24761236.078 5 130121190.26125     -4067.387          30.000                                                                  
G01  22061832.547 7 115935699.010 7     -2846.410          47.000    22061834.977 7  90339509.317 7     -2217.983          47.000  
R08  19603983.508 6 104978157.637 6     -1203.617          36.000    19603985.867 5  81649624.776 5      -936.150          31.000  
R23  19309027.016 8 103289906.412 8     -1020.965          51.000    19309032.125 7  80336600.986 7      -794.084          42.000  
R22  22861941.672 5 122038242.540 5     -4421.406          32.000    22861950.336 5  94918602.756 5     -3438.869          31.000  
R07  22498205.648 5 120434234.388 5     -3419.273          31.000    22498199.070 4  93671087.320 4     -2659.432          26.000  
E08  23647989.234 8 124271008.280 8      2272.910          51.000    23647991.078 8  95220785.713 8      1741.573          51.000  
E03  23323649.094 8 122566604.522 8         3.934          51.000    23323651.602 8  93914714.856 8         3.131          51.000  
E15  23145878.953 8 121632425.894 8      -364.262          51.000    23145882.039 8  93198875.322 8      -279.104          51.000  
C19  21630147.727 8 112633828.722 8      -695.344          51.000  
C20  24965366.539 5 130001181.969 5     -2593.621          30.000  
> 2020 05 17 21 18 30.0000000  0 16      -0.000000000000
G04  20662687.609 8 108583277.075 8      1561.535          51.000    20662687.555 7  84610310.055 7      1216.784          47.000  
G09  22770629.344 7 119660520.934 7      3255.512          45.000    22770632.117 7  93241987.042 7      2536.766          45.000  
G03  20531463.648 8 107893597.642 8      -890.957          51.000    20531465.219 8  84072936.971 8      -694.252          51.000  
G31  23388196.492 5 122905806.587 5      -814.203          35.000    23388190.930 5  95770743.996 5      -634.441          34.000  
G22  22006556.492 5 115645267.028 5     -1988.648          34.000    22006550.797 5  90113149.772 5     -1549.591          35.000  
G01  22078116.844 8 116021273.650 8     -2859.633          50.000    22078118.859 8  90406190.877 8     -2228.286          50.000  
R08  19610771.117 5 105014497.190 5     -1220.449          31.000    19610773.469 4  81677888.975 4      -949.229          29.000  
R23  19314831.609 8 103320958.077 8     -1050.465          51.000    19314836.867 7  80360752.278 7      -817.028          42.000  
R22  22886811.742 5 122171012.558 5     -4430.691          30.000    22886823.312 5  95021868.267 5     -3446.094          33.000  
R07  22517370.859 5 120536840.420 5     -3422.664          35.000    22517370.133 4  93750892.087 4     -2662.070          28.000  
E08  23635037.312 8 124202944.127 8      2263.648          50.000    23635038.750 8  95168632.707 8      1734.527          50.000  
E03  23323659.062 8 122566656.552 8        -8.598          51.000    23323661.180 8  93914754.720 8        -6.570          51.000  
E15  23148001.133 8 121643574.898 8      -380.113          51.000    23148003.789 8  93207418.079 8      -291.271          51.000  
C19  21634181.750 8 112654834.658 8      -706.160          51.000  
C22  23325000.898 5 121459443.472 5      1883.891          31.000  
C20  24980316.930 5 130079047.173 5     -2598.043          33.000  
> 2020 05 17 21 19  0.0000000  0 17      -0.000000000000
G04  20653802.133 8 108536583.203 8      1548.797          51.000    20653801.875 8  84573925.236 8      1206.855          48.000  
G09  22752050.688 7 119562886.797 7      3250.992          46.000    22752053.727 7  93165908.527 7      2533.241          46.000  
G03  20536560.234 8 107920379.715 8      -896.977          51.000    20536561.719 8  84093806.112 8      -698.943          51.000  
G31  23392885.961 5 122930444.87825      -830.449          33.000    23392883.102 5  95789943.34925      -647.097          31.000  
G22  22017913.609 5 115704937.548 5     -1992.145          33.000    22017904.766 5  90159646.257 5     -1552.321          34.000  
G01  22094454.906 8 116107127.610 8     -2866.539          49.000    22094456.242 8  90473090.016 8     -2233.670          50.000  
R08  19617625.188 6 105051197.808 6     -1229.285          36.000                                                                  
R23  19320779.992 8 103352778.058 8     -1073.535          50.000    19320785.086 7  80385501.117 7      -834.975          43.000  
R22  22911711.750 5 122303932.503 5     -4433.852          31.000    22911724.102 5  95125250.525 5     -3448.549          33.000  
R07  22536540.242 6 120639456.377 6     -3420.562          38.000    22536542.477 5  93830704.511 5     -2660.438          30.000  
E08  23622114.484 8 124135036.080 8      2260.926          49.000    23622115.844 8  95116599.304 8      1732.456          50.000  
E03  23323718.102 8 122566967.381 8       -14.656          51.000    23323720.375 8  93914992.900 8       -11.206          51.000  
E15  23150191.094 8 121655081.368 8      -389.426          51.000    23150193.656 8  93216234.729 8      -298.445          51.000  
C29  25637189.453 4 133499573.14424     -3506.293          29.000  
C19  21638255.930 8 112676050.123 8      -710.621          51.000  
C22  23314154.039 5 121402942.689 5      1880.324          33.000  
C20  24995263.977 5 130156922.731 5     -2596.250          32.000  
> 2020 05 17 21 19 30.0000000  0 16      -0.000000000000
G04  20645007.695 8 108490369.085 8      1531.602          50.000    20645007.500 8  84537914.282 8      1193.459          48.000  
G09  22733518.023 7 119465494.039 7      3241.695          47.000    22733521.016 7  93090018.104 7      2526.000          47.000  
G03  20541709.445 8 107947438.719 8      -907.488          51.000    20541710.805 8  84114891.048 8      -707.134          51.000  
G31  23397682.992 5 122955654.412 5      -850.691          33.000    23397684.125 5  95809599.337 5      -662.874          32.000  
G22  22029300.945 5 115764779.018 5     -1998.500          34.000    22029291.539 5  90206275.919 5     -1557.273          31.000  
G01  22110849.828 8 116193281.230 8     -2877.531          51.000    22110850.609 8  90540222.635 8     -2242.236          50.000  
R08  19624551.328 5 105088280.055 5     -1243.383          35.000    19624551.219 4  81735257.666 4      -967.076          29.000  
R23  19326876.141 8 103385387.783 8     -1100.934          50.000    19326880.922 7  80410864.240 7      -856.282          43.000  
R22  22936644.547 5 122437020.977 5     -4440.359          32.000    22936655.375 5  95228763.787 5     -3453.611          31.000  
R07  22555715.523 6 120742102.919 6     -3422.652          38.000    22555719.945 4  93910540.707 4     -2662.063          25.000  
E08  23609225.094 8 124067306.457 8      2253.852          48.000    23609226.625 8  95064702.589 8      1726.987          50.000  
E03  23323830.297 8 122567558.188 8       -25.070          51.000    23323833.000 8  93915445.616 8       -19.216          51.000  
E15  23152452.734 8 121666967.429 8      -403.363          51.000    23152455.602 8  93225342.213 8      -309.035          51.000  
C19  21642374.352 8 112697495.936 8      -719.473          51.000  
C22  23303344.305 5 121346636.774 5      1872.734          34.000  
C20  25010219.000 5 130234829.273 5     -2598.098          34.000  
> 2020 05 17 21 20  0.0000000  0 15      -0.000000000000
G17  22098320.969 6 116127466.481 6      -624.602          36.000    22098315.742 5  90488932.489 5      -486.706          32.000  
G04  20636322.414 8 108444729.066 8      1514.984          50.000    20636322.633 8  84502350.685 8      1180.511          48.000  
G09  22715049.328 8 119368438.039 8      3232.766          48.000    22715052.422 8  93014390.079 8      2519.039          48.000  
G03  20546929.047 8 107974867.759 8      -917.176          51.000    20546930.445 8  84136264.318 8      -714.683          51.000  
G01  22127319.273 8 116279826.643 8     -2888.266          51.000    22127319.992 8  90607660.577 8     -2250.597          51.000  
R08  19631565.344 6 105125836.901 6     -1256.512          36.000    19631567.461 4  81764468.607 4      -977.287          29.000  
R23  19333137.336 8 103418881.946 8     -1127.945          50.000    19333142.000 7  80436915.256 7      -877.291          43.000  
R22  22961625.625 5 122570369.897 5     -4446.301          33.000    22961635.078 4  95332479.642 4     -3458.235          29.000  
R07  22574913.641 6 120844873.282 6     -3424.316          38.000    22574921.008 4  93990498.246 4     -2663.361          26.000  
E08  23596387.711 8 123999849.253 8      2247.211          49.000    23596389.672 8  95013014.599 8      1721.896          50.000  
E03  23324013.680 8 122568521.907 8       -35.168          51.000    23324016.383 8  93916184.048 8       -26.911          51.000  
E15  23154804.344 8 121679326.903 8      -416.664          51.000    23154807.227 8  93234812.467 8      -319.259          51.000  
C19  21646554.898 8 112719264.101 8      -727.797          51.000  
C22  23292587.648 5 121290618.758 5      1866.035          31.000  
C20  25025201.578 4 130312858.860 4     -2599.773          28.000  
> 2020 05 17 21 20 30.0000000  0 17      -0.000000000000
G04  20627703.812 8 108399438.099 8      1499.910          50.000    20627704.359 8  84467059.018 8      1168.761          49.000  
G09  22696601.812 7 119271494.731 7      3225.680          46.000    22696605.094 7  92938849.826 7      2513.514          46.000  
G03  20552175.938 8 108002440.561 8      -925.508          51.000    20552177.516 8  84157749.616 8      -721.175          51.000  
G22  22052191.055 5 115885003.478 5     -2009.426          35.000    22052172.953 5  90299992.863 5     -1565.787          34.000  
G01  22143819.742 8 116366536.552 8     -2897.086          51.000    22143821.055 8  90675226.738 8     -2257.470          51.000  
R08  19638623.609 5 105163636.448 5     -1267.754          31.000    19638623.438 4  81793868.174 4      -986.031          28.000  
R23  19339521.188 8 103453029.398 8     -1153.133          51.000    19339525.258 7  80463474.397 7      -896.881          42.000  
R01  20142050.930 5 107670389.964 5      1694.801          33.000                                                                  
R22  22986611.594 5 122703746.270 5     -4450.273          32.000    22986618.625 4  95436216.734 4     -3461.327          29.000  
R07  22594091.836 6 120947535.817 6     -3424.402          39.000    22594100.961 4  94070346.876 4     -2663.428          29.000  
E08  23583560.180 8 123932439.049 8      2242.215          49.000    23583562.359 8  94961362.646 8      1718.056          50.000  
E05  25720333.906 6 135161279.022 6     -2282.512          36.000                                                                  
E03  23324224.812 8 122569632.000 8       -43.492          51.000    23324227.406 8  93917034.637 8       -33.328          51.000  
E15  23157203.320 8 121691934.249 8      -428.328          51.000    23157205.945 8  93244472.663 8      -328.227          51.000  
C19  21650754.320 8 112741130.062 8      -734.473          51.000  
C22  23281839.234 5 121234665.000 5      1859.730          34.000  
C20  25040181.508 5 130390777.810 5     -2600.004          31.000  
> 2020 05 17 21 21  0.0000000  0 17      -0.000000000000
G04  20619202.500 8 108354764.185 8      1481.242          49.000    20619203.438 8  84432248.181 8      1154.215          49.000  
G09  22678226.234 7 119174933.156 7      3214.770          45.000    22678229.836 7  92863607.011 7      2505.013          45.000  
G03  20557500.867 8 108030423.935 8      -937.238          51.000    20557502.625 8  84179554.841 8      -730.316          51.000  
G31  23412754.422 5 123034838.741 5      -910.398          34.000                                                                  
G01  22160401.188 7 116453676.897 7     -2909.316          47.000    22160403.953 7  90743128.316 7     -2267.000          47.000  
R08  19645776.195 5 105201948.981 5     -1283.426          35.000    19645780.930 5  81823666.881 5      -998.220          30.000  
R23  19346077.953 8 103488101.507 8     -1181.992          51.000    19346081.117 6  80490752.735 6      -919.327          41.000  
R01  20132587.977 5 107619799.31425      1678.789          31.000                                                                  
R22  23011653.906 6 122837418.061 6     -4458.590          37.000    23011655.484 4  95540209.601 4     -3467.793          29.000  
R07  22613301.477 6 121050361.200 6     -3427.582          38.000    22613310.141 4  94150322.190 4     -2665.895          27.000  
E08  23570792.805 8 123865343.592 8      2233.699          50.000    23570794.930 8  94909951.840 8      1711.543          50.000  
E05  25733387.367 6 135229884.487 6     -2288.137          36.000                                                                  
E03  23324514.484 8 122571155.078 8       -55.234          51.000    23324517.133 8  93918201.680 8       -42.334          51.000  
E15  23159700.367 8 121705057.099 8      -443.625          51.000    23159702.859 8  93254527.830 8      -339.921          51.000  
C19  21655023.039 8 112763357.905 8      -744.551          51.000  
C22  23271153.883 5 121179040.245 5      1851.312          33.000  
C20  25055173.984 5 130468868.846 5     -2603.180          33.000  
> 2020 05 17 21 21 30.0000000  0 12      -0.000000000000
G04  20610807.016 8 108310645.596 8      1458.453          50.000    20610808.203 8  84397870.068 8      1136.457          50.000  
G09  22659911.484 7 119078692.565 7      3200.062          45.000    22659914.898 7  92788614.315 7      2493.556          45.000  
G03  20562891.852 8 108058754.947 8      -953.090          51.000    20562893.898 8  84201630.951 8      -742.668          51.000  
G01  22177051.562 7 116541183.758 7     -2925.918          44.000    22177056.312 7  90811315.503 7     -2279.937          44.000  
R08  19653014.531 5 105240708.699 5     -1302.262          34.000    19653018.383 4  81853813.300 4     -1012.873          27.000  
R23  19352795.016 8 103524033.722 8     -1215.039          51.000    19352798.023 6  80518700.031 6      -945.031          41.000  
R22  23036738.211 6 122971318.422 6     -4470.039          38.000    23036736.922 5  95644354.343 5     -3476.695          30.000  
R07  22632529.039 6 121153284.139 6     -3435.223          37.000    22632535.539 4  94230373.401 4     -2671.840          29.000  
E08  23558073.336 8 123798500.881 8      2220.914          49.000    23558075.555 8  94858734.693 8      1701.737          50.000  
E03  23324871.133 8 122573028.039 8       -71.098          51.000    23324873.688 8  93919636.808 8       -54.495          51.000  
E15  23162283.719 8 121718633.204 8      -463.043          51.000    23162286.312 8  93264930.276 8      -354.763          51.000  
C19  21659348.984 8 112785884.921 8      -758.723          51.000  
> 2020 05 17 21 22  0.0000000  0 13      -0.000000000000
G04  20602495.703 8 108266968.777 8      1448.320          50.000    20602496.930 8  84363836.175 8      1128.562          50.000  
G09  22641637.242 7 118982660.425 7      3197.453          47.000    22641639.250 8  92713784.090 8      2491.526          48.000  
G03  20568327.180 8 108087318.846 8      -956.129          51.000    20568329.469 8  84223888.532 8      -745.036          51.000  
G01  22193750.562 7 116628941.486 7     -2929.754          46.000    22193755.906 7  90879698.169 7     -2282.923          46.000  
R08  19660314.203 5 105279797.355 5     -1308.453          31.000    19660316.469 5  81884215.541 5     -1017.686          30.000  
R23  19359650.984 8 103560708.500 8     -1235.066          51.000    19359653.922 6  80547224.853 6      -960.607          41.000  
R22  23061842.703 5 123105327.818 5     -4468.699          35.000    23061841.320 5  95748583.893 5     -3475.659          34.000  
R07  22651751.977 5 121256186.491 5     -3429.555          35.000    22651757.070 4  94310408.554 4     -2667.432          28.000  
E08  23545379.945 7 123731797.042 7      2221.000          47.000    23545382.406 8  94807623.956 8      1701.842          50.000  
E03  23325272.422 8 122575135.875 8       -74.367          51.000    23325274.883 8  93921251.905 8       -57.010          51.000  
E15  23164931.922 8 121732548.507 8      -469.695          51.000    23164934.391 8  93275592.639 8      -359.894          51.000  
C19  21663710.719 8 112808597.172 8      -760.402          51.000  
C22  23249938.023 5 121068480.218 5      1837.746          33.000  
> 2020 05 17 21 22 30.0000000  0 14      -0.000000000000
G17  22117471.922 5 116228099.927 5      -719.457          34.000    22117472.656 5  90567356.343 5      -560.616          34.000  
G04  20594271.367 8 108223749.862 8      1428.633          50.000    20594272.680 8  84330159.116 8      1113.221          49.000  
G09  22623406.367 8 118886853.965 8      3185.266          49.000    22623406.711 8  92639129.755 8      2482.026          49.000  
G03  20573809.797 8 108116130.733 8      -968.996          51.000    20573812.117 8  84246339.347 8      -755.062          51.000  
G01  22210500.672 7 116716964.084 7     -2943.016          47.000    22210506.086 7  90948287.215 7     -2293.260          47.000  
R23  19366648.734 8 103598140.767 8     -1264.836          51.000    19366651.359 6  80576338.826 6      -983.765          40.000  
R22  23086969.656 5 123239458.514 5     -4477.391          32.000    23086969.562 5  95852907.733 5     -3482.416          35.000  
R07  22670973.234 5 121359082.335 5     -3434.379          34.000    22670977.727 4  94390438.543 4     -2671.190          26.000  
E08  23532716.031 8 123665248.071 8      2211.293          48.000    23532717.680 8  94756631.903 8      1694.374          50.000  
E03  23325720.945 8 122577493.402 8       -87.195          51.000    23325723.250 8  93923058.324 8       -66.794          51.000  
E15  23167647.742 8 121746818.799 8      -486.008          51.000    23167649.758 8  93286527.011 8      -372.399          51.000  
C19  21668110.891 8 112831509.243 8      -771.449          51.000  
C22  23239350.062 6 121013446.930 6      1827.359          39.000  
C20  25100221.352 4 130703436.27024     -2611.395          29.000  
> 2020 05 17 21 23  0.0000000  0 16      -0.000000000000
G17  22121611.289 6 116249857.186 6      -732.914          36.000    22121617.633 6  90584310.055 6      -571.105          36.000  
G04  20586143.500 8 108181037.536 8      1417.125          50.000    20586144.812 8  84296876.802 8      1104.254          50.000  
G09  22605227.922 8 118791322.888 8      3181.637          50.000    22605227.430 8  92564690.007 8      2479.201          50.000  
G03  20579348.781 8 108145238.059 8      -973.320          51.000    20579350.938 8  84269020.370 8      -758.432          51.000  
G31  23434415.508 5 123148695.153 5      -984.754          33.000                                                                  
G01  22227310.172 7 116805298.084 7     -2947.816          47.000    22227315.367 7  91017118.937 7     -2297.000          47.000  
R08  19675113.633 5 105358990.455 5     -1331.777          30.000    19675117.211 5  81945877.038 5     -1035.827          31.000  
R23  19373797.000 8 103636378.134 8     -1286.113          51.000    19373799.992 7  80606078.960 7     -1000.314          42.000  
R22  23112128.430 5 123373755.871 5     -4477.477          34.000    23112128.773 5  95957361.239 5     -3482.482          35.000  
R07  22690203.625 6 121462019.079 6     -3429.539          36.000    22690206.602 4  94470500.388 4     -2667.423          25.000  
E08  23520090.891 8 123598902.273 8      2210.027          48.000    23520091.211 8  94705795.563 8      1693.408          50.000  
E03  23326226.109 8 122580147.939 8       -91.574          51.000    23326228.133 8  93925092.314 8       -70.098          51.000  
E15  23170440.234 8 121761492.257 8      -493.969          51.000    23170442.016 8  93297770.308 8      -378.496          51.000  
C19  21672558.148 8 112854667.920 8      -774.223          51.000  
C22  23228816.016 6 120958631.121 6      1825.301          39.000  
C20  25115245.812 5 130781663.984 5     -2606.531          30.000  
> 2020 05 17 21 23 30.0000000  0 15      -0.000000000000
G17  22125865.391 6 116272205.456 6      -756.438          37.000    22125869.852 6  90601724.251 6      -589.429          37.000  
G04  20578119.117 8 108138869.905 8      1394.664          49.000    20578120.281 8  84264018.928 8      1086.752          49.000  
G09  22587109.148 8 118696106.446 8      3166.871          50.000    22587109.062 8  92490495.417 8      2467.693          50.000  
G03  20584951.148 8 108174677.850 8      -988.672          51.000    20584953.078 8  84291960.468 8      -770.394          51.000  
G01  22244185.938 8 116893979.543 8     -2963.750          48.000    22244191.336 7  91086221.405 7     -2309.413          47.000  
R08  19682636.062 5 105399237.091 5     -1350.914          32.000    19682636.070 5  81977179.949 5     -1050.705          30.000  
R23  19381102.227 8 103675457.636 8     -1318.566          51.000    19381106.008 7  80636474.107 7     -1025.552          42.000  
R22  23137324.500 6 123508254.218 6     -4488.137          36.000    23137325.211 5  96061971.089 5     -3490.774          35.000  
R07  22709448.484 6 121565033.044 6     -3437.156          36.000    22709450.102 4  94550622.304 4     -2673.347          25.000  
E08  23507511.734 8 123532797.622 8      2197.660          50.000    23507511.445 8  94655144.004 8      1683.946          51.000  
E03  23326794.945 8 122583136.263 8      -107.000          51.000    23326796.820 8  93927382.057 8       -81.942          51.000  
E15  23173316.422 8 121776606.583 8      -512.938          51.000    23173318.594 8  93309351.395 8      -393.102          51.000  
C19  21677059.469 8 112878109.553 8      -787.926          51.000  
C22  23218334.398 5 120904070.005 5      1812.473          35.000  
C20  25130286.281 5 130859974.514 5     -2613.742          30.000  
> 2020 05 17 21 24  0.0000000  0 15      -0.000000000000
G17  22130223.703 5 116295095.533 5      -773.105          35.000    22130226.062 5  90619560.679 5      -602.417          34.000  
G04  20570189.000 8 108097198.747 8      1379.797          50.000    20570190.203 8  84231547.927 8      1075.167          49.000  
G09  22569041.062 8 118601157.665 8      3159.594          51.000    22569042.125 8  92416509.395 8      2462.022          51.000  
G03  20590607.414 8 108204400.996 8      -996.492          51.000    20590609.234 8  84315121.360 8      -776.488          51.000  
G22  22133433.961 5 116311992.19625     -2055.699          33.000                                                                  
G01  22261118.320 8 116982958.279 8     -2971.613          48.000    22261124.273 8  91155555.490 8     -2315.543          48.000  
R08  19690215.266 5 105439857.738 5     -1361.195          35.000    19690217.656 4  82008773.789 4     -1058.711          27.000  
R23  19388555.219 8 103715328.568 8     -1343.168          51.000    19388559.898 7  80667484.825 7     -1044.686          42.000  
R22  23162548.844 6 123642901.028 6     -4491.770          36.000    23162549.266 5  96166696.416 5     -3493.599          34.000  
R07  22728698.031 5 121668073.467 5     -3436.613          31.000    22728699.461 4  94630764.929 4     -2672.919          26.000  
E08  23494969.180 8 123466885.873 8      2193.020          49.000    23494969.148 8  94604640.224 8      1680.367          51.000  
E03  23327417.562 8 122586408.965 8      -114.766          51.000    23327419.656 8  93929889.726 8       -87.910          51.000  
E15  23176267.109 8 121792113.333 8      -524.219          51.000    23176269.758 8  93321233.173 8      -401.758          51.000  
C19  21681605.867 8 112901785.163 8      -793.941          51.000  
C22  23207895.914 5 120849715.601 5      1807.273          32.000  
> 2020 05 17 21 24 30.0000000  0 13      -0.000000000000
G04  20562361.062 8 108056062.622 8      1363.816          50.000    20562362.312 8  84199493.824 8      1062.714          49.000  
G09  22551031.164 8 118506515.720 8      3150.957          51.000    22551033.414 8  92342762.468 8      2455.292          51.000  
G03  20596324.562 8 108234444.488 8     -1005.336          51.000    20596326.422 8  84338531.881 8      -783.379          51.000  
G22  22145197.875 5 116373751.174 5     -2060.699          35.000    22145183.648 5  90680828.044 5     -1605.734          33.000  
G01  22278114.430 8 117072270.357 8     -2981.297          49.000    22278120.219 8  91225149.318 8     -2323.089          49.000  
R08  19697878.406 5 105480888.665 5     -1373.125          32.000    19697878.258 4  82040686.669 4     -1067.983          29.000  
R23  19396163.250 8 103756027.949 8     -1369.035          51.000    19396168.539 7  80699139.905 7     -1064.805          42.000  
R22  23187806.891 5 123777730.445 5     -4495.582          35.000    23187806.703 5  96271563.781 5     -3496.564          34.000  
E08  23482470.031 8 123401204.942 8      2186.812          49.000    23482471.273 8  94554313.281 8      1675.641          51.000  
E03  23328101.375 8 122590002.832 8      -123.754          51.000    23328103.359 8  93932643.470 8       -94.830          51.000  
E15  23179299.734 8 121808050.167 8      -537.082          51.000    23179302.625 8  93333444.506 8      -411.522          51.000  
C19  21686204.539 8 112925731.148 8      -801.320          51.000  
C22  23197505.047 5 120795605.175 5      1800.508          33.000  
> 2020 05 17 21 25  0.0000000  0 13      -0.000000000000
G17  22139262.867 6 116342576.434 6      -804.852          38.000    22139261.430 5  90656557.496 5      -627.163          33.000  
G04  20554634.297 8 108015458.890 8      1350.973          48.000    20554635.508 8  84167854.568 8      1052.709          48.000  
G09  22533079.266 8 118412179.353 8      3145.906          50.000    22533082.250 8  92269253.638 8      2451.356          51.000  
G03  20602102.055 8 108264804.919 8     -1010.902          51.000    20602103.992 8  84362189.360 8      -787.716          51.000  
G01  22295173.070 8 117161911.311 8     -2987.215          50.000    22295178.328 8  91294999.350 8     -2327.704          50.000  
R08  19705616.633 5 105522324.854 5     -1381.559          34.000    19705615.750 4  82072914.928 4     -1074.543          28.000  
R23  19403925.680 8 103797551.149 8     -1391.336          51.000    19403931.078 7  80731435.721 7     -1082.150          42.000  
R22  23213096.867 5 123912736.448 5     -4496.066          31.000    23213097.992 5  96376568.468 5     -3496.941          35.000  
E08  23470014.375 8 123335752.187 8      2184.223          50.000    23470016.992 8  94504161.174 8      1673.680          51.000  
E03  23328845.992 8 122593914.203 8      -129.254          51.000    23328847.539 8  93935640.473 8       -99.012          51.000  
E15  23182413.648 8 121824414.258 8      -546.199          51.000    23182416.891 8  93345983.228 8      -418.564          51.000  
C19  21690854.461 8 112949943.789 8      -805.141          51.000  
C22  23187161.703 5 120741735.618 5      1798.496          30.000  
> 2020 05 17 21 25 30.0000000  0 15      -0.000000000000
G17  22143905.391 5 116366983.420 5      -827.297          35.000    22143906.289 5  90675575.971 5      -644.650          35.000  
G04  20546969.680 8 107975181.308 8      1328.875          48.000    20546970.844 8  84136469.462 8      1035.487          48.000  
G09  22515146.461 8 118317943.473 8      3131.316          49.000    22515149.516 8  92195823.116 8      2439.990          49.000  
G03  20607900.477 8 108295275.036 8     -1025.754          51.000    20607902.445 8  84385932.308 8      -799.289          51.000  
G31  23463993.383 5 123304111.662 5     -1085.977          35.000                                                                  
G01  22312254.547 8 117251672.813 8     -3002.352          50.000    22312258.422 8  91364943.306 8     -2339.499          50.000  
R08  19713390.047 6 105563953.565 6     -1398.957          36.000    19713389.102 5  82105292.853 5     -1088.075          30.000  
R23  19411802.984 8 103839686.681 8     -1423.113          51.000    19411807.750 6  80764207.791 6     -1106.866          41.000  
R22  23238379.352 5 124047663.369 5     -4505.766          31.000    23238382.578 5  96481528.285 5     -3504.488          35.000  
E08  23457563.383 8 123270321.189 8      2172.523          50.000    23457566.344 8  94454025.771 8      1664.692          51.000  
E03  23329611.219 8 122597935.536 8      -144.043          51.000    23329613.016 8  93938721.770 8      -110.344          51.000  
E15  23185569.500 8 121840999.032 8      -564.625          51.000    23185573.062 8  93358691.032 8      -432.626          51.000  
C19  21695515.906 8 112974217.405 8      -818.230          51.000  
C22  23176826.539 4 120687902.418 4      1785.699          29.000  
C20  25190507.305 5 131173521.013 5     -2617.465          31.000  
> 2020 05 17 21 26  0.0000000  0 17      -0.000000000000
G17  22148676.609 5 116392064.114 5      -843.102          32.000    22148676.281 5  90695119.346 5      -656.962          30.000  
G04  20539426.203 7 107935539.317 7      1314.238          47.000    20539427.242 7  84105579.586 7      1024.082          47.000  
G09  22497291.773 8 118224118.633 8      3123.910          48.000    22497294.273 8  92122712.871 8      2434.217          48.000  
G03  20613778.469 8 108326163.206 8     -1033.238          51.000    20613780.367 8  84410000.996 8      -805.121          51.000  
G01  22329417.406 8 117341862.183 8     -3010.043          50.000    22329419.461 8  91435220.708 8     -2345.492          51.000  
R08  19721259.266 6 105606087.433 6     -1409.703          36.000    19721258.555 5  82138063.664 5     -1096.436          33.000  
R23  19419853.344 8 103882747.708 8     -1447.355          51.000    19419857.164 6  80797699.701 6     -1125.721          41.000  
R01  20042329.250 5 107137332.505 5      1537.906          32.000                                                                  
R22  23263713.461 4 124182948.46124     -4509.141          29.000    23263718.430 5  96586734.09525     -3507.110          34.000  
R07  22805748.188 5 122080523.004 5     -3437.613          33.000    22805749.086 5  94951547.339 5     -2673.703          33.000  
E08  23445175.727 8 123205221.240 8      2167.898          51.000    23445177.883 8  94404144.037 8      1661.103          51.000  
E03  23330455.891 8 122602374.928 8      -151.602          51.000    23330458.062 8  93942123.403 8      -116.144          51.000  
E15  23188826.211 8 121858113.433 8      -575.883          51.000    23188829.805 8  93371804.662 8      -441.252          51.000  
C29  25920565.234 4 134975185.15724     -3515.266          29.000  
C19  21700247.562 8 112998857.322 8      -824.121          51.000  
C22  23166556.938 5 120634411.633 5      1780.352          34.000  
C20  25205581.922 5 131252038.071 5     -2616.551          34.000  
> 2020 05 17 21 26 30.0000000  0 15      -0.000000000000
G04  20531990.461 7 107896466.045 7      1295.855          47.000    20531991.820 7  84075132.885 7      1009.758          47.000  
G09  22479502.984 8 118130639.068 8      3112.977          49.000    22479504.609 8  92049871.658 8      2425.697          48.000  
G03  20619723.008 8 108357401.574 8     -1044.211          51.000    20619724.828 8  84434342.580 8      -813.671          51.000  
G01  22346648.492 8 117432410.544 8     -3021.379          51.000    22346649.539 8  91505777.867 8     -2354.322          51.000  
R08  19729208.977 6 105648655.669 6     -1423.344          38.000    19729208.367 5  82171172.353 5     -1107.042          32.000  
R23  19428063.336 8 103926663.671 8     -1475.219          51.000    19428066.523 6  80831856.543 6     -1147.396          40.000  
R01  20033753.531 5 107091494.717 5      1522.785          35.000    20033766.172 4  83293454.136 4      1184.389          26.000  
R07  22825035.445 5 122183777.561 5     -3440.367          33.000    22825036.211 5  95031856.415 5     -2675.839          33.000  
E08  23432838.078 8 123140385.313 8      2159.734          50.000    23432839.367 8  94354464.598 8      1654.838          51.000  
E03  23331367.531 8 122607164.277 8      -162.566          51.000    23331369.438 8  93945793.158 8      -124.567          51.000  
E15  23192171.000 8 121875690.202 8      -590.738          51.000    23192174.578 8  93385272.571 8      -452.647          51.000  
C29  25940847.875 4 135080801.54324     -3518.211          29.000  
C19  21705036.688 8 113023795.926 8      -833.457          51.000  
C22  23156340.453 6 120581196.435 6      1772.312          37.000  
C20  25220675.422 5 131330655.770 5     -2619.102          34.000  
> 2020 05 17 21 27  0.0000000  0 15      -0.000000000000
G04  20524642.258 8 107857850.967 8      1278.543          48.000    20524643.719 8  84045043.207 8       996.268          48.000  
G09  22461759.523 8 118037395.386 8      3103.180          50.000    22461760.633 8  91977214.273 8      2418.066          50.000  
G03  20625712.875 8 108388878.595 8     -1054.152          51.000    20625714.742 8  84458870.127 8      -821.415          51.000  
G22  22204464.945 4 116685249.32924     -2092.141          28.000                                                                  
G01  22363926.352 8 117523205.338 8     -3031.594          51.000    22363927.289 8  91576527.049 8     -2362.281          51.000  
R08  19737218.102 6 105691543.283 6     -1435.598          40.000    19737216.398 5  82204529.331 5     -1116.579          33.000  
R23  19436411.461 8 103971320.453 8     -1501.848          50.000    19436414.320 6  80866589.597 6     -1168.101          40.000  
R22  23314478.492 5 124453931.32425     -4520.191          30.000    23314476.273 5  96797456.20025     -3515.705          31.000  
R07  22844317.023 5 122287005.994 5     -3441.516          35.000    22844319.047 5  95112145.159 5     -2676.741          33.000  
E08  23420529.078 8 123075702.734 8      2152.566          50.000    23420530.406 8  94304902.663 8      1649.337          51.000  
E03  23332324.391 8 122612191.796 8      -172.434          51.000    23332326.125 8  93949645.411 8      -132.128          51.000  
E15  23195582.641 8 121893618.454 8      -604.461          51.000    23195586.125 8  93399009.794 8      -463.123          51.000  
C19  21709862.172 8 113048922.449 8      -841.680          51.000  
C22  23146155.797 5 120528147.049 5      1764.285          33.000  
C20  25235766.906 5 131409263.434 5     -2621.406          33.000  
> 2020 05 17 21 27 30.0000000  0 14      -0.000000000000
G04  20517390.133 8 107819740.136 8      1261.539          48.000    20517391.406 8  84015346.466 8       983.018          48.000  
G09  22444069.984 8 117944434.815 8      3093.734          49.000    22444071.180 8  91904777.496 8      2410.706          49.000  
G03  20631756.680 8 108420639.403 8     -1063.809          51.000    20631758.664 8  84483618.820 8      -828.942          51.000  
G01  22381259.391 8 117614290.588 8     -3041.203          50.000    22381260.180 8  91647502.569 8     -2369.769          49.000  
R08  19745295.039 6 105734794.860 6     -1448.051          36.000    19745292.633 5  82238169.454 5     -1126.262          32.000  
R23  19444905.641 8 104016762.766 8     -1528.117          49.000    19444909.117 6  80901933.631 6     -1188.539          40.000  
R22  23339887.227 5 124589586.590 5     -4523.961          33.000    23339890.438 5  96902966.251 5     -3518.637          32.000  
R07  22863604.500 5 122390253.272 5     -3442.199          30.000    22863606.711 5  95192448.490 5     -2677.270          32.000  
E08  23408258.141 8 123011219.466 8      2145.668          51.000    23408259.523 8  94255493.406 8      1644.141          50.000  
E03  23333334.805 8 122617502.286 8      -182.152          51.000    23333336.859 8  93953714.498 8      -139.562          51.000  
E15  23199069.773 8 121911943.838 8      -617.840          51.000    23199073.039 8  93413051.326 8      -473.422          51.000  
C19  21714732.148 8 113074281.278 8      -849.570          51.000  
C22  23136009.125 5 120475308.843 5      1756.582          30.000  
C20  25250867.086 5 131487905.538 5     -2622.926          30.000  
> 2020 05 17 21 28  0.0000000  0 14      -0.000000000000
G04  20510240.086 8 107782166.817 8      1246.484          49.000    20510241.281 8  83986068.545 8       971.287          48.000  
G09  22426440.461 8 117851791.762 8      3085.738          48.000    22426442.141 8  91832588.135 8      2404.472          48.000  
G03  20637860.617 8 108452716.266 8     -1071.613          51.000    20637862.570 8  84508613.802 8      -835.024          51.000  
G01  22398653.570 8 117705697.553 8     -3049.074          50.000    22398654.461 8  91718728.755 8     -2375.903          51.000  
R08  19753444.523 6 105778441.646 6     -1458.363          36.000    19753443.492 5  82272116.932 5     -1134.283          33.000  
R23  19453553.008 8 104063022.697 8     -1552.555          51.000    19453556.891 6  80937913.590 6     -1207.543          40.000  
R22  23365331.711 5 124725400.008 5     -4526.297          34.000    23365335.867 5  97008598.903 5     -3520.454          32.000  
R07  22882902.406 5 122493551.333 5     -3441.062          32.000    22882903.969 5  95272791.398 5     -2676.379          32.000  
E08  23396031.828 8 122946968.583 8      2140.809          51.000    23396032.961 8  94206262.233 8      1640.316          50.000  
E03  23334405.344 8 122623127.797 8      -189.844          51.000    23334407.562 8  93958024.960 8      -145.462          51.000  
E15  23202638.703 8 121930699.239 8      -629.406          51.000    23202641.992 8  93427422.352 8      -482.285          51.000  
C29  26001644.391 5 135397368.933 5     -3515.484          31.000  
C19  21719652.789 8 113099904.099 8      -855.496          51.000  
C22  23125908.820 5 120422674.094 5      1752.352          33.000  
> 2020 05 17 21 28 30.0000000  0 15      -0.000000000000
G04  20503176.820 8 107745049.052 8      1227.809          49.000    20503178.102 8  83957145.615 8       956.734          49.000  
G09  22408855.789 8 117759385.525 8      3074.395          49.000    22408857.781 8  91760583.273 8      2395.633          49.000  
G03  20644008.867 8 108485026.353 8     -1082.691          51.000    20644011.016 8  84533790.496 8      -843.656          51.000  
G01  22416092.953 8 117797342.284 8     -3060.551          50.000    22416093.914 8  91790140.224 8     -2384.845          51.000  
R08  19761652.992 5 105822397.427 5     -1472.203          31.000    19761654.398 5  82306304.728 5     -1145.044          34.000  
R23  19462337.445 8 104110014.557 8     -1580.402          51.000    19462341.469 6  80974462.800 6     -1229.202          41.000  
R22  23390788.508 6 124861283.787 6     -4532.004          36.000    23390790.922 5  97114286.322 5     -3524.893          31.000  
R07  22902193.289 5 122596814.778 5     -3443.367          35.000    22902194.953 5  95353107.395 5     -2678.175          33.000  
E08  23383834.156 8 122882868.042 8      2132.363          51.000    23383835.016 8  94157146.258 8      1633.872          50.000  
E03  23335520.031 8 122628985.142 8      -200.930          51.000    23335522.250 8  93962513.060 8      -153.890          51.000  
E15  23206273.781 8 121949802.337 8      -644.406          51.000    23206277.250 8  93442059.779 8      -493.715          51.000  
C29  26021904.711 5 135502863.094 5     -3517.539          31.000  
C19  21724608.367 8 113125708.520 8      -864.930          51.000  
C22  23115840.625 5 120370241.236 5      1743.391          33.000  
C20  25281094.266 5 131645280.780 5     -2624.707          35.000  
> 2020 05 17 21 29  0.0000000  0 15      -0.000000000000
G04  20496208.203 8 107708428.344 8      1213.129          49.000    20496209.547 8  83928610.027 8       945.296          49.000  
G09  22391324.625 8 117667258.749 8      3066.910          50.000    22391326.703 8  91688796.212 8      2389.801          50.000  
G03  20650209.312 8 108517610.321 8     -1090.035          51.000    20650211.539 8  84559180.601 8      -849.378          51.000  
G31  23510046.359 6 123546115.850 6     -1217.715          36.000    23510053.438 5  96269708.966 5      -948.860          34.000  
G01  22433585.000 8 117889264.348 8     -3068.055          50.000    22433586.453 8  91861767.802 8     -2390.693          50.000  
R08  19769925.438 4 105866701.981 4     -1481.082          27.000    19769928.586 5  82340763.833 5     -1151.953          31.000  
R23  19471266.344 8 104157778.778 8     -1604.277          51.000    19471270.852 6  81011612.708 6     -1247.775          41.000  
R22  23416265.422 5 124997276.317 5     -4534.262          35.000    23416265.625 5  97220058.352 5     -3526.649          30.000  
R07  22921485.141 5 122700083.818 5     -3441.895          35.000    22921486.758 5  95433427.774 5     -2677.030          34.000  
E08  23371672.781 8 122818959.324 8      2127.871          51.000    23371673.312 8  94108177.262 8      1630.460          50.000  
E05  25944988.250 5 136341828.454 5     -2340.992          33.000    25944994.391 5 104469721.415 5     -1793.775          35.000  
E03  23336686.359 8 122635114.687 8      -208.164          51.000    23336688.523 8  93967209.728 8      -159.443          51.000  
E15  23209983.141 8 121969294.300 8      -655.445          51.000    23209986.508 8  93456995.191 8      -502.255          51.000  
C19  21729606.391 8 113151734.529 8      -870.504          51.000  
C20  25296214.305 6 131723997.240 6     -2623.516          37.000  
> 2020 05 17 21 29 30.0000000  0 15      -0.000000000000
G17  22184981.594 6 116582862.82526      -969.332          36.000    22184994.273 5  90843825.68825      -755.318          31.000  
G04  20489338.531 8 107672327.354 8      1195.723          50.000    20489339.781 8  83900479.399 8       931.732          50.000  
G09  22373851.438 8 117575435.243 8      3056.902          51.000    22373853.570 8  91617245.493 8      2382.006          51.000  
G03  20656466.078 8 108550489.831 8     -1099.867          51.000    20656468.117 8  84584801.008 8      -857.040          51.000  
G31  23517056.688 6 123582954.054 6     -1236.660          36.000    23517063.016 6  96298414.096 6      -963.632          36.000  
G01  22451133.758 8 117981484.306 8     -3077.855          49.000    22451136.055 8  91933627.501 8     -2398.330          49.000  
R23  19480343.594 8 104206336.127 8     -1630.703          51.000    19480348.539 6  81049379.536 6     -1268.325          41.000  
R22  23441765.805 5 125133396.561 5     -4538.441          33.000    23441764.859 4  97325929.645 4     -3529.900          29.000  
R07  22940781.258 5 122803379.760 5     -3442.605          35.000    22940783.227 5  95513769.007 5     -2677.586          33.000  
E08  23359552.055 8 122755264.971 8      2120.785          51.000    23359552.453 8  94059372.523 8      1624.988          51.000  
E05  25958375.898 5 136412184.534 5     -2344.125          33.000    25958376.867 5 104523602.180 5     -1796.298          34.000  
E03  23337908.594 8 122641537.826 8      -217.879          51.000    23337910.656 8  93972131.358 8      -166.922          51.000  
E15  23213770.703 8 121989197.375 8      -669.070          51.000    23213773.969 8  93472245.599 8      -512.662          51.000  
C19  21734650.812 8 113178003.340 8      -878.566          51.000  
C20  25311343.594 5 131802759.197 5     -2625.188          35.000  
> 2020 05 17 21 30  0.0000000  0 18      -0.000000000000
G17  22190579.633 6 116612286.33326      -989.406          36.000    22190564.250 5  90866704.67725      -770.966          35.000  
G04  20482572.281 8 107636769.833 8      1176.105          50.000    20482573.250 8  83872772.243 8       916.446          50.000  
G09  22356440.773 8 117483940.077 8      3044.418          50.000    22356443.000 8  91545950.606 8      2372.274          51.000  
G03  20662783.523 8 108583687.825 8     -1111.980          51.000    20662785.383 8  84610669.589 8      -866.476          51.000  
G31  23524180.914 6 123620396.053 6     -1258.371          36.000    23524185.594 5  96327589.626 5      -980.555          34.000  
G22  22276711.297 5 117064903.19025     -2129.289          35.000                                                                  
G01  22468743.508 8 118074023.948 8     -3090.121          50.000    22468746.266 8  92005736.302 8     -2407.887          50.000  
R08  19786683.336 4 105956466.690 4     -1509.176          29.000    19786681.977 4  82410523.449 4     -1173.801          28.000  
R23  19489573.219 8 104255708.888 8     -1659.441          51.000    19489578.500 7  81087780.548 7     -1290.677          42.000  
R22  23467293.297 5 125269664.947 5     -4544.609          34.000    23467290.938 4  97431916.050 4     -3534.700          28.000  
R07  22960086.898 5 122906724.601 5     -3445.688          33.000    22960088.805 5  95594148.214 5     -2679.983          31.000  
E08  23347476.453 8 122691808.668 8      2111.215          51.000    23347477.164 8  94010750.179 8      1617.661          51.000  
E05                                                                  25971783.461 5 104577608.948 5     -1800.740          32.000  
E03  23339191.227 8 122648277.206 8      -229.934          51.000    23339193.133 8  93977295.294 8      -176.213          51.000  
E15  23217640.859 8 122009535.009 8      -685.211          51.000    23217644.172 8  93487828.969 8      -525.008          51.000  
C19  21739746.133 8 113204537.307 8      -888.949          51.000  
C22  23085881.539 5 120214263.790 5      1721.066          31.000  
C20  25326484.836 4 131881652.42124     -2628.293          28.000  
> 2020 05 17 21 30 30.0000000  0 17      -0.000000000000
G17  22196284.039 5 116642269.118 5     -1006.871          35.000    22196271.828 5  90890067.859 5      -784.575          35.000  
G04  20475911.039 8 107601764.905 8      1159.641          50.000    20475911.742 8  83845495.709 8       903.619          50.000  
G09  22339094.359 8 117392783.605 8      3034.887          49.000    22339096.695 8  91474919.641 8      2364.851          49.000  
G03  20669163.133 8 108617212.575 8     -1120.859          51.000    20669165.078 8  84636792.769 8      -873.397          51.000  
G31  23531421.602 5 123658449.161 5     -1276.562          35.000    23531422.109 5  96357241.300 5      -994.727          33.000  
G22  22288884.602 5 117128864.92325     -2135.910          32.000    22288872.289 5  91269213.67425     -1664.346          31.000  
G01  22486415.562 8 118166890.537 8     -3098.926          50.000    22486417.266 8  92078099.896 8     -2414.748          50.000  
R08  19795169.719 6 106001930.495 6     -1519.879          36.000    19795176.375 5  82445884.284 5     -1182.125          31.000  
R23  19498956.938 8 104305904.218 8     -1684.773          51.000    19498962.289 7  81126821.346 7     -1310.380          42.000  
R01  19967928.805 6 106739687.224 6      1409.582          36.000    19967933.172 4  83019745.736 4      1096.339          27.000  
R22  23492849.320 6 125406086.568 6     -4547.516          36.000    23492846.375 4  97538019.74824     -3536.957          26.000  
R07  22979403.812 5 123010161.84625     -3446.234          30.000    22979404.914 5  95674571.335 5     -2680.405          30.000  
E08  23335447.961 8 122628599.525 8      2104.992          50.000    23335448.867 8  93962317.222 8      1612.857          50.000  
E03  23340535.500 8 122655340.772 8      -238.719          51.000    23340537.344 8  93982707.649 8      -182.950          51.000  
E15  23221595.555 8 122030315.965 8      -698.008          51.000    23221598.469 8  93503752.041 8      -534.823          51.000  
C19  21744894.250 8 113231344.434 8      -896.148          51.000  
C22  23075996.039 5 120162763.751 5      1714.477          34.000  
> 2020 05 17 21 31  0.0000000  0 17      -0.000000000000
G04  20469339.680 8 107567231.219 8      1142.387          51.000    20469339.922 8  83818586.355 8       890.175          49.000  
G09  22321796.945 8 117301885.601 8      3024.605          48.000    22321798.984 8  91404090.063 8      2356.839          48.000  
G03  20675589.289 8 108650981.841 8     -1130.711          51.000    20675591.195 8  84663106.480 8      -881.074          51.000  
G31  23538762.047 4 123697028.54224     -1297.266          26.000    23538762.289 3  96387304.72323     -1010.851          22.000  
G22  22301085.680 6 117192986.130 6     -2140.578          39.000                                                                  
G01  22504134.148 8 118260000.626 8     -3108.602          51.000    22504133.555 8  92150653.189 8     -2422.288          51.000  
R08  19803720.148 6 106047707.680 6     -1532.598          37.000    19803728.352 5  82481488.771 5     -1192.018          31.000  
R23  19508478.422 8 104356836.815 8     -1710.938          51.000    19508483.703 7  81166435.583 7     -1330.729          43.000  
R01  19960059.273 5 106697613.967 5      1394.879          34.000    19960061.000 4  82987022.159 4      1084.912          25.000  
R22  23518418.227 5 125542575.387 5     -4551.621          35.000                                                                  
R07  22998714.070 5 123113534.947 5     -3446.355          30.000    22998715.844 4  95754972.579 4     -2680.496          26.000  
E08  23323451.242 8 122565556.089 8      2097.758          51.000    23323451.930 8  93914011.222 8      1607.386          50.000  
E03  23341925.547 8 122662646.002 8      -248.492          51.000    23341927.320 8  93988305.175 8      -190.439          51.000  
E15  23225619.062 8 122051458.489 8      -711.734          51.000    23225621.289 8  93519952.167 8      -545.352          51.000  
C19  21750079.281 8 113258342.879 8      -904.020          51.000  
C22  23066143.750 5 120111439.800 5      1707.426          34.000  
C20  25356790.938 5 132039425.119 5     -2630.758          31.000  
> 2020 05 17 21 31 30.0000000  0 13      -0.000000000000
G04  20462886.258 8 107533318.515 8      1117.953          50.000    20462886.328 8  83792160.900 8       871.136          49.000  
G09  22304577.227 7 117211397.085 7      3007.398          47.000    22304578.836 7  91333579.577 7      2343.428          47.000  
G03  20682090.266 8 108685144.593 8     -1147.449          51.000    20682092.062 8  84689726.815 8      -894.117          51.000  
G22  22313341.164 6 117257386.415 6     -2153.984          40.000    22313335.477 5  91369403.792 5     -1678.436          31.000  
G01  22521926.906 8 118353502.161 8     -3125.438          49.000    22521924.516 8  92223511.502 8     -2435.406          50.000  
R08  19812358.281 5 106093947.763 5     -1551.246          34.000    19812356.062 4  82517453.243 4     -1206.525          27.000  
R23  19518165.852 8 104408657.336 8     -1744.332          51.000    19518170.953 7  81206740.442 7     -1356.703          43.000  
R01  19952287.516 5 106656074.588 5      1373.305          35.000                                                                  
R22  23544027.500 5 125679279.493 5     -4562.586          35.000                                                                  
E08  23311514.727 8 122502828.072 8      2083.488          51.000    23311515.094 8  93865946.935 8      1596.509          50.000  
E03  23343389.906 8 122670341.483 8      -265.242          51.000    23343391.227 8  93994201.724 8      -203.226          51.000  
E15  23229739.773 8 122073112.009 8      -732.434          51.000    23229741.438 8  93536543.823 8      -561.240          51.000  
C19  21755329.109 8 113285679.929 8      -918.941          51.000  
> 2020 05 17 21 32  0.0000000  0 13      -0.000000000000
G04  20456503.750 8 107499779.388 8      1109.457          49.000    20456503.898 8  83766026.519 8       864.512          49.000  
G09  22287388.516 7 117121071.944 7      3005.914          47.000    22287390.328 7  91263196.363 7      2342.271          46.000  
G03  20688618.836 8 108719452.616 8     -1148.441          51.000    20688620.461 8  84716460.339 8      -894.890          51.000  
G31  23553789.156 5 123775952.96325     -1332.070          33.000                                                                  
G22  22325603.328 6 117321826.200 6     -2150.496          38.000    22325597.797 5  91419616.544 5     -1675.718          33.000  
G01  22539746.258 7 118447145.687 7     -3126.160          47.000    22539744.820 7  92296480.460 7     -2435.970          47.000  
R08  19821030.758 5 106140396.668 5     -1554.629          33.000    19821029.234 5  82553580.172 5     -1209.156          32.000  
R23  19527971.688 8 104461111.662 8     -1761.387          51.000    19527976.648 7  81247538.238 7     -1369.971          43.000  
R22  23569629.508 5 125815943.693 5     -4557.641          35.000                                                                  
E08  23299591.328 8 122440168.084 8      2085.156          51.000    23299591.336 8  93817934.777 8      1597.724          50.000  
E03  23344881.250 8 122678178.732 8      -265.910          51.000    23344882.227 8  94000206.897 8      -203.770          51.000  
E15  23233910.367 8 122095028.827 8      -737.336          51.000    23233911.844 8  93553337.215 8      -564.939          51.000  
C19  21760596.430 8 113313109.420 8      -918.191          51.000  
> 2020 05 17 21 32 30.0000000  0 13      -0.000000000000
G17  22220103.641 5 116767477.114 5     -1084.340          33.000    22220104.305 5  90987623.595 5      -844.943          31.000  
G04  20450239.367 8 107466860.111 8      1084.344          50.000    20450239.836 8  83740375.144 8       844.943          50.000  
G09  22270278.352 8 117031157.708 8      2987.648          48.000    22270280.781 8  91193133.313 8      2328.038          48.000  
G03  20695221.695 8 108754151.374 8     -1165.695          51.000    20695223.219 8  84743498.348 8      -908.331          51.000  
G22  22337920.000 6 117386550.943 6     -2164.777          39.000    22337915.094 5  91470051.442 5     -1686.840          33.000  
G01  22557638.547 7 118541175.602 7     -3143.363          46.000    22557639.359 7  92369750.539 7     -2449.372          46.000  
R08  19829789.750 6 106187302.922 6     -1573.668          38.000    19829792.906 5  82590062.856 5     -1223.961          32.000  
R23  19537942.344 8 104514448.059 8     -1795.273          51.000    19537946.953 7  81289022.072 7     -1396.324          42.000  
R22  23595269.680 5 125952814.353 5     -4568.566          34.000                                                                  
E08  23287727.555 8 122377822.372 8      2070.277          51.000    23287727.055 8  93770163.430 8      1586.338          50.000  
E03  23346445.984 8 122686402.917 8      -283.113          51.000    23346447.320 8  94006508.552 8      -216.973          51.000  
E15  23238177.711 8 122117454.840 8      -758.609          51.000    23238179.016 8  93570520.772 8      -581.284          51.000  
C19  21765928.336 8 113340874.266 8      -933.664          51.000  
> 2020 05 17 21 33  0.0000000  0 16      -0.000000000000
G17  22226309.852 5 116800095.764 5     -1093.770          35.000    22226310.281 5  91013040.664 5      -852.288          35.000  
G04  20444063.188 8 107434403.544 8      1075.797          51.000    20444064.023 8  83715084.327 8       838.284          51.000  
G09  22253217.078 8 116941498.430 8      2986.039          50.000    22253219.664 8  91123268.963 8      2326.787          49.000  
G03  20701868.969 8 108789083.042 8     -1166.637          51.000    20701870.438 8  84770717.837 8      -909.068          51.000  
G22  22350260.625 6 117451402.856 6     -2162.172          38.000    22350256.328 5  91520585.340 5     -1684.816          33.000  
G01  22575574.484 7 118635432.876 7     -3144.148          47.000    22575577.328 7  92443197.798 7     -2449.987          47.000  
R08  19838606.141 5 106234504.235 5     -1576.590          34.000    19838608.367 4  82626774.948 4     -1226.240          29.000  
R23  19548047.914 8 104568504.701 8     -1812.258          51.000    19548051.805 6  81331066.135 6     -1409.534          41.000  
R01  19929403.305 5 106533683.352 5      1340.422          31.000                                                                  
R22  23620917.383 5 126089728.187 5     -4562.367          30.000                                                                  
E08  23275893.383 8 122315633.876 8      2072.004          51.000    23275892.688 8  93722512.529 8      1587.697          50.000  
E03  23348054.211 8 122694855.839 8      -283.941          51.000    23348056.078 8  94012985.471 8      -217.563          51.000  
E15  23242512.141 8 122140232.627 8      -763.410          51.000    23242513.164 8  93587973.889 8      -584.936          51.000  
C19  21771294.594 8 113368817.751 8      -932.824          51.000  
C22  23027178.445 5 119908607.117 5      1679.520          33.000  
C20  25417494.477 5 132355575.303 5     -2633.703          31.000  
> 2020 05 17 21 33 30.0000000  0 14      -0.000000000000
G17  22232598.250 6 116833144.456 6     -1111.516          37.000    22232603.430 6  91038792.766 6      -866.110          36.000  
G04  20437966.680 8 107402364.637 8      1057.762          51.000    20437967.469 8  83690118.941 8       824.230          51.000  
G09  22236196.320 8 116852050.470 8      2974.758          51.000    22236197.906 8  91053569.260 8      2317.994          51.000  
G03  20708551.859 8 108824201.787 8     -1177.094          51.000    20708553.414 8  84798083.087 8      -917.219          51.000  
G22  22362617.305 6 117516335.960 6     -2169.047          38.000    22362614.547 5  91571182.474 5     -1690.170          34.000  
G01  22593545.281 7 118729870.580 7     -3154.148          47.000    22593549.391 7  92516785.611 7     -2457.782          47.000  
R08  19847467.836 5 106281952.022 5     -1588.312          32.000    19847466.148 4  82663678.782 4     -1235.351          29.000  
R23  19558279.047 8 104623233.292 8     -1838.766          51.000    19558282.531 6  81373632.807 6     -1430.151          41.000  
E08  23264080.359 8 122253557.538 8      2064.098          51.000    23264080.125 8  93674947.566 8      1581.579          51.000  
E03  23349697.391 8 122703491.358 8      -294.188          51.000    23349699.352 8  94019602.291 8      -225.405          51.000  
E15  23246904.789 8 122163316.827 8      -777.828          51.000    23246906.055 8  93605661.789 8      -596.019          51.000  
C19  21776686.250 8 113396894.188 8      -941.320          51.000  
C22  23017507.711 5 119858296.564 5      1671.855          33.000  
C20  25432664.055 5 132434571.556 5     -2634.941          35.000  
> 2020 05 17 21 34  0.0000000  0 17      -0.000000000000
G17  22239006.461 5 116866822.682 5     -1131.875          35.000    22239013.547 6  91065035.582 6      -881.981          36.000  
G04  20431987.805 8 107370944.806 8      1038.320          51.000    20431988.734 8  83665635.965 8       809.081          51.000  
G09  22219254.148 8 116763016.459 8      2962.156          50.000    22219254.812 8  90984192.127 8      2308.174          50.000  
G03  20715308.516 8 108859708.337 8     -1188.680          51.000    20715310.297 8  84825750.535 8      -926.244          51.000  
G31  23585098.047 5 123940518.55025     -1410.363          32.000                                                                  
G22  22375027.289 5 117581551.330 5     -2177.539          35.000    22375025.508 5  91621999.652 5     -1696.793          33.000  
G01  22611588.547 8 118824688.260 8     -3165.527          48.000    22611593.211 8  92590669.500 8     -2466.648          48.000  
R08  19856411.992 5 106329849.661 5     -1602.613          35.000    19856412.008 5  82700932.532 5     -1246.477          32.000  
R23  19568673.914 8 104678836.649 8     -1866.637          51.000    19568677.039 6  81416879.856 6     -1451.829          41.000  
R01  19914524.953 5 106454211.259 5      1309.148          34.000                                                                  
R22  23672249.891 5 126363717.101 5     -4572.648          31.000                                                                  
E08  23252327.281 8 122191794.811 8      2054.777          51.000    23252327.242 8  93627622.889 8      1574.516          51.000  
E03  23351413.578 8 122712509.838 8      -305.656          51.000    23351415.438 8  94026512.539 8      -234.180          51.000  
E15  23251393.742 8 122186908.565 8      -793.477          51.000    23251395.883 8  93623738.551 8      -607.989          51.000  
C19  21782141.656 8 113425302.192 8      -951.133          51.000  
C22  23007902.781 5 119808200.970 5      1662.121          31.000  
C20  25447857.625 5 132513703.429 5     -2638.949          31.000  
> 2020 05 17 21 34 30.0000000  0 14      -0.000000000000
G17  22245523.383 5 116901071.457 5     -1152.598          33.000    22245531.891 5  91091723.011 5      -898.125          33.000  
G04  20426115.875 8 107340086.725 8      1017.430          51.000    20426116.695 8  83641590.711 8       792.803          51.000  
G09  22202379.578 8 116674340.371 8      2948.141          50.000    22202380.375 8  90915093.902 8      2297.253          50.000  
G03  20722127.938 8 108895544.615 8     -1201.891          51.000    20722129.898 8  84853674.912 8      -936.538          51.000  
G31  23593210.477 5 123983130.865 5     -1432.145          34.000    23593214.477 5  96610246.429 5     -1115.957          33.000  
G22  22387480.625 6 117646990.595 6     -2186.730          38.000    22387478.172 5  91672991.205 5     -1703.946          33.000  
G01  22629693.102 8 118919826.739 8     -3178.363          49.000    22629697.539 8  92664803.369 8     -2476.647          49.000  
R08  19865429.555 5 106378136.354 5     -1617.863          34.000    19865430.844 5  82738488.857 5     -1258.338          32.000  
R23  19579220.922 8 104735254.112 8     -1895.895          51.000    19579224.062 6  81460760.125 6     -1474.582          41.000  
R01  19907222.750 5 106415179.993 5      1291.277          31.000                                                                  
E08  23240623.039 8 122130288.367 8      2044.207          51.000    23240623.203 8  93580494.606 8      1566.350          51.000  
E03  23353191.398 8 122721852.896 8      -318.613          51.000    23353193.492 8  94033671.498 8      -244.138          51.000  
E15  23255968.359 8 122210950.180 8      -810.637          51.000    23255971.211 8  93642160.019 8      -621.135          51.000  
C19  21787649.711 8 113453983.959 8      -962.316          51.000  
> 2020 05 17 21 35  0.0000000  0 13      -0.000000000000
G17  22252102.086 6 116935640.187 6     -1156.414          36.000    22252111.070 5  91118659.691 5      -901.102          35.000  
G04  20420303.227 8 107309541.697 8      1014.547          51.000    20420303.820 8  83617789.405 8       790.556          51.000  
G09  22185525.453 8 116585774.859 8      2952.000          48.000    22185526.914 8  90846081.821 8      2300.260          49.000  
G03  20728962.594 8 108931461.284 8     -1196.957          51.000    20728964.570 8  84881661.932 8      -932.694          51.000  
G31  23601387.703 5 124026100.793 5     -1436.844          35.000    23601392.375 5  96643729.525 5     -1119.616          35.000  
G22  22399947.250 5 117712473.310 5     -2178.105          34.000                                                                  
G01  22647811.117 8 119015035.370 8     -3173.246          50.000    22647815.000 8  92738991.907 8     -2472.660          50.000  
R08  19874471.477 5 106426556.862 5     -1614.445          34.000    19874473.766 5  82776149.289 5     -1255.677          32.000  
R23  19589872.156 8 104792230.354 8     -1906.852          51.000    19589875.602 6  81505074.971 6     -1483.107          41.000  
E08  23228920.008 8 122068789.665 8      2051.465          50.000    23228920.406 8  93533372.242 8      1571.870          51.000  
E03  23354983.469 8 122731270.807 8      -313.566          51.000    23354985.875 8  94040887.820 8      -240.280          51.000  
E15  23260581.492 8 122235192.672 8      -809.855          51.000    23260584.562 8  93660735.426 8      -620.512          51.000  
C19  21793162.586 8 113482692.105 8      -955.699          51.000  
> 2020 05 17 21 35 30.0000000  0 11      -0.000000000000
G17  22258825.539 5 116970968.502 5     -1196.445          32.000    22258833.117 5  91146188.296 5      -932.295          30.000  
G04  20414634.000 8 107279751.212 8       974.801          51.000    20414634.758 8  83594576.034 8       759.585          51.000  
G09  22168776.320 7 116497762.737 7      2918.863          47.000    22168778.664 7  90777500.947 7      2274.440          47.000  
G03  20735896.477 8 108967899.164 8     -1228.914          51.000    20735898.523 8  84910055.093 8      -957.596          51.000  
G01  22666026.258 8 119110753.842 8     -3204.750          50.000    22666029.477 8  92813577.721 8     -2497.208          50.000  
R08  19883622.344 4 106475558.036 4     -1648.570          28.000    19883625.258 5  82814261.374 5     -1282.219          31.000  
R23  19600711.227 8 104850212.210 8     -1955.258          51.000    19600714.586 6  81550171.974 6     -1520.756          41.000  
E08  23217302.133 8 122007740.204 8      2021.848          50.000    23217302.719 8  93486594.093 8      1549.173          51.000  
E03  23356873.867 8 122741204.061 8      -345.324          51.000    23356876.195 8  94048499.004 8      -264.623          51.000  
E15  23265316.820 8 122260077.215 8      -845.848          50.000    23265319.891 8  93679802.799 8      -648.099          51.000  
C19  21798764.156 8 113511863.169 8      -985.707          51.000  
> 2020 05 17 21 36  0.0000000  0 12      -0.000000000000
G17  22265632.172 5 117006735.621 5     -1197.137          35.000    22265637.766 5  91174058.748 5      -932.831          35.000  
G04  20409047.570 8 107250396.032 8       973.508          50.000    20409048.617 8  83571701.872 8       758.578          50.000  
G09  22152072.453 7 116409986.132 7      2924.137          47.000    22152074.938 7  90709103.582 7      2278.549          47.000  
G03  20742868.680 8 109004538.390 8     -1222.410          51.000    20742870.859 8  84938605.128 8      -952.528          51.000  
G01  22684277.266 8 119206661.128 8     -3197.871          49.000    22684279.734 8  92888310.648 8     -2491.851          49.000  
R23  19611676.328 8 104908872.652 8     -1964.363          50.000    19611680.688 7  81595796.743 7     -1527.838          42.000  
E08  23205709.188 8 121946820.884 8      2030.668          51.000    23205709.875 8  93439915.663 8      1555.973          51.000  
E03  23358801.312 8 122751332.411 8      -338.574          51.000    23358803.500 8  94056259.684 8      -259.448          51.000  
E15  23270113.250 8 122285284.315 8      -843.445          48.000    23270116.594 8  93699117.333 8      -646.244          51.000  
C19  21804394.031 8 113541179.868 8      -977.520          51.000  
C22  22969929.328 5 119610434.478 5      1636.473          31.000  
C20  25508698.617 4 132830490.01524     -2638.367          29.000  
> 2020 05 17 21 36 30.0000000  0 14      -0.000000000000
G04  20403519.906 8 107221348.754 8       954.984          51.000    20403520.867 8  83549067.627 8       744.144          51.000  
G09  22135390.234 8 116322318.888 8      2912.230          48.000    22135391.711 8  90640791.462 8      2269.271          48.000  
G03  20749854.867 8 109041250.932 8     -1233.090          51.000    20749857.047 8  84967212.290 8      -960.850          51.000  
G31  23626620.203 6 124158715.759 6     -1500.375          37.000    23626623.109 6  96747057.125 6     -1169.124          36.000  
G22  22437538.828 6 117910077.164 6     -2203.996          36.000    22437537.852 4  91877965.787 4     -1717.400          29.000  
G01  22702539.227 8 119302627.963 8     -3208.105          48.000    22702541.227 8  92963089.959 8     -2499.823          48.000  
R08  19902038.367 5 106574117.670 5     -1656.316          34.000    19902047.562 4  82890990.904 4     -1288.246          28.000  
R23  19622743.344 8 104968079.516 8     -1990.984          49.000    19622748.703 7  81641846.519 7     -1548.544          42.000  
E08  23194117.445 8 121885904.380 8      2022.355          51.000    23194117.781 8  93393239.400 8      1549.592          51.000  
E03  23360741.344 8 122761527.485 8      -349.105          51.000    23360743.492 8  94064071.500 8      -267.506          51.000  
E15  23274946.336 7 122310686.304 7      -858.117          47.000    23274950.414 8  93718581.201 8      -657.516          51.000  
C19  21810027.828 8 113570515.065 8      -986.305          51.000  
C22  22960493.195 4 119561332.033 4      1629.047          29.000  
C20  25523889.812 5 132909577.345 5     -2640.566          34.000  
> 2020 05 17 21 37  0.0000000  0 15      -0.000000000000
G04  20398132.789 8 107193038.954 8       936.137          51.000    20398133.578 8  83527008.053 8       729.457          51.000  
G09  22118811.266 8 116235191.970 8      2900.117          49.000    22118811.961 8  90572900.391 8      2259.832          49.000  
G03  20756936.617 8 109078465.708 8     -1243.984          51.000    20756938.820 8  84996210.802 8      -969.339          51.000  
G31  23635255.328 6 124204083.355 6     -1519.906          36.000    23635256.523 6  96782408.477 6     -1184.343          36.000  
G22  22450153.281 6 117976366.553 6     -2211.273          36.000                                                                  
G01  22720893.422 7 119399082.086 7     -3218.297          46.000    22720895.133 7  93038248.998 7     -2507.765          46.000  
R08  19911367.891 5 106624051.539 5     -1668.250          30.000    19911369.086 4  82929828.296 4     -1297.528          26.000  
R23  19633994.258 8 105028267.603 8     -2017.543          50.000    19634000.305 7  81688659.461 7     -1569.203          42.000  
R07  23230579.023 4 124354690.977 4     -3448.156          28.000                                                                  
E08  23182608.039 8 121825420.356 8      2013.676          51.000    23182608.211 8  93346894.520 8      1543.007          51.000  
E03  23362775.867 8 122772217.890 8      -359.820          51.000    23362777.867 8  94072262.841 8      -275.707          51.000  
E15  23279898.898 8 122336712.509 8      -873.207          50.000    23279902.977 8  93738523.344 8      -669.033          51.000  
C19  21815746.797 8 113600293.565 8      -995.188          51.000  
C22  22951135.883 5 119512667.308 5      1619.363          30.000  
C20  25539123.742 4 132988920.07224     -2644.113          28.000  
> 2020 05 17 21 37 30.0000000  0 14      -0.000000000000
G04  20392831.367 8 107165179.163 8       919.543          51.000    20392832.375 8  83505299.151 8       716.527          51.000  
G09  22102280.508 8 116148319.280 8      2890.051          50.000    22102281.078 8  90505207.440 8      2251.988          50.000  
G03  20764059.117 8 109115894.729 8     -1252.723          51.000    20764061.344 8  85025376.255 8      -976.151          51.000  
G31  23643982.109 6 124249937.691 6     -1538.273          38.000    23643982.398 6  96818139.138 6     -1198.655          39.000  
G22  22462787.703 5 118042745.40525     -2216.832          34.000                                                                  
G01  22739285.070 7 119495734.299 7     -3226.605          45.000    22739286.859 7  93113562.363 7     -2514.239          44.000  
R23  19645374.203 8 105089141.817 8     -2042.098          51.000    19645380.008 6  81736006.053 6     -1588.298          41.000  
R01  19864956.102 5 106189246.81225      1212.887          30.000                                                                  
R07  23249892.148 5 124458102.470 5     -3447.254          31.000                                                                  
E08  23171125.906 8 121765081.513 8      2007.375          51.000    23171126.383 8  93300660.885 8      1538.131          51.000  
E03  23364849.609 8 122783115.214 8      -368.121          51.000    23364851.742 8  94080612.737 8      -282.064          51.000  
E15  23284916.250 8 122363075.179 8      -885.832          51.000    23284919.695 8  93758723.320 8      -678.749          51.000  
C19  21821495.766 8 113630229.624 8     -1001.941          51.000  
C20  25554351.664 4 133068214.08024     -2644.168          28.000  
> 2020 05 17 21 38  0.0000000  0 13      -0.000000000000
G04  20387637.586 8 107137885.073 8       902.105          50.000    20387638.664 8  83484031.037 8       702.940          49.000  
G09  22085820.156 8 116061817.845 8      2879.062          49.000    22085820.625 8  90437803.778 8      2243.429          49.000  
G03  20771244.250 8 109153653.057 8     -1262.457          50.000    20771246.398 8  85054798.315 8      -983.733          51.000  
G31  23652822.766 6 124296392.323 6     -1556.820          38.000    23652822.195 6  96854337.611 6     -1213.104          38.000  
G22  22475465.789 6 118109367.002 6     -2223.035          37.000                                                                  
G01  22757735.969 7 119592698.302 7     -3235.852          43.000    22757738.180 7  93189118.721 7     -2521.444          43.000  
R08  19930183.547 5 106724878.065 5     -1690.371          35.000                                                                  
R23  19656904.062 8 105150817.839 8     -2067.477          51.000    19656909.203 6  81783976.293 6     -1608.038          40.000  
R07  23269217.633 5 124561559.349 5     -3447.293          32.000                                                                  
E08  23159693.094 8 121705003.656 8      1999.992          51.000    23159693.688 8  93254627.204 8      1532.519          51.000  
E03  23366984.383 8 122794334.179 8      -377.539          51.000    23366986.711 8  94089209.084 8      -289.259          51.000  
E15  23290019.758 8 122389889.732 8      -899.555          51.000    23290022.414 8  93779269.542 8      -689.320          51.000  
C19  21827296.695 8 113660436.994 8     -1009.750          51.000  
> 2020 05 17 21 38 30.0000000  0 16      -0.000000000000
G17  22301106.570 5 117193132.763 5     -1288.410          34.000                                                                  
G04  20382561.898 8 107111212.433 8       880.820          50.000    20382562.898 8  83463247.155 8       686.354          49.000  
G09  22069440.867 7 115975744.849 7      2863.891          47.000    22069441.773 8  90370733.959 8      2231.604          48.000  
G03  20778502.570 8 109191795.924 8     -1275.855          51.000    20778504.500 8  85084520.013 8      -994.173          51.000  
G31  23661787.891 6 124343501.994 6     -1579.516          37.000    23661786.477 6  96891046.485 6     -1230.792          37.000  
G22  22488196.867 6 118176268.074 6     -2232.664          39.000                                                                  
G01  22776256.562 7 119690028.264 7     -3248.285          42.000    22776259.945 7  93264960.218 7     -2531.132          42.000  
R08  19939712.773 5 106775885.367 5     -1705.820          33.000    19939713.039 4  83047902.05624     -1326.749          25.000  
R23  19668594.211 8 105213349.921 8     -2096.688          51.000    19668598.641 6  81832612.359 6     -1630.757          41.000  
R09  22857682.812 5 122058369.398 5      1282.770          34.000    22857682.578 6  94934284.143 6       997.710          37.000  
R07  23288562.984 5 124665117.247 5     -3451.211          30.000                                                                  
E08  23148320.852 8 121645242.695 8      1988.680          51.000    23148320.742 8  93208836.369 8      1523.785          51.000  
E03  23369191.062 8 122805929.650 8      -390.879          51.000    23369193.195 8  94098093.907 8      -299.532          51.000  
E15  23295219.641 8 122417211.698 8      -917.340          51.000    23295221.664 8  93800204.553 8      -702.840          51.000  
C19  21833160.320 8 113690970.133 8     -1021.293          51.000  
C22  22923356.258 5 119367906.948 5      1594.195          35.000  
> 2020 05 17 21 39  0.0000000  0 17      -0.000000000000
G17  22308469.062 6 117231810.357 6     -1294.855          36.000    22308458.117 6  91349406.616 6     -1008.979          36.000  
G04  20377532.773 8 107084783.810 8       874.516          50.000    20377533.945 8  83442653.443 8       681.444          50.000  
G09  22053070.477 7 115889724.229 7      2864.484          43.000    22053073.062 7  90303704.905 7      2232.063          43.000  
G03  20785762.180 8 109229945.333 8     -1274.059          51.000    20785763.883 8  85114246.824 8      -992.773          51.000  
G31  23670805.375 5 124390886.793 5     -1586.465          34.000    23670803.664 5  96927969.725 5     -1236.207          32.000  
G22  22500909.188 6 118243070.223 6     -2227.156          40.000    22500909.000 4  92137460.250 4     -1735.447          29.000  
G01  22794774.883 7 119787344.885 7     -3245.926          43.000    22794779.789 7  93340791.401 7     -2529.291          43.000  
R08  19949246.797 5 106826938.599 5     -1704.691          33.000    19949249.094 5  83087609.735 5     -1325.865          30.000  
R23  19680372.172 8 105276351.361 8     -2110.094          51.000    19680376.352 6  81881613.457 6     -1641.184          41.000  
R01  19844908.766 5 106082032.87625      1176.789          31.000                                                                  
R09  22850489.141 5 122019956.040 5      1272.125          34.000    22850489.883 6  94904407.132 6       989.431          36.000  
E08  23136937.656 8 121585421.324 8      1992.738          51.000    23136936.500 8  93162999.250 8      1526.871          51.000  
E03  23371397.109 8 122817523.205 8      -388.699          51.000    23371399.508 8  94106977.278 8      -297.868          51.000  
E15  23300444.008 8 122444663.338 8      -919.551          51.000    23300445.797 8  93821238.921 8      -704.597          51.000  
C19  21839014.711 8 113721454.240 8     -1017.570          51.000  
C22  22914144.945 5 119319932.966 5      1598.102          31.000  
C20  25600083.281 5 133306312.139 5     -2640.016          34.000  
> 2020 05 17 21 39 30.0000000  0 17      -0.000000000000
G17  22315965.586 6 117271192.127 6     -1324.242          36.000    22315957.195 5  91380081.697 5     -1031.883          35.000  
G04  20372639.203 8 107059068.194 8       845.965          49.000    20372640.203 8  83422615.305 8       659.194          49.000  
G09  22036799.938 7 115804226.424 7      2841.715          46.000    22036803.742 7  90237083.212 7      2214.324          45.000  
G03  20793112.188 8 109268569.770 8     -1294.789          51.000    20793113.727 8  85144343.757 8     -1008.930          51.000  
G22  22513691.859 6 118310241.913 6     -2244.195          36.000                                                                  
G01  22813380.086 7 119885115.480 7     -3265.922          46.000    22813385.695 7  93416976.294 7     -2544.875          46.000  
R08  19958877.094 6 106878514.086 6     -1727.148          36.000    19958877.617 5  83127723.990 5     -1343.341          30.000  
R23  19692326.156 8 105340297.141 8     -2146.598          51.000    19692330.586 6  81931349.059 6     -1669.576          41.000  
R01  19838386.484 5 106047192.020 5      1151.734          30.000                                                                  
R09  22843459.891 6 121982422.529 6      1236.703          36.000    22843460.195 5  94875214.393 5       961.877          35.000  
R07  23327185.391 4 124871864.093 4     -3451.047          29.000                                                                  
E08  23125632.109 8 121526008.788 8      1974.152          51.000    23125630.617 8  93117475.389 8      1512.690          51.000  
E03  23373691.805 8 122829583.024 8      -409.160          51.000    23373694.656 8  94116217.931 8      -313.486          51.000  
E15  23305782.109 8 122472713.430 8      -944.422          51.000    23305784.023 8  93842731.836 8      -723.633          51.000  
C19  21844948.703 8 113752353.261 8     -1036.309          51.000  
C22  22905008.703 5 119272394.311 5      1579.324          31.000  
C20  25615346.188 5 133385791.292 5     -2652.602          34.000  
> 2020 05 17 21 40  0.0000000  0 15      -0.000000000000
G04  20367836.258 8 107033828.833 8       834.191          50.000    20367836.727 8  83402948.278 8       650.023          49.000  
G09  22020585.141 8 115719015.972 8      2836.219          49.000    22020588.633 8  90170685.494 8      2210.041          49.000  
G03  20800507.445 8 109307432.042 8     -1298.566          51.000    20800508.797 8  85174626.024 8     -1011.873          51.000  
G22  22526499.719 6 118377545.760 6     -2244.574          36.000                                                                  
G01  22832026.883 7 119983101.523 7     -3269.074          47.000    22832032.086 7  93493329.085 7     -2547.328          47.000  
R08  19968559.188 5 106930368.039 5     -1732.438          33.000    19968560.211 5  83168054.799 5     -1347.449          30.000  
R23  19704410.281 8 105404943.771 8     -2165.688          51.000    19704415.562 6  81981629.738 6     -1684.427          41.000  
R01  19831936.945 5 106012729.703 5      1143.699          32.000    19831941.539 4  82454328.405 4       889.544          26.000  
R09  22836550.133 6 121945530.703 6      1219.918          36.000    22836552.562 5  94846520.783 5       948.831          30.000  
E08  23114358.930 8 121466768.522 8      1972.688          51.000    23114357.812 8  93072083.510 8      1511.496          51.000  
E03  23376030.352 8 122841871.478 8      -412.664          51.000    23376032.969 8  94125633.761 8      -316.158          51.000  
E15  23311188.695 8 122501124.982 8      -952.250          51.000    23311191.039 8  93864501.717 8      -729.647          51.000  
C19  21850917.023 8 113783431.856 8     -1038.215          51.000  
C22  22895914.016 5 119225012.080 5      1577.191          34.000  
C20  25630606.562 5 133465256.146 5     -2648.051          32.000  
> 2020 05 17 21 40 30.0000000  0 13      -0.000000000000
G04  20363133.867 8 107009116.390 8       815.070          51.000    20363133.953 8  83383691.861 8       635.123          48.000  
G09  22004435.234 8 115634145.004 8      2823.391          50.000    22004437.469 8  90104552.332 8      2200.048          50.000  
G03  20807957.547 8 109346582.339 8     -1309.762          51.000    20807958.539 8  85205132.716 8     -1020.597          51.000  
G22  22539344.531 5 118445058.60425     -2253.441          35.000                                                                  
G01  22850725.812 8 120081384.013 8     -3279.301          49.000    22850729.195 8  93569902.945 8     -2555.300          48.000  
R08  19978302.148 5 106982550.510 5     -1744.594          35.000    19978304.984 4  83208641.221 4     -1356.906          28.000  
R23  19716635.086 8 105470340.173 8     -2192.266          51.000    19716640.680 6  82032493.570 6     -1705.096          41.000  
R09  22829771.227 5 121909334.551 5      1194.605          33.000    22829774.688 5  94818368.196 5       929.135          32.000  
E08  23103128.242 8 121407751.402 8      1963.512          51.000    23103127.594 8  93026862.606 8      1504.474          51.000  
E03  23378421.797 8 122854438.339 8      -423.582          51.000    23378424.078 8  94135262.922 8      -324.545          51.000  
E15  23316673.320 8 122529948.464 8      -967.629          51.000    23316676.266 8  93886587.228 8      -741.454          51.000  
C19  21856929.258 8 113814739.473 8     -1047.379          51.000  
C22  22886861.570 5 119177893.06825      1568.027          30.000  
> 2020 05 17 21 41  0.0000000  0 11      -0.000000000000
G04  20358533.195 8 106984939.116 8       797.668          50.000    20358532.922 8  83364852.461 8       621.560          49.000  
G09  21988351.641 8 115549623.242 8      2812.258          49.000    21988351.914 8  90038691.293 8      2191.374          49.000  
G03  20815463.984 8 109386028.380 8     -1319.105          51.000    20815464.922 8  85235869.863 8     -1027.875          51.000  
G01  22869474.062 7 120179905.470 7     -3287.934          47.000    22869476.977 7  93646672.929 7     -2562.027          47.000  
R08  19988109.719 5 107035068.121 5     -1755.152          35.000                                                                  
R23  19729002.148 8 105536492.743 8     -2217.008          51.000    19729007.086 6  82083945.538 6     -1724.340          41.000  
R09  22823124.648 5 121873844.489 5      1171.984          31.000    22823129.141 5  94790764.758 5       911.544          33.000  
E08  23091941.914 8 121348965.801 8      1956.316          51.000    23091941.602 8  92981819.118 8      1498.994          51.000  
E03  23380867.461 8 122867290.986 8      -432.465          51.000    23380869.852 8  94145111.063 8      -331.390          51.000  
E15  23322237.859 8 122559191.841 8      -981.102          51.000    23322241.266 8  93908994.485 8      -751.760          51.000  
C19  21862986.836 8 113846283.518 8     -1054.723          51.000  
> 2020 05 17 21 41 30.0000000  0 11      -0.000000000000
G04  20354007.391 8 106961156.386 8       784.109          49.000    20354006.992 8  83346320.483 8       610.995          49.000  
G09  21972307.492 8 115465311.564 8      2804.715          49.000    21972307.500 8  89972993.883 8      2185.493          49.000  
G03  20822999.852 8 109425629.173 8     -1324.637          51.000    20823000.938 8  85266727.598 8     -1032.185          51.000  
G01  22888246.078 8 120278555.551 8     -3292.539          48.000    22888249.961 8  93723543.102 8     -2565.616          48.000  
R23  19741483.430 8 105603255.088 8     -2237.641          51.000    19741487.320 7  82135871.819 7     -1740.384          42.000  
E08  23080772.828 8 121290271.405 8      1952.840          51.000    23080772.922 8  92936845.515 8      1496.351          51.000  
E05  26284586.969 5 138126437.942 5     -2408.723          35.000                                                                  
E03  23383340.734 8 122880288.030 8      -437.629          51.000    23383343.250 8  94155069.840 8      -335.377          51.000  
E15  23327855.516 8 122588714.304 8      -990.832          51.000    23327859.266 8  93931615.599 8      -759.209          51.000  
C19  21869062.961 8 113877924.050 8     -1058.344          51.000  
C20  25676405.508 5 133703730.272 5     -2648.766          32.000  
> 2020 05 17 21 42  0.0000000  0 14      -0.000000000000
G17  22354818.758 5 117475365.422 5     -1405.832          35.000    22354818.523 5  91539225.447 5     -1095.454          34.000  
G04  20349595.102 8 106937970.399 8       761.664          49.000    20349594.914 8  83328253.491 8       593.505          49.000  
G09  21956342.047 8 115381413.409 8      2788.566          50.000    21956343.367 8  89907618.715 8      2172.910          50.000  
G03  20830603.477 8 109465586.397 8     -1339.141          51.000    20830604.680 8  85297863.083 8     -1043.487          51.000  
G31  23727254.445 5 124687561.88125     -1706.242          30.000                                                                  
G01  22907081.312 8 120377534.647 8     -3305.980          48.000    22907084.375 8  93800669.662 8     -2576.089          48.000  
R23  19754116.609 8 105670830.934 8     -2267.422          51.000    19754120.242 7  82188430.806 7     -1763.551          43.000  
R01  19806918.773 5 105879062.74125      1084.129          30.000                                                                  
E08  23069659.031 8 121231870.638 8      1940.578          50.000    23069659.914 8  92892096.889 8      1486.937          51.000  
E05  26298360.133 5 138198819.892 5     -2416.234          35.000                                                                  
E03  23385879.758 8 122893630.794 8      -451.805          51.000    23385882.359 8  94165293.520 8      -346.179          51.000  
E15  23333564.477 8 122618717.811 8     -1009.332          51.000    23333568.602 8  93954605.286 8      -773.403          51.000  
C19  21875196.148 8 113909860.607 8     -1070.762          51.000  
C20  25691677.359 5 133783280.026 5     -2653.824          30.000  
> 2020 05 17 21 42 30.0000000  0 13      -0.000000000000
G17  22362880.914 6 117517738.731 6     -1419.387          37.000    22362879.453 5  91572243.560 5     -1106.016          35.000  
G04  20345288.062 8 106915337.252 8       747.316          50.000    20345288.094 8  83310617.288 8       582.325          50.000  
G09  21940447.398 8 115297886.470 8      2780.176          49.000    21940449.539 8  89842532.777 8      2166.371          50.000  
G03  20838266.469 8 109505855.849 8     -1345.465          51.000    20838267.930 8  85329241.855 8     -1048.414          51.000  
G01  22925970.414 8 120476797.287 8     -3311.312          49.000    22925971.867 8  93878017.158 8     -2580.244          49.000  
R23  19766892.523 8 105739172.840 8     -2288.578          51.000    19766896.492 7  82241585.638 7     -1780.003          44.000  
R01  19800870.672 5 105846712.033 5      1073.242          32.000                                                                  
E08  23058592.609 8 121173719.880 8      1936.230          50.000    23058594.250 8  92847539.815 8      1483.591          51.000  
E05  26312153.688 5 138271299.872 5     -2415.871          32.000                                                                  
E03  23388476.023 8 122907274.572 8      -457.766          51.000    23388478.773 8  94175747.859 8      -350.783          51.000  
E15  23339356.734 8 122649158.263 8     -1019.914          51.000    23339360.867 8  93977929.774 8      -781.490          51.000  
C19  21881377.789 8 113942049.104 8     -1075.066          51.000  
C20  25706963.914 5 133862909.076 5     -2652.660          32.000  
> 2020 05 17 21 43  0.0000000  0 14      -0.000000000000
G17  22371030.531 6 117560560.581 6     -1435.703          40.000    22371027.055 6  91605611.239 6     -1118.730          40.000  
G04  20341070.422 8 106893173.878 8       730.336          51.000    20341070.641 8  83293347.125 8       569.093          50.000  
G09  21924607.852 8 115214649.071 8      2769.250          49.000    21924609.891 8  89777672.474 8      2157.858          49.000  
G03  20845972.930 8 109546354.018 8     -1354.254          51.000    20845974.516 8  85360798.858 8     -1055.263          51.000  
G01  22944897.320 8 120576258.660 8     -3319.164          48.000    22944896.297 8  93955519.503 8     -2586.365          48.000  
R23  19779794.359 8 105808193.682 8     -2312.637          49.000    19779799.453 7  82295268.573 7     -1798.715          43.000  
R01  19794889.781 5 105814686.22425      1059.148          30.000                                                                  
R09  22797791.508 5 121738539.338 5      1080.676          32.000    22797795.250 4  94685533.362 4       840.532          25.000  
E08  23047558.781 8 121115736.273 8      1929.445          51.000    23047560.359 8  92803110.831 8      1478.377          51.000  
E03  23391113.758 8 122921135.539 8      -466.219          51.000    23391116.570 8  94186368.606 8      -357.227          51.000  
E15  23345216.664 8 122679952.353 8     -1032.930          51.000    23345220.273 8  94001525.256 8      -791.502          51.000  
C19  21887591.805 8 113974406.595 8     -1081.957          51.000  
C22  22842188.500 5 118945292.662 5      1533.105          30.000  
C20  25722250.156 5 133942494.571 5     -2653.250          32.000  
> 2020 05 17 21 43 30.0000000  0 13      -0.000000000000
G17  22379279.250 6 117603903.177 6     -1451.129          41.000    22379274.258 6  91639384.658 6     -1130.753          39.000  
G04  20336956.438 8 106871554.446 8       714.004          51.000    20336956.898 8  83276500.836 8       556.367          51.000  
G09  21908837.828 8 115131776.900 8      2758.594          50.000    21908839.523 8  89713096.790 8      2149.554          50.000  
G03  20853737.094 8 109587154.784 8     -1362.668          51.000    20853738.664 8  85392591.650 8     -1061.819          51.000  
G01  22963875.617 7 120675991.351 7     -3326.523          47.000    22963873.953 7  94033233.260 7     -2592.097          46.000  
R23  19792836.328 8 105877966.575 8     -2335.859          48.000    19792842.844 7  82349536.411 7     -1816.780          43.000  
R09  22791794.945 5 121706494.486 5      1058.223          35.000    22791800.562 4  94660643.904 4       823.056          26.000  
E08  23036571.523 8 121057994.339 8      1923.004          51.000    23036572.336 8  92758867.047 8      1473.450          51.000  
E03  23393806.766 8 122935287.119 8      -474.176          51.000    23393809.664 8  94197212.032 8      -363.393          51.000  
E15  23351157.977 8 122711174.140 8     -1045.551          51.000    23351160.961 8  94025448.447 8      -801.098          51.000  
C19  21893852.109 8 114007005.952 8     -1088.305          51.000  
C22  22833377.281 5 118899445.351 5      1527.320          30.000  
C20  25737545.109 5 134022129.650 5     -2653.422          33.000  
> 2020 05 17 21 44  0.0000000  0 13      -0.000000000000
G17  22387614.680 7 117647703.517 7     -1468.309          42.000    22387608.477 6  91673514.774 6     -1144.140          39.000  
G04  20332934.383 8 106850417.626 8       695.742          51.000    20332934.891 8  83260030.617 8       542.137          51.000  
G09  21893125.914 8 115049210.024 8      2746.375          50.000    21893127.883 8  89648759.049 8      2140.036          50.000  
G03  20861547.117 8 109628196.403 8     -1372.723          50.000    20861548.664 8  85424572.115 8     -1069.654          51.000  
G01  22982893.180 7 120775932.388 7     -3335.574          45.000    22982892.828 7  94111109.394 7     -2599.149          45.000  
R23  19806007.258 8 105948426.632 8     -2360.848          48.000    19806014.172 6  82404338.663 6     -1836.215          41.000  
R09  22785919.641 5 121675116.009 5      1033.910          31.000    22785924.203 4  94636238.397 4       804.153          28.000  
E08  23025618.672 8 121000433.008 8      1914.863          51.000    23025618.438 8  92714761.652 8      1467.282          51.000  
E03  23396543.312 8 122949667.202 8      -484.020          51.000    23396546.344 8  94208230.540 8      -370.875          51.000  
E15  23357168.867 8 122742762.066 8     -1059.871          51.000    23357171.594 8  94049652.167 8      -812.071          51.000  
C19  21900147.055 8 114039785.758 8     -1096.395          51.000  
C22  22824604.695 4 118853713.598 4      1518.711          29.000  
C20  25752837.234 5 134101753.175 5     -2654.301          33.000  
> 2020 05 17 21 44 30.0000000  0 14      -0.000000000000
G17  22396048.961 6 117692026.024 6     -1484.328          40.000    22396039.969 6  91708051.732 6     -1156.617          38.000  
G04  20329016.648 8 106829830.068 8       678.773          51.000    20329017.305 8  83243988.375 8       528.915          51.000  
G09  21877485.148 8 114967016.676 8      2735.418          49.000    21877487.242 8  89584712.324 8      2131.498          50.000  
G03  20869415.594 8 109669545.203 8     -1381.582          50.000    20869416.938 8  85456791.941 8     -1076.558          50.000  
G01  23001962.664 7 120876146.751 7     -3343.316          45.000    23001963.992 7  94189198.526 7     -2605.182          44.000  
R08  20058324.500 5 107411078.142 5     -1826.145          34.000    20058327.297 5  83541913.808 5     -1420.332          34.000  
R23  19819319.875 8 106019638.676 8     -2384.484          51.000    19819325.812 6  82459725.757 6     -1854.599          39.000  
E08  23014712.367 8 120943119.248 8      1908.055          51.000    23014711.539 8  92670845.930 8      1462.026          51.000  
E05  26367425.766 5 138561743.758 5     -2423.926          34.000                                                                  
E03  23399335.938 8 122964341.643 8      -492.309          51.000    23399339.109 8  94219474.605 8      -377.179          51.000  
E15  23363262.453 8 122774782.539 8     -1072.832          51.000    23363264.898 8  94074187.335 8      -822.032          51.000  
C19  21906489.359 8 114072811.493 8     -1103.230          51.000  
C22  22815888.508 5 118808303.323 5      1511.234          33.000  
C20  25768138.820 5 134181430.715 5     -2654.633          30.000  
> 2020 05 17 21 45  0.0000000  0 15      -0.000000000000
G17  22404570.688 6 117736808.705 6     -1501.617          40.000    22404560.094 6  91742947.358 6     -1170.089          39.000  
G04  20325192.070 8 106809731.330 8       660.594          51.000    20325192.953 8  83228327.049 8       514.749          51.000  
G09  21861904.016 8 114885137.974 8      2722.941          49.000    21861906.219 8  89520910.738 8      2121.773          49.000  
G03  20877331.000 8 109711140.507 8     -1391.773          49.000    20877331.891 8  85489203.832 8     -1084.499          49.000  
G01  23021072.641 7 120976572.444 7     -3352.191          45.000    23021075.609 7  94267452.309 7     -2612.098          45.000  
R08  20068576.219 4 107466000.473 4     -1836.129          28.000    20068584.727 5  83584631.201 5     -1428.101          35.000  
R23  19832762.039 8 106091538.819 8     -2409.188          51.000    19832766.117 6  82515648.079 6     -1873.813          38.000  
R01  19771743.945 5 105690994.817 5      1002.984          32.000    19771746.273 4  82204108.109 4       780.102          26.000  
E08  23003840.984 8 120885992.971 8      1899.926          51.000    23003840.492 8  92627073.866 8      1455.803          51.000  
E05  26381270.516 5 138634517.282 5     -2427.188          34.000                                                                  
E03  23402172.836 8 122979249.367 8      -501.883          51.000    23402176.133 8  94230897.421 8      -384.563          51.000  
E15  23369426.984 8 122807174.996 8     -1087.039          51.000    23369429.055 8  94099007.531 8      -832.950          51.000  
C19  21912867.266 8 114106022.724 8     -1111.273          51.000  
C22  22807206.586 5 118763085.111 5      1502.578          34.000  
C20  25783438.219 4 134261102.173 4     -2657.508          28.000  
> 2020 05 17 21 45 30.0000000  0 13      -0.000000000000
G17  22413195.836 7 117782131.697 7     -1516.984          42.000    22413185.680 6  91778263.977 6     -1182.066          41.000  
G04  20321476.055 8 106790203.095 8       644.191          51.000    20321476.891 8  83213110.255 8       501.967          51.000  
G09  21846398.547 8 114803657.004 8      2711.938          49.000    21846400.055 8  89457419.077 8      2113.199          49.000  
G03  20885308.688 8 109753063.610 8     -1400.230          48.000    20885309.391 8  85521871.163 8     -1091.092          48.000  
G01  23040238.430 7 121077289.479 7     -3359.273          45.000    23040242.070 7  94345933.110 7     -2617.616          45.000  
R08  20078911.422 5 107521313.84125     -1845.570          31.000    20078909.797 5  83627676.43025     -1435.444          33.000  
R23  19846347.805 8 106164207.578 8     -2432.312          51.000    19846350.961 6  82572168.218 6     -1891.799          38.000  
E08  22993021.062 8 120829136.158 8      1893.320          51.000    22993020.789 8  92583508.270 8      1450.748          51.000  
E05                                                                  26395140.336 5 106282280.999 5     -1860.605          34.000  
E03  23405069.578 8 122994471.324 8      -510.008          51.000    23405072.773 8  94242561.004 8      -390.776          51.000  
E15  23375677.547 8 122840020.944 8     -1099.789          51.000    23375679.398 8  94124175.203 8      -842.702          51.000  
C19  21919296.078 8 114139499.835 8     -1117.742          51.000  
C22  22798572.977 5 118718140.129 5      1495.586          31.000  
> 2020 05 17 21 46  0.0000000  0 14      -0.000000000000
G17  22421905.164 7 117827897.760 7     -1533.504          43.000    22421895.578 7  91813925.826 7     -1194.938          42.000  
G04  20317850.383 8 106771150.071 8       626.469          51.000    20317850.992 8  83198263.753 8       488.158          51.000  
G09  21830951.141 8 114722479.949 8      2700.176          50.000    21830951.562 8  89394164.241 8      2104.037          51.000  
G03  20893330.508 8 109795218.978 8     -1409.730          48.000    20893331.281 8  85554719.482 8     -1098.495          48.000  
G01  23059441.258 7 121178200.924 7     -3367.703          46.000    23059445.352 7  94424565.381 7     -2624.185          45.000  
R08  20089267.945 5 107576807.829 5     -1856.250          34.000    20089267.266 5  83670838.258 5     -1443.756          31.000  
R23  19860057.961 8 106237544.955 8     -2456.398          51.000    19860060.953 6  82629208.394 6     -1910.532          38.000  
R01  19760641.664 5 105631646.498 5       976.098          33.000                                                                  
E08  22982234.859 8 120772453.814 8      1885.898          51.000    22982234.461 8  92540076.373 8      1445.040          51.000  
E05                                                                  26409010.641 5 106338138.785 5     -1862.030          34.000  
E03  23408007.867 8 123009911.488 8      -519.023          51.000    23408010.797 8  94254391.789 8      -397.631          51.000  
E15  23381995.844 8 122873224.903 8     -1113.414          51.000    23381997.922 8  94149617.176 8      -853.136          51.000  
C19  21925757.711 8 114173147.855 8     -1125.137          51.000  
C22  22789975.695 5 118673373.728 5      1489.039          30.000  
> 2020 05 17 21 46 30.0000000  0 15      -0.000000000000
G17  22430699.812 7 117874112.099 7     -1549.410          42.000    22430691.211 6  91849936.980 6     -1207.333          41.000  
G04  20314316.562 8 106752579.299 8       609.770          51.000    20314317.227 8  83183793.033 8       475.145          51.000  
G09  21815563.250 8 114641615.427 8      2689.055          50.000    21815562.938 8  89331152.959 8      2095.368          50.000  
G03  20901397.852 7 109837613.418 7     -1418.371          47.000    20901398.812 7  85587754.106 7     -1105.225          47.000  
G01  23078682.242 7 121279312.279 7     -3375.031          46.000    23078685.734 7  94503353.453 7     -2629.895          46.000  
R08  20099692.344 5 107632601.046 5     -1865.324          30.000    20099687.227 5  83714232.936 5     -1450.808          31.000  
R23  19873893.453 8 106311555.634 8     -2479.473          51.000    19873896.938 6  82686772.254 6     -1928.479          39.000  
R01  19755193.922 4 105602547.124 4       963.008          29.000                                                                  
E08  22971483.453 8 120715953.410 8      1879.168          51.000    22971482.648 8  92496783.883 8      1439.844          51.000  
E05                                                                  26422887.648 5 106394019.062 5     -1864.047          32.000  
E03  23410988.750 8 123025576.259 8      -527.094          51.000    23410991.547 8  94266394.687 8      -403.829          51.000  
E15  23388383.555 8 122906793.752 8     -1126.223          51.000    23388386.117 8  94175338.767 8      -862.956          51.000  
C19  21932253.539 8 114206973.301 8     -1131.668          51.000  
C22  22781414.445 5 118628793.345 5      1481.816          35.000  
C20  25829368.711 5 134500294.261 5     -2658.293          35.000  
> 2020 05 17 21 47  0.0000000  0 16      -0.000000000000
G17  22439586.617 6 117920813.741 6     -1567.613          40.000    22439579.547 6  91886327.859 6     -1221.517          39.000  
G04  20310882.336 8 106734531.788 8       589.898          51.000    20310882.742 8  83169730.052 8       459.661          51.000  
G09  21800243.102 8 114561105.939 8      2674.812          50.000    21800242.859 8  89268418.323 8      2084.270          50.000  
G03  20909518.562 7 109880287.698 7     -1430.012          46.000    20909519.820 7  85621006.788 7     -1114.292          46.000  
G31  23829467.391 5 125224670.65025     -1880.789          30.000    23829464.672 5  97577662.45225     -1465.550          31.000  
G01  23097969.062 7 121380644.03227     -3385.379          47.000                                                                  
R23  19887861.609 8 106386278.991 8     -2505.691          51.000    19887865.922 6  82744890.404 6     -1948.871          39.000  
R01  19749828.719 4 105573765.621 4       945.449          28.000                                                                  
R09  22753460.820 5 121501809.228 5       889.664          32.000    22753456.742 4  94501396.451 4       691.964          26.000  
E08  22960774.383 8 120659676.311 8      1869.195          51.000    22960773.148 8  92453662.491 8      1432.197          51.000  
E05                                                                  26436779.297 5 106449950.491 5     -1867.522          32.000  
E03  23414020.078 8 123041505.962 8      -538.352          51.000    23414022.984 8  94278600.583 8      -412.485          51.000  
E15  23394848.367 8 122940768.339 8     -1142.254          51.000    23394851.578 8  94201371.255 8      -875.216          51.000  
C19  21938791.117 8 114241016.303 8     -1141.324          51.000  
C22  22772899.852 5 118584439.936 5      1471.988          34.000  
C20  25844682.703 6 134580033.096 6     -2661.387          36.000  
> 2020 05 17 21 47 30.0000000  0 14      -0.000000000000
G17  22448567.734 6 117968015.288 6     -1581.406          37.000    22448562.570 6  91923108.324 6     -1232.265          37.000  
G04  20307550.281 8 106717021.535 8       575.023          51.000    20307550.219 8  83156085.713 8       448.070          50.000  
G09  21784993.375 8 114480967.043 8      2665.465          48.000    21784993.625 8  89205972.450 8      2076.986          48.000  
G03  20917695.164 7 109923255.547 7     -1436.672          47.000    20917696.719 7  85654488.235 7     -1119.482          47.000  
G31  23840239.531 5 125281258.730 5     -1894.730          32.000    23840235.484 5  97621771.156 5     -1476.411          33.000  
G19  22205361.695 5 116689982.328 5      -620.371          33.000                                                                  
G01  23117303.820 8 121482246.597 8     -3390.660          48.000    23117308.148 8  94661494.838 8     -2642.071          48.000  
R23  19901965.188 8 106461726.124 8     -2526.531          51.000    19901969.672 6  82803571.442 6     -1965.083          38.000  
E08  22950110.398 8 120603636.911 8      1864.387          51.000    22950108.852 8  92410723.216 8      1428.533          51.000  
E05                                                                  26450687.789 5 106505957.252 5     -1867.471          34.000  
E03  23417104.367 8 123057713.957 8      -544.602          51.000    23417107.453 8  94291019.715 8      -417.274          51.000  
E15  23401392.703 8 122975162.528 8     -1153.145          51.000    23401396.742 8  94227725.236 8      -883.549          51.000  
C19  21945373.016 8 114275290.265 8     -1145.980          51.000  
C20  25860001.969 6 134659812.404 6     -2659.773          36.000  
> 2020 05 17 21 48  0.0000000  0 15      -0.000000000000
G17  22457644.906 5 118015724.757 5     -1599.836          34.000    22457641.875 5  91960284.533 5     -1246.623          32.000  
G04  20304322.320 8 106700058.201 8       554.965          51.000    20304321.938 8  83142867.542 8       432.440          51.000  
G09  21769815.227 7 114401209.909 7      2650.953          44.000    21769816.633 7  89143824.053 7      2065.678          44.000  
G03  20925929.352 7 109966526.473 7     -1448.738          45.000    20925930.891 7  85688205.856 7     -1128.887          45.000  
G22  22735797.375 5 119477465.74825     -2338.410          32.000                                                                  
G01  23136687.438 7 121584109.055 7     -3401.141          46.000    23136692.594 7  94740868.198 7     -2650.240          47.000  
R08  20131286.867 5 107801818.155 5     -1898.242          34.000                                                                  
R23  19916206.438 8 106537904.479 8     -2552.844          51.000    19916209.828 6  82862821.201 6     -1985.546          38.000  
R01  19739352.125 5 105517747.745 5       918.020          35.000    19739352.648 3  82069375.060 3       714.012          23.000  
E08  22939493.766 8 120547845.202 8      1854.227          51.000    22939492.008 8  92367973.741 8      1420.769          51.000  
E05                                                                  26464611.547 5 106562016.126 5     -1870.348          32.000  
E03  23420243.242 8 123074209.221 8      -556.043          51.000    23420246.219 8  94303658.955 8      -426.023          51.000  
E15  23408019.141 8 123009985.777 8     -1169.270          51.000    23408023.477 8  94254407.980 8      -895.958          51.000  
C19  21952001.039 8 114309804.285 8     -1155.910          51.000  
C20  25875330.383 5 134739641.367 5     -2663.137          35.000  
> 2020 05 17 21 48 30.0000000  0 15      -0.000000000000
G04  20301193.820 8 106683618.515 8       541.371          51.000    20301193.688 8  83130057.412 8       421.848          51.000  
G09  21754705.141 7 114321812.903 7      2642.617          42.000    21754708.172 6  89081956.219 6      2059.183          41.000  
G03  20934216.547 7 110010077.023 7     -1454.168          44.000    20934218.180 7  85722141.329 7     -1133.118          44.000  
G31  23862073.047 4 125396039.72024     -1928.840          27.000                                                                  
G01  23156115.375 7 121686206.619 7     -3405.039          45.000    23156121.391 7  94820424.751 7     -2653.278          45.000  
R08  20141941.625 5 107858845.114 5     -1903.820          33.000    20141941.047 4  83890174.975 4     -1480.740          24.000  
R23  19930579.570 8 106614787.312 8     -2572.391          51.000    19930582.258 6  82922618.969 6     -2000.749          40.000  
R01  19734231.445 5 105490368.028 5       907.773          34.000                                                                  
R24  19876924.492 6 106290465.315 6       847.125          37.000    19876922.586 4  82670354.946 4       658.878          28.000  
E08  22928920.047 8 120492278.360 8      1850.633          51.000    22928918.203 8  92325396.574 8      1418.072          51.000  
E03  23423432.281 8 123090967.891 8      -560.789          51.000    23423434.938 8  94316500.026 8      -429.684          51.000  
E15  23414723.188 8 123045214.668 8     -1178.898          51.000    23414727.453 8  94281401.557 8      -903.294          51.000  
C19  21958670.586 8 114344534.898 8     -1159.230          51.000  
C22  22747622.867 4 118452841.934 4      1452.465          29.000  
C20  25890665.172 5 134819496.928 5     -2660.828          35.000  
> 2020 05 17 21 49  0.0000000  0 15      -0.000000000000
G04  20298151.516 8 106667631.879 8       524.738          51.000    20298151.562 8  83117600.282 8       408.884          51.000  
G09  21739651.859 8 114242706.845 8      2631.512          48.000    21739654.883 8  89020315.169 8      2050.529          48.000  
G03  20942543.539 7 110053836.386 7     -1462.453          45.000    20942545.312 7  85756239.558 7     -1139.571          45.000  
G01  23175574.273 7 121788467.241 7     -3412.086          44.000    23175579.703 7  94900108.371 7     -2658.769          43.000  
R08  20152629.141 5 107916094.750 5     -1912.949          35.000    20152634.672 4  83934702.494 4     -1487.850          29.000  
R23  19945069.828 8 106692300.379 8     -2594.871          51.000    19945072.914 6  82982906.948 6     -2018.234          41.000  
R01  19729173.500 5 105463336.326 5       894.965          31.000                                                                  
R09  22734495.586 5 121400555.681 5       796.871          30.000    22734492.391 4  94422637.03224       619.789          25.000  
R24  19872240.984 6 106265445.907 6       821.012          37.000    19872238.672 4  82650895.408 4       638.568          24.000  
E08  22918375.391 8 120436866.253 8      1843.906          51.000    22918374.211 8  92282937.966 8      1412.903          51.000  
E03  23426657.891 8 123107918.811 8      -568.797          51.000    23426660.508 8  94329488.407 8      -435.805          51.000  
E15  23421491.000 8 123080778.562 8     -1191.570          51.000    23421495.125 8  94308651.806 8      -913.028          51.000  
C19  21965368.133 8 114379411.753 8     -1165.566          51.000  
C22  22739274.797 5 118409363.896 5      1445.914          30.000  
C20  25905992.672 6 134899308.850 6     -2660.414          36.000  
> 2020 05 17 21 49 30.0000000  0 17      -0.000000000000
G17  22485409.141 5 118161593.123 5     -1646.156          33.000    22485408.859 5  92073987.086 5     -1282.720          35.000  
G04  20295216.641 8 106652209.756 8       503.707          51.000    20295216.664 8  83105583.028 8       392.499          51.000  
G09  21724676.148 8 114164004.814 8      2615.828          51.000    21724678.625 8  88958988.965 8      2038.311          51.000  
G03  20950931.430 7 110097915.939 7     -1475.375          43.000    20950933.438 7  85790587.286 7     -1149.643          44.000  
G22  22775957.836 5 119688465.47625     -2354.242          30.000                                                                  
G01  23195085.609 7 121891000.750 7     -3423.191          45.000    23195090.586 7  94980004.616 7     -2667.423          45.000  
R08  20163382.727 6 107973679.856 6     -1925.836          37.000    20163384.969 5  83979490.820 5     -1497.876          30.000  
R23  19959698.391 8 106770554.385 8     -2621.691          51.000    19959702.297 7  83043771.207 7     -2039.091          42.000  
R01  19724198.336 4 105436761.05424       876.977          28.000                                                                  
R09  22730092.969 5 121377060.505 5       769.824          32.000                                                                  
R24  19867722.203 5 106241285.559 5       789.922          34.000    19867723.203 4  82632079.092 4       614.384          28.000  
E08  22907880.984 8 120381720.720 8      1832.988          51.000    22907880.828 8  92240683.604 8      1404.465          51.000  
E03  23429941.094 8 123125172.814 8      -581.074          51.000    23429943.828 8  94342709.023 8      -445.206          51.000  
E15  23428343.773 8 123116788.697 8     -1208.570          51.000    23428347.586 8  94336243.980 8      -926.066          51.000  
C19  21972114.992 8 114414544.891 8     -1176.203          51.000  
C22  22730980.148 5 118366158.185 5      1434.785          32.000  
C20  25921332.500 5 134979187.472 5     -2664.453          32.000  
> 2020 05 17 21 50  0.0000000  0 15      -0.000000000000
G17  22494843.742 5 118211166.682 5     -1659.078          34.000    22494842.133 5  92112615.783 5     -1292.792          35.000  
G04  20292376.695 8 106637286.192 8       490.312          51.000    20292376.984 8  83093954.276 8       382.062          51.000  
G09  21709765.203 8 114085642.461 8      2607.422          51.000    21709766.922 8  88897927.434 8      2031.758          51.000  
G03  20959367.961 7 110142249.561 7     -1481.027          45.000    20959369.859 7  85825132.973 7     -1154.048          45.000  
G01  23214636.484 7 121993739.742 7     -3426.992          46.000    23214640.195 7  95060060.973 7     -2670.387          46.000  
R08  20174187.938 5 108031531.106 5     -1931.801          35.000    20174187.102 5  84024486.199 5     -1502.509          31.000  
R23  19974452.125 8 106849478.947 8     -2640.809          51.000    19974456.820 7  83105157.011 7     -2053.963          42.000  
R09  22725824.078 4 121354273.485 4       749.070          29.000    22725839.953 4  94386708.55524       582.613          25.000  
R24  19863352.148 5 106217919.432 5       766.352          31.000    19863355.773 4  82613905.296 4       596.048          28.000  
E08  22897424.875 8 120326776.257 8      1829.121          51.000    22897425.703 8  92198583.330 8      1401.583          51.000  
E03  23433269.195 8 123142663.378 8      -585.898          51.000    23433271.922 8  94356110.893 8      -448.932          51.000  
E15  23435269.195 8 123153178.989 8     -1218.293          51.000    23435272.406 8  94364127.454 8      -933.528          51.000  
C19  21978898.625 8 114449868.630 8     -1179.566          51.000  
C22  22722723.219 5 118323181.27825      1431.230          30.000  
C20  25936672.812 5 135059067.284 5     -2661.496          31.000  
> 2020 05 17 21 50 30.0000000  0 13      -0.000000000000
G17  22504359.914 6 118261176.132 6     -1675.086          36.000    22504358.211 6  92151584.154 6     -1305.262          36.000  
G04  20289629.156 8 106622847.132 8       472.312          51.000    20289629.305 8  83082703.063 8       368.036          51.000  
G09  21694916.148 8 114007607.335 8      2594.770          51.000    21694917.461 8  88837120.863 8      2021.899          51.000  
G03  20967850.477 7 110186823.149 7     -1490.516          46.000    20967851.867 7  85859865.621 7     -1161.441          47.000  
G01  23234223.766 7 122096668.670 7     -3434.898          46.000    23234225.500 7  95140265.264 7     -2676.545          46.000  
R08  20185037.438 6 108089632.970 6     -1941.746          37.000    20185034.406 5  84069676.531 5     -1510.250          30.000  
R23  19989328.125 8 106929057.575 8     -2664.383          51.000    19989333.430 7  83167051.486 7     -2072.301          42.000  
R09  22721691.766 5 121332138.952 5       723.766          32.000                                                                  
E08  22887004.711 8 120272019.245 8      1821.195          51.000    22887006.125 8  92156626.710 8      1395.435          51.000  
E03  23436639.516 8 123160375.919 8      -594.926          51.000    23436642.172 8  94369682.860 8      -455.891          51.000  
E15  23442264.180 8 123189935.312 8     -1232.188          51.000    23442266.805 8  94392291.387 8      -944.141          51.000  
C19  21985716.023 8 114485368.666 8     -1187.227          51.000  
C20  25952010.977 5 135138934.358 5     -2663.078          32.000  
> 2020 05 17 21 51  0.0000000  0 15      -0.000000000000
G17  22513966.219 6 118311656.703 6     -1690.320          36.000    22513961.469 6  92190919.716 6     -1317.130          36.000  
G04  20286980.805 8 106608929.310 8       455.273          51.000    20286980.906 8  83071858.014 8       354.759          51.000  
G09  21680136.055 8 113929937.726 8      2582.969          50.000    21680137.703 8  88776599.108 8      2012.703          50.000  
G03  20976385.570 7 110231673.268 7     -1499.605          47.000    20976386.562 7  85894813.766 7     -1168.527          47.000  
G22  22816392.469 5 119900956.307 5     -2368.656          34.000                                                                  
G01  23253853.930 7 122199822.858 7     -3442.215          45.000    23253854.297 7  95220645.057 7     -2682.249          45.000  
R08  20195940.852 5 108148021.724 5     -1950.871          35.000    20195937.773 5  84115089.954 5     -1517.348          33.000  
R23  20004333.375 8 107009324.836 8     -2686.980          51.000    20004338.297 6  83229481.536 6     -2089.877          41.000  
R09  22717691.609 5 121310782.027 5       700.762          30.000    22717688.352 4  94352847.80224       545.037          25.000  
R24  19855063.195 5 106173606.759 5       711.941          33.000    19855063.078 5  82579460.882 5       553.738          31.000  
E08  22876627.477 8 120217486.931 8      1813.914          51.000    22876629.227 8  92114842.240 8      1389.952          51.000  
E03  23440059.109 8 123178346.619 8      -603.375          51.000    23440061.750 8  94383452.641 8      -462.336          51.000  
E15  23449335.516 8 123227094.276 8     -1245.363          51.000    23449337.836 8  94420763.824 8      -954.213          51.000  
C19  21992574.258 8 114521081.089 8     -1193.922          51.000  
C20  25967355.648 4 135218824.961 4     -2663.570          29.000  
> 2020 05 17 21 51 30.0000000  0 12      -0.000000000000
G17  22523673.172 6 118362664.133 6     -1717.684          41.000    22523667.695 6  92230665.753 6     -1338.455          41.000  
G04  20284442.492 8 106595590.197 8       426.301          50.000    20284442.750 8  83061463.915 8       332.183          50.000  
G09  21665436.258 8 113852692.702 8      2559.059          48.000    21665438.586 8  88716408.201 8      1994.072          48.000  
G03  20984984.094 7 110276857.338 7     -1520.281          47.000    20984984.984 7  85930022.114 7     -1184.635          47.000  
G01  23273537.172 7 122303258.273 7     -3460.996          45.000    23273538.344 7  95301244.069 7     -2696.884          44.000  
R08  20206909.898 6 108206753.766 6     -1972.348          36.000    20206906.844 5  84160770.398 5     -1534.052          34.000  
R23  20019478.266 8 107090336.289 8     -2721.547          51.000    20019481.891 6  83292490.413 6     -2116.762          41.000  
E08  22866304.086 8 120163237.267 8      1794.941          51.000    22866305.844 8  92073274.345 8      1375.295          51.000  
E03  23443538.750 8 123196632.405 8      -623.504          51.000    23443541.359 8  94397463.861 8      -477.759          51.000  
E15  23456494.133 8 123264713.214 8     -1270.297          51.000    23456496.500 8  94449588.710 8      -973.372          51.000  
C19  21999484.203 8 114557062.550 8     -1212.484          51.000  
C22  22698193.320 5 118195445.96625      1396.426          30.000  
> 2020 05 17 21 52  0.0000000  0 14      -0.000000000000
G17  22533444.492 6 118414009.704 6     -1718.914          40.000    22533440.023 6  92270675.249 6     -1339.417          40.000  
G04  20281978.578 8 106582643.032 8       423.156          50.000    20281979.141 8  83051375.213 8       329.729          50.000  
G09  21650782.094 8 113775687.080 8      2561.184          49.000    21650784.320 8  88656403.836 8      1995.728          49.000  
G03  20993610.430 7 110322188.534 7     -1515.336          46.000    20993611.359 7  85965345.122 7     -1180.782          47.000  
G01  23293237.883 7 122406786.692 7     -3454.480          44.000    23293240.695 7  95381915.591 7     -2691.804          44.000  
R08  20217907.828 5 108265637.641 5     -1967.117          30.000    20217904.352 6  84206569.002 6     -1529.977          36.000  
R23  20034725.969 8 107171898.790 8     -2729.723          51.000    20034728.891 7  83355927.904 7     -2123.118          42.000  
R09  22710097.656 4 121270259.72024       652.387          28.000                                                                  
E08  22855999.062 8 120109083.993 8      1801.730          51.000    22856000.336 8  92031780.280 8      1380.553          51.000  
E05  26576314.656 5 139659475.353 5     -2450.043          34.000    26576318.172 5 107011796.429 5     -1877.328          35.000  
E03  23447042.750 8 123215045.988 8      -617.633          51.000    23447045.164 8  94411572.999 8      -473.251          51.000  
E15  23463704.539 8 123302605.253 8     -1269.367          51.000    23463707.180 8  94478622.852 8      -972.662          51.000  
C19  22006410.281 8 114593127.666 8     -1205.242          51.000  
C22  22690092.570 5 118153255.010 5      1402.656          31.000  
> 2020 05 17 21 52 30.0000000  0 13      -0.000000000000
G17  22543319.570 6 118465901.358 6     -1737.125          40.000    22543317.211 6  92311110.294 6     -1353.604          39.000  
G04  20279628.914 8 106570297.070 8       402.988          49.000    20279629.914 8  83041754.973 8       314.017          49.000  
G09  21636214.289 8 113699131.741 8      2545.695          51.000    21636214.945 8  88596750.343 8      1983.659          51.000  
G03  21002304.305 7 110367876.066 7     -1527.566          45.000    21002305.445 7  86000945.768 7     -1190.312          44.000  
G01  23312995.719 7 122510615.929 7     -3464.645          45.000    23312999.633 7  95462821.496 7     -2699.724          45.000  
R08  20228970.609 5 108324885.016 5     -1979.906          34.000    20228969.922 6  84252650.397 6     -1539.924          37.000  
R23  20050115.609 8 107254222.859 8     -2755.352          51.000    20050118.586 7  83419957.723 7     -2143.052          43.000  
E08  22845752.289 8 120055236.854 8      1791.195          51.000    22845752.688 8  91990520.797 8      1372.430          51.000  
E05  26590323.016 5 139733092.760 5     -2455.367          34.000    26590325.078 5 107068223.730 5     -1881.419          30.000  
E03  23450610.875 8 123233796.206 8      -629.199          51.000    23450613.062 8  94425940.051 8      -482.108          51.000  
E15  23471006.500 8 123340979.531 8     -1285.777          51.000    23471009.562 8  94508026.509 8      -985.216          51.000  
C19  22013392.273 8 114629483.516 8     -1215.266          51.000  
C22  22682049.719 4 118111384.78824      1393.289          29.000  
> 2020 05 17 21 53  0.0000000  0 14      -0.000000000000
G17  22553273.969 6 118518212.683 6     -1750.520          38.000    22553273.398 6  92351872.361 6     -1364.042          38.000  
G04  20277370.250 8 106558428.460 8       387.750          50.000    20277371.438 8  83032506.701 8       302.143          50.000  
G09  21621708.984 8 113622904.362 8      2535.730          51.000    21621708.812 8  88537352.438 8      1975.895          51.000  
G03  21011042.086 7 110413796.031 7     -1534.176          44.000    21011043.789 7  86036727.527 7     -1195.462          44.000  
G22  22870741.938 5 120186537.68425     -2390.133          32.000                                                                  
G01  23332787.102 7 122614620.682 7     -3469.461          45.000    23332791.484 7  95543864.202 7     -2703.474          45.000  
R08  20240078.312 5 108384368.761 5     -1986.066          35.000    20240078.773 6  84298915.541 6     -1544.722          37.000  
R23  20065623.086 8 107337179.500 8     -2775.574          51.000    20065626.562 7  83484479.575 7     -2158.780          42.000  
R09  22703069.086 6 121232681.544 6       603.242          36.000    22703073.000 5  94292098.139 5       469.191          32.000  
E08  22835540.383 8 120001572.501 8      1786.016          51.000    22835539.953 8  91949401.376 8      1368.524          51.000  
E05  26604335.328 5 139806735.597 5     -2454.469          35.000                                                                  
E03  23454219.336 8 123252758.612 8      -635.445          51.000    23454221.609 8  94440469.695 8      -486.861          51.000  
E15  23478376.703 8 123379712.101 8     -1296.816          51.000    23478380.070 8  94537704.705 8      -993.647          51.000  
C19  22020406.445 8 114666007.117 8     -1219.953          51.000  
> 2020 05 17 21 53 30.0000000  0 16      -0.000000000000
G17  22563310.594 6 118570957.553 6     -1767.410          38.000    22563310.727 6  92392972.296 6     -1377.200          38.000  
G04  20275205.570 8 106547052.381 8       368.859          51.000    20275206.719 8  83023642.228 8       287.423          51.000  
G09  21607268.938 8 113547021.897 8      2521.594          49.000    21607269.719 8  88478223.262 8      1964.879          49.000  
G03  21019827.172 7 110459963.678 7     -1545.043          46.000    21019828.828 7  86072702.269 7     -1203.933          46.000  
G31  23977066.977 5 126000303.901 5     -2098.195          35.000    23977066.953 5  98182070.853 5     -1634.955          33.000  
G19  22256521.297 5 116958803.865 5      -872.789          35.000                                                                  
G01  23352614.312 7 122718814.810 7     -3478.508          45.000    23352619.047 7  95625054.460 7     -2710.526          46.000  
R08  20251233.266 6 108444102.584 6     -1997.152          37.000    20251232.805 6  84345375.136 6     -1553.341          36.000  
R23  20081250.977 8 107420781.288 8     -2799.547          51.000    20081254.930 7  83549503.216 7     -2177.423          42.000  
R09  22699751.695 6 121214961.941 6       576.613          36.000    22699752.148 5  94278316.238 5       448.480          35.000  
R24  19837006.273 5 106077004.994 5       573.969          30.000    19837004.977 5  82504335.079 5       446.423          30.000  
E08  22825366.367 8 119948106.692 8      1776.871          51.000    22825365.695 8  91908434.097 8      1361.484          51.000  
E05  26618354.391 6 139880406.797 6     -2458.371          37.000                                                                  
E03  23457870.945 8 123271948.038 8      -645.473          51.000    23457873.461 8  94455173.305 8      -494.574          51.000  
E15  23485817.984 8 123418818.084 8     -1311.742          51.000    23485821.688 8  94567669.033 8     -1005.171          51.000  
C19  22027455.609 8 114702713.369 8     -1228.652          51.000  
> 2020 05 17 21 54  0.0000000  0 16      -0.000000000000
G17  22573429.062 6 118624133.847 6     -1780.699          38.000    22573428.977 6  92434408.362 6     -1387.561          39.000  
G04  20273134.703 8 106536168.589 8       353.539          51.000    20273135.531 8  83015161.355 8       275.485          51.000  
G09  21592894.203 8 113471485.696 8      2510.969          49.000    21592896.609 8  88419363.870 8      1956.600          49.000  
G03  21028659.617 7 110506378.728 7     -1552.473          47.000    21028660.836 7  86108869.806 7     -1209.719          46.000  
G31  23989081.508 5 126063432.822 5     -2112.770          35.000    23989080.016 5  98231262.224 5     -1646.318          34.000  
G22  22898087.211 5 120330284.550 5     -2401.160          34.000                                                                  
G19  22261551.359 5 116985229.655 5      -892.133          35.000    22261559.430 5  91157363.597 5      -695.169          34.000  
G01  23372477.375 7 122823196.616 7     -3483.449          46.000    23372481.875 7  95706390.977 7     -2714.377          46.000  
R08  20262434.227 6 108504084.903 6     -2004.762          37.000    20262433.297 6  84392027.963 6     -1559.262          38.000  
R23  20096999.664 8 107505025.522 8     -2819.879          51.000    20097003.875 7  83615026.498 7     -2193.240          42.000  
R24  19833849.852 5 106060167.638 5       548.391          32.000    19833845.977 5  82491228.458 5       426.526          31.000  
E08  22815230.250 8 119894839.669 8      1771.238          51.000    22815229.938 8  91867619.137 8      1357.126          51.000  
E05  26632379.031 5 139954105.493 5     -2458.172          35.000                                                                  
E03  23461565.602 8 123291363.780 8      -652.023          51.000    23461568.102 8  94470050.331 8      -499.627          51.000  
E15  23493330.312 8 123458297.136 8     -1323.312          51.000    23493334.391 8  94597919.215 8     -1013.958          51.000  
C19  22034539.625 8 114739601.723 8     -1233.688          51.000  
> 2020 05 17 21 54 30.0000000  0 16      -0.000000000000
G17  22583644.781 6 118677818.055 6     -1796.996          40.000    22583643.844 6  92476240.214 6     -1400.260          40.000  
G04  20271172.383 8 106525855.677 8       335.383          51.000    20271172.977 8  83007125.330 8       261.337          51.000  
G09  21578601.086 8 113396375.915 8      2497.672          50.000    21578604.094 8  88360836.771 8      1946.238          50.000  
G03  21037554.195 7 110553119.797 7     -1562.484          47.000    21037555.789 7  86145291.383 7     -1217.521          46.000  
G31  24001199.781 4 126127155.033 4     -2130.910          29.000    24001198.641 4  98280883.956 4     -1660.450          29.000  
G22  22911810.148 5 120402424.894 5     -2407.344          32.000    22911812.938 5  93820043.212 5     -1875.853          30.000  
G19  22266709.969 6 117012335.176 6      -913.656          36.000    22266707.953 5  91178456.689 5      -711.949          32.000  
G01  23392391.266 7 122927843.376 7     -3491.547          46.000    23392394.945 7  95787933.910 7     -2720.687          46.000  
R08  20273696.250 5 108564394.783 5     -2014.574          35.000    20273696.633 6  84438935.664 6     -1566.894          38.000  
R23  20112883.234 8 107589988.724 8     -2842.941          51.000    20112887.094 7  83681108.969 7     -2211.177          42.000  
R24  19830854.164 6 106044154.860 6       520.055          36.000    19830849.672 4  82478774.141 4       404.487          25.000  
E08  22805146.797 8 119841850.611 8      1762.848          51.000    22805147.234 8  91827017.140 8      1350.736          51.000  
E05  26646423.555 5 140027899.859 5     -2459.887          31.000                                                                  
E03  23465318.164 8 123311083.940 8      -661.316          51.000    23465320.422 8  94485160.587 8      -506.717          51.000  
E15  23500928.852 8 123498227.731 8     -1337.344          51.000    23500932.992 8  94628515.391 8     -1024.742          51.000  
C19  22041673.375 8 114776749.929 8     -1241.488          51.000  
> 2020 05 17 21 55  0.0000000  0 14      -0.000000000000
G17  22593961.109 6 118732029.681 6     -1810.809          40.000    22593959.695 6  92518483.001 6     -1411.017          40.000  
G04  20269322.742 8 106516134.903 8       319.398          51.000    20269323.297 8  82999550.705 8       248.882          51.000  
G09  21564394.188 8 113321715.433 8      2486.375          51.000    21564396.281 8  88302659.817 8      1937.439          51.000  
G03  21046514.828 7 110600208.151 7     -1569.918          46.000    21046517.680 7  86181983.558 7     -1223.313          46.000  
G22  22925584.586 6 120474808.302 6     -2411.766          37.000    22925596.062 5  93876482.915 5     -1879.298          33.000  
G01  23412359.562 8 123032774.905 8     -3497.047          48.000    23412361.969 8  95869698.726 8     -2724.972          48.000  
R08  20285023.094 6 108625052.357 6     -2022.297          36.000    20285024.562 6  84486113.783 6     -1572.898          37.000  
R23  20128904.516 8 107675690.098 8     -2863.676          51.000    20128908.148 7  83747765.572 7     -2227.307          42.000  
R24  19828028.484 5 106029049.136 5       493.703          35.000                                                                  
E08  22795119.875 8 119789161.334 8      1756.602          51.000    22795121.289 8  91786644.829 8      1346.004          51.000  
E03  23469132.609 8 123331129.375 8      -668.395          51.000    23469134.695 8  94500520.089 8      -512.093          51.000  
E15  23508617.625 8 123538631.022 8     -1349.320          51.000    23508621.641 8  94659473.762 8     -1033.934          51.000  
C19  22048861.039 8 114814178.831 8     -1247.055          51.000  
C22  22642437.328 5 117905119.362 5      1358.078          33.000  
> 2020 05 17 21 55 30.0000000  0 13      -0.000000000000
G17  22604350.547 7 118786625.584 7     -1830.562          42.000    22604349.367 7  92561025.237 7     -1426.413          42.000  
G04  20267558.773 8 106506864.861 8       297.125          51.000    20267559.195 8  82992327.291 8       231.526          51.000  
G09  21550246.359 8 113247364.461 8      2468.805          51.000    21550247.211 8  88244724.059 8      1923.748          51.000  
G03  21055514.648 7 110647502.480 7     -1584.391          46.000    21055517.680 7  86218836.256 7     -1234.594          45.000  
G01  23432354.930 8 123137848.421 8     -3509.070          48.000    23432356.594 8  95951574.171 8     -2734.341          48.000  
R08  20296389.031 6 108685912.211 6     -2036.629          36.000    20296389.523 6  84533449.129 6     -1584.045          37.000  
R23  20145035.773 8 107761982.605 8     -2890.656          51.000    20145039.750 7  83814881.933 7     -2248.292          43.000  
R24  19825346.367 6 106014708.073 6       460.559          38.000                                                                  
E08  22785123.250 8 119736630.981 8      1743.781          51.000    22785124.992 8  91746394.314 8      1336.148          51.000  
E03  23472982.008 8 123351358.226 8      -681.855          51.000    23472984.156 8  94516020.127 8      -522.470          51.000  
E15  23516369.500 8 123579365.568 8     -1367.918          51.000    23516373.414 8  94690685.948 8     -1048.113          51.000  
C19  22056075.766 8 114851748.141 8     -1259.023          51.000  
C22  22634649.914 5 117864557.826 5      1344.707          35.000  
> 2020 05 17 21 56  0.0000000  0 15      -0.000000000000
G17  22614813.695 6 118841608.846 6     -1835.793          41.000    22614812.984 6  92603869.317 6     -1430.491          41.000  
G04  20265881.250 8 106498050.283 8       289.703          51.000    20265881.750 8  82985458.785 8       225.743          51.000  
G09  21536158.352 8 113173329.494 8      2465.996          50.000    21536159.070 8  88187034.526 8      1921.556          51.000  
G03  21064554.500 7 110695007.618 7     -1583.566          46.000    21064556.656 7  86255853.213 7     -1233.951          45.000  
G22  22953188.977 5 120619815.633 5     -2417.801          33.000                                                                  
G01  23452378.008 8 123243067.376 8     -3506.328          49.000    23452379.000 8  96033562.943 8     -2732.205          49.000  
R08  20307793.719 5 108746977.783 5     -2035.566          34.000    20307793.969 6  84580944.569 6     -1583.219          38.000  
R23  20161277.789 8 107848868.354 8     -2902.531          51.000    20161282.688 7  83882459.730 7     -2257.525          43.000  
R09  22685275.594 5 121137671.051 5       459.230          34.000    22685275.266 5  94218209.710 5       357.185          30.000  
R24  19822808.070 6 106001138.202 6       442.578          36.000    19822809.445 4  82445272.604 4       344.224          28.000  
E08  22775158.188 8 119684264.896 8      1746.246          51.000    22775159.500 8  91706269.689 8      1338.084          50.000  
E03  23476867.164 8 123371774.922 8      -680.227          51.000    23476869.523 8  94531664.091 8      -521.165          51.000  
E15  23524185.234 8 123620436.059 8     -1371.184          51.000    23524188.898 8  94722155.555 8     -1050.654          51.000  
C19  22063318.336 8 114889462.476 8     -1256.168          51.000  
C22  22626893.070 5 117824162.798 5      1346.418          33.000  
> 2020 05 17 21 56 30.0000000  0 15      -0.000000000000
G17  22625361.008 7 118897033.261 7     -1856.422          43.000    22625359.969 7  92647057.145 7     -1446.563          43.000  
G04  20264301.109 8 106489746.593 8       266.918          51.000    20264301.734 8  82978988.365 8       207.988          51.000  
G09  21522140.602 8 113099667.558 8      2447.730          49.000    21522142.117 8  88129635.617 8      1907.323          49.000  
G03  21073645.125 7 110742778.998 7     -1598.344          47.000    21073646.883 7  86293077.643 7     -1245.463          46.000  
G22  22967032.625 5 120692568.756 5     -2428.809          31.000                                                                  
G01  23472438.875 8 123348485.713 8     -3518.648          48.000    23472439.148 8  96115707.104 8     -2741.802          48.000  
R08  20319245.156 6 108808304.865 6     -2050.176          37.000    20319246.805 6  84628643.418 6     -1594.581          38.000  
R23  20177640.750 8 107936400.658 8     -2929.887          51.000    20177646.055 7  83950540.431 7     -2278.801          43.000  
R09  22682788.516 4 121124441.923 4       428.566          29.000    22682788.406 4  94207886.901 4       333.326          29.000  
R24  19820424.688 5 105988397.199 5       409.723          34.000    19820422.727 4  82435374.955 4       318.682          24.000  
E08  22765235.328 8 119632119.051 8      1733.117          51.000    22765236.164 8  91666313.821 8      1327.911          51.000  
E03  23480798.445 8 123392434.424 8      -694.141          51.000    23480800.906 8  94547494.107 8      -531.868          51.000  
E15  23532075.305 8 123661897.747 8     -1389.984          51.000    23532078.734 8  94753924.918 8     -1065.081          51.000  
C19  22070599.242 8 114927376.564 8     -1268.512          51.000  
C22  22619181.688 5 117783989.783 5      1333.957          35.000  
> 2020 05 17 21 57  0.0000000  0 14      -0.000000000000
G17  22636002.031 7 118952950.559 7     -1872.043          44.000    22635999.906 7  92690629.034 7     -1458.732          44.000  
G04  20262828.539 8 106482007.897 8       248.551          51.000    20262829.102 8  82972958.204 8       193.676          51.000  
G09  21508203.984 8 113026434.459 8      2433.863          49.000    21508206.273 8  88072570.830 8      1896.517          49.000  
G03  21082796.734 7 110790870.904 7     -1608.312          47.000    21082799.352 7  86330551.813 7     -1253.231          46.000  
G22  22980927.930 5 120765560.18025     -2435.902          33.000                                                                  
G01  23492546.969 7 123454156.296 7     -3526.531          45.000    23492547.883 7  96198047.808 7     -2747.947          45.000  
R08  20330755.688 6 108869946.900 6     -2060.113          38.000    20330757.859 6  84676587.185 6     -1602.311          39.000  
R23  20194134.883 8 108024631.947 8     -2952.566          51.000    20194139.984 7  84019164.780 7     -2296.438          43.000  
R24  19818207.117 5 105976541.901 5       380.938          33.000    19818206.727 4  82426139.229 4       296.282          28.000  
E08  22755364.922 8 119580248.243 8      1724.523          51.000    22755366.023 8  91626568.676 8      1321.383          51.000  
E03  23484786.172 8 123413390.510 8      -703.477          51.000    23484788.484 8  94563551.385 8      -539.013          51.000  
E15  23540050.094 8 123703804.764 8     -1404.281          51.000    23540053.242 8  94786035.488 8     -1076.008          51.000  
C19  22077929.016 8 114965543.962 8     -1276.461          51.000  
C22  22611523.578 5 117744093.043 5      1325.457          35.000  
> 2020 05 17 21 57 30.0000000  0 14      -0.000000000000
G17  22646707.336 7 119009205.873 7     -1884.223          44.000    22646704.766 7  92734464.345 7     -1468.226          44.000  
G04  20261434.266 8 106474680.758 8       233.883          51.000    20261434.680 8  82967248.738 8       182.246          51.000  
G09  21494320.867 8 112953478.355 8      2423.781          51.000    21494322.938 8  88015721.904 8      1888.661          51.000  
G03  21091980.234 7 110839130.055 7     -1614.879          47.000    21091983.766 7  86368156.307 7     -1258.351          46.000  
G22  22994814.734 5 120838600.477 5     -2438.688          32.000                                                                  
G01  23512672.938 7 123559924.413 7     -3530.750          44.000    23512675.047 7  96280464.492 7     -2751.235          44.000  
R08  20342296.695 5 108931746.616 5     -2066.133          35.000    20342298.422 6  84724653.582 6     -1606.996          39.000  
R23  20210729.625 8 108113402.916 8     -2971.516          50.000    20210734.758 7  84088208.901 7     -2311.176          43.000  
R09  22678235.188 5 121100031.729 5       379.707          34.000    22678239.250 4  94188963.767 4       295.322          29.000  
R24  19816128.039 6 105965417.733 6       354.789          36.000    19816130.820 4  82417487.072 4       275.947          26.000  
E08  22745517.977 8 119528499.679 8      1719.445          51.000    22745519.422 8  91586917.177 8      1317.483          51.000  
E03  23488801.086 8 123434489.469 8      -709.066          51.000    23488803.250 8  94579718.111 8      -543.350          51.000  
E15  23548080.289 8 123746003.600 8     -1414.930          51.000    23548082.938 8  94818369.662 8     -1084.188          51.000  
C19  22085278.219 8 115003812.573 8     -1280.746          51.000  
> 2020 05 17 21 58  0.0000000  0 15      -0.000000000000
G17  22657499.445 7 119065918.002 7     -1895.871          46.000    22657497.586 7  92778655.621 7     -1477.303          46.000  
G04  20260141.312 8 106467885.646 8       219.648          51.000    20260141.555 8  82961953.831 8       171.155          51.000  
G09  21480514.234 8 112880921.385 8      2413.957          51.000    21480515.469 8  87959184.035 8      1881.009          51.000  
G03  21101218.570 7 110887677.012 7     -1621.055          47.000    21101220.898 7  86405985.092 7     -1263.160          46.000  
G01  23532840.656 7 123665909.182 7     -3534.270          46.000    23532843.258 7  96363050.004 7     -2753.977          46.000  
R08  20353890.984 5 108993825.345 5     -2071.535          30.000    20353891.242 6  84772937.009 6     -1611.194          39.000  
R23  20227447.547 8 108202833.392 8     -2989.824          51.000    20227452.766 7  84157765.940 7     -2325.419          42.000  
R09  22676166.719 5 121088978.689 5       357.512          34.000    22676169.352 4  94180367.015 4       278.068          29.000  
R24  19814209.172 6 105955148.800 6       330.516          39.000    19814206.203 4  82409494.231 4       257.068          26.000  
E08  22735717.438 8 119476994.415 8      1714.781          51.000    22735718.648 8  91547452.118 8      1313.870          51.000  
E05  26744958.438 5 140545704.020 5     -2467.840          33.000                                                                  
E03  23492865.969 8 123455851.396 8      -714.383          51.000    23492868.195 8  94596086.342 8      -547.441          51.000  
E15  23556188.703 8 123788614.673 8     -1425.305          51.000    23556190.812 8  94851019.700 8     -1092.072          51.000  
C19  22092669.664 8 115042301.672 8     -1284.570          51.000  
C22  22596285.008 5 117664816.11425      1314.891          33.000  
> 2020 05 17 21 58 30.0000000  0 16      -0.000000000000
G17  22668377.078 7 119123080.480 7     -1913.895          47.000    22668376.000 7  92823197.825 7     -1491.347          47.000  
G04  20258948.578 8 106461617.897 8       199.180          51.000    20258948.766 8  82957069.881 8       155.205          51.000  
G09  21466783.188 8 112808760.641 8      2397.746          51.000    21466783.641 8  87902954.919 8      1868.374          51.000  
G03  21110510.844 7 110936507.315 7     -1633.273          47.000    21110512.078 7  86444034.647 7     -1272.684          47.000  
G22  23022712.375 5 120985134.811 5     -2450.000          31.000                                                                  
G01  23553049.094 7 123772104.770 7     -3544.375          47.000    23553051.969 7  96445799.816 7     -2761.852          47.000  
R08  20365531.250 4 109056177.487 4     -2084.312          29.000    20365534.586 6  84821433.213 6     -1621.132          38.000  
R23  20244287.789 8 108292915.768 8     -3014.551          51.000    20244292.273 6  84227829.979 6     -2344.651          41.000  
R09  22674240.594 6 121078693.667 6       328.738          36.000    22674243.922 5  94172367.586 5       255.685          31.000  
R24  19812448.391 6 105945731.662 6       298.902          37.000    19812446.906 4  82402169.707 4       232.477          26.000  
E08  22725962.266 8 119425728.465 8      1703.922          51.000    22725962.680 8  91508170.444 8      1305.588          51.000  
E05  26759061.023 5 140619819.182 5     -2472.492          35.000    26759066.234 5 107747664.333 5     -1894.643          34.000  
E03  23496979.953 8 123477471.349 8      -725.992          51.000    23496982.297 8  94612652.268 8      -556.238          51.000  
E15  23564374.617 8 123831633.269 8     -1441.723          51.000    23564376.445 8  94883982.002 8     -1104.646          51.000  
C19  22100102.445 8 115081006.674 8     -1294.770          51.000  
C22  22588742.461 5 117625529.371 5      1303.863          33.000  
> 2020 05 17 21 59  0.0000000  0 18      -0.000000000000
G17  22679335.625 7 119180666.182 7     -1923.688          47.000    22679334.367 7  92868069.809 7     -1498.978          47.000  
G04  20257851.406 8 106455852.374 8       186.625          51.000    20257851.250 8  82952577.266 8       145.422          51.000  
G09  21453122.492 8 112736972.687 8      2389.566          50.000    21453122.570 8  87847016.253 8      1862.000          50.000  
G03  21119852.219 7 110985595.938 7     -1637.711          46.000    21119853.508 7  86482285.470 7     -1276.139          46.000  
G31  24114390.852 5 126721950.34325     -2271.195          30.000                                                                  
G22  23036709.180 5 121058684.185 5     -2450.953          35.000                                                                  
G19  22318376.938 5 117283853.830 5     -1093.953          32.000    22318373.297 4  91390006.678 4      -852.431          29.000  
G01  23573292.578 8 123878484.673 8     -3546.293          48.000    23573295.891 7  96528693.230 7     -2763.346          47.000  
R08  20377219.773 5 109118776.328 5     -2088.027          34.000    20377223.250 6  84870121.180 6     -1624.019          36.000  
R23  20261244.195 8 108383621.416 8     -3030.988          50.000    20261247.633 6  84298378.786 6     -2357.436          39.000  
R09  22672454.656 6 121069152.618 6       308.520          36.000    22672457.281 5  94164946.802 5       239.957          33.000  
R24  19810841.477 5 105937142.507 5       275.445          35.000    19810835.102 4  82395494.77124       214.235          24.000  
E08  22716247.422 8 119374677.301 8      1700.918          51.000    22716246.836 8  91469053.358 8      1303.349          50.000  
E05  26773170.031 6 140693968.443 6     -2469.285          36.000    26773174.375 5 107804479.987 5     -1892.356          33.000  
E03  23501138.383 8 123499323.842 8      -729.445          51.000    23501140.602 8  94629396.376 8      -558.863          51.000  
E15  23572633.188 8 123875034.168 8     -1450.195          51.000    23572635.320 8  94917237.244 8     -1111.207          51.000  
C19  22107572.008 8 115119902.560 8     -1296.953          50.000  
C22  22581239.891 4 117586459.441 4      1301.461          28.000  
> 2020 05 17 21 59 30.0000000  0 17      -0.000000000000
G17  22690369.836 8 119238649.984 8     -1941.504          48.000    22690367.664 8  92913251.975 8     -1512.858          48.000  
G04  20256845.078 8 106450565.054 8       166.215          51.000    20256844.883 8  82948457.272 8       129.518          51.000  
G09  21439527.805 8 112665535.152 8      2373.352          49.000    21439528.391 8  87791350.632 8      1849.365          49.000  
G03  21129238.148 7 111034919.098 7     -1649.945          46.000    21129239.500 7  86520719.031 7     -1285.675          46.000  
G19  22324689.242 6 117317019.798 6     -1117.488          36.000                                                                  
G01  23593566.430 8 123985023.563 8     -3556.016          48.000    23593569.852 8  96611710.540 8     -2770.922          48.000  
R08  20388951.172 6 109181596.012 6     -2100.016          36.000    20388953.164 5  84918980.922 5     -1633.346          35.000  
R23  20278311.617 8 108474923.124 8     -3055.379          51.000    20278315.031 6  84369391.242 6     -2376.406          40.000  
R01  19640629.836 5 104990040.839 5       610.254          31.000                                                                  
R09  22670803.273 6 121060332.696 6       279.652          37.000    22670806.055 5  94158086.857 5       217.507          30.000  
R24  19809385.625 6 105929358.005 6       244.262          36.000    19809385.609 4  82389435.733 4       189.978          29.000  
R02  23511169.773 6 125459721.359 6      3174.133          39.000    23511178.672 5  97579791.632 5      2468.771          33.000  
E08  22706568.523 8 119323817.639 8      1690.129          51.000    22706567.617 8  91430082.977 8      1295.032          51.000  
E05  26787280.984 5 140768127.607 5     -2473.867          35.000    26787284.664 5 107861303.236 5     -1895.978          32.000  
E03  23505336.484 8 123521384.591 8      -740.844          51.000    23505338.570 8  94646300.061 8      -567.681          51.000  
E15  23580960.047 8 123918793.348 8     -1466.676          51.000    23580962.906 8  94950766.988 8     -1123.847          51.000  
C19  22115073.797 8 115158965.528 8     -1306.941          50.000  
