     3.02           OBSERVATION DATA    M (MIXED)           RINEX VERSION / TYPE
SAVERINEX           SC600               20200516 075931 LCL PGM / RUN BY / DATE
       G = GPS       R = GLONASS       C = COMPASS          COMMENT
       S = SBAS      J = QZSS          E = GALILEO          COMMENT
BEAN                                                        MARKER NAME
1                                                           MARKER NUMBER
GEODETIC                                                    MARKER TYPE
Unige DICCA         GTER                                    OBSERVER / AGENCY
SC60291900056       SC600               2.12(191202)        REC # / TYPE / VERS
                    HEMA45          NONE                    ANT # / TYPE
  4509407.8091   693652.4678  4442337.6214                  APPROX POSITION XYZ
        0.0000        0.0000        0.0000                  ANTENNA: DELTA H/E/N
G    8 C1C L1C D1C S1C C2Y L2Y D2Y S2Y                      SYS / # / OBS TYPES
R    8 C1C L1C D1C S1C C2P L2P D2P S2P                      SYS / # / OBS TYPES
C    8 C1I L1I D1I S1I C7I L7I D7I S7I                      SYS / # / OBS TYPES
E    8 C1C L1C D1C S1C C7Q L7Q D7Q S7Q                      SYS / # / OBS TYPES
DBHZ                                                        COMMENT
     30.000                                                 INTERVAL
  2020    05    16    05    00    0.0000000     GPS         TIME OF FIRST OBS
  2020    05    16    05    59   30.0000000     GPS         TIME OF LAST OBS
     0                                                      RCV CLOCK OFFS APPL
G L1C  0.00000                                              SYS / PHASE SHIFT
G L2Y  0.00000                                              SYS / PHASE SHIFT
R L1C  0.00000                                              SYS / PHASE SHIFT
R L2P  0.25000                                              SYS / PHASE SHIFT
C L1I  0.00000                                              SYS / PHASE SHIFT
C L7I  0.00000                                              SYS / PHASE SHIFT
E L1C  0.50000                                              SYS / PHASE SHIFT
E L7Q -0.25000                                              SYS / PHASE SHIFT
 13 R01  1 R02 -4 R03  5 R07  5 R08  6 R10 -5 R11  0 R12 -1 GLONASS SLOT / FRQ #
    R13 -2 R20  2 R21  4 R22 -3 R23  3                      GLONASS SLOT / FRQ #
 C1C   71.950 C2C   71.950 C2P   71.950                     GLONASS COD/PHS/BIS
    18                                                      LEAP SECONDS
*** Above antenna height is from mark to ANTENNA BOTTOM.    COMMENT
    17     4        0.0000        ANT MEASURE TYPE/HEIGT    COMMENT
    0.0000    0.0000    0.0458    0.0405    0.0000          COMMENT
                    BASE STATION                            COMMENT
                                                            END OF HEADER
> 2020 05 16 05 00  0.0000000  0 17        .000000000000
G13  20250479.570 8 106416981.459 8      -730.785          51.000    20250478.867 8  82922315.857 8      -569.443          51.000
G15  20453656.297 6 107484692.856 6       918.219          36.000    20453657.398 6  83754312.688 6       715.498          36.000
G17  23533039.836 6 123666977.167 6      2376.988          37.000    23533048.609 5  96363881.022 5      1852.205          31.000
G19  24693570.734 7 129765588.025 7      3436.562          46.000    24693569.852 6 101116020.533 6      2677.838          37.000
G28  21413865.203 6 112530602.566 6     -1736.746          36.000    21413863.000 6  87686210.026 6     -1353.312          36.000
R01  22607080.672 6 120847759.811 6     -4314.070          39.000    22607086.000 5  93992732.525 5     -3355.391          31.000
R02  19165118.430 8 102268707.703 8      -512.898          51.000    19165121.445 8  79542358.490 8      -398.924          48.000
R11  21512721.359 5 114957481.701 5     -3235.449          34.000    21512720.445 4  89411374.561 4     -2516.464          25.000
R12  19284782.000 7 103015813.642 7      -436.680          45.000    19284785.727 7  80123462.610 7      -339.640          42.000
R13  21510894.523 6 114866985.819 6      2907.414          36.000    21510899.070 6  89340996.305 6      2261.325          37.000
C05  39791459.617 6 207204572.012 6        20.059          36.000    39791457.273 6 160223689.423 6        15.924          38.000
C23  22186531.789 8 115531135.379 8       967.777          51.000
C25  22635508.359 8 117869083.314 8     -1701.496          48.000
E05  23993670.195 8 126087572.166 8     -1563.148          51.000    23993673.445 8  96612553.336 8     -1197.716          51.000
E09                                                                  25818032.602 5 103958474.612 5     -2273.927          32.000
E24  22255432.898 8 116953131.523 8     -1359.168          51.000    22255445.562 8  89613508.593 8     -1041.467          51.000
E25  23983094.773 8 126032021.409 8      1394.699          51.000    23983096.992 8  96570003.985 8      1068.645          51.000
> 2020 05 16 05 00 30.0000000  0 16        .000000000000
G13  20254696.039 8 106439138.459 8      -747.297          51.000    20254695.031 8  82939581.042 8      -582.309          51.000
G15  20448465.031 5 107457416.122 5       899.188          32.000    20448466.688 5  83733058.044 5       700.659          32.000
G19  24673955.820 7 129662513.214 7      3433.934          44.000    24673955.016 6 101035702.453 6      2675.792          38.000
G28  21423816.781 6 112582895.653 6     -1751.812          36.000    21423814.664 6  87726957.874 6     -1365.052          36.000
R01  22631315.805 6 120977304.121 6     -4323.023          39.000    22631319.805 4  94093489.109 4     -3362.355          28.000
R02  19168077.617 8 102284495.522 8      -540.621          51.000    19168080.125 8  79554637.909 8      -420.480          48.000
R11  21530900.969 5 115054629.999 5     -3242.637          30.000
R12  19287283.969 7 103029177.672 7      -455.152          45.000    19287287.664 7  80133856.825 7      -354.010          42.000
R13  21494595.875 5 114779951.648 5      2894.180          35.000    21494599.680 5  89273303.108 5      2251.026          35.000
C05  39791344.523 6 207203971.966 6        19.234          36.000    39791342.125 6 160223225.432 6        14.629          38.000
C23  22180986.016 8 115502256.291 8       956.559          51.000
C25  22645332.070 8 117920236.724 8     -1709.715          49.000
E05  24002626.305 8 126134635.653 8     -1575.500          51.000    24002629.523 8  96648614.947 8     -1207.189          51.000
E09                                                                  25834982.469 4 104026768.530 4     -2277.310          29.000
E24  22263218.891 8 116994047.055 8     -1369.480          51.000    22263231.484 8  89644859.431 8     -1049.381          51.000
E25  23975163.953 8 125990342.211 8      1382.926          51.000    23975165.250 8  96538067.982 8      1059.617          51.000
> 2020 05 16 05 01  0.0000000  0 15        .000000000000
G13  20259005.438 8 106461783.623 8      -760.789          51.000    20259004.211 8  82957226.624 8      -592.823          51.000
G15  20443375.516 6 107430669.949 6       884.664          36.000    20443376.859 5  83712216.842 5       689.346          34.000
G19  24654353.539 7 129559506.305 7      3434.707          43.000    24654352.695 6 100955437.357 6      2676.395          40.000
G28  21433852.547 6 112635657.546 6     -1763.445          37.000    21433851.086 6  87768036.677 6     -1374.110          36.000
R01  22655598.961 6 121107106.716 6     -4328.855          40.000    22655602.156 4  94194446.608 4     -3366.891          26.000
R02  19171190.719 8 102301105.619 8      -565.145          51.000    19171193.070 8  79567556.867 8      -439.557          49.000
R12  19289886.633 7 103043080.310 7      -470.199          45.000    19289890.508 7  80144670.017 7      -365.711          43.000
R13  21478369.039 5 114693303.787 5      2884.297          33.000    21478372.531 6  89205910.317 6      2243.345          36.000
C05  39791235.273 6 207203403.365 6        20.543          36.000    39791232.898 6 160222785.736 6        15.970          38.000
C23  22175503.195 8 115473705.532 8       948.375          51.000
C25  22655201.250 8 117971626.780 8     -1714.781          48.000
E05  24011649.906 8 126182054.219 8     -1584.348          51.000    24011652.922 8  96684948.630 8     -1213.996          51.000
E09  25851988.938 5 135853112.824 5     -2973.473          33.000
E24  22271061.273 8 117035259.078 8     -1376.438          51.000    22271074.062 8  89676437.473 8     -1054.721          51.000
E25  23967297.906 8 125949002.490 8      1374.461          51.000    23967298.719 8  96506392.081 8      1053.203          51.000
> 2020 05 16 05 01 30.0000000  0 15        .000000000000
G13  20263388.305 8 106484814.412 8      -771.941          51.000    20263386.812 8  82975172.681 8      -601.513          51.000
G15  20438367.914 6 107404352.670 6       872.148          37.000    20438368.680 6  83691709.882 6       679.599          37.000
G19  24634745.711 7 129456467.643 7      3437.277          43.000    24634743.859 6 100875147.514 6      2678.404          40.000
G28  21443957.125 6 112688751.827 6     -1773.480          39.000    21443953.742 6  87809408.785 6     -1381.933          38.000
R01  22679909.422 6 121237059.091 6     -4331.879          40.000
R02  19174438.000 8 102318433.221 8      -587.379          51.000    19174440.727 8  79581033.875 8      -456.850          49.000
R11  21567363.602 5 115249443.071 5     -3247.242          33.000    21567352.711 4  89638433.015 4     -2525.633          28.000
R12  19292570.008 7 103057415.274 7      -482.770          45.000    19292574.039 7  80155819.410 7      -375.487          42.000
R13  21462195.367 5 114606938.817 5      2876.414          35.000    21462199.609 6  89138737.534 6      2237.211          37.000
C05  39791112.352 6 207202763.101 6        24.562          36.000    39791110.141 6 160222291.406 6        19.217          38.000
C23  22170063.375 8 115445380.720 8       942.520          51.000
C25  22665095.945 7 118023150.239 7     -1717.449          47.000
E05  24020721.383 8 126229724.383 8     -1590.992          51.000    24020723.914 8  96721475.099 8     -1219.075          51.000
E24  22278940.164 8 117076663.241 8     -1381.148          51.000    22278953.102 8  89708162.738 8     -1058.304          51.000
E25  23959476.531 8 125907899.173 8      1368.480          51.000    23959477.609 8  96474897.340 8      1048.519          51.000
> 2020 05 16 05 02  0.0000000  0 15        .000000000000
G13  20267864.617 8 106508336.705 8      -791.258          51.000    20267862.922 8  82993501.733 8      -616.565          51.000
G15  20433462.328 6 107378571.243 6       851.422          38.000    20433462.344 6  83671620.414 6       663.443          38.000
G19  24615152.883 7 129353505.659 7      3431.836          43.000    24615150.758 6 100794917.427 6      2674.158          41.000
G28  21454145.867 6 112742297.785 6     -1791.699          40.000    21454144.398 6  87851132.968 6     -1396.126          38.000
R01  22704267.297 6 121367265.504 6     -4343.074          38.000
R02  19177839.867 8 102336585.752 8      -617.777          51.000    19177842.492 8  79595152.526 8      -480.493          49.000
R12  19295354.148 7 103072288.089 7      -503.691          45.000    19295358.008 7  80167387.133 7      -391.760          42.000
R13  21446095.516 5 114520964.010 5      2860.223          34.000    21446099.906 6  89071868.254 6      2224.621          37.000
C05  39790996.109 6 207202157.803 6        20.590          37.000    39790993.953 6 160221823.345 6        16.097          38.000
C23  22164687.156 8 115417386.256 8       928.668          51.000
C25  22675035.711 7 118074910.613 7     -1728.223          46.000
E05  24029860.812 8 126277751.235 8     -1605.789          51.000    24029862.914 8  96758274.877 8     -1230.422          51.000
E09  25885943.961 5 136031558.176 5     -2979.070          35.000    25885942.945 5 104231973.966 5     -2282.586          34.000
E24  22286875.555 8 117118363.800 8     -1393.922          51.000    22286888.328 8  89740115.101 8     -1068.040          51.000
E25  23951719.891 8 125867137.959 8      1353.965          51.000    23951721.594 8  96443664.733 8      1037.439          51.000
> 2020 05 16 05 02 30.0000000  0 16        .000000000000
G13  20272421.305 8 106532281.474 8      -804.883          51.000    20272419.180 8  83012159.986 8      -627.181          50.000
G15  20428645.828 6 107353257.999 6       836.324          40.000    20428645.039 6  83651895.826 6       651.684          40.000
G19  24595562.133 7 129250554.895 7      3431.770          45.000    24595560.766 7 100714696.124 7      2674.109          44.000
G28  21464407.562 7 112796223.892 7     -1803.176          42.000    21464406.344 6  87893153.249 6     -1405.078          39.000
R01  22728658.852 6 121497652.449 6     -4348.777          38.000
R02  19181383.539 8 102355493.040 8      -642.492          51.000    19181386.047 8  79609858.189 8      -499.716          50.000
R11  21603916.453 6 115444729.844 6     -3260.371          36.000
R12  19298225.445 7 103087626.860 7      -518.664          45.000    19298229.070 7  80179317.290 7      -403.405          42.000
R13  21430055.312 6 114435310.124 6      2850.316          36.000    21430059.805 6  89005248.597 6      2216.913          39.000
C05  39790873.336 6 207201518.158 6        22.203          36.000    39790871.062 6 160221328.733 6        17.311          38.000
C23  22159361.453 8 115389653.622 8       920.414          51.000
C25  22685007.766 7 118126838.461 7     -1733.312          46.000
E05  24039054.648 8 126326065.436 8     -1614.930          51.000    24039056.719 8  96795294.818 8     -1237.468          51.000
E09  25902953.500 6 136120945.108 6     -2979.926          36.000    25902952.219 6 104300465.149 6     -2283.511          37.000
E24  22294853.977 8 117160290.518 8     -1400.934          51.000    22294866.578 8  89772240.756 8     -1073.467          51.000
E25  23944015.180 8 125826649.963 8      1345.477          51.000    23944017.242 8  96412641.470 8      1030.917          51.000
> 2020 05 16 05 03  0.0000000  0 16        .000000000000
G13  20277069.539 8 106556707.849 8      -821.047          51.000    20277067.133 8  83031193.517 8      -639.777          50.000
G15  20423929.336 6 107328472.804 6       818.625          38.000    20423928.672 6  83632582.687 6       637.887          39.000
G19  24575985.172 7 129147677.045 7      3429.234          46.000    24575984.711 7 100634531.616 7      2672.134          45.000
G28  21474752.805 6 112850587.708 6     -1817.625          39.000    21474751.016 6  87935514.682 6     -1416.331          38.000
R01  22753094.461 6 121628276.526 6     -4356.871          38.000
R02  19185079.586 8 102375214.901 8      -669.793          51.000    19185081.922 8  79625197.379 8      -520.950          49.000
R11  21622247.109 5 115542707.506 5     -3266.039          35.000
R12  19301195.203 7 103103489.699 7      -536.199          46.000    19301198.680 7  80191655.056 7      -417.044          42.000
R13  21414087.297 6 114350039.097 6      2836.988          38.000    21414091.188 6  88938926.673 6      2206.543          39.000
C05  39790755.078 6 207200903.503 6        21.797          36.000    39790752.805 6 160220852.678 6        16.562          38.000
C23  22154097.227 8 115362240.960 8       909.688          51.000
C25  22695023.078 7 118178991.108 7     -1740.805          45.000
E05  24048314.188 8 126374725.389 8     -1626.469          51.000    24048316.320 8  96832579.686 8     -1246.267          51.000
E09  25919984.148 6 136210439.342 6     -2983.734          38.000    25919981.633 6 104369038.557 6     -2286.190          37.000
E24  22302886.273 8 117202500.951 8     -1410.484          51.000    22302898.938 8  89804583.812 8     -1080.719          51.000
E25  23936373.836 8 125786494.195 8      1334.348          51.000    23936375.922 8  96381872.766 8      1022.380          51.000
> 2020 05 16 05 03 30.0000000  0 17        .000000000000
G13  20281804.984 8 106581593.223 8      -837.062          51.000    20281802.617 8  83050584.694 8      -652.256          50.000
G15  20419309.305 6 107304194.314 6       801.020          40.000    20419308.859 6  83613664.373 6       624.171          40.000
G17  23439465.125 5 123175204.846 5      2305.730          32.000
G19  24556418.266 7 129044852.641 7      3426.680          44.000    24556418.500 7 100554408.764 7      2670.143          44.000
G28  21485176.141 7 112905363.956 7     -1832.734          43.000    21485174.914 6  87978197.474 6     -1428.105          36.000
R01  22777568.859 6 121759111.075 6     -4364.562          36.000
R02  19188923.875 8 102395728.254 8      -696.930          51.000    19188925.672 8  79641152.221 8      -542.056          48.000
R11  21640603.688 5 115640776.245 5     -3272.383          34.000
R12  19304258.016 7 103119851.460 7      -553.492          44.000    19304262.133 7  80204380.901 7      -430.494          42.000
R13  21398186.984 6 114265127.622 6      2824.348          37.000    21398189.766 6  88872884.411 6      2196.715          40.000
C05  39790637.148 6 207200289.252 6        20.387          37.000    39790634.750 6 160220377.661 6        15.985          38.000
C23  22148890.094 8 115335125.367 8       898.988          51.000
C25  22705076.992 7 118231344.780 7     -1748.379          45.000
E05  24057635.109 8 126423707.779 8     -1637.992          51.000    24057637.242 8  96870111.626 8     -1255.112          51.000
E09  25937031.039 6 136300016.920 6     -2987.680          36.000    25937027.320 6 104437675.822 6     -2288.932          37.000
E24  22310968.016 8 117244970.952 8     -1419.922          51.000    22310980.773 8  89837125.764 8     -1088.007          51.000
E25  23928791.219 8 125746647.819 8      1323.051          51.000    23928793.500 8  96351341.137 8      1013.805          51.000
> 2020 05 16 05 04  0.0000000  0 16        .000000000000
G13  20286616.797 8 106606879.884 8      -848.879          51.000    20286614.375 8  83070288.564 8      -661.464          49.000
G15  20414775.102 6 107280365.576 6       787.715          40.000    20414774.219 6  83595096.522 6       613.807          40.000
G17  23426322.703 5 123106135.850 5      2298.773          32.000    23426319.727 5  95926846.483 5      1791.249          30.000
G19  24536850.914 7 128942026.993 7      3428.078          42.000    24536851.578 7 100474284.904 7      2671.230          43.000
G28  21495666.898 7 112960492.475 7     -1842.965          42.000    21495666.742 6  88021154.720 6     -1436.080          37.000
R01  22802071.938 6 121890093.702 6     -4367.883          36.000    22802072.812 4  94803447.309 4     -3397.245          25.000
R02  19192905.180 8 102416974.113 8      -719.586          51.000    19192906.602 7  79657676.766 7      -559.678          47.000
R12  19307403.250 7 103136651.640 7      -566.457          46.000    19307406.742 6  80217447.672 6      -440.578          41.000
R13  21382343.180 6 114180517.953 6      2816.090          37.000    21382344.914 6  88807076.891 6      2190.295          39.000
C05  39790508.438 6 207199618.774 6        23.863          37.000    39790505.969 6 160219859.206 6        18.540          39.000
C23  22143728.961 8 115308249.076 8       892.641          51.000
C25  22715158.609 7 118283840.812 7     -1751.500          46.000
E05  24067006.031 8 126472954.043 8     -1645.105          51.000    24067008.250 8  96907845.762 8     -1260.580          51.000
E09  25954083.047 5 136389622.734 5     -2986.543          33.000    25954077.383 5 104506331.651 5     -2288.381          35.000
E24  22319087.891 8 117287641.132 8     -1424.902          51.000    22319100.789 8  89869821.089 8     -1091.820          51.000
E25  23921256.344 8 125707052.774 8      1316.344          51.000    23921258.641 8  96321002.089 8      1008.723          51.000
> 2020 05 16 05 04 30.0000000  0 16        .000000000000
G13  20291536.297 8 106632732.293 8      -867.590          51.000    20291533.828 8  83090433.278 8      -676.044          49.000
G15  20410357.969 6 107257152.417 6       767.070          40.000    20410356.836 6  83577008.357 6       597.714          40.000
G19  24517314.547 6 128839368.215 6      3422.840          40.000    24517315.758 6 100394291.039 6      2667.148          39.000
G28  21506255.234 6 113016135.669 6     -1859.984          40.000    21506255.141 5  88064513.091 5     -1449.338          34.000
G30  23541830.172 5 123713152.074 5     -2831.797          32.000
R01  22826633.516 5 122021388.310 5     -4377.789          32.000    22826635.664 4  94905565.355 4     -3404.947          26.000
R02  19197054.875 8 102439118.727 8      -749.531          51.000    19197055.609 7  79674900.329 7      -582.969          46.000
R12  19310661.648 7 103154055.421 7      -586.555          44.000    19310665.039 7  80230983.949 7      -456.209          42.000
R13  21366586.992 6 114096377.451 6      2800.422          37.000    21366588.953 6  88741634.316 6      2178.109          40.000
C05  39790400.312 6 207199055.047 6        20.531          36.000    39790397.656 6 160219423.277 6        16.057          38.000
C23  22138645.281 8 115281774.815 8       879.305          51.000
C25  22725298.664 7 118336641.126 7     -1761.543          45.000
E05  24076458.008 8 126522628.146 8     -1659.344          50.000    24076460.633 8  96945907.733 8     -1271.424          51.000
E09                                                                  25971162.406 5 104575131.174 5     -2293.353          31.000
E24  22327276.781 8 117330674.607 8     -1436.875          51.000    22327290.023 8  89902794.787 8     -1100.946          51.000
E25  23913800.820 8 125667873.575 8      1302.613          51.000    23913802.789 8  96290981.671 8       998.076          51.000
> 2020 05 16 05 05  0.0000000  0 15        .000000000000
G13  20296527.164 8 106658959.921 8      -883.715          51.000    20296524.641 8  83110870.377 8      -688.609          49.000
G15  20406021.750 6 107234365.587 6       749.223          40.000    20406021.070 6  83559252.372 6       583.810          40.000
G19  24497774.266 6 128736688.319 6      3419.801          39.000    24497775.695 6 100314280.789 6      2664.780          39.000
G28  21516904.969 7 113072101.009 7     -1874.086          44.000    21516903.594 5  88108122.407 5     -1460.327          31.000
G30  23558012.445 5 123798207.083 5     -2837.059          32.000    23558005.523 5  96466101.673 5     -2210.689          33.000
R01  22851216.977 5 122152797.933 5     -4386.180          31.000    22851220.219 5  95007779.742 5     -3411.476          30.000
R02  19201336.828 8 102461968.516 8      -776.617          51.000    19201337.242 7  79692672.356 7      -604.036          47.000
R12  19313996.406 7 103171867.299 7      -603.840          47.000    19314000.219 6  80244837.670 6      -469.653          41.000
R13  21350882.102 5 114012513.864 5      2787.734          35.000    21350884.742 6  88676407.099 6      2168.235          38.000
C05  39790276.312 6 207198409.224 6        19.887          36.000    39790273.719 6 160218923.926 6        15.248          38.000
C23  22133602.672 8 115255513.444 8       868.617          51.000
C25  22735460.242 7 118389555.730 7     -1768.898          44.000
E05  24085955.000 8 126572539.003 8     -1670.891          50.000    24085958.352 8  96984151.127 8     -1280.251          51.000
E24  22335498.266 8 117373879.472 8     -1446.215          51.000    22335511.867 8  89935899.817 8     -1108.112          51.000
E25  23906388.297 8 125628919.647 8      1291.645          51.000    23906390.117 8  96261133.864 8       989.678          51.000
> 2020 05 16 05 05 30.0000000  0 16        .000000000000
G13  20301606.711 8 106685653.713 8      -896.727          51.000    20301604.195 8  83131670.728 8      -698.748          50.000
G15  20401784.156 7 107212096.831 7       734.422          42.000    20401783.703 6  83541900.068 6       572.277          41.000
G17  23387286.289 5 122901006.851 5      2264.223          34.000    23387286.984 5  95767024.802 5      1764.329          35.000
G19  24478248.992 7 128634081.512 7      3419.832          43.000    24478249.680 6 100234327.466 6      2664.807          41.000
G28  21527633.016 6 113128477.268 6     -1884.855          40.000    21527631.406 5  88152051.872 5     -1468.719          30.000
R01  22875838.672 5 122284411.500 5     -4389.715          31.000    22875841.305 4  95110145.805 4     -3414.226          29.000
R02  19205767.961 8 102485615.109 8      -800.730          51.000    19205768.445 7  79711064.110 7      -622.793          46.000
R12  19317424.664 7 103190177.829 7      -617.742          45.000    19317427.781 6  80259079.175 6      -480.463          41.000
R13  21335245.562 5 113929020.353 5      2777.559          33.000    21335248.289 5  88611467.662 5      2160.323          35.000
C05  39790153.805 6 207197771.429 6        21.855          37.000    39790151.227 6 160218430.722 6        16.840          38.000
C23  22128617.805 8 115229554.842 8       861.062          51.000
C25  22745660.711 7 118442673.587 7     -1773.078          42.000
E05  24095514.742 8 126622777.006 8     -1679.184          50.000    24095518.406 8  97022645.205 8     -1286.623          51.000
E09  26005353.758 5 136659057.486 5     -2996.609          33.000
E24  22343769.555 8 117417345.338 8     -1452.309          51.000    22343783.133 8  89969204.823 8     -1112.805          51.000
E25  23899036.055 8 125590281.942 8      1283.484          51.000    23899037.844 8  96231528.364 8       983.485          51.000
> 2020 05 16 05 06  0.0000000  0 15        .000000000000
G13  20306774.766 8 106712812.629 8      -911.023          51.000    20306772.625 8  83152833.492 8      -709.891          50.000
G15  20397645.203 7 107190345.895 7       718.570          44.000    20397643.906 7  83524951.303 7       559.925          44.000
G17  23374396.562 6 122833271.181 6      2254.148          36.000    23374398.703 6  95714243.814 6      1756.479          36.000
G19  24458738.547 7 128531549.665 7      3418.637          45.000    24458738.828 6 100154432.559 6      2663.873          41.000
G28  21538438.477 6 113185260.649 6     -1897.684          37.000    21538437.125 5  88196298.708 5     -1478.705          33.000
R01  22900498.047 5 122416224.239 5     -4394.648          31.000    22900498.836 4  95212666.816 4     -3418.060          28.000
R02  19210348.281 8 102510057.902 8      -825.914          51.000    19210348.883 7  79730075.147 7      -642.378          46.000
R12  19320945.086 7 103208983.768 7      -633.012          44.000    19320948.500 6  80273706.057 6      -492.342          41.000
R13  21319678.289 5 113845896.140 5      2767.094          34.000    21319678.539 5  88546815.511 5      2152.184          32.000
C05  39790032.664 6 207197140.242 6        22.910          37.000    39790030.031 6 160217942.628 6        17.622          38.000
C23  22123690.164 8 115203897.396 8       852.258          51.000
C25  22755899.531 6 118495992.311 6     -1778.609          41.000
E05  24105136.891 8 126673340.344 8     -1688.680          51.000    24105140.453 8  97061388.536 8     -1293.977          51.000
E24  22352090.039 8 117461069.524 8     -1459.691          51.000    22352103.227 8  90002707.761 8     -1118.456          51.000
E25  23891743.641 8 125551959.111 8      1274.238          51.000    23891745.359 8  96202164.119 8       976.379          51.000
> 2020 05 16 05 06 30.0000000  0 14        .000000000000
G13  20312024.359 8 106740400.108 8      -930.098          51.000    20312022.672 8  83174330.224 8      -724.751          50.000
G15  20393598.156 7 107169077.830 7       697.559          44.000    20393596.477 7  83508378.799 7       543.552          44.000
G19  24439236.219 7 128429059.436 7      3412.398          47.000    24439236.039 6 100074570.110 6      2659.015          41.000
G28  21549314.273 6 113242412.842 6     -1914.223          41.000    21549312.727 4  88240832.738 4     -1491.611          29.000
R01  22925185.133 4 122548195.774 4     -4404.906          28.000    22925186.430 4  95315311.308 4     -3426.041          26.000
R02  19215070.906 8 102535258.763 8      -855.898          51.000    19215071.938 8  79749675.813 8      -665.699          48.000
R12  19324551.141 7 103228246.287 7      -653.000          43.000    19324554.297 6  80288687.988 6      -507.892          40.000
R13  21304173.961 5 113763105.452 5      2750.426          33.000    21304173.398 5  88482422.837 5      2139.223          35.000
C05  39789905.812 6 207196479.550 6        19.160          37.000    39789903.172 6 160217431.710 6        15.073          38.000
C23  22118813.602 8 115178504.725 8       838.883          51.000
C25  22766170.234 6 118549474.705 6     -1788.562          40.000
E05  24114813.930 8 126724192.024 8     -1703.105          51.000    24114817.375 8  97100352.788 8     -1304.974          51.000
E24  22360452.523 8 117505014.235 8     -1471.680          51.000    22360465.266 8  90036379.677 8     -1127.660          51.000
E25  23884503.844 8 125513914.697 8      1260.352          51.000    23884505.484 8  96173013.186 8       965.730          51.000
> 2020 05 16 05 07  0.0000000  0 14        .000000000000
G05  24482210.188 5 128654882.646 5     -3640.891          30.000
G13  20317373.016 8 106768507.827 8      -943.367          51.000    20317371.633 8  83196232.324 8      -735.094          50.000
G15  20389660.562 7 107148384.668 7       682.453          45.000    20389658.859 7  83492254.233 7       531.779          45.000
G19  24419759.672 7 128326705.080 7      3411.863          47.000    24419758.492 6  99994813.470 6      2658.595          40.000
G28  21560277.242 6 113300022.682 6     -1925.227          39.000    21560275.898 6  88285723.469 6     -1500.177          36.000
R02  19219952.938 8 102561309.688 8      -880.098          51.000    19219954.391 8  79769937.631 8      -684.520          48.000
R12  19328259.180 7 103248056.063 7      -667.188          42.000    19328263.141 6  80304095.591 6      -518.921          41.000
R13  21288749.375 5 113680741.417 5      2740.621          33.000    21288751.180 6  88418361.929 6      2131.594          38.000
C05  39789790.703 6 207195879.586 6        21.488          37.000    39789787.906 6 160216967.780 6        16.553          39.000
C23  22114005.453 8 115153466.816 8       831.008          51.000
C25  22776489.719 6 118603209.946 6     -1793.031          41.000
E05  24124562.992 8 126775422.572 8     -1711.680          51.000    24124566.234 8  97139607.336 8     -1311.529          51.000
E24  22368874.078 8 117549269.236 8     -1478.004          51.000    22368886.648 8  90070289.355 8     -1132.464          51.000
E25  23877334.016 8 125476239.769 8      1251.945          51.000    23877335.852 8  96144145.371 8       959.280          51.000
> 2020 05 16 05 07 30.0000000  0 16        .000000000000
G13  20322790.289 8 106796976.520 8      -955.105          51.000    20322789.023 8  83218415.709 8      -744.238          50.000
G15  20385802.211 7 107128108.442 7       668.699          46.000    20385800.461 7  83476454.585 7       521.064          46.000
G19  24400279.078 7 128224330.975 7      3412.527          46.000    24400276.656 6  99915041.397 6      2659.109          38.000
G24  22533808.031 5 118415958.324 5      2697.570          33.000
G28  21571296.328 6 113357929.001 6     -1935.176          41.000    21571294.625 5  88330845.213 5     -1507.935          31.000
R01  22974669.773 5 122812768.086 5     -4411.371          33.000    22974672.039 4  95521034.612 4     -3431.069          29.000
R02  19224963.938 8 102588049.177 8      -903.039          51.000    19224966.148 8  79790735.022 8      -702.364          49.000
R11  21788388.461 5 116430466.371 5     -3305.375          32.000    21788394.023 4  90557098.539 4     -2570.847          28.000
R12  19332039.688 7 103268249.683 7      -679.703          44.000    19332043.766 6  80319801.724 6      -528.661          40.000
R13  21273375.375 5 113598642.317 5      2732.484          33.000    21273378.938 6  88354507.067 6      2125.266          40.000
C05  39789656.828 6 207195182.713 6        24.410          37.000    39789654.062 6 160216428.896 6        19.392          38.000
C23  22109235.062 8 115128625.749 8       824.625          51.000
C25  22786827.242 6 118657039.291 6     -1795.914          41.000
E05  24134353.945 8 126826872.317 8     -1718.844          51.000    24134356.961 8  97179029.849 8     -1317.012          51.000
E24  22377324.117 8 117593674.101 8     -1482.809          51.000    22377336.727 8  90104313.854 8     -1136.193          51.000
E25  23870204.617 8 125438775.177 8      1245.199          51.000    23870206.383 8  96115438.731 8       954.129          51.000
> 2020 05 16 05 08  0.0000000  0 16        .000000000000
G13  20328303.078 8 106825947.228 8      -976.891          50.000    20328301.922 8  83240990.274 8      -761.213          49.000
G15  20382050.242 7 107108391.587 7       645.117          46.000    20382048.617 7  83461090.792 7       502.689          46.000
G17  23323451.164 5 122565559.329 5      2204.887          35.000    23323450.133 5  95505632.900 5      1718.091          33.000
G19  24380822.016 7 128122081.810 7      3403.430          47.000    24380819.039 6  99835366.709 6      2652.023          39.000
G24  22518441.500 5 118335212.449 5      2685.172          34.000
G28  21582398.508 7 113416271.192 7     -1954.992          42.000    21582396.977 6  88376306.587 6     -1523.374          36.000
R01  22999461.367 5 122945293.932 5     -4424.141          35.000    22999464.750 5  95624110.213 5     -3440.998          30.000
R02  19230130.570 8 102615620.078 8      -935.656          51.000    19230133.555 8  79812179.086 8      -727.733          50.000
R12  19335918.117 6 103288968.683 6      -702.051          40.000    19335922.211 6  80335916.481 6      -546.036          40.000
R13  21258077.906 5 113516953.908 5      2713.676          32.000    21258082.203 6  88290971.672 6      2110.637          38.000
C05  39789531.383 6 207194529.094 6        18.355          37.000    39789528.578 6 160215923.506 6        14.085          38.000
C23  22104529.219 8 115104121.468 8       808.441          51.000
C25  22797209.570 6 118711101.898 6     -1808.641          41.000
E05  24144213.500 8 126878682.176 8     -1735.625          51.000    24144216.367 8  97218728.299 8     -1329.880          51.000
E24  22385829.195 8 117638368.966 8     -1497.355          51.000    22385841.898 8  90138560.566 8     -1147.306          51.000
E25  23863142.594 8 125401662.464 8      1228.449          51.000    23863144.047 8  96087001.708 8       941.342          51.000
> 2020 05 16 05 08 30.0000000  0 16        .000000000000
G13  20333919.508 8 106855461.929 8      -988.539          51.000    20333918.297 8  83263988.735 8      -770.290          49.000
G15  20378412.734 7 107089277.076 7       631.406          45.000    20378411.055 7  83446196.363 7       492.005          45.000
G17  23310892.047 5 122499564.328 5      2197.691          30.000    23310888.969 5  95454208.285 5      1712.496          30.000
G19  24361397.055 7 128020002.353 7      3404.055          46.000    24361394.039 6  99755824.266 6      2652.510          39.000
G28  21593590.938 6 113475088.605 6     -1964.441          39.000    21593589.883 6  88422138.310 6     -1530.737          37.000
R01  23024302.734 5 123078082.353 5     -4426.121          35.000    23024306.078 5  95727389.996 5     -3442.542          30.000
R02  19235461.273 8 102644064.585 8      -958.270          51.000    19235464.625 8  79834302.606 8      -745.321          51.000
R12  19339902.695 7 103310253.910 7      -714.691          43.000    19339906.336 6  80352471.658 6      -555.871          39.000
R13  21242864.578 4 113435718.458 4      2703.559          29.000    21242868.641 6  88227788.543 6      2102.768          37.000
C05  39789421.992 6 207193959.944 6        21.914          37.000    39789419.188 6 160215483.401 6        16.664          38.000
C23  22099895.594 8 115079994.818 8       802.207          51.000
C25  22807644.062 6 118765437.782 6     -1811.320          41.000
E02  27421422.609 7 144100550.571 7      2776.285          42.000    27421425.062 7 110414714.224 7      2127.343          43.000
E05  24154149.109 8 126930893.168 8     -1742.738          51.000    24154152.125 8  97258734.108 8     -1335.324          51.000
E24  22394397.109 8 117683394.063 8     -1502.016          51.000    22394409.906 8  90173060.311 8     -1150.871          51.000
E25  23856155.250 8 125364943.088 8      1221.746          51.000    23856156.555 8  96058866.090 8       936.155          51.000
> 2020 05 16 05 09  0.0000000  0 14        .000000000000
G13  20339610.609 8 106885368.639 8     -1004.258          51.000    20339609.555 8  83287292.642 8      -782.539          49.000
G15  20374860.977 7 107070613.750 7       613.727          44.000    20374859.109 7  83431653.496 7       478.228          44.000
G19  24341975.555 7 127917943.614 7      3400.805          45.000    24341973.508 6  99676298.007 6      2649.981          39.000
G28  21604844.195 6 113534226.776 6     -1977.520          40.000    21604843.328 6  88468220.007 6     -1540.924          39.000
R01  23049162.906 5 123210975.305 5     -4432.316          35.000    23049166.258 5  95830751.112 5     -3447.360          30.000
R02  19240926.781 8 102673227.253 8      -984.824          51.000    19240929.977 8  79856984.663 8      -765.974          50.000
R12  19343963.797 6 103331948.537 6      -730.766          41.000    19343966.875 6  80369345.225 6      -568.370          38.000
C05  39789300.047 6 207193326.491 6        21.598          37.000    39789297.148 6 160214991.998 6        16.852          38.000
C23  22095305.586 8 115056094.823 8       792.020          51.000
C25  22818101.438 6 118819895.215 6     -1818.043          41.000
E02  27405588.500 7 144017340.993 7      2772.027          43.000    27405591.305 7 110350956.239 7      2123.991          45.000
E05  24164131.680 8 126983352.586 8     -1753.629          51.000    24164134.953 8  97298930.277 8     -1343.657          51.000
E24  22402998.773 8 117728595.951 8     -1510.457          51.000    22403011.797 8  90207695.518 8     -1157.315          51.000
E25  23849213.602 8 125328464.898 8      1211.219          51.000    23849215.180 8  96030915.288 8       928.062          51.000
> 2020 05 16 05 09 30.0000000  0 17        .000000000000
G13  20345387.109 8 106915723.756 8     -1019.340          51.000    20345386.297 8  83310945.952 8      -794.291          49.000
G15  20371406.016 7 107052458.809 7       596.742          46.000    20371403.906 7  83417506.771 7       464.997          46.000
G17  23285947.531 5 122368475.711 5      2174.121          30.000
G19  24322568.688 6 127815965.340 6      3397.730          41.000    24322565.656 5  99596834.511 5      2647.585          34.000
G24  22472578.469 5 118094196.054 5      2669.234          33.000
G28  21616169.227 6 113593740.191 6     -1990.020          39.000    21616168.547 6  88514594.019 6     -1550.668          40.000
R01  23074051.859 5 123344026.272 5     -4438.156          34.000    23074056.344 5  95934235.141 5     -3451.899          30.000
R02  19246537.406 8 102703164.483 8     -1010.840          51.000    19246540.250 8  79880269.171 8      -786.209          50.000
R12  19348111.617 7 103354107.963 7      -746.258          43.000    19348114.367 6  80386580.369 6      -580.423          38.000
R13  21212622.914 4 113274221.751 4      2680.031          29.000    21212623.727 5  88102168.926 5      2084.472          35.000
C05  39789176.000 6 207192680.389 6        21.781          37.000    39789173.172 6 160214492.391 6        16.963          38.000
C23  22090770.078 8 115032476.900 8       782.660          51.000
C25  22828592.703 6 118874528.801 6     -1823.922          41.000
E02  27389774.789 7 143934238.532 7      2768.430          43.000    27389777.117 7 110287280.316 7      2121.183          44.000
E05  24174172.000 8 127036116.075 8     -1763.820          51.000    24174175.438 8  97339359.413 8     -1351.439          51.000
E24  22411644.570 8 117774029.513 8     -1518.215          51.000    22411657.867 8  90242508.239 8     -1163.307          51.000
E25  23842328.711 8 125292284.081 8      1201.078          51.000    23842330.570 8  96003192.337 8       920.280          51.000
> 2020 05 16 05 10  0.0000000  0 16        .000000000000
G13  20351242.688 8 106946494.483 8     -1036.191          51.000    20351242.016 8  83334923.112 8      -807.422          49.000
G15  20368041.953 7 107034781.172 7       577.832          47.000    20368039.883 7  83403731.993 7       450.259          47.000
G17  23273565.656 5 122303399.299 5      2160.297          32.000    23273575.398 5  95301395.682 5      1683.348          30.000
G19  24303170.875 6 127714038.251 6      3393.324          38.000    24303164.734 5  99517410.920 5      2644.149          34.000
G28  21627558.719 6 113653593.900 6     -2004.523          38.000    21627558.664 6  88561233.333 6     -1561.963          38.000
R01  23098963.789 5 123477199.381 5     -4444.453          34.000    23098969.500 5  96037814.163 5     -3456.797          31.000
R02  19252286.602 8 102733843.083 8     -1038.504          51.000    19252289.219 8  79904130.274 8      -807.728          50.000
R11  21881575.508 4 116928465.481 4     -3330.395          28.000    21881570.875 4  90944373.631 4     -2590.310          27.000
R12  19352340.031 6 103376697.474 6      -763.617          39.000    19352343.133 6  80404149.986 6      -593.924          39.000
C05  39789043.680 6 207191991.663 6        20.164          37.000    39789040.922 6 160213959.814 6        15.722          38.000
C23  22086282.375 8 115009108.812 8       771.352          50.000
C25  22839112.000 7 118929305.540 7     -1831.750          43.000
E02  27373975.070 7 143851211.771 7      2762.836          42.000    27373977.641 7 110223662.367 7      2116.963          44.000
E05  24184264.172 8 127089150.791 8     -1775.777          51.000    24184267.594 8  97379996.373 8     -1360.652          51.000
E24  22420327.984 8 117819661.169 8     -1527.766          51.000    22420341.328 8  90277472.745 8     -1170.665          51.000
E25  23835494.281 8 125256368.318 8      1189.410          51.000    23835496.641 8  95975672.468 8       911.360          51.000
> 2020 05 16 05 10 30.0000000  0 15        .000000000000
G13  20357200.836 8 106977804.312 8     -1041.477          51.000    20357199.953 8  83359320.358 8      -811.540          49.000
G15  20364792.273 7 107017704.683 7       570.344          46.000    20364790.703 7  83390425.624 7       444.421          46.000
G19  24283808.188 7 127612288.913 7      3399.895          43.000    24283800.797 6  99438125.723 6      2649.265          37.000
G24  22442181.266 5 117934432.701 5      2664.406          35.000
G28  21639036.430 7 113713909.209 7     -2007.410          43.000    21639036.359 6  88608232.237 6     -1564.216          38.000
R01  23123921.570 5 123610616.343 5     -4439.914          34.000    23123928.867 5  96141582.850 5     -3453.266          30.000
R02  19258197.789 8 102765387.524 8     -1054.652          51.000    19258200.500 8  79928664.802 8      -820.285          48.000
R12  19356671.852 7 103399840.324 7      -769.191          42.000    19356675.391 6  80422150.007 6      -598.260          37.000
C05  39788926.719 6 207191382.375 6        29.816          37.000    39788923.875 6 160213488.680 6        23.192          38.000
C23  22081865.719 8 114986112.196 8       771.336          50.000
C25  22849682.336 7 118984346.332 7     -1827.980          42.000
E02  27358213.570 6 143768384.396 6      2768.691          41.000    27358216.172 7 110160197.267 7      2121.384          44.000
E05  24194431.570 8 127142579.234 8     -1776.465          51.000    24194434.758 8  97420935.019 8     -1361.193          51.000
E24  22429072.203 8 117865612.670 8     -1525.969          51.000    22429085.359 8  90312682.322 8     -1169.300          51.000
E25  23828733.578 8 125220840.671 8      1188.668          51.000    23828736.672 8  95948449.977 8       910.845          51.000
> 2020 05 16 05 11  0.0000000  0 17        .000000000000
G05  24648449.547 5 129528484.445 5     -3638.965          32.000
G13  20363224.242 8 107009457.382 8     -1065.340          51.000    20363223.141 8  83383985.068 8      -830.135          50.000
G15  20361620.094 7 107001035.121 7       544.398          47.000    20361618.906 7  83377436.330 7       424.207          47.000
G19  24264443.695 7 127510524.712 7      3387.926          45.000    24264438.180 6  99358829.037 6      2639.948          41.000
G24  22427016.977 5 117854751.884 5      2650.160          34.000    22427019.977 5  91834933.704 5      2065.051          34.000
G28  21650564.766 6 113774488.493 6     -2028.035          41.000    21650563.969 6  88655436.828 6     -1580.287          40.000
R01  23148888.039 5 123744074.722 5     -4453.910          35.000    23148895.453 4  96245383.773 4     -3464.152          29.000
R02  19264233.609 8 102797598.493 8     -1089.320          51.000    19264236.422 7  79953717.759 7      -847.252          47.000
R11  21918999.828 5 117128471.633 5     -3337.895          33.000
R12  19361070.250 6 103423335.769 6      -793.625          41.000    19361072.625 6  80440424.167 6      -617.264          38.000
C05  39788787.789 6 207190658.662 6        21.727          37.000    39788784.867 6 160212929.052 6        16.803          38.000
C23  22077483.633 8 114963293.034 8       753.293          51.000
C25  22860266.055 7 119039456.400 7     -1842.637          43.000
E02  27342452.336 6 143685561.734 6      2756.312          36.000    27342455.344 7 110096735.709 7      2111.878          43.000
E05  24204636.539 8 127196205.270 8     -1795.336          51.000    24204639.430 8  97462025.069 8     -1375.617          51.000
E24  22437839.867 8 117911687.153 8     -1542.324          51.000    22437852.914 8  90347986.129 8     -1181.766          51.000
E25  23822009.469 8 125185505.486 8      1170.234          51.000    23822013.125 8  95921374.960 8       896.637          51.000
> 2020 05 16 05 11 30.0000000  0 17        .000000000000
G13  20369350.758 8 107041652.149 8     -1079.641          51.000    20369349.602 8  83409071.869 8      -841.278          50.000
G15  20358563.273 7 106984971.414 7       527.828          47.000    20358562.156 7  83364919.152 7       411.295          47.000
G17  23236837.992 5 122110407.193 5      2127.301          31.000
G19  24245115.094 7 127408947.511 7      3385.340          47.000    24245111.469 7  99279678.030 7      2637.930          43.000
G24  22411905.656 5 117775346.032 5      2644.785          35.000    22411904.672 5  91773059.133 5      2060.881          34.000
G28  21662180.656 6 113835527.588 6     -2039.688          41.000    21662178.688 6  88702999.817 6     -1589.367          38.000
R01  23173899.828 5 123877773.063 5     -4457.773          35.000    23173906.312 4  96349371.367 4     -3467.157          29.000
R02  19270431.773 8 102830676.542 8     -1114.418          51.000    19270434.656 7  79979445.079 7      -866.770          46.000
R11  21937751.430 5 117228668.607 5     -3341.422          33.000    21937752.891 4  91177883.256 4     -2598.887          29.000
R12  19365571.820 7 103447383.197 7      -808.086          45.000    19365575.859 6  80459127.783 6      -628.511          40.000
C05  39788664.617 6 207190017.124 6        22.238          37.000    39788661.594 6 160212432.956 6        17.365          38.000
C23  22073173.555 8 114940847.528 8       744.480          51.000
C25  22870900.930 7 119094831.132 7     -1847.645          43.000
E02  27326729.555 5 143602942.731 5      2753.641          35.000    27326733.195 7 110033430.240 7      2109.582          42.000
E05  24214916.695 8 127250226.581 8     -1804.809          51.000    24214919.148 8  97503417.994 8     -1382.902          51.000
E24  22446668.508 8 117958081.582 8     -1549.293          51.000    22446681.469 8  90383535.098 8     -1187.127          51.000
E25  23815359.625 8 125150561.025 8      1160.828          51.000    23815363.625 8  95894599.322 8       889.448          51.000
> 2020 05 16 05 12  0.0000000  0 17        .000000000000
G13  20375562.375 8 107074294.290 8     -1096.043          51.000    20375561.297 8  83434507.293 8      -854.059          50.000
G15  20355604.008 8 106969420.560 8       509.391          48.000    20355603.172 8  83352801.596 8       396.925          48.000
G19  24225804.250 7 127307465.941 7      3380.734          45.000    24225802.570 7  99200601.519 7      2634.342          45.000
G24  22396829.383 6 117696121.233 6      2637.074          36.000    22396827.812 5  91711325.447 5      2054.863          34.000
G28  21673865.445 7 113896930.004 7     -2053.395          44.000    21673863.117 6  88750845.793 6     -1600.051          37.000
R01  23198937.938 5 124011611.996 5     -4463.551          34.000    23198943.969 4  96453468.250 4     -3471.654          27.000
R02  19276774.727 8 102864524.615 8     -1141.523          51.000    19276777.180 7  80005771.324 7      -887.852          45.000
R11  21956519.562 5 117328968.462 5     -3345.695          35.000    21956524.977 5  91255894.196 5     -2602.211          30.000
R12  19370159.117 7 103471885.087 7      -824.621          43.000    19370162.672 6  80478184.768 6      -641.372          39.000
R13  21138192.492 5 112876760.455 5      2617.672          31.000    21138191.328 5  87793047.824 5      2035.970          32.000
C05  39788539.125 6 207189363.841 6        21.891          37.000    39788536.062 6 160211927.841 6        16.507          38.000
C23  22068916.836 8 114918681.654 8       733.824          50.000
C25  22881568.703 7 119150375.823 7     -1854.672          42.000
E02                                                                  27311031.805 6 109970208.931 6      2105.760          41.000
E05  24225254.023 8 127304547.947 8     -1816.027          51.000    24225255.789 8  97545040.845 8     -1391.507          51.000
E24  22455539.766 8 118004700.034 8     -1558.074          51.000    22455552.617 8  90419255.727 8     -1193.828          51.000
E25  23808766.164 8 125115912.605 8      1149.609          51.000    23808770.125 8  95868050.537 8       880.867          51.000
> 2020 05 16 05 12 30.0000000  0 17        .000000000000
G13  20381869.031 8 107107435.840 8     -1111.309          51.000    20381867.953 8  83460331.872 8      -865.955          50.000
G15  20352752.469 8 106954435.655 8       491.809          48.000    20352751.586 8  83341125.032 8       383.227          48.000
G17  23212698.875 5 121983541.810 5      2102.309          33.000    23212711.883 5  95052146.339 5      1638.166          32.000
G19  24206521.453 7 127206135.779 7      3376.715          44.000    24206521.469 7  99121643.015 7      2631.206          44.000
G28  21685628.773 7 113958745.615 7     -2065.547          42.000    21685626.898 6  88799013.777 6     -1609.517          39.000
R01  23224011.258 5 124145640.932 5     -4469.051          35.000    23224016.781 4  96557712.909 4     -3475.931          25.000
R02  19283271.984 8 102899195.324 8     -1167.605          51.000    19283274.344 7  80032737.394 7      -908.138          46.000
R11  21975316.102 6 117429422.341 6     -3349.223          38.000    21975320.938 5  91334025.025 5     -2604.951          30.000
R12  19374840.281 7 103496892.084 7      -840.078          44.000    19374843.938 6  80497634.654 6      -653.394          41.000
R13  21123526.117 5 112798439.480 5      2605.918          31.000    21123525.047 5  87732131.577 5      2026.828          34.000
C05  39788421.438 6 207188750.757 6        21.684          37.000    39788418.328 6 160211453.748 6        16.616          38.000
C23  22064723.719 8 114896846.860 8       724.125          51.000
C25  22892278.672 7 119206141.164 7     -1860.613          42.000
E02                                                                  27295361.391 6 109907112.352 6      2102.477          40.000
E05  24235658.219 8 127359220.979 8     -1826.445          51.000    24235659.555 8  97586933.159 8     -1399.508          51.000
E24  22464463.359 8 118051593.443 8     -1565.863          51.000    22464476.227 8  90455187.031 8     -1199.811          51.000
E25  23802239.289 8 125081612.365 8      1139.430          51.000    23802242.750 8  95841768.548 8       873.075          51.000
> 2020 05 16 05 13  0.0000000  0 16        .000000000000
G13  20388254.109 8 107140989.681 8     -1125.516          51.000    20388253.148 8  83486477.712 8      -877.028          50.000
G15  20349992.172 8 106939930.797 8       475.293          48.000    20349991.289 8  83329822.528 8       370.358          48.000
G17  23200732.969 6 121920646.279 6      2090.758          39.000    23200752.320 5  95003136.950 5      1629.168          33.000
G19  24187250.680 6 127104873.288 6      3374.320          40.000    24187252.039 6  99042737.180 6      2629.344          39.000
G28  21697453.297 7 114020885.265 7     -2076.719          43.000    21697451.672 6  88847434.314 6     -1618.222          36.000
R01  23249102.680 5 124279768.640 5     -4472.957          32.000
R02  19289907.180 8 102934599.462 8     -1192.422          51.000    19289909.023 7  80060273.946 7      -927.436          47.000
R11  21994126.164 5 117529899.071 5     -3351.812          34.000    21994133.688 4  91412175.486 4     -2606.962          28.000
R12  19379599.641 7 103522314.228 7      -854.426          43.000    19379603.984 6  80517407.427 6      -664.553          41.000
C05  39788294.938 6 207188091.721 6        22.695          37.000    39788291.789 6 160210944.102 6        17.643          38.000
C23  22060577.836 8 114875256.831 8       715.441          51.000
C25  22903013.453 7 119262040.148 7     -1865.613          42.000
E02  27279704.609 5 143355812.705 5      2741.070          32.000    27279705.859 6 109844074.524 6      2100.040          40.000
E05  24246112.281 8 127414158.223 8     -1835.859          51.000    24246113.898 8  97629027.924 8     -1406.706          51.000
E24  22473422.547 8 118098673.683 8     -1572.551          51.000    22473435.656 8  90491261.487 8     -1204.974          51.000
E25  23795762.227 8 125047573.468 8      1130.008          51.000    23795764.992 8  95815686.792 8       865.862          51.000
> 2020 05 16 05 13 30.0000000  0 17        .000000000000
G13  20394728.391 8 107175012.133 8     -1141.445          51.000    20394727.398 8  83512988.695 8      -889.438          50.000
G15  20347334.102 8 106925962.790 8       457.133          49.000    20347333.328 8  83318938.366 8       356.207          48.000
G17  23188837.766 6 121858128.456 6      2077.988          37.000    23188859.984 5  94954421.600 5      1619.203          31.000
G19  24168004.414 7 127003737.905 7      3369.340          42.000    24168006.094 7  98963930.439 7      2625.460          42.000
G24  22351836.289 5 117459696.926 5      2618.914          35.000
G28  21709350.023 7 114083403.264 7     -2089.797          43.000    21709347.641 5  88896149.596 5     -1628.413          35.000
R01  23274222.930 5 124414048.568 5     -4477.555          31.000
R02  19296690.508 8 102970793.318 8     -1219.191          51.000    19296692.070 8  80088424.733 8      -948.260          48.000
R11  22012959.438 4 117630519.600 4     -3357.336          27.000
R12  19384446.844 7 103548206.911 7      -870.398          45.000    19384450.727 6  80537546.148 6      -676.977          41.000
C05  39788170.258 6 207187442.514 6        21.711          37.000    39788167.242 6 160210442.100 6        16.803          38.000
C23  22056489.469 8 114853966.976 8       705.109          51.000
C25  22913784.117 6 119318127.393 6     -1872.168          41.000
E02  27264075.438 6 143273676.586 6      2735.902          36.000    27264076.344 6 109781139.070 6      2096.335          39.000
E05  24256626.766 8 127469415.278 8     -1846.910          51.000    24256629.102 8  97671367.735 8     -1415.111          51.000
E24  22482427.609 8 118145995.636 8     -1581.051          51.000    22482441.102 8  90527521.158 8     -1211.416          51.000
E25  23789345.016 8 125013851.972 8      1119.250          51.000    23789347.297 8  95789848.236 8       857.607          51.000
> 2020 05 16 05 14  0.0000000  0 14        .000000000000
G13  20401283.812 8 107209461.607 8     -1158.578          51.000    20401283.102 8  83539832.426 8      -902.788          50.000
G15  20344770.625 8 106912491.552 8       437.504          50.000    20344769.977 8  83308441.292 8       340.912          50.000
G17  23177004.773 5 121795949.473 5      2064.371          35.000    23177023.789 4  94905970.254 4      1608.583          26.000
G19  24148776.062 7 126902691.777 7      3363.324          44.000    24148777.055 7  98885193.263 7      2620.778          42.000
G28  21721310.500 7 114146255.911 7     -2103.973          42.000    21721308.172 6  88945125.674 6     -1639.462          39.000
R02  19303613.633 8 103007733.790 8     -1247.016          51.000    19303614.945 8  80117156.215 8      -969.901          48.000
R12  19389374.180 7 103574525.802 7      -887.609          45.000    19389378.031 6  80558016.390 6      -690.363          41.000
C05  39788039.523 6 207186762.122 6        19.891          37.000    39788036.570 6 160209915.956 6        15.598          38.000
C23  22052451.117 8 114832935.983 8       693.527          51.000
C25  22924582.891 6 119374360.938 6     -1880.090          41.000
E02  27248463.281 6 143191633.463 6      2729.879          38.000    27248465.188 6 109718274.825 6      2091.896          39.000
E05  24267193.969 8 127524950.105 8     -1858.973          51.000    24267197.008 8  97713920.387 8     -1424.420          51.000
E24  22491470.508 8 118193516.591 8     -1590.535          51.000    22491484.055 8  90563933.308 8     -1218.707          51.000
E25  23782980.094 8 124980406.415 8      1107.043          51.000    23782982.148 8  95764221.118 8       848.215          51.000
> 2020 05 16 05 14 30.0000000  0 15        .000000000000
G13  20407924.625 8 107244360.157 8     -1164.852          51.000    20407923.977 8  83567026.091 8      -907.680          50.000
G15  20342306.047 8 106899539.617 8       428.949          49.000    20342305.594 8  83298348.861 8       334.243          49.000
G17  23165240.836 5 121734133.698 5      2060.582          34.000    23165259.000 5  94857868.309 5      1605.645          30.000
G19  24129570.008 7 126801759.988 7      3368.121          47.000    24129570.117 6  98806545.147 6      2624.510          41.000
G24  22322002.609 5 117302891.627 5      2612.809          30.000    22321992.039 4  91404829.329 4      2035.949          29.000
G28  21733338.500 7 114209463.018 7     -2107.008          43.000    21733336.336 6  88994377.970 6     -1641.824          39.000
R02  19310680.297 8 103045442.345 8     -1263.875          51.000    19310681.367 8  80146485.105 8      -983.014          48.000
R12  19394385.195 7 103601291.602 7      -893.586          45.000    19394388.617 6  80578834.234 6      -695.011          40.000
C05  39787907.094 6 207186072.399 6        28.516          37.000    39787904.133 6 160209382.615 6        22.316          38.000
C23  22048466.625 8 114812185.347 8       692.766          50.000
C25  22935413.344 6 119430761.547 6     -1877.227          38.000
E02  27232874.023 6 143109705.939 6      2734.891          41.000    27232876.562 6 109655499.186 6      2095.607          38.000
E05  24277818.258 8 127580784.054 8     -1860.285          51.000    24277821.648 8  97756702.229 8     -1425.392          51.000
E24  22500555.266 8 118241257.221 8     -1589.164          51.000    22500568.555 8  90600513.785 8     -1217.680          51.000
E25  23776672.289 8 124947258.693 8      1105.734          51.000    23776673.898 8  95738822.210 8       847.263          51.000
> 2020 05 16 05 15  0.0000000  0 16        .000000000000
G13  20414660.836 8 107279759.700 8     -1190.121          51.000    20414660.141 8  83594610.156 8      -927.364          49.000
G15  20339950.477 8 106887160.278 8       401.305          51.000    20339950.258 8  83288702.602 8       312.705          51.000
G17  23153558.219 5 121672735.942 5      2038.246          33.000    23153552.930 5  94809924.876 5      1588.253          34.000
G19  24110396.594 8 126700998.063 8      3354.082          48.000    24110395.797 7  98728029.368 7      2613.573          42.000
G28  21745443.523 7 114273074.607 7     -2128.949          44.000    21745441.117 6  89043945.405 6     -1658.925          36.000
R02  19317900.398 8 103083971.128 8     -1299.730          51.000    19317901.742 8  80176451.925 8     -1010.905          49.000
R11  22069562.070 5 117933022.895 5     -3369.133          33.000
R12  19399489.266 7 103628554.876 7      -918.879          45.000    19399491.750 6  80600039.012 6      -714.681          40.000
R13  21051191.719 4 112412159.662 4      2541.699          29.000    21051189.859 5  87431689.421 5      1976.880          32.000
C05  39787782.758 6 207185424.763 6        19.141          37.000    39787779.711 6 160208881.841 6        14.589          38.000
C23  22044545.234 8 114791766.326 8       673.230          49.000
C25  22946284.984 6 119487379.672 6     -1892.707          38.000
E02  27217315.930 7 143027946.839 7      2720.723          42.000    27217320.227 6 109592852.592 6      2084.680          39.000
E05  24288509.445 8 127636968.512 8     -1880.508          51.000    24288512.891 8  97799752.636 8     -1440.885          51.000
E24  22509691.484 8 118289268.264 8     -1606.703          51.000    22509704.570 8  90637301.453 8     -1231.068          51.000
E25  23770431.141 8 124914460.705 8      1085.691          51.000    23770432.461 8  95713691.277 8       831.878          51.000
> 2020 05 16 05 15 30.0000000  0 14        .000000000000
G13  20421476.617 8 107315577.116 8     -1199.422          51.000    20421476.312 8  83622519.841 8      -934.614          50.000
G15  20337688.242 8 106875271.537 8       389.656          50.000    20337687.992 8  83279438.647 8       303.628          50.000
G19  24091240.109 8 126600326.163 8      3355.758          48.000    24091238.367 6  98649583.762 6      2614.876          41.000
G28  21757609.273 7 114337005.449 7     -2134.918          42.000    21757606.516 6  89093761.618 6     -1663.572          40.000
G30  23901652.133 5 125604009.637 5     -2891.277          30.000    23901654.938 4  97873277.642 4     -2252.965          24.000
R02  19325257.945 8 103123234.370 8     -1319.469          51.000    19325259.844 8  80206989.982 8     -1026.253          49.000
R12  19404670.438 7 103656229.789 7      -927.809          44.000    19404672.938 6  80621563.975 6      -721.629          41.000
C05  39787650.789 6 207184737.224 6        24.957          37.000    39787647.695 6 160208350.175 6        19.455          38.000
C23  22040671.672 8 114771596.450 8       669.664          50.000
C25  22957183.008 6 119544132.231 6     -1892.465          39.000
E02  27201773.672 7 142946273.920 7      2722.406          43.000    27201779.852 6 109530272.055 6      2085.928          39.000
E05  24299251.586 8 127693419.912 8     -1884.660          51.000    24299255.070 8  97843007.571 8     -1444.054          51.000
E24  22518863.188 8 118337465.514 8     -1608.137          51.000    22518876.109 8  90674231.800 8     -1232.206          51.000
E25  23764240.367 8 124881929.452 8      1081.418          51.000    23764241.977 8  95688764.732 8       828.610          51.000
> 2020 05 16 05 16  0.0000000  0 13        .000000000000
G13  20428388.148 8 107351897.229 8     -1220.836          51.000    20428387.984 8  83650821.218 8      -951.301          50.000
G15  20335535.641 8 106863959.080 8       365.691          51.000    20335535.289 8  83270623.723 8       284.954          51.000
G19  24072117.273 7 126499832.811 7      3344.965          45.000    24072115.438 7  98571277.262 7      2606.469          44.000
G28  21769851.297 6 114401338.188 6     -2152.730          38.000    21769849.023 6  89143891.055 6     -1677.449          37.000
R02  19332769.094 8 103163317.439 8     -1351.613          51.000    19332771.797 8  80238165.680 8     -1051.255          50.000
R12  19409943.750 7 103684400.550 7      -949.227          44.000    19409946.555 6  80643474.581 6      -738.287          40.000
C05  39787527.234 6 207184093.868 6        18.871          37.000    39787524.102 6 160207852.667 6        14.882          38.000
C23  22036862.359 8 114751759.659 8       653.863          49.000
C25  22968123.930 6 119601102.535 6     -1904.246          36.000
E02  27186264.000 7 142864772.928 7      2712.156          43.000    27186271.141 6 109467823.199 6      2078.167          39.000
E05  24310060.727 8 127750222.532 8     -1900.926          51.000    24310064.406 8  97886531.639 8     -1456.568          51.000
E24  22528086.266 8 118385932.612 8     -1621.836          51.000    22528099.039 8  90711368.917 8     -1242.664          51.000
E25  23758116.188 8 124849749.747 8      1065.086          51.000    23758118.609 8  95664107.557 8       816.126          51.000
> 2020 05 16 05 16 30.0000000  0 13        .000000000000
G13  20435384.797 8 107388663.895 8     -1232.289          51.000    20435384.250 8  83679470.552 8      -960.225          49.000
G15  20333482.250 8 106853167.875 8       351.688          51.000    20333481.672 8  83262214.984 8       274.042          51.000
G19  24053017.344 7 126399464.928 7      3344.129          43.000    24053016.109 7  98493068.592 7      2605.815          43.000
G28  21782158.195 7 114466014.371 7     -2160.777          42.000    21782157.156 5  89194288.141 5     -1683.723          35.000
R02  19340423.320 8 103204162.458 8     -1373.496          51.000    19340426.445 8  80269934.026 8     -1068.275          51.000
R12  19415299.133 7 103713008.156 7      -960.238          45.000    19415301.516 6  80665724.914 6      -746.855          41.000
C05  39787401.586 6 207183439.194 6        22.699          37.000    39787398.422 6 160207365.443 6        17.562          38.000
C23  22033105.930 8 114732199.988 8       648.113          49.000
C25  22979095.789 6 119658234.010 6     -1906.328          37.000
E02  27170776.711 7 142783388.399 7      2711.547          44.000    27170783.359 6 109405463.639 6      2077.619          39.000
E05  24320925.875 8 127807319.603 8     -1907.398          51.000    24320929.852 8  97930281.329 8     -1461.492          51.000
E24  22537349.742 8 118434612.166 8     -1625.469          51.000    22537362.461 8  90748668.821 8     -1245.477          51.000
E25  23752048.633 8 124817865.432 8      1058.562          51.000    23752051.766 8  95639676.705 8       811.127          51.000
> 2020 05 16 05 17  0.0000000  0 14        .000000000000
G13  20442466.648 8 107425877.911 8     -1248.238          51.000    20442465.469 8  83708468.463 8      -972.653          48.000
G15  20331528.281 8 106842899.575 8       333.203          51.000    20331527.344 8  83254213.703 8       259.639          51.000
G19  24033941.836 6 126299227.325 6      3338.559          41.000    24033941.711 6  98414961.353 6      2601.474          40.000
G28  21794530.852 7 114531033.305 7     -2173.395          44.000    21794530.055 5  89244952.200 5     -1693.554          35.000
R01  23450732.742 5 125357594.569 5     -4507.488          31.000
R02  19348220.289 8 103245768.945 8     -1399.898          51.000    19348223.617 8  80302294.586 8     -1088.810          51.000
R12  19420736.289 7 103742051.984 7      -975.723          44.000    19420739.406 6  80688314.554 6      -758.895          41.000
C05  39787273.914 6 207182774.345 6        21.984          37.000    39787270.703 6 160206851.335 6        17.036          38.000
C23  22029402.898 8 114712918.317 8       637.777          50.000
C25  22990098.312 6 119715526.691 6     -1912.672          38.000
E02  27155312.359 7 142702122.242 7      2706.598          45.000    27155317.172 6 109343194.779 6      2073.943          41.000
E05  24331847.039 8 127864711.593 8     -1918.250          50.000    24331851.297 8  97974257.006 8     -1469.870          51.000
E24  22546653.578 8 118483504.043 8     -1633.555          51.000    22546666.352 8  90786131.409 8     -1251.685          51.000
E25  23746037.891 8 124786277.550 8      1047.668          51.000    23746041.164 8  95615472.995 8       802.765          51.000
> 2020 05 16 05 17 30.0000000  0 14        .000000000000
G13  20449632.945 8 107463536.599 8     -1263.242          51.000    20449631.484 8  83737812.871 8      -984.345          48.000
G15  20329673.578 8 106833152.679 8       315.602          51.000    20329672.352 8  83246618.720 8       245.923          51.000
G19  24014891.859 7 126199120.663 7      3334.109          45.000    24014892.375 7  98336956.212 7      2598.007          45.000
G28  21806967.953 7 114596390.117 7     -2184.578          43.000    21806966.430 5  89295879.554 5     -1702.266          35.000
R01  23476041.922 5 125492863.088 5     -4510.770          35.000
R02  19356159.430 8 103288133.324 8     -1425.332          51.000    19356162.602 8  80335244.643 8     -1108.592          50.000
R12  19426253.977 7 103771527.252 7      -990.484          44.000    19426257.125 6  80711239.757 6      -770.377          41.000
C05  39787143.758 6 207182096.631 6        22.445          37.000    39787140.555 6 160206327.272 6        17.269          38.000
C23  22025752.875 8 114693911.608 8       628.438          50.000
C25  23001131.836 5 119772976.830 5     -1918.180          33.000
E02  27139870.438 7 142620972.332 7      2702.453          46.000    27139873.484 7 109281015.031 7      2070.576          42.000
E05  24342823.711 8 127922395.096 8     -1928.293          51.000    24342827.906 8  98018456.044 8     -1477.481          51.000
E24  22555997.008 8 118532604.180 8     -1640.762          51.000    22556009.805 8  90823753.578 8     -1257.204          51.000
E25  23740082.906 8 124754983.124 8      1037.664          51.000    23740086.039 8  95591494.167 8       795.141          51.000
> 2020 05 16 05 18  0.0000000  0 16        .000000000000
G13  20456884.641 8 107501644.825 8     -1277.848          51.000    20456883.250 8  83767507.551 8      -995.725          48.000
G15  20327919.219 8 106823932.902 8       298.504          51.000    20327917.906 8  83239434.473 8       232.600          51.000
G19  23995869.328 7 126099153.358 7      3329.883          47.000    23995869.680 7  98259059.643 7      2594.714          46.000
G24  22218795.250 4 116760556.212 4      2559.883          29.000
G28  21819469.922 7 114662087.395 7     -2195.562          44.000    21819468.172 5  89347072.248 5     -1710.825          34.000
R01  23501365.734 5 125628236.112 5     -4514.500          32.000
R02  19364241.070 8 103331259.414 8     -1450.234          51.000    19364243.984 8  80368787.149 8     -1127.960          49.000
R12  19431853.086 7 103801436.948 7     -1004.199          44.000    19431856.406 6  80734502.849 6      -781.044          41.000
R13  20966719.250 4 111961102.718 4      2468.668          29.000    20966708.047 4  87080824.683 4      1920.075          28.000
C05  39787012.109 6 207181411.049 6        22.910          37.000    39787008.953 6 160205797.123 6        17.855          38.000
C23  22022156.438 8 114675184.528 8       619.645          49.000
C25  23012197.094 5 119830588.540 5     -1923.223          30.000
E02  27124451.797 7 142539944.432 7      2698.996          46.000    27124453.781 7 109218928.730 7      2067.975          44.000
E05  24353856.938 8 127980374.408 8     -1937.527          51.000    24353860.922 8  98062881.748 8     -1484.566          51.000
E24  22565380.695 8 118581916.273 8     -1647.227          51.000    22565393.531 8  90861538.171 8     -1262.146          51.000
E25  23734184.664 8 124723987.100 8      1028.133          51.000    23734187.617 8  95567743.987 8       787.874          51.000
> 2020 05 16 05 18 30.0000000  0 15        .000000000000
G13  20464221.719 8 107540201.949 8     -1296.039          51.000    20464220.430 8  83797552.041 8     -1009.904          48.000
G15  20326265.070 8 106815240.529 8       277.684          51.000    20326263.898 8  83232661.188 8       216.377          51.000
G19  23976873.930 8 125999328.355 8      3321.855          49.000    23976874.148 7  98181273.976 7      2588.462          45.000
G28  21832036.070 7 114728122.741 7     -2210.016          44.000    21832034.562 5  89398528.307 5     -1722.090          34.000
R01  23526708.812 5 125763709.564 5     -4520.461          33.000
R02  19372465.133 8 103375145.523 8     -1478.656          51.000    19372467.469 8  80402920.803 8     -1150.066          48.000
R12  19437532.805 6 103831778.798 6     -1021.996          40.000    19437536.961 6  80758102.087 6      -794.883          41.000
R13  20952875.219 4 111887215.537 4      2453.492          29.000    20952872.961 5  87023349.935 5      1908.272          30.000
C05  39786878.859 6 207180717.266 6        19.848          37.000    39786875.664 6 160205260.639 6        15.523          38.000
C23  22018613.391 8 114656736.448 8       607.059          49.000
C25  23023293.164 4 119888328.173 4     -1931.535          28.000
E02  27109056.430 7 142459038.917 7      2691.520          46.000    27109058.062 7 109156936.226 7      2062.360          45.000
E05  24364946.531 8 128038648.546 8     -1950.562          51.000    24364950.070 8  98107533.356 8     -1494.569          51.000
E24  22574804.406 8 118631438.762 8     -1657.496          51.000    22574817.336 8  90899483.960 8     -1269.964          51.000
E25  23728343.352 8 124693289.005 8      1015.195          51.000    23728346.055 8  95544222.065 8       777.838          51.000
> 2020 05 16 05 19  0.0000000  0 16        .000000000000
G13  20471647.727 8 107579226.759 8     -1304.613          51.000    20471646.562 8  83827960.969 8     -1016.582          49.000
G15  20324715.086 8 106807095.586 8       266.395          51.000    20324713.844 8  83226314.473 8       207.580          51.000
G19  23957910.031 8 125899667.791 8      3323.160          48.000    23957909.211 7  98103616.465 7      2589.478          43.000
G24  22189646.375 5 116607377.920 5      2550.246          35.000
G28  21844669.648 7 114794513.217 7     -2214.918          42.000    21844668.141 6  89450261.136 6     -1725.910          36.000
G30  24017702.320 5 126213886.489 5     -2908.984          31.000
R01  23552069.133 5 125899306.760 5     -4517.500          32.000
R02  19380834.977 8 103419809.783 8     -1497.719          50.000    19380836.852 7  80437659.694 7     -1164.892          47.000
R12  19443296.672 6 103862570.111 6     -1029.902          41.000    19443301.258 6  80782050.889 6      -801.038          40.000
C05  39786747.711 6 207180034.039 6        26.836          37.000    39786744.414 6 160204732.355 6        20.440          38.000
C23  22015127.711 8 114638585.793 8       604.004          48.000
C25  23034422.742 5 119946277.791 5     -1931.012          33.000
E02  27093687.844 7 142378275.385 7      2693.738          45.000    27093689.625 7 109095052.504 7      2063.964          46.000
E05  24376095.742 8 128097235.686 8     -1954.109          51.000    24376098.617 8  98152424.784 8     -1497.254          51.000
E24  22584271.516 8 118681189.220 8     -1658.109          51.000    22584284.625 8  90937604.435 8     -1270.505          51.000
E25  23722562.406 8 124662907.610 8      1011.355          51.000    23722564.961 8  95520942.799 8       774.995          51.000
> 2020 05 16 05 19 30.0000000  0 16        .000000000000
G13  20479155.023 8 107618678.473 8     -1322.508          51.000    20479154.305 8  83858702.551 8     -1030.526          50.000
G15  20323261.695 8 106799458.090 8       245.805          51.000    20323260.531 8  83220363.167 8       191.536          51.000
G17  23051641.984 5 121137205.325 5      1926.043          32.000
G19  23938970.164 7 125800134.494 7      3315.363          46.000    23938968.500 7  98026058.042 7      2583.400          44.000
G28  21857362.570 7 114861215.582 7     -2228.965          44.000    21857360.852 5  89502236.997 5     -1736.856          34.000
G30  24034332.445 5 126301271.265 5     -2914.371          32.000    24034333.375 5  98416582.955 5     -2270.939          31.000
R02  19389342.586 8 103465209.416 8     -1525.805          51.000    19389344.695 7  80472970.510 7     -1186.737          47.000
R11  22240340.859 5 118845581.539 5     -3391.832          32.000
R12  19449136.617 6 103893767.563 6     -1046.996          40.000    19449140.852 6  80806315.514 6      -814.330          40.000
C05  39786610.742 6 207179321.086 6        24.398          38.000    39786607.508 6 160204181.041 6        18.703          37.000
C23  22011691.125 8 114620691.915 8       591.840          48.000
C25  23045578.453 5 120004364.516 5     -1938.988          35.000
E02  27078338.492 7 142297613.831 7      2686.844          46.000    27078340.625 7 109033246.922 7      2058.643          46.000
E05  24387296.516 8 128156094.421 8     -1966.762          51.000    24387298.648 8  98197524.315 8     -1506.993          51.000
E24  22593774.086 8 118731125.646 8     -1667.883          51.000    22593787.297 8  90975867.411 8     -1277.976          51.000
E25  23716833.727 8 124632802.009 8       998.672          51.000    23716836.336 8  95497874.874 8       765.252          51.000
> 2020 05 16 05 20  0.0000000  0 15        .000000000000
G13  20486753.047 8 107658606.153 8     -1338.945          51.000    20486752.430 8  83889815.009 8     -1043.334          49.000
G15  20321914.547 8 106792378.451 8       226.578          51.000    20321913.320 8  83214846.560 8       176.554          51.000
G19  23920063.477 7 125700781.759 7      3308.941          43.000    23920061.859 7  97948640.379 7      2578.396          42.000
G28  21870123.844 7 114928277.171 7     -2241.496          42.000    21870122.297 6  89554492.738 6     -1746.620          36.000
G30  24050978.836 5 126388749.734 5     -2917.258          33.000    24050982.586 5  98484748.000 5     -2273.188          33.000
R02  19397997.984 8 103511393.331 8     -1552.535          51.000    19398000.008 7  80508891.338 7     -1207.527          47.000
R11  22259398.625 5 118947401.024 5     -3395.688          32.000    22259399.367 4  92514705.104 4     -2641.090          29.000
R12  19455061.555 6 103925419.443 6     -1062.422          39.000    19455066.469 6  80830933.673 6      -826.325          38.000
C05  39786477.602 6 207178627.557 6        23.133          37.000    39786474.281 6 160203644.758 6        17.401          38.000
C23  22008312.930 8 114603103.573 8       581.176          48.000
C25  23056767.805 5 120062636.185 5     -1944.832          30.000
E02  27063017.852 7 142217104.492 7      2681.082          45.000    27063020.336 7 108971557.945 7      2054.366          46.000
E05  24398558.281 8 128215273.526 8     -1978.059          51.000    24398559.508 8  98242869.319 8     -1515.637          51.000
E24  22603321.266 8 118781296.321 8     -1676.273          51.000    22603334.320 8  91014309.871 8     -1284.435          51.000
E25  23711166.648 8 124603021.595 8       987.199          51.000    23711169.414 8  95475056.130 8       756.437          51.000
> 2020 05 16 05 20 30.0000000  0 14        .000000000000
G13  20494441.266 8 107699007.510 8     -1353.625          51.000    20494440.320 8  83921296.575 8     -1054.773          50.000
G15  20320673.164 8 106785854.725 8       209.223          51.000    20320671.734 8  83209763.135 8       163.031          51.000
G19  23901190.492 7 125601610.156 7      3303.875          42.000    23901189.859 7  97871363.787 7      2574.448          42.000
G28  21882952.602 7 114995693.056 7     -2251.949          44.000    21882951.383 5  89607024.593 5     -1754.766          35.000
G30  24067641.609 5 126476319.124 5     -2919.836          31.000    24067648.266 5  98552983.900 5     -2275.197          32.000
R02  19406799.656 8 103558357.781 8     -1577.445          51.000    19406801.688 8  80545419.190 8     -1226.905          48.000
R12  19461070.859 7 103957521.502 7     -1076.184          42.000    19461075.570 6  80855901.888 6      -837.035          37.000
C05  39786347.750 6 207177951.149 6        23.059          37.000    39786344.273 6 160203121.691 6        17.996          38.000
C23  22004993.438 8 114585818.169 8       572.086          49.000
C25  23067992.586 5 120121089.669 5     -1950.641          34.000
E02  27047725.711 7 142136745.711 7      2677.129          45.000    27047728.312 7 108909984.338 7      2051.262          46.000
E05  24409880.344 8 128274769.978 8     -1987.492          51.000    24409880.789 8  98288457.470 8     -1522.854          51.000
E24  22612912.367 8 118831697.613 8     -1682.879          51.000    22612925.102 8  91052929.024 8     -1289.473          51.000
E25  23705560.984 8 124573563.922 8       977.441          51.000    23705563.523 8  95452484.664 8       748.958          51.000
> 2020 05 16 05 21  0.0000000  0 16        .000000000000
G13  20502220.367 8 107739887.167 8     -1371.477          51.000    20502219.445 8  83953150.810 8     -1068.686          49.000
G15  20319538.594 8 106779892.703 8       188.520          51.000    20319537.148 8  83205117.391 8       146.898          51.000
G17  23019031.336 5 120965825.186 5      1882.203          32.000
G19  23882354.047 7 125502627.732 7      3295.160          45.000    23882353.852 7  97794234.688 7      2567.657          42.000
G28  21895849.492 7 115063466.240 7     -2265.973          46.000    21895848.164 5  89659834.850 5     -1765.693          34.000
R02  19415748.180 8 103606106.292 8     -1605.578          51.000    19415750.531 8  80582556.872 8     -1248.783          49.000
R11  22297553.742 5 119151285.324 5     -3403.020          34.000    22297559.242 5  92673286.454 5     -2646.790          30.000
R12  19467165.586 6 103990076.555 6     -1093.453          37.000    19467170.055 6  80881222.466 6      -850.464          37.000
R13  20884775.344 4 111523533.933 4      2390.465          29.000    20884775.211 5  86740525.374 5      1859.250          34.000
C05  39786222.086 6 207177296.516 6        20.652          37.000    39786218.633 6 160202615.483 6        16.030          38.000
C23  22001733.148 8 114568840.106 8       559.953          49.000
C25  23079253.672 5 120179728.663 5     -1959.184          35.000
E02  27032463.258 7 142056542.961 7      2669.938          46.000    27032465.734 7 108848530.261 7      2045.919          46.000
E05  24421263.500 8 128334587.836 8     -2000.176          51.000    24421263.445 8  98334291.898 8     -1532.650          51.000
E24  22622547.992 8 118882333.064 8     -1692.598          51.000    22622560.633 8  91091727.605 8     -1296.967          51.000
E25  23700017.648 8 124544433.546 8       964.773          51.000    23700019.641 8  95430163.983 8       739.215          51.000
> 2020 05 16 05 21 30.0000000  0 15        .000000000000
G13  20510083.438 8 107781208.050 8     -1383.727          50.000    20510082.547 8  83985348.888 8     -1078.228          49.000
G15  20318503.969 8 106774456.525 8       173.477          51.000    20318502.711 8  83200881.394 8       135.177          51.000
G17  23008316.930 5 120909513.378 5      1871.391          35.000
G19  23863548.312 7 125403801.428 7      3292.664          46.000    23863547.055 6  97717227.218 6      2565.715          41.000
G28  21908807.109 7 115131557.916 7     -2273.859          45.000    21908805.172 5  89712893.286 5     -1771.835          33.000
R02  19424836.250 8 103654600.364 8     -1627.770          51.000    19424839.070 8  80620274.465 8     -1266.046          50.000
R11  22316655.938 5 119253391.764 5     -3402.629          32.000    22316661.172 4  92752668.167 4     -2646.489          29.000
R12  19473337.312 6 104023045.770 6     -1104.730          39.000    19473341.883 6  80906865.169 6      -859.232          38.000
C05  39786093.859 6 207176627.831 6        23.895          37.000    39786090.352 6 160202098.421 6        18.235          38.000
C23  21998524.633 8 114552133.022 8       553.484          49.000
C25  23090542.523 5 120238516.113 5     -1960.547          35.000
E02  27017223.805 7 141976460.537 7      2668.551          45.000    27017226.281 7 108787168.392 7      2044.761          46.000
E05  24432700.633 8 128394689.985 8     -2007.078          51.000    24432700.781 8  98380344.142 8     -1537.846          51.000
E24  22632220.961 8 118933164.994 8     -1696.590          51.000    22632233.773 8  91130676.736 8     -1299.960          51.000
E25  23694529.492 8 124515593.945 8       957.520          51.000    23694531.188 8  95408066.118 8       733.678          51.000
> 2020 05 16 05 22  0.0000000  0 14        .000000000000
G13  20518026.148 8 107822947.781 8     -1398.445          49.000    20518025.312 8  84017873.334 8     -1089.698          48.000
G15  20317565.438 8 106769524.738 8       155.773          51.000    20317564.258 8  83197038.424 8       121.382          51.000
G19  23844769.047 8 125305112.598 8      3287.230          48.000    23844766.328 6  97640326.909 6      2561.481          40.000
G28  21921820.594 7 115199943.691 7     -2284.621          45.000    21921817.867 5  89766180.862 5     -1780.227          34.000
R02  19434059.070 8 103703815.577 8     -1652.684          51.000    19434062.516 8  80658552.940 8     -1285.424          50.000
R11  22335760.281 5 119355484.924 5     -3404.648          31.000
R12  19479581.898 6 104056404.265 6     -1118.883          38.000    19479587.281 6  80932810.661 6      -870.245          37.000
R13  20858029.602 4 111380694.076 4      2368.488          29.000
C05  39785958.641 6 207175922.923 6        23.793          37.000    39785955.039 6 160201553.304 6        18.616          38.000
C23  21995363.945 8 114535674.508 8       544.258          49.000
E02  27002003.188 7 141896476.785 7      2664.305          44.000    27002005.953 7 108725882.123 7      2041.495          47.000
E05  24444187.352 8 128455053.343 8     -2016.617          51.000    24444188.203 8  98426596.560 8     -1545.146          51.000
E24  22641926.805 8 118984169.791 8     -1703.195          51.000    22641939.766 8  91169758.332 8     -1305.037          51.000
E25  23689092.359 8 124487022.596 8       947.789          51.000    23689094.188 8  95386173.800 8       726.240          51.000
> 2020 05 16 05 22 30.0000000  0 14        .000000000000
G13  20526060.516 8 107865170.520 8     -1414.684          48.000    20526059.773 8  84050774.180 8     -1102.351          48.000
G15  20316735.305 8 106765162.245 8       136.727          51.000    20316734.039 8  83193639.071 8       106.540          51.000
G19  23826028.609 7 125206629.056 7      3280.070          46.000    23826023.109 6  97563586.530 6      2555.899          36.000
G28  21934901.867 7 115268685.641 7     -2296.465          45.000    21934899.055 5  89819746.012 5     -1789.450          33.000
R02  19443428.977 8 103753816.031 8     -1678.891          51.000    19443432.328 8  80697442.182 8     -1305.804          50.000
R12  19485912.148 6 104090215.652 6     -1133.887          40.000    19485915.789 6  80959108.386 6      -881.912          36.000
R13  20844765.016 4 111309894.423 4      2353.836          28.000    20844778.180 5  86574391.925 5      1830.761          30.000
C05  39785828.609 6 207175245.605 6        22.867          38.000    39785824.945 6 160201029.591 6        17.562          38.000
C23  21992263.156 8 114519528.033 8       533.812          49.000
C25  23113201.445 5 120356527.376 5     -1972.176          30.000
E02  26986813.906 7 141816656.766 7      2658.781          43.000    26986817.086 8 108664721.321 8      2037.275          48.000
E05  24455735.938 8 128515741.556 8     -2027.508          51.000    24455737.539 8  98473097.909 8     -1553.542          51.000
E24  22651677.602 8 119035410.613 8     -1711.164          51.000    22651690.461 8  91209020.770 8     -1311.164          51.000
E25  23683718.391 8 124458783.732 8       936.477          51.000    23683720.461 8  95364536.233 8       717.581          51.000
> 2020 05 16 05 23  0.0000000  0 16        .000000000000
G13  20534164.414 8 107907758.372 8     -1428.965          49.000    20534163.938 8  84083959.501 8     -1113.479          48.000
G15  20315991.297 8 106761252.443 8       119.527          51.000    20315989.797 8  83190592.469 8        93.138          51.000
G19  23807304.750 6 125108236.710 6      3274.875          41.000    23807299.031 6  97486917.218 6      2551.854          39.000
G24  22074594.898 5 116002781.511 5      2492.688          30.000
G28  21948028.234 7 115337664.409 7     -2306.496          44.000    21948025.859 6  89873495.679 6     -1797.270          36.000
R02  19452923.328 8 103804480.872 8     -1703.094          51.000    19452926.656 8  80736848.163 8     -1324.632          50.000
R11  22374002.250 5 119559883.325 5     -3409.816          33.000
R12  19492304.320 6 104124358.370 6     -1146.867          41.000    19492307.953 6  80985663.852 6      -892.005          37.000
C05  39785681.453 6 207174479.568 6        24.273          37.000    39785677.820 6 160200437.238 6        18.537          38.000
C23  21989199.930 8 114503576.904 8       525.273          49.000
C25  23124561.742 5 120415699.711 5     -1976.984          31.000
E02  26971633.367 7 141736883.701 7      2655.191          43.000    26971637.289 8 108603596.499 8      2034.476          49.000
E03  23856782.992 6 125368239.861 6       715.031          40.000    23856784.938 6  96061386.398 6       547.746          40.000
E05  24467324.016 8 128576636.409 8     -2036.480          51.000    24467325.875 8  98519757.599 8     -1560.432          51.000
E24  22661450.766 8 119086768.700 8     -1717.078          51.000    22661463.391 8  91248373.051 8     -1315.698          51.000
E25  23678385.070 8 124430759.716 8       927.270          51.000    23678387.305 8  95343063.268 8       710.514          51.000
> 2020 05 16 05 23 30.0000000  0 14        .000000000000
G13  20542384.508 8 107950954.356 8     -1447.078          51.000    20542383.992 8  84117618.679 8     -1127.593          49.000
G15  20315379.766 8 106758039.124 8        98.391          51.000    20315378.258 8  83188088.575 8        76.668          51.000
G19  23788642.906 6 125010182.249 6      3265.988          36.000    23788639.258 6  97410511.098 6      2544.923          36.000
G28  21961245.414 7 115407121.047 7     -2320.191          43.000    21961243.664 5  89927617.717 5     -1807.944          35.000
R02  19462588.211 8 103856055.573 8     -1731.238          51.000    19462591.336 8  80776961.801 8     -1346.519          49.000
R12  19498804.367 6 104159077.840 6     -1163.684          40.000    19498808.328 5  81012667.890 5      -905.090          35.000
C05  39785563.578 6 207173865.891 6        20.656          37.000    39785559.977 6 160199962.701 6        16.106          38.000
C23  21986220.586 8 114488061.835 8       512.750          49.000
C25  23135984.828 5 120475183.188 5     -1985.797          30.000
E02  26956507.719 7 141657401.546 7      2647.488          43.000    26956512.664 8 108542694.566 8      2028.652          49.000
E03  23852754.531 6 125347069.830 6       700.074          39.000    23852757.766 6  96045165.198 6       536.280          41.000
E05  24478997.766 8 128637980.409 8     -2049.340          51.000    24478999.727 8  98566761.435 8     -1570.258          51.000
E24  22671292.320 8 119138486.057 8     -1726.938          51.000    22671304.844 8  91288000.619 8     -1323.238          51.000
E25  23673138.945 8 124403193.570 8       914.312          51.000    23673140.945 8  95321941.140 8       700.592          51.000
> 2020 05 16 05 24  0.0000000  0 13        .000000000000
G13  20550674.195 8 107994515.231 8     -1458.969          51.000    20550673.820 8  84151562.190 8     -1136.862          50.000
G15  20314854.633 8 106755279.664 8        83.609          51.000    20314853.117 8  83185938.336 8        65.150          51.000
G19  23770002.352 6 124912225.678 6      3262.629          38.000    23769998.984 6  97334181.355 6      2542.311          38.000
G28  21974506.664 6 115476809.792 6     -2327.566          37.000    21974504.648 6  89981920.634 6     -1813.685          36.000
R02  19472376.867 8 103908291.381 8     -1753.023          51.000    19472379.859 8  80817589.621 8     -1363.466          48.000
R12  19505365.805 6 104194125.026 6     -1174.629          38.000    19505367.961 5  81039926.764 5      -913.603          35.000
C05  39785428.633 6 207173163.590 6        23.828          37.000    39785425.094 6 160199419.631 6        18.589          38.000
C23  21983278.781 8 114472741.500 8       506.676          50.000
E02  26941390.859 7 141577967.731 7      2646.121          43.000    26941396.828 8 108481829.668 8      2027.487          49.000
E03  23848777.898 6 125326172.114 6       691.148          40.000    23848783.109 6  96029152.670 6       529.533          41.000
E05  24490710.375 8 128699529.571 8     -2055.980          51.000    24490712.742 8  98613922.462 8     -1575.317          51.000
E24  22681155.727 8 119190318.197 8     -1730.492          51.000    22681168.367 8  91327716.146 8     -1326.000          51.000
E25  23667934.016 8 124375841.926 8       907.199          51.000    23667935.398 8  95300983.389 8       695.109          51.000
> 2020 05 16 05 24 30.0000000  0 14        .000000000000
G13  20559050.594 8 108038532.121 8     -1474.816          51.000    20559050.094 8  84185861.038 8     -1149.208          50.000
G15  20314433.508 8 106753066.447 8        64.633          51.000    20314431.867 8  83184213.743 8        50.363          51.000
G19  23751399.242 7 124814462.135 7      3255.535          45.000    23751394.938 6  97258002.016 6      2536.781          39.000
G28  21987828.812 6 115546820.243 6     -2339.215          40.000    21987825.836 5  90036474.295 5     -1822.762          35.000
R02  19482306.531 8 103961279.271 8     -1778.914          51.000    19482309.172 8  80858802.403 8     -1383.600          48.000
R12  19512005.047 6 104229590.784 6     -1189.105          37.000    19512006.844 5  81067511.291 5      -924.860          34.000
C05  39785294.117 6 207172463.518 6        23.191          37.000    39785290.633 6 160198878.285 6        17.764          38.000
C23  21980391.664 8 114457706.402 8       496.434          50.000
C25  23158893.586 5 120594432.009 5     -1992.992          35.000
E02  26926301.266 7 141498674.565 7      2640.617          43.000    26926307.227 8 108421072.529 8      2023.387          49.000
E03  23844870.711 6 125305639.418 6       678.184          39.000    23844876.055 6  96013419.803 6       519.827          41.000
E05  24502478.922 8 128761374.718 8     -2066.426          51.000    24502481.953 8  98661310.278 8     -1583.362          51.000
E24  22691058.094 8 119242355.498 8     -1738.051          51.000    22691071.000 8  91367588.873 8     -1331.750          51.000
E25  23662787.711 8 124348796.142 8       896.426          51.000    23662788.336 8  95280260.012 8       686.884          51.000
> 2020 05 16 05 25  0.0000000  0 14        .000000000000
G13  20567513.586 8 108083003.929 8     -1490.012          51.000    20567512.781 8  84220514.390 8     -1161.048          50.000
G15  20314116.336 8 106751399.318 8        46.395          51.000    20314114.789 8  83182914.678 8        36.155          51.000
G19  23732833.836 8 124716894.375 8      3248.930          48.000    23732828.734 6  97181975.239 6      2531.634          40.000
G28  22001211.789 6 115617149.542 6     -2349.828          40.000    22001208.883 5  90091276.280 5     -1831.038          32.000
R02  19492377.125 8 104015017.404 8     -1803.742          51.000    19492379.461 8  80900598.708 8     -1402.914          48.000
R12  19518722.406 6 104265472.520 6     -1202.891          38.000    19518723.875 5  81095419.267 5      -935.582          35.000
C05  39785159.984 6 207171765.015 6        23.109          37.000    39785156.477 6 160198338.150 6        17.972          38.000
C23  21977559.000 8 114442955.498 8       486.926          50.000
C25  23170391.539 6 120654301.731 6     -1998.414          38.000
E02  26911239.359 7 141419521.955 7      2636.039          44.000    26911243.883 8 108360423.092 8      2019.888          48.000
E03  23841032.766 6 125285471.982 6       665.918          39.000    23841037.914 7  95997966.824 7       510.393          42.000
E05  24514303.188 8 128823514.409 8     -2076.152          51.000    24514306.992 8  98708923.776 8     -1590.872          51.000
E24  22700999.086 8 119294596.000 8     -1744.730          51.000    22701012.125 8  91407617.301 8     -1336.871          51.000
E25  23657699.633 8 124322055.361 8       886.250          51.000    23657699.688 8  95259770.326 8       679.057          51.000
> 2020 05 16 05 25 30.0000000  0 14        .000000000000
G13  20576060.336 8 108127916.328 8     -1505.066          51.000    20576059.414 8  84255511.071 8     -1172.779          50.000
G15  20313900.422 8 106750265.110 8        28.191          51.000    20313899.164 8  83182030.871 8        21.967          51.000
G19  23714303.672 8 124619511.945 8      3242.207          48.000    23714298.617 7  97106092.848 7      2526.398          43.000
G28  22014652.492 6 115687781.525 6     -2359.879          40.000    22014650.461 5  90146314.203 5     -1838.861          31.000
R02  19502585.508 8 104069489.962 8     -1828.691          51.000    19502587.641 8  80942966.235 8     -1422.316          49.000
R12  19525514.359 6 104301754.274 6     -1216.930          38.000    19525517.594 5  81123638.448 5      -946.498          35.000
C05  39785023.586 6 207171054.417 6        22.930          37.000    39785019.953 6 160197788.661 6        17.848          38.000
C23  21974778.211 8 114428474.758 8       477.488          50.000
C25  23181917.992 6 120714314.456 6     -2003.516          36.000
E02  26896202.055 7 141340496.706 7      2631.398          44.000    26896204.594 7 108299871.268 7      2016.281          47.000
E03  23837262.141 6 125265656.932 6       653.867          40.000    23837267.297 7  95982783.855 7       500.997          43.000
E05  24526180.594 8 128885933.980 8     -2086.027          51.000    24526185.148 8  98756751.729 8     -1598.406          51.000
E24  22710975.883 8 119347024.614 8     -1751.469          51.000    22710988.805 8  91447789.861 8     -1342.020          51.000
E25  23652666.750 8 124295605.512 8       876.121          51.000    23652666.805 8  95239503.551 8       671.332          51.000
> 2020 05 16 05 26  0.0000000  0 14        .000000000000
G13  20584696.766 8 108173300.595 8     -1519.848          51.000    20584695.750 8  84290875.427 8     -1184.297          50.000
G15  20313791.961 8 106749695.706 8        10.426          51.000    20313790.914 8  83181587.162 8         8.121          51.000
G19  23695815.008 8 124522349.770 8      3235.859          49.000    23695810.898 7  97030382.104 7      2521.449          45.000
G28  22028156.445 6 115758745.329 6     -2370.074          39.000    22028154.969 5  90201610.645 5     -1846.814          33.000
R02  19512937.055 8 104124726.779 8     -1852.996          51.000    19512939.609 8  80985928.179 8     -1441.219          49.000
R12  19532386.578 6 104338465.654 6     -1229.773          38.000    19532389.484 4  81152181.312 4      -956.490          27.000
C05  39784890.797 6 207170362.729 6        23.871          37.000    39784887.102 6 160197253.799 6        18.495          37.000
C23  21972055.180 8 114414294.871 8       468.488          51.000
C25  23193476.508 6 120774500.361 6     -2008.301          39.000
E02  26881195.062 7 141261630.822 7      2627.121          45.000    26881195.867 7 108239441.566 7      2013.022          47.000
E03  23833565.125 6 125246226.518 6       642.176          41.000    23833569.641 7  95967895.627 7       491.874          43.000
E05  24538116.984 8 128948663.900 8     -2095.359          50.000    24538122.188 8  98804817.505 8     -1605.490          51.000
E24  22720994.273 8 119399671.358 8     -1757.605          51.000    22721007.031 8  91488129.566 8     -1346.734          51.000
E25  23647695.070 8 124269477.653 8       866.484          51.000    23647695.617 8  95219483.511 8       663.924          51.000
> 2020 05 16 05 26 30.0000000  0 16        .000000000000
G13  20593410.945 8 108219092.912 8     -1533.273          51.000    20593409.539 8  84326557.758 8     -1194.759          49.000
G15  20313779.086 8 106749628.081 8        -6.137          51.000    20313778.023 8  83181534.459 8        -4.782          51.000
G17  22905479.500 5 120369096.772 5      1732.391          34.000    22905478.945 5  93794115.381 5      1349.912          31.000
G19  23677356.305 8 124425347.404 8      3230.645          48.000    23677353.297 7  96954795.879 7      2517.385          46.000
G28  22041711.047 6 115829975.318 6     -2379.051          38.000    22041709.578 6  90257114.531 6     -1853.806          36.000
R02  19523419.273 8 104180661.153 8     -1876.141          51.000    19523422.164 8  81029432.689 8     -1459.220          49.000
R11  22508344.281 5 120277741.892 5     -3423.121          34.000    22508351.008 5  93549378.630 5     -2662.434          31.000
R12  19539327.500 6 104375540.384 6     -1241.898          36.000    19539328.227 5  81180999.647 5      -965.918          30.000
C05  39784749.555 6 207169627.226 6        25.688          37.000    39784745.875 6 160196685.078 6        19.446          38.000
C23  21969377.734 8 114400352.596 8       460.781          51.000
C25  23205055.414 6 120834795.721 6     -2011.797          39.000
E02  26866206.211 7 141182861.443 7      2624.254          45.000    26866205.930 7 108179085.820 7      2010.729          46.000
E03  23829929.609 6 125227118.311 6       631.625          40.000    23829932.953 7  95953254.260 7       483.919          43.000
E05  24550100.312 8 129011639.904 8     -2103.156          50.000    24550106.086 8  98853071.861 8     -1611.491          51.000
E24  22731041.898 8 119452471.537 8     -1762.422          51.000    22731054.703 8  91528586.839 8     -1350.418          51.000
E25  23642772.570 8 124243608.099 8       858.008          51.000    23642773.742 8  95199661.401 8       657.476          51.000
> 2020 05 16 05 27  0.0000000  0 16        .000000000000
G13  20602216.922 8 108265367.554 8     -1549.914          51.000    20602214.992 8  84362615.908 8     -1207.725          48.000
G15  20313876.156 8 106750137.984 8       -26.047          51.000    20313875.016 8  83181931.790 8       -20.296          51.000
G19  23658942.820 8 124328583.603 8      3222.102          48.000    23658940.531 7  96879395.554 7      2510.732          46.000
G24  21962079.898 5 115411508.460 5      2435.945          33.000
G28  22055330.289 6 115901544.400 6     -2390.594          40.000    22055329.453 6  90312882.687 6     -1862.797          37.000
R02  19534046.445 8 104237368.036 8     -1902.371          51.000    19534049.398 8  81073538.042 8     -1479.622          50.000
R11  22527576.875 6 120380452.501 6     -3426.562          36.000    22527581.359 4  93629318.514 4     -2665.098          25.000
R12  19546350.438 6 104413052.761 6     -1256.863          39.000    19546356.164 5  81210176.041 5      -977.560          32.000
C05  39784614.266 6 207168922.341 6        23.516          37.000    39784610.406 6 160196139.975 6        18.323          37.000
C23  21966759.984 8 114386722.144 8       449.754          51.000
C25  23216670.055 6 120895274.013 6     -2018.816          38.000
E02  26851249.984 7 141104264.446 7      2617.758          46.000    26851249.312 7 108118862.157 7      2005.758          46.000
E03  23826370.070 7 125208408.406 7       617.648          42.000    23826372.438 7  95938918.068 7       473.218          44.000
E05  24562145.328 8 129074936.380 8     -2114.543          51.000    24562150.945 8  98901571.760 8     -1620.219          51.000
E24  22741132.773 8 119505499.053 8     -1770.723          51.000    22741145.758 8  91569218.314 8     -1356.761          51.000
E25  23637913.383 8 124218071.793 8       846.355          51.000    23637915.062 8  95180094.623 8       648.539          51.000
> 2020 05 16 05 27 30.0000000  0 15        .000000000000
G13  20611108.477 8 108312092.471 8     -1563.910          51.000    20611106.117 7  84399024.901 7     -1218.631          47.000
G15  20314077.148 8 106751193.927 8       -43.223          51.000    20314076.031 8  83182754.603 8       -33.680          51.000
G19  23640569.344 8 124232030.021 8      3215.992          49.000    23640567.039 7  96804159.025 7      2505.968          47.000
G28  22069007.625 6 115973418.498 6     -2399.852          40.000    22069007.000 5  90368888.445 5     -1870.017          34.000
R02  19544811.750 8 104294812.826 8     -1926.059          51.000    19544814.773 8  81118217.295 8     -1498.046          50.000
R11  22546820.422 6 120483357.362 6     -3427.590          39.000
R12  19553447.469 5 104450968.207 5     -1269.152          33.000    19553451.203 4  81239665.748 4      -987.125          29.000
C05  39784478.648 6 207168216.401 6        24.629          37.000    39784474.836 6 160195594.079 6        19.033          38.000
C23  21964195.891 8 114373371.359 8       441.410          50.000
C25  23228313.359 6 120955902.721 6     -2022.391          38.000
E02  26836320.312 7 141025808.406 7      2613.777          47.000    26836320.141 7 108058746.498 7      2002.854          46.000
E03  23822880.148 7 125190065.628 7       606.441          43.000    23822881.992 7  95924863.220 7       464.589          44.000
E05  24574245.547 8 129138520.503 8     -2123.242          51.000    24574250.445 8  98950292.048 8     -1626.936          51.000
E24  22751260.570 8 119558720.654 8     -1776.258          51.000    22751273.648 8  91609998.498 8     -1360.999          51.000
E25  23633111.023 8 124192836.440 8       837.125          51.000    23633113.289 8  95160758.440 8       641.463          51.000
> 2020 05 16 05 28  0.0000000  0 16        .000000000000
G13  20620085.117 8 108359265.026 8     -1578.363          51.000    20620082.195 7  84435782.683 7     -1229.893          46.000
G15  20314381.547 8 106752793.775 8       -60.918          51.000    20314380.602 8  83184001.236 8       -47.469          51.000
G17  22876206.062 5 120215271.551 5      1688.504          34.000    22876203.609 5  93674211.039 5      1315.717          34.000
G19  23622236.109 8 124135687.206 8      3209.379          50.000    23622233.664 7  96729086.725 7      2500.815          47.000
G28  22082742.195 6 116045592.823 6     -2409.262          38.000    22082741.391 5  90425128.181 5     -1877.344          34.000
R02  19555713.633 8 104352991.213 8     -1950.000          50.000    19555717.359 8  81163467.117 8     -1516.667          50.000
R11  22566070.336 6 120586208.022 6     -3428.188          38.000    22566069.742 4  93789284.849 4     -2666.365          28.000
R12  19560617.039 5 104489282.292 5     -1283.023          31.000    19560622.086 5  81269465.587 5      -997.898          31.000
C05  39784342.367 6 207167507.023 6        25.164          37.000    39784338.539 6 160195045.530 6        19.670          38.000
C23  21961685.102 8 114360297.517 8       432.645          51.000
C25  23239983.930 5 121016678.575 5     -2026.820          35.000
E02  26821417.008 7 140947491.486 7      2609.656          47.000    26821418.016 7 107998737.447 7      1999.628          46.000
E03  23819459.375 7 125172088.552 7       594.684          42.000    23819460.859 7  95911088.583 7       455.568          44.000
E05  24586399.867 8 129202388.972 8     -2132.215          51.000    24586404.023 8  98999230.189 8     -1633.784          51.000
E24  22761424.547 8 119612132.601 8     -1782.090          51.000    22761437.586 8  91650924.533 8     -1365.491          51.000
E25  23628365.266 8 124167899.347 8       827.758          51.000    23628368.297 8  95141650.803 8       634.223          51.000
> 2020 05 16 05 28 30.0000000  0 16        .000000000000
G13  20629144.367 8 108406871.967 8     -1593.129          51.000    20629140.844 7  84472878.958 7     -1241.399          45.000
G15  20314787.070 8 106754925.849 8       -78.914          51.000    20314786.406 8  83185662.574 8       -61.491          51.000
G17  22866614.930 6 120164864.314 6      1673.707          37.000    22866610.883 6  93634932.609 6      1304.184          37.000
G19  23603941.336 8 124039546.499 8      3202.250          51.000    23603938.836 7  96654171.901 7      2495.260          47.000
G28  22096531.094 6 116118052.693 6     -2419.289          41.000    22096529.797 6  90481590.423 6     -1885.160          38.000
R02  19566749.898 8 104411888.599 8     -1974.156          49.000    19566754.453 8  81209276.195 8     -1535.455          49.000
R11  22585326.039 6 120689130.578 6     -3430.031          36.000    22585328.742 4  93869328.152 4     -2667.808          29.000
R12  19567860.453 5 104527980.294 5     -1295.195          35.000    19567869.297 5  81299564.090 5     -1007.377          30.000
C05  39784203.031 6 207166781.927 6        25.348          37.000    39784199.266 6 160194484.849 6        19.458          38.000
C23  21959225.039 8 114347487.985 8       423.527          50.000
C25  23251679.938 5 121077588.265 5     -2032.016          34.000
E02  26806538.039 7 140869301.862 7      2605.082          47.000    26806540.430 7 107938825.915 7      1996.132          46.000
E03  23816105.383 7 125154465.680 7       582.434          42.000    23816107.141 7  95897585.334 7       446.193          45.000
E05  24598605.703 8 129266528.471 8     -2141.473          51.000    24598609.141 8  99048376.017 8     -1640.905          51.000
E24  22771622.109 8 119665721.238 8     -1788.293          51.000    22771634.977 8  91691985.952 8     -1370.244          51.000
E25  23623673.977 8 124143247.816 8       817.930          51.000    23623677.727 8  95122761.968 8       626.743          51.000
> 2020 05 16 05 29  0.0000000  0 15        .000000000000
G13  20638289.664 8 108454931.879 8     -1608.297          51.000    20638285.992 7  84510328.189 7     -1253.218          45.000
G15  20315297.695 8 106757609.607 8       -97.387          51.000    20315297.195 8  83187753.810 8       -75.886          51.000
G17  22857106.984 5 120114902.629 5      1659.492          32.000    22857102.820 5  93596001.516 5      1293.117          31.000
G19  23585689.125 8 123943630.147 8      3194.652          50.000    23585686.852 7  96579431.866 7      2489.336          47.000
G28  22110377.609 7 116190814.963 7     -2429.363          42.000    22110375.727 5  90538288.313 5     -1893.007          32.000
R02  19577924.555 8 104471521.901 8     -1998.801          50.000    19577929.406 8  81255657.654 8     -1554.623          49.000
R11  22604593.734 6 120792093.633 6     -3431.750          38.000    22604598.852 5  93949421.530 5     -2669.142          30.000
R12  19575180.477 5 104567079.624 5     -1308.773          35.000    19575184.828 4  81329991.531 4     -1017.938          29.000
C05  39784064.461 6 207166060.030 6        25.266          37.000    39784060.617 6 160193926.601 6        19.609          38.000
C23  21956819.203 8 114334961.264 8       414.023          50.000
E02  26791687.289 8 140791259.210 8      2600.133          48.000    26791690.758 7 107879026.996 7      1992.441          47.000
E03  23812822.672 7 125137216.919 7       569.988          43.000    23812824.891 7  95884368.755 7       436.678          45.000
E05  24610866.258 8 129330957.220 8     -2151.156          51.000    24610869.516 8  99097743.457 8     -1648.289          51.000
E24  22781856.633 8 119719504.358 8     -1794.773          51.000    22781869.383 8  91733196.377 8     -1375.171          51.000
E25  23619040.695 8 124118900.642 8       807.668          51.000    23619044.656 8  95104106.336 8       618.883          51.000
> 2020 05 16 05 29 30.0000000  0 17        .000000000000
G13  20647519.562 8 108503435.707 8     -1622.008          51.000    20647516.289 7  84548123.348 7     -1263.905          47.000
G15  20315911.812 8 106760836.740 8      -114.508          51.000    20315911.328 8  83190268.449 8       -89.227          51.000
G17  22847688.992 5 120065437.411 5      1645.512          32.000
G19  23567478.023 7 123847933.049 7      3188.301          47.000    23567476.586 7  96504862.677 7      2484.390          47.000
G28  22124279.547 6 116263868.865 6     -2437.766          41.000    22124277.055 5  90595213.367 5     -1899.555          32.000
G30  24369764.188 4 128063974.820 4     -2957.867          28.000
R02  19589235.992 8 104531880.812 8     -2021.930          51.000    19589240.492 8  81302603.471 8     -1572.612          48.000
R11  22623869.898 6 120895091.688 6     -3432.297          39.000    22623876.961 4  94029536.339 4     -2669.564          28.000
R12  19582574.328 5 104606569.484 5     -1320.277          31.000    19582577.414 5  81360705.880 5     -1026.876          30.000
C05  39783924.797 6 207165332.831 6        26.359          37.000    39783920.961 6 160193364.275 6        20.304          38.000
C23  21954466.078 8 114322708.543 8       405.898          50.000
C25  23275158.328 4 121199844.354 4     -2040.762          29.000
E02  26776863.070 8 140713355.552 8      2596.453          48.000    26776867.109 7 107819334.596 7      1989.445          47.000
E03  23809609.805 7 125120334.615 7       558.820          43.000    23809612.062 7  95871432.967 7       428.040          45.000
E05  24623180.008 8 129395665.787 8     -2159.535          51.000    24623183.219 8  99147325.291 8     -1654.712          51.000
E24  22792126.289 8 119773472.105 8     -1799.926          51.000    22792139.031 8  91774548.283 8     -1379.179          51.000
E25  23614463.578 8 124094848.937 8       799.012          51.000    23614467.336 8  95085677.118 8       612.164          51.000
> 2020 05 16 05 30  0.0000000  0 15        .000000000000
G13  20656837.102 8 108552399.056 8     -1638.488          51.000    20656834.359 8  84586276.589 8     -1276.744          48.000
G15  20316632.445 8 106764623.620 8      -134.234          51.000    20316631.758 8  83193219.268 8      -104.598          51.000
G19  23549311.734 7 123752474.842 7      3179.227          45.000    23549311.891 7  96430479.647 7      2477.319          45.000
G28  22138239.523 6 116337228.283 6     -2449.133          36.000    22138237.289 5  90652376.540 5     -1908.403          33.000
R02  19600686.477 8 104592979.766 8     -2047.582          51.000    19600690.477 8  81350124.880 8     -1592.564          48.000
R11  22643157.836 6 120998161.449 6     -3434.945          38.000    22643161.781 4  94109689.111 4     -2671.624          26.000
R12  19590041.383 6 104646486.146 6     -1335.062          37.000    19590046.773 5  81391735.132 5     -1038.382          32.000
C05  39783787.094 6 207164616.222 6        24.945          37.000    39783783.289 6 160192810.132 6        19.458          37.000
C23  21952168.422 8 114310745.249 8       395.270          49.000
C25  23286943.422 5 121261207.459 5     -2046.703          35.000
E02  26762068.336 8 140635607.479 8      2590.383          49.000    26762072.586 7 107759761.395 7      1984.824          47.000
E03  23806469.711 7 125103835.659 7       544.965          44.000    23806471.961 7  95858790.904 7       417.475          45.000
E05  24635550.203 8 129460669.262 8     -2170.375          51.000    24635552.938 8  99197133.097 8     -1663.027          51.000
E24  22802433.945 8 119827639.255 8     -1807.516          51.000    22802446.734 8  91816052.975 8     -1385.000          51.000
E25  23609945.633 8 124071108.434 8       787.465          51.000    23609949.312 8  95067486.351 8       603.391          51.000
> 2020 05 16 05 30 30.0000000  0 16        .000000000000
G13  20666239.234 8 108601806.677 8     -1654.309          51.000    20666237.078 8  84624776.022 8     -1289.072          50.000
G15  20317456.766 8 106768955.811 8      -153.473          51.000    20317456.062 8  83196595.004 8      -119.592          51.000
G17  22829099.398 6 119967728.350 6      1613.078          36.000    22829098.281 6  93481335.326 6      1256.947          36.000
G19  23531188.234 7 123657243.618 7      3170.430          44.000    23531190.180 7  96356273.494 7      2470.462          44.000
G28  22152253.562 6 116410875.811 6     -2459.727          37.000    22152252.883 5  90709764.266 5     -1916.664          31.000
R02  19612272.273 8 104654800.880 8     -2072.742          51.000    19612275.828 7  81398207.936 7     -1612.133          47.000
R11  22662451.594 5 121101260.870 5     -3437.383          31.000    22662455.227 4  94189887.477 4     -2673.514          26.000
R12  19597583.555 6 104686768.609 6     -1349.094          41.000    19597589.242 5  81423065.820 5     -1049.301          32.000
C05  39783648.688 6 207163895.319 6        24.230          37.000    39783644.844 6 160192252.672 6        18.924          37.000
C23  21949923.562 8 114299056.127 8       385.074          50.000
C25  23298758.523 6 121322711.198 6     -2051.965          36.000
E02  26747300.344 8 140558000.592 8      2584.590          50.000    26747304.438 8 107700296.376 8      1980.391          48.000
E03  23803399.945 7 125087705.892 7       531.375          44.000    23803402.625 7  95846431.708 7       407.307          45.000
E05  24647973.656 8 129525951.706 8     -2180.633          51.000    24647975.961 8  99247154.676 8     -1670.886          51.000
E24  22812776.492 8 119881989.490 8     -1814.621          51.000    22812789.281 8  91857697.952 8     -1390.475          51.000
E25  23605484.109 8 124047663.791 8       776.703          51.000    23605487.867 8  95049522.280 8       595.088          51.000
> 2020 05 16 05 31  0.0000000  0 15        .000000000000
G13  20675728.312 8 108651671.931 8     -1669.852          51.000    20675726.703 8  84663632.050 8     -1301.183          51.000
G15  20318387.797 8 106773848.029 8      -172.516          51.000    20318387.195 8  83200407.112 8      -134.428          51.000
G19  23513111.828 7 123562257.176 7      3162.137          45.000    23513114.430 7  96282258.079 7      2464.003          45.000
G28  22166325.242 6 116484823.744 6     -2469.891          40.000    22166324.031 5  90767386.002 5     -1924.593          31.000
R02  19623995.461 8 104717356.421 8     -2097.531          51.000    19623998.531 7  81446862.207 7     -1631.413          47.000
R11  22681751.766 4 121204419.332 4     -3439.250          27.000    22681761.469 4  94270123.758 4     -2674.981          28.000
R12  19605200.523 6 104727450.865 6     -1362.688          37.000    19605204.961 5  81454707.685 5     -1059.859          31.000
C05  39783512.180 6 207163187.439 6        23.793          37.000    39783508.367 6 160191702.945 6        18.498          37.000
C23  21947734.250 8 114287655.119 8       375.172          50.000
C25  23310598.461 5 121384370.273 5     -2058.164          35.000
E02  26732561.953 8 140480549.826 8      2579.008          50.000    26732565.422 8 107640950.986 8      1976.186          49.000
E03  23800403.117 7 125071960.530 7       518.621          44.000    23800406.461 7  95834367.074 7       397.259          45.000
E05  24660452.406 8 129591526.619 8     -2190.762          51.000    24660454.750 8  99297400.374 8     -1678.606          51.000
E24  22823156.367 8 119936535.958 8     -1821.516          51.000    22823169.016 8  91899493.284 8     -1395.710          51.000
E25  23601081.781 8 124024529.106 8       765.871          51.000    23601085.289 8  95031795.679 8       586.878          51.000
> 2020 05 16 05 31 30.0000000  0 15        .000000000000
G13  20685301.992 8 108701982.145 8     -1683.234          51.000    20685300.883 8  84702834.804 8     -1311.611          50.000
G15  20319423.250 8 106779288.024 8      -189.270          51.000    20319422.539 8  83204646.067 8      -147.483          51.000
G19  23495081.203 7 123467506.462 7      3155.605          45.000    23495083.141 7  96208426.375 7      2458.913          44.000
G28  22180451.469 6 116559057.168 6     -2478.031          39.000    22180448.734 6  90825230.224 6     -1930.930          36.000
R02  19635853.109 8 104780632.103 8     -2119.977          51.000    19635856.188 7  81496076.590 7     -1648.871          47.000
R11  22701071.414 5 121307634.213 5     -3438.898          34.000    22701073.961 5  94350396.678 5     -2674.699          30.000
R12  19612889.094 6 104768518.815 6     -1374.281          41.000    19612889.266 4  81486648.324 4     -1068.888          28.000
C05  39783375.195 6 207162474.392 6        24.566          37.000    39783371.516 6 160191151.535 6        19.622          37.000
C23  21945597.984 8 114276529.601 8       367.461          50.000
C25  23322465.273 5 121446171.573 5     -2061.230          34.000
E02  26717850.797 8 140403243.454 8      2575.738          49.000    26717853.375 8 107581716.243 8      1973.549          49.000
E03  23797477.422 7 125056588.156 7       507.590          45.000    23797480.672 7  95822588.228 7       388.858          44.000
E05  24672983.602 8 129657380.758 8     -2198.496          51.000    24672986.641 8  99347860.054 8     -1684.577          51.000
E24  22833571.031 8 119991265.061 8     -1826.059          51.000    22833583.359 8  91941428.551 8     -1399.176          51.000
E25  23596736.125 8 124001691.689 8       757.496          51.000    23596739.180 8  95014296.871 8       580.452          51.000
> 2020 05 16 05 32  0.0000000  0 15        .000000000000
G13  20694958.422 8 108752727.521 8     -1698.418          51.000    20694957.859 8  84742376.660 8     -1323.440          50.000
G15  20320561.141 8 106785266.849 8      -207.922          51.000    20320560.336 8  83209304.883 8      -162.020          51.000
G19  23477094.836 7 123372985.499 7      3147.094          47.000    23477095.297 7  96134773.739 7      2452.284          43.000
G28  22194629.898 6 116633564.908 6     -2487.676          39.000    22194627.086 5  90883288.164 5     -1938.449          34.000
R02  19647843.586 8 104844616.083 8     -2144.164          51.000    19647846.414 7  81545841.860 7     -1667.686          47.000
R11  22720396.836 5 121410791.436 5     -3440.723          33.000    22720393.023 5  94430682.235 5     -2676.121          33.000
R12  19620647.797 5 104809960.643 5     -1386.703          34.000    19620646.617 5  81518864.818 5     -1078.544          31.000
C05  39783236.141 6 207161749.726 6        24.660          37.000    39783232.383 6 160190591.216 6        19.096          37.000
C23  21943512.852 8 114265669.812 8       357.984          51.000
C25  23334359.961 5 121508104.665 5     -2066.078          35.000
E02  26703165.219 8 140326072.588 8      2570.492          48.000    26703166.828 8 107522585.322 8      1969.616          49.000
E03  23794621.516 7 125041580.113 7       494.367          46.000    23794624.031 7  95811088.563 7       378.882          44.000
E05  24685565.602 8 129723503.800 8     -2208.273          51.000    24685569.539 8  99398525.779 8     -1692.003          51.000
E24  22844018.422 8 120046166.092 8     -1832.465          51.000    22844030.555 8  91983495.565 8     -1404.087          51.000
E25  23592445.188 8 123979141.778 8       747.309          51.000    23592447.992 8  94997018.366 8       572.628          51.000
> 2020 05 16 05 32 30.0000000  0 16        .000000000000
G13  20704698.695 8 108803914.361 8     -1712.668          51.000    20704698.633 8  84782262.511 8     -1334.546          49.000
G15  20321803.000 8 106791792.138 8      -225.738          51.000    20321801.977 8  83214389.528 8      -175.900          51.000
G17  22792958.008 5 119777795.693 5      1553.871          35.000    22792947.711 5  93333316.964 5      1210.815          35.000
G19  23459154.344 8 123278705.144 8      3139.555          48.000    23459152.750 6  96061308.599 6      2446.406          41.000
G28  22208861.492 6 116708351.599 6     -2496.699          40.000    22208859.734 4  90941563.493 4     -1945.486          28.000
R02  19659968.172 8 104909312.672 8     -2167.590          51.000    19659970.094 8  81596161.397 8     -1685.903          48.000
R11  22739713.312 5 121514099.783 5     -3441.344          32.000    22739716.898 5  94510989.710 5     -2676.601          35.000
R12  19628475.820 6 104851781.536 6     -1399.543          40.000    19628477.992 5  81551392.275 5     -1088.533          33.000
C05  39783096.055 6 207161020.605 6        25.480          37.000    39783092.359 6 160190027.400 6        19.733          37.000
C23  21941479.766 8 114255082.456 8       349.211          51.000
C25  23346280.070 5 121570176.072 5     -2070.660          35.000
E02  26688506.906 7 140249044.892 7      2566.059          47.000    26688507.688 8 107463564.117 8      1966.141          49.000
E03  23791836.648 7 125026944.365 7       482.535          46.000    23791838.375 7  95799874.151 7       369.741          44.000
E05  24698200.492 8 129789901.927 8     -2216.969          51.000    24698204.766 8  99449402.282 8     -1698.689          51.000
E24  22854499.555 8 120101244.922 8     -1838.098          51.000    22854511.906 8  92025698.818 8     -1408.409          51.000
E25  23588210.328 8 123956886.215 8       737.781          51.000    23588212.961 8  94979965.396 8       565.271          51.000
> 2020 05 16 05 33  0.0000000  0 16        .000000000000
G13  20714523.469 8 108855545.489 8     -1728.344          51.000    20714523.523 8  84822494.553 8     -1346.761          49.000
G15  20323149.469 8 106798867.204 8      -244.844          51.000    20323148.453 8  83219902.559 8      -190.790          51.000
G17  22784130.406 6 119731433.153 6      1537.656          36.000    22784127.797 6  93297209.044 6      1198.180          36.000
G19  23441260.633 7 123184671.652 7      3130.379          47.000    23441258.523 7  95988035.814 7      2439.259          42.000
G28  22223146.273 6 116783418.275 6     -2506.473          41.000    22223145.102 4  91000056.965 4     -1953.102          25.000
R02  19672226.555 8 104974723.386 8     -2191.996          51.000    19672227.688 8  81647036.384 8     -1704.886          49.000
R11  22759043.172 6 121617410.864 6     -3443.816          38.000    22759047.500 6  94591335.556 6     -2678.524          36.000
R12  19636376.188 6 104893983.074 6     -1412.816          40.000    19636378.414 5  81584215.706 5     -1098.857          34.000
C05  39782955.750 6 207160290.340 6        24.512          37.000    39782952.203 6 160189462.691 6        19.045          37.000
C23  21939499.586 8 114244770.411 8       339.297          50.000
C25  23358228.281 5 121632387.897 5     -2075.492          33.000
E02  26673876.680 7 140172164.231 7      2560.426          46.000    26673877.016 8 107404655.547 8      1961.885          49.000
E03  23789123.422 7 125012685.034 7       469.227          46.000    23789124.578 7  95788948.158 7       359.633          44.000
E05  24710888.578 8 129856577.504 8     -2226.887          51.000    24710892.633 8  99500491.347 8     -1706.313          51.000
E24  22865014.812 8 120156503.557 8     -1844.672          51.000    22865027.688 8  92068039.843 8     -1413.474          51.000
E25  23584032.000 8 123934927.875 8       727.297          51.000    23584034.164 8  94963140.161 8       557.270          51.000
> 2020 05 16 05 33 30.0000000  0 16        .000000000000
G13  20724430.859 8 108907610.048 8     -1741.938          51.000    20724430.891 8  84863064.317 8     -1357.354          49.000
G15  20324598.523 8 106806482.074 8      -262.012          51.000    20324597.727 8  83225836.205 8      -204.165          51.000
G17  22775395.359 6 119685532.165 6      1523.270          40.000    22775392.766 6  93261442.089 6      1186.966          38.000
G19  23423412.578 7 123090878.627 7      3123.207          47.000    23423410.453 7  95914950.366 7      2433.668          43.000
G28  22237481.930 6 116858752.434 6     -2514.934          38.000    22237480.797 4  91058758.741 4     -1959.713          29.000
R02  19684615.953 8 105040835.762 8     -2214.566          51.000    19684617.438 8  81698457.137 8     -1722.437          50.000
R11  22778377.789 6 121720712.684 6     -3443.332          37.000    22778381.906 6  94671692.376 6     -2678.144          37.000
R12  19644345.156 6 104936552.477 6     -1424.457          39.000    19644347.750 5  81617325.254 5     -1107.914          35.000
C05  39782813.305 6 207159548.816 6        25.555          37.000    39782809.898 6 160188889.284 6        20.020          37.000
C23  21937570.086 8 114234723.204 8       331.402          49.000
C25  23370201.930 6 121694729.525 6     -2079.152          36.000
E02  26659272.914 8 140095420.955 8      2556.785          48.000    26659273.188 8 107345852.266 8      1959.023          50.000
E03  23786479.969 7 124998792.755 7       457.977          46.000    23786480.906 7  95778303.421 7       350.770          44.000
E05  24723627.430 8 129923519.423 8     -2234.957          51.000    24723631.016 8  99551784.470 8     -1712.562          51.000
E24  22875562.219 8 120211930.600 8     -1849.461          51.000    22875575.430 8  92110509.910 8     -1417.176          51.000
E25  23579908.242 8 123913256.226 8       718.449          51.000    23579909.672 8  94946534.612 8       550.482          51.000
> 2020 05 16 05 34  0.0000000  0 16        .000000000000
G13  20734424.422 8 108960126.150 8     -1757.113          51.000    20734424.141 8  84903985.933 8     -1369.179          49.000
G15  20326153.914 8 106814655.632 8      -280.805          51.000    20326153.070 8  83232205.194 8      -218.809          51.000
G17  22766749.844 5 119640102.071 5      1506.980          35.000    22766749.773 5  93226042.231 5      1174.277          33.000
G19  23405614.211 7 122997347.809 7      3114.230          46.000    23405612.625 7  95842069.226 7      2426.673          43.000
G28  22251871.242 5 116934370.546 5     -2524.086          32.000
R02  19697139.820 8 105107666.075 8     -2238.660          51.000    19697142.219 8  81750436.296 8     -1741.180          51.000
R11  22797722.547 5 121824077.876 5     -3444.816          32.000    22797722.477 5  94752086.364 5     -2679.302          35.000
R12  19652386.453 7 104979506.823 7     -1437.160          42.000    19652388.719 5  81650734.134 5     -1117.791          34.000
C05  39782672.289 6 207158814.399 6        25.750          37.000    39782668.797 6 160188321.397 6        19.667          37.000
C23  21935694.578 8 114224958.848 8       321.770          48.000
C25  23382204.828 5 121757218.231 5     -2084.324          33.000
E02  26644699.156 8 140018834.222 8      2551.309          49.000    26644699.727 8 107287168.921 8      1954.890          51.000
E03  23783910.234 7 124985286.888 7       444.715          47.000    23783911.078 7  95767954.750 7       340.654          45.000
E05  24736420.484 8 129990745.239 8     -2244.633          51.000    24736423.297 8  99603295.131 8     -1719.922          51.000
E24  22886145.062 8 120267543.340 8     -1855.879          51.000    22886158.289 8  92153122.267 8     -1422.031          51.000
E25  23575842.445 8 123891889.532 8       708.137          51.000    23575843.375 8  94930162.731 8       542.568          51.000
> 2020 05 16 05 34 30.0000000  0 15        .000000000000
G13  20744504.336 8 109013095.599 8     -1771.281          51.000    20744503.445 8  84945260.821 8     -1380.219          48.000
G15  20327816.211 8 106823390.656 8      -298.672          51.000    20327815.227 8  83239011.692 8      -232.731          51.000
G19  23387867.219 8 122904084.858 8      3106.242          48.000    23387865.430 7  95769396.784 7      2420.448          43.000
G28  22266314.219 6 117010273.001 6     -2532.801          39.000
R02  19709798.016 8 105175214.144 8     -2261.660          51.000    19709801.438 8  81802973.683 8     -1759.072          51.000
R11  22817071.992 5 121927494.080 5     -3445.531          32.000    22817071.969 5  94832498.965 5     -2679.858          33.000
R12  19660500.312 6 105022846.744 6     -1449.246          38.000    19660502.023 5  81684442.887 5     -1127.188          33.000
C05  39782533.164 6 207158089.549 6        26.121          36.000    39782529.516 6 160187760.902 6        19.963          37.000
C23  21933874.047 8 114215479.364 8       313.125          48.000
C25  23394235.227 5 121819855.892 5     -2088.664          33.000
E02  26630155.852 8 139942406.949 8      2546.836          50.000    26630156.859 8 107228607.790 8      1951.475          51.000
E03  23781414.758 7 124972170.614 7       432.613          47.000    23781415.641 7  95757904.597 7       331.504          46.000
E05  24749267.914 8 130058256.436 8     -2253.223          51.000    24749269.852 8  99655024.446 8     -1726.414          51.000
E24  22896763.414 8 120323342.956 8     -1861.090          51.000    22896776.578 8  92195877.816 8     -1426.066          51.000
E25  23571834.891 8 123870829.836 8       698.828          51.000    23571835.719 8  94914026.091 8       535.472          51.000
> 2020 05 16 05 35  0.0000000  0 14        .000000000000
G13  20754665.094 8 109066489.528 8     -1785.574          51.000    20754663.578 7  84986866.484 7     -1391.357          47.000
G15  20329579.961 8 106832659.445 8      -316.465          51.000    20329579.055 8  83246234.111 8      -246.599          51.000
G19  23370167.031 8 122811065.454 8      3097.879          49.000    23370164.289 7  95696914.134 7      2413.932          42.000
G28  22280806.312 6 117086429.350 6     -2541.523          41.000
R02  19722585.062 8 105243449.634 8     -2284.602          51.000    19722589.250 8  81856045.702 8     -1776.915          51.000
R11  22836425.078 6 122030902.626 6     -3445.621          36.000    22836427.484 5  94912946.657 5     -2679.924          33.000
R12  19668678.688 6 105066541.412 6     -1460.664          37.000    19668680.477 5  81718427.647 5     -1136.075          33.000
C05  39782390.531 6 207157346.703 6        26.375          37.000    39782386.789 6 160187186.451 6        20.543          37.000
C23  21932102.859 8 114206256.754 8       304.434          48.000
E02  26615637.789 8 139866111.858 8      2542.289          50.000    26615639.031 8 107170147.924 8      1947.985          51.000
E03  23778988.125 8 124959416.928 8       420.504          48.000    23778989.039 7  95748132.274 7       322.237          46.000
E05  24762164.008 8 130126024.177 8     -2261.840          51.000    24762164.977 8  99706950.354 8     -1733.068          51.000
E24  22907411.664 8 120379300.357 8     -1866.594          51.000    22907424.875 8  92238754.256 8     -1430.274          50.000
E25  23567880.109 8 123850048.960 8       689.328          51.000    23567881.070 8  94898103.068 8       528.183          51.000
> 2020 05 16 05 35 30.0000000  0 15        .000000000000
G13  20764907.297 8 109120310.829 8     -1801.184          51.000    20764905.234 8  85028805.136 8     -1403.520          48.000
G15  20331445.797 8 106842465.259 8      -335.840          51.000    20331444.922 8  83253874.981 8      -261.693          51.000
G17  22741346.602 5 119506585.247 5      1460.895          35.000
G19  23352514.391 8 122718295.981 8      3088.113          49.000    23352510.414 6  95624626.274 6      2406.325          41.000
G28  22295347.094 6 117162840.480 6     -2550.973          37.000
R02  19735501.484 8 105312373.404 8     -2308.941          51.000    19735505.242 8  81909653.059 8     -1795.843          49.000
R11  22855779.516 6 122134361.830 6     -3447.879          38.000    22855782.570 5  94993398.095 5     -2681.681          32.000
R12  19676924.875 5 105110592.312 5     -1474.172          35.000    19676928.562 5  81752689.432 5     -1146.575          35.000
C05  39782244.906 6 207156588.858 6        25.715          36.000    39782241.180 6 160186600.445 6        19.673          37.000
C23  21930381.164 7 114197293.656 7       294.465          47.000
E02  26601145.508 8 139789952.538 8      2536.301          49.000    26601146.703 8 107111792.088 8      1943.402          51.000
E03  23776630.828 7 124947029.665 7       406.695          47.000    23776631.688 7  95738640.713 7       311.675          46.000
E05  24775109.164 8 130194050.581 8     -2271.863          51.000    24775108.992 8  99759074.454 8     -1740.772          50.000
E24  22918090.250 8 120435417.382 8     -1873.309          51.000    22918103.562 8  92281753.004 8     -1435.350          50.000
E25  23563978.945 8 123829549.529 8       678.695          51.000    23563980.172 8  94882395.706 8       520.039          51.000
> 2020 05 16 05 36  0.0000000  0 15        .000000000000
G13  20775238.055 8 109174597.116 8     -1815.039          51.000    20775235.594 8  85071106.118 8     -1414.316          48.000
G15  20333421.281 8 106852846.530 8      -353.426          51.000    20333420.062 8  83261964.284 8      -275.397          51.000
G19  23334917.016 8 122625818.393 8      3079.898          50.000    23334911.648 6  95552565.862 6      2399.921          40.000
G28  22309943.742 4 117239545.162 4     -2559.281          29.000    22309943.523 5  91355480.983 5     -1994.245          32.000
R02  19748553.953 8 105382021.244 8     -2331.316          51.000    19748556.523 8  81963823.589 8     -1813.246          48.000
R11  22875144.320 6 122237824.583 6     -3448.301          38.000    22875149.852 5  95073882.541 5     -2682.012          34.000
R12  19685243.672 6 105155036.160 6     -1486.012          36.000    19685249.078 5  81787256.883 5     -1155.787          32.000
C05  39782103.734 6 207155854.111 6        26.312          37.000    39782099.953 6 160186032.264 6        20.540          37.000
C23  21928716.992 8 114188627.773 8       286.164          48.000
C25  23430457.734 5 122008545.846 5     -2101.582          31.000
E02  26586686.219 8 139713967.892 8      2532.238          49.000    26586687.211 8 107053570.090 8      1940.245          51.000
E03  23774350.344 7 124935047.956 7       394.977          47.000    23774351.227 7  95729459.911 7       302.608          46.000
E05  24788110.312 8 130262373.088 8     -2280.125          51.000    24788109.602 8  99811425.429 8     -1747.070          49.000
E24  22928806.336 8 120491731.133 8     -1878.004          50.000    22928819.727 8  92324902.507 8     -1439.002          49.000
E25  23560138.906 8 123809369.607 8       669.543          51.000    23560140.383 8  94866933.173 8       513.122          51.000
> 2020 05 16 05 36 30.0000000  0 15        .000000000000
G13  20785649.406 8 109229307.634 8     -1830.164          51.000    20785647.023 8  85113737.629 8     -1426.102          48.000
G15  20335498.719 8 106863763.510 8      -372.242          51.000    20335497.281 8  83270471.019 8      -290.059          51.000
G17  22724861.195 5 119419937.184 5      1430.105          33.000    22724866.617 5  93054515.414 5      1114.371          33.000
G19  23317368.047 8 122533596.038 8      3070.375          51.000    23317362.016 6  95480704.319 6      2392.503          40.000
G28  22324586.719 6 117316495.675 6     -2568.387          36.000
R02  19761734.102 8 105452350.259 8     -2354.965          51.000    19761735.727 8  82018523.923 8     -1831.639          48.000
R11  22894511.781 6 122341304.411 6     -3449.492          36.000    22894517.562 5  95154373.561 5     -2682.938          32.000
R12  19693628.617 5 105199830.455 5     -1498.223          35.000    19693633.266 5  81822096.866 5     -1165.287          30.000
C05  39781959.500 6 207155102.803 6        25.746          37.000    39781955.633 6 160185451.311 6        20.165          37.000
C23  21927102.445 8 114180219.023 8       276.594          48.000
E02  26572252.391 8 139638118.462 8      2526.645          49.000    26572253.109 8 106995451.682 8      1936.027          51.000
E03  23772139.695 8 124923432.570 8       381.664          48.000    23772140.617 7  95720559.792 7       292.492          47.000
E05  24801159.578 8 130330950.667 8     -2289.602          51.000    24801159.289 8  99863971.848 8     -1754.400          50.000
E24  22939552.164 8 120548200.384 8     -1884.199          50.000    22939565.562 8  92368171.156 8     -1443.749          49.000
E25  23556351.898 8 123789468.765 8       659.293          51.000    23556353.758 8  94851684.487 8       505.199          51.000
> 2020 05 16 05 37  0.0000000  0 15        .000000000000
G13  20796149.695 8 109284486.569 8     -1845.531          51.000    20796147.383 7  85156734.138 7     -1438.079          47.000
G15  20337686.547 8 106875261.014 8      -391.285          51.000    20337685.164 8  83279430.097 8      -304.898          51.000
G19  23299876.359 8 122441676.895 8      3060.531          50.000    23299870.250 6  95409079.079 6      2384.830          41.000
G28  22339285.266 5 117393738.117 5     -2577.965          34.000
R02  19775049.523 8 105523403.409 8     -2378.934          51.000    19775051.172 8  82073787.462 8     -1850.282          49.000
R11  22913885.789 5 122444833.425 5     -3450.121          32.000    22913894.383 5  95234914.528 5     -2683.428          31.000
R12  19702088.531 5 105245018.782 5     -1511.496          35.000    19702090.055 4  81857243.320 4     -1175.611          28.000
C05  39781820.438 6 207154379.243 6        25.332          36.000    39781816.703 6 160184891.810 6        19.298          37.000
C23  21925545.336 8 114172111.348 8       266.754          48.000
C25  23454745.383 5 122135009.126 5     -2111.996          32.000
E02  26557852.758 8 139562449.490 8      2520.859          49.000    26557853.430 8 106937471.545 8      1931.583          50.000
E03  23770007.688 8 124912228.955 8       368.246          48.000    23770008.938 7  95711975.202 7       282.193          47.000
E05  24814265.531 8 130399827.070 8     -2299.215          51.000    24814265.977 8  99916747.232 8     -1761.676          50.000
E24  22950335.812 8 120604868.670 8     -1890.691          50.000    22950349.250 8  92411592.302 8     -1448.622          48.000
E25  23552626.008 8 123769891.377 8       648.809          51.000    23552628.641 8  94836683.633 8       497.151          51.000
> 2020 05 16 05 37 30.0000000  0 14        .000000000000
G13  20806725.359 8 109340062.598 8     -1859.094          51.000    20806723.227 7  85200040.084 7     -1448.648          47.000
G15  20339971.398 8 106887268.560 8      -408.645          51.000    20339969.859 8  83288786.618 8      -318.424          51.000
G19  23282429.172 8 122349993.831 8      3052.148          48.000    23282423.586 7  95337637.772 7      2378.297          42.000
R02  19788486.125 8 105595106.889 8     -2400.820          51.000    19788488.844 8  82129556.807 8     -1867.305          49.000
R11  22933259.078 4 122548346.410 4     -3450.621          29.000    22933263.484 4  95315401.361 4     -2683.816          28.000
R12  19710608.008 6 105290526.925 6     -1522.230          37.000    19710607.836 5  81892633.623 5     -1183.951          32.000
C05  39781673.516 6 207153613.594 6        25.953          36.000    39781669.664 6 160184299.758 6        20.162          37.000
C23  21924032.297 8 114164234.400 8       258.773          48.000
C25  23466924.297 6 122198423.755 6     -2115.039          36.000
E02  26543474.250 8 139486890.919 8      2516.758          49.000    26543475.156 8 106879576.001 8      1928.455          51.000
E03  23767940.422 7 124901367.299 7       356.328          47.000    23767942.500 8  95703652.641 8       272.980          48.000
E05  24827414.812 8 130468930.709 8     -2307.176          49.000    24827415.992 8  99969696.745 8     -1767.836          50.000
E24  22961143.617 8 120661664.146 8     -1895.188          50.000    22961156.883 8  92455110.898 8     -1452.124          48.000
E25  23548948.266 8 123750566.505 8       639.961          51.000    23548951.477 8  94821876.264 8       490.339          51.000
> 2020 05 16 05 38  0.0000000  0 14        .000000000000
G13  20817389.305 8 109396104.554 8     -1872.203          50.000    20817387.641 7  85243709.115 7     -1458.857          47.000
G15  20342366.523 8 106899856.148 8      -425.520          51.000    20342364.938 8  83298595.117 8      -331.574          51.000
G19  23265040.211 7 122258619.995 7      3044.262          46.000    23265036.234 7  95266437.406 7      2372.152          43.000
R02  19802057.047 8 105667528.275 8     -2422.211          51.000    19802061.109 8  82185884.525 8     -1883.942          49.000
R11  22952639.758 4 122651930.766 4     -3449.852          28.000    22952648.727 4  95395969.705 4     -2683.215          29.000
R12  19719200.828 6 105336424.193 6     -1532.457          40.000    19719203.367 5  81928331.488 5     -1191.911          33.000
C05  39781531.562 6 207152874.956 6        27.957          36.000    39781527.938 6 160183728.599 6        21.413          37.000
C23  21922577.133 8 114156656.933 8       251.199          49.000
C25  23479139.117 5 122261998.770 5     -2118.316          31.000
E02  26529130.414 8 139411513.019 8      2513.273          51.000    26529131.578 8 106821818.909 8      1925.737          51.000
E03  23765951.523 7 124890918.095 7       345.102          47.000    23765954.078 8  95695646.088 8       264.461          48.000
E05  24840620.672 8 130538330.340 8     -2314.578          50.000    24840622.336 8 100022873.055 8     -1773.472          50.000
E24  22971988.672 8 120718655.352 8     -1899.289          50.000    22972001.602 7  92498779.467 7     -1455.252          47.000
E25  23545332.219 8 123731563.442 8       631.855          51.000    23545335.523 8  94807315.483 8       484.170          51.000
> 2020 05 16 05 38 30.0000000  0 15        .000000000000
G13  20828132.375 8 109452564.960 8     -1890.980          49.000    20828131.867 8  85287704.263 8     -1473.491          48.000
G15  20344863.133 8 106912976.999 8      -448.262          51.000    20344861.844 8  83308819.130 8      -349.295          51.000
G17  22692965.773 6 119252362.822 6      1362.938          37.000
G19  23247701.836 7 122167512.005 7      3030.438          46.000    23247699.602 7  95195444.146 7      2361.380          45.000
G28  22383658.328 5 117626916.878 5     -2605.238          31.000
R02  19815753.672 8 105740617.312 8     -2449.445          51.000    19815758.531 8  82242731.532 8     -1905.127          48.000
R12  19727857.461 6 105382660.821 6     -1549.051          40.000    19727858.320 4  81964293.298 4     -1204.823          28.000
C05  39781385.953 6 207152115.863 6        23.332          36.000    39781382.250 6 160183142.365 6        18.308          37.000
C23  21921170.891 8 114149332.141 8       238.055          49.000
C25  23491370.867 5 122325687.235 5     -2126.664          33.000
E02  26514812.391 8 139336269.445 8      2503.781          51.000    26514813.797 8 106764164.754 8      1918.494          51.000
E03  23764032.406 7 124880835.216 7       327.977          47.000    23764035.297 8  95687920.242 8       251.265          48.000
E05  24853873.969 8 130607978.122 8     -2327.836          50.000    24853876.188 8 100076239.510 8     -1783.643          51.000
E24  22982861.711 8 120775794.215 8     -1909.172          50.000    22982874.375 7  92542561.165 7     -1462.866          46.000
E25  23541768.484 8 123712834.980 8       617.543          51.000    23541771.750 8  94792965.117 8       473.191          51.000
> 2020 05 16 05 39  0.0000000  0 17        .000000000000
G12  24247437.727 6 127421139.961 6      3838.609          36.000
G13  20838961.039 8 109509471.685 8     -1902.363          51.000    20838961.117 8  85332047.187 8     -1482.361          48.000
G15  20347466.719 8 106926659.333 8      -463.488          51.000    20347465.602 8  83319480.684 8      -361.160          51.000
G17  22685218.508 6 119211664.636 6      1350.492          38.000    22685227.125 6  92892220.260 6      1052.329          36.000
G19  23230420.820 7 122076701.626 7      3024.145          47.000    23230419.844 7  95124682.815 7      2356.476          45.000
G24  21640336.258 6 113720743.688 6      2260.234          36.000
R02  19829580.953 8 105814400.594 8     -2468.918          51.000    19829585.602 7  82300118.517 7     -1920.270          47.000
R12  19736581.602 6 105429263.602 6     -1557.195          37.000    19736579.805 5  82000544.826 5     -1211.152          32.000
R21  22940356.789 6 122758488.269 6       992.375          36.000    22940359.586 5  95478826.499 5       771.847          32.000
C05  39781242.031 6 207151366.592 6        27.141          36.000    39781238.430 6 160182563.000 6        20.929          37.000
C23  21919818.531 8 114142287.790 8       232.129          50.000
C25  23503629.312 5 122389516.286 5     -2127.727          35.000
E02  26500525.555 8 139261189.194 8      2502.020          51.000    26500527.289 8 106706635.759 8      1917.078          51.000
E03  23762188.734 7 124871147.848 7       318.363          47.000    23762192.008 8  95680497.434 8       243.989          49.000
E05  24867180.164 8 130677901.454 8     -2333.262          51.000    24867182.609 8 100129817.105 8     -1787.863          51.000
E24  22993767.922 8 120833107.957 8     -1911.285          49.000    22993780.578 7  92586476.879 7     -1464.518          46.000
E25  23538262.344 8 123694409.176 8       611.273          51.000    23538265.336 8  94778846.650 8       468.366          51.000
> 2020 05 16 05 39 30.0000000  0 17        .000000000000
G12  24225533.070 6 127306053.671 6      3831.492          36.000    24225530.727 4  99199527.479 4      2985.587          28.000
G13  20849862.211 8 109566754.918 8     -1919.273          51.000    20849861.812 8  85376683.462 8     -1495.538          48.000
G15  20350163.875 8 106940834.096 8      -484.383          50.000    20350162.805 8  83330525.953 8      -377.441          50.000
G17  22677554.383 6 119171391.157 6      1331.848          38.000    22677559.844 6  92860838.310 6      1037.806          37.000
G19  23213184.648 8 121986123.276 8      3011.855          50.000    23213184.250 7  95054102.285 7      2346.900          45.000
G24  21627454.547 5 113653052.783 5      2249.918          35.000    21627462.203 6  88560833.177 6      1753.183          36.000
R02  19843524.898 8 105888805.393 8     -2494.027          51.000    19843528.758 7  82357988.868 7     -1939.799          46.000
R12  19745360.305 6 105476160.602 6     -1571.469          39.000    19745361.734 5  82037020.350 5     -1222.253          34.000
R21  22934859.414 5 122729079.515 5       965.305          35.000    22934864.016 5  95455953.008 5       750.793          30.000
C05  39781086.781 6 207150557.727 6        24.809          36.000    39781083.008 6 160181937.545 6        18.752          37.000
C23  21918506.617 8 114135455.091 8       220.703          49.000
C25  23515901.633 5 122453416.732 5     -2134.621          33.000
E02  26486256.562 8 139186203.689 8      2494.328          51.000    26486258.859 8 106649179.359 8      1911.277          51.000
E03  23760407.570 8 124861787.596 8       302.957          49.000    23760410.875 8  95673325.299 8       232.115          49.000
E05  24880525.703 8 130748030.292 8     -2344.594          51.000    24880528.102 8 100183552.157 8     -1796.507          51.000
E24  23004694.102 8 120890526.314 8     -1919.262          49.000    23004707.031 7  92630472.752 7     -1470.486          45.000
E25  23534800.672 8 123676216.556 8       599.012          51.000    23534803.359 8  94764906.860 8       458.965          51.000
> 2020 05 16 05 40  0.0000000  0 17        .000000000000
G12  24203671.320 6 127191188.564 6      3827.875          38.000    24203685.031 5  99110021.935 5      2982.757          33.000
G13  20860863.805 8 109624565.055 8     -1933.195          51.000    20860862.570 8  85421730.295 8     -1506.386          49.000
G15  20352983.672 8 106955653.050 8      -502.184          49.000    20352982.523 8  83342073.164 8      -391.312          49.000
G17  22669999.977 5 119131696.113 5      1315.934          33.000    22670002.484 5  92829906.891 5      1025.400          32.000
G19  23196022.219 8 121895931.405 8      3002.508          49.000    23196021.773 7  94983822.921 7      2339.616          46.000
G24  21614634.188 5 113585687.927 5      2242.488          34.000
R02  19857613.219 8 105963982.364 8     -2516.227          51.000    19857616.180 7  82416459.805 7     -1957.068          46.000
R12  19754223.273 6 105523503.277 6     -1583.164          40.000    19754226.531 5  82073842.473 5     -1231.350          31.000
R21  22929518.445 5 122700504.645 5       940.992          35.000    22929522.320 5  95433728.099 5       731.883          30.000
C05  39780948.820 6 207149839.209 6        24.750          36.000    39780944.906 6 160181381.903 6        19.341          37.000
C23  21917264.000 8 114128983.535 8       212.219          50.000
C25  23528213.453 5 122517537.888 5     -2138.336          35.000
E02  26472034.062 8 139111464.714 8      2489.793          49.000    26472037.188 8 106591911.843 8      1907.748          51.000
E03  23758717.859 8 124852906.445 8       290.570          48.000    23758720.781 8  95666520.271 8       222.726          49.000
E05  24893938.719 8 130818514.859 8     -2352.898          51.000    24893940.688 8 100237559.795 8     -1802.882          50.000
E24  23015668.969 8 120948199.338 8     -1924.082          49.000    23015682.188 7  92674663.772 7     -1474.377          46.000
E25  23531412.016 8 123658407.990 8       589.766          51.000    23531414.695 8  94751261.343 8       451.844          51.000
> 2020 05 16 05 40 30.0000000  0 17        .000000000000
G12  24181831.609 6 127076430.203 6      3823.848          37.000    24181842.773 6  99020599.728 6      2979.622          36.000
G13  20871943.359 8 109682785.680 8     -1946.906          51.000    20871941.469 8  85467096.961 8     -1517.070          49.000
G15  20355904.203 8 106970999.739 8      -519.652          51.000    20355902.656 8  83354031.623 8      -404.924          51.000
G17  22662542.258 5 119092458.215 5      1300.691          30.000    22662531.812 5  92799281.184 5      1013.526          31.000
G19  23178911.664 8 121806013.440 8      2993.371          50.000    23178910.930 7  94913757.016 7      2332.500          46.000
G28  22443504.383 5 117941396.817 5     -2636.316          33.000
R02  19871822.195 8 106039810.353 8     -2537.773          48.000    19871825.625 7  82475437.117 7     -1973.824          46.000
R12  19763147.086 6 105571171.946 6     -1593.664          38.000    19763148.508 5  82110917.991 5     -1239.520          30.000
R21  22924312.992 5 122672647.691 5       916.992          34.000    22924315.750 5  95412061.587 5       713.216          32.000
C05  39780806.125 6 207149096.137 6        25.832          36.000    39780802.203 6 160180805.297 6        20.253          37.000
C23  21916068.508 8 114122757.818 8       204.129          49.000
C25  23540547.484 6 122581763.785 6     -2141.719          37.000
E02  26457835.828 7 139036856.823 7      2485.363          47.000    26457840.219 8 106534744.741 8      1904.375          50.000
E03  23757097.141 8 124844389.141 8       278.492          48.000    23757100.000 8  95659994.021 8       213.423          50.000
E05  24907396.719 8 130889238.150 8     -2360.781          50.000    24907398.398 8 100291750.361 8     -1808.880          50.000
E24  23026670.172 8 121006009.883 8     -1928.645          49.000    23026683.500 7  92718960.122 7     -1477.772          46.000
E25  23528074.336 8 123640867.064 8       581.055          51.000    23528076.922 8  94737820.903 8       445.203          51.000
> 2020 05 16 05 41  0.0000000  0 16        .000000000000
G12  24160016.922 5 126961795.910 5      3819.129          32.000    24160027.688 5  98931274.343 5      2975.945          33.000
G13  20883103.469 8 109741430.763 8     -1961.555          51.000    20883101.266 8  85512794.384 8     -1528.487          48.000
G15  20358928.188 8 106986889.807 8      -538.410          51.000    20358926.297 8  83366413.506 8      -419.540          51.000
G19  23161856.594 8 121716388.012 8      2982.867          48.000    23161855.438 7  94843919.039 7      2324.312          45.000
G28  22458582.953 5 118020636.383 5     -2645.105          32.000
R02  19886155.953 8 106116303.032 8     -2560.543          50.000    19886159.492 7  82534931.457 7     -1991.533          46.000
R12  19772134.492 6 105619180.170 6     -1605.652          39.000    19772136.266 5  82148257.765 5     -1248.841          34.000
R21  22919242.344 5 122645451.059 5       892.012          32.000    22919249.172 5  95390952.078 5       693.787          32.000
C05  39780661.680 6 207148343.761 6        25.539          36.000    39780657.727 6 160180223.552 6        19.425          37.000
C23  21914922.797 8 114116792.840 8       194.707          49.000
C25  23552905.227 6 122646109.090 6     -2146.918          37.000
E02  26443665.164 7 138962395.865 7      2479.852          46.000    26443671.133 8 106477690.217 8      1900.185          49.000
E03  23755548.523 8 124836251.767 8       265.086          48.000    23755551.438 8  95653758.876 8       203.151          50.000
E05  24920902.516 8 130960214.540 8     -2369.707          49.000    24920904.500 8 100346134.855 8     -1815.773          50.000
E24  23037700.430 8 121063972.111 8     -1934.320          48.000    23037713.406 7  92763372.731 7     -1482.154          45.000
E25  23524790.570 8 123623608.799 8       570.738          51.000    23524792.750 8  94724597.030 8       437.358          51.000
> 2020 05 16 05 41 30.0000000  0 17        .000000000000
G12  24138227.297 4 126847292.123 4      3816.207          28.000    24138237.859 4  98842050.568 4      2973.665          26.000
G13  20894344.492 8 109800503.756 8     -1976.113          51.000    20894342.664 8  85558825.264 8     -1539.829          48.000
G15  20362056.242 8 107003327.437 8      -556.930          51.000    20362054.367 8  83379222.029 8      -433.971          51.000
G17  22647878.336 6 119015432.651 6      1267.293          37.000    22647880.367 6  92739281.224 6       987.501          37.000
G19  23144858.281 7 121627062.871 7      2972.594          47.000    23144856.695 7  94774315.076 7      2316.307          44.000
G28  22473706.664 5 118100113.886 5     -2653.320          35.000
R02  19900615.852 8 106193461.481 8     -2582.777          51.000    19900619.031 7  82594943.586 7     -2008.827          47.000
R12  19781186.164 5 105667530.007 5     -1617.148          35.000    19781188.633 5  82185863.205 5     -1257.782          32.000
R21  22914314.594 6 122619071.057 6       866.863          36.000    22914318.172 5  95370434.224 5       674.227          30.000
C05  39780516.203 6 207147586.107 6        25.590          36.000    39780512.102 6 160179636.654 6        19.597          36.000
C23  21913827.891 8 114111092.151 8       185.828          49.000
C25  23565285.398 5 122710577.023 5     -2151.008          33.000
E02  26429523.742 8 138888086.356 8      2474.496          48.000    26429530.844 8 106420751.772 8      1896.036          49.000
E03  23754073.203 8 124828498.973 8       252.203          49.000    23754076.031 8  95647818.418 8       193.184          51.000
E05  24934457.227 8 131031447.018 8     -2378.570          50.000    24934459.906 8 100400715.565 8     -1822.538          51.000
E24  23048759.898 8 121122088.828 8     -1939.621          48.000    23048772.531 7  92807903.718 7     -1486.230          45.000
E25  23521560.984 8 123606636.738 8       561.164          51.000    23521563.031 8  94711592.456 8       429.959          51.000
> 2020 05 16 05 42  0.0000000  0 15        .000000000000
G13  20905659.195 8 109859966.488 8     -1990.945          51.000    20905658.328 8  85605159.853 8     -1551.386          48.000
G15  20365281.273 8 107020274.537 8      -575.883          51.000    20365279.422 8  83392427.549 8      -448.740          51.000
G17  22640682.500 5 118977621.144 5      1250.449          30.000    22640682.008 4  92709817.633 4       974.370          27.000
G19  23127910.406 7 121538003.599 7      2961.637          46.000    23127908.039 7  94704918.277 7      2307.769          42.000
R02  19915192.875 8 106271244.845 8     -2605.684          51.000    19915196.320 8  82655441.706 8     -2026.646          48.000
R12  19790294.078 6 105716181.368 6     -1629.211          38.000    19790296.227 5  82223703.133 5     -1267.161          32.000
R21  22909517.367 5 122593395.862 5       841.527          34.000    22909520.164 5  95350464.607 5       654.518          31.000
C05  39780362.578 6 207146785.902 6        24.977          36.000    39780358.297 6 160179017.881 6        19.398          36.000
C23  21912776.703 8 114105618.045 8       176.324          50.000
C25  23577682.172 6 122775129.431 6     -2155.340          38.000
E02  26415404.984 8 138813891.110 8      2468.801          50.000    26415412.000 8 106363900.886 8      1891.747          49.000
E03  23752664.117 8 124821093.797 8       238.660          50.000    23752667.078 8  95642144.314 8       182.857          51.000
E05  24948054.047 8 131102896.844 8     -2387.734          51.000    24948057.336 8 100455462.813 8     -1829.566          51.000
E24  23059841.102 7 121180321.211 7     -1945.445          47.000    23059853.578 7  92852523.330 7     -1490.681          44.000
E25  23518378.305 8 123589912.832 8       550.879          51.000    23518380.586 8  94698778.032 8       422.099          51.000
> 2020 05 16 05 42 30.0000000  0 15        .000000000000
G13  20917067.398 8 109919919.492 8     -2004.469          51.000    20917067.031 8  85651876.481 8     -1561.924          48.000
G15  20368622.656 8 107037832.783 8      -593.242          51.000    20368620.750 8  83406109.291 8      -462.267          51.000
G17  22633593.219 5 118940330.997 5      1234.926          35.000    22633593.938 5  92680785.994 5       962.280          35.000
G19  23111032.984 7 121449314.950 7      2952.180          45.000    23111029.844 7  94635810.267 7      2300.400          42.000
R02  19929905.484 8 106349753.051 8     -2626.793          51.000    19929909.406 8  82716503.589 8     -2043.064          48.000
R12  19799477.484 6 105765235.269 6     -1639.492          38.000    19799481.266 5  82261856.194 5     -1275.158          32.000
R21  22904868.750 5 122568560.782 5       817.539          31.000    22904874.805 5  95331126.099 5       635.864          32.000
C05  39780219.945 6 207146043.654 6        25.746          36.000    39780215.797 6 160178443.908 6        20.087          37.000
C23  21911788.086 8 114100470.666 8       168.227          49.000
C25  23590114.648 5 122839866.056 5     -2158.855          35.000
E02  26401327.945 8 138739912.101 8      2464.422          50.000    26401333.703 8 106307215.693 8      1888.332          48.000
E03  23751340.820 8 124814138.337 8       226.418          50.000    23751343.836 8  95636814.796 8       173.498          51.000
E05  24961711.727 8 131174664.447 8     -2395.504          51.000    24961715.344 8 100510453.550 8     -1835.543          51.000
E24  23070963.328 7 121238769.486 7     -1949.707          46.000    23070975.648 7  92897308.386 7     -1494.006          44.000
E25  23515262.055 8 123573538.080 8       542.055          51.000    23515264.516 8  94686231.142 8       415.293          51.000
> 2020 05 16 05 43  0.0000000  0 16        .000000000000
G12  24073015.133 5 126504532.819 5      3799.816          33.000    24073014.586 5  98574957.201 5      2960.896          33.000
G13  20928541.727 8 109980217.316 8     -2019.578          51.000    20928541.352 8  85698861.791 8     -1573.700          48.000
G15  20372052.891 8 107055857.506 8      -612.652          51.000    20372050.914 8  83420154.520 8      -477.391          51.000
G17  22626582.297 5 118903485.844 5      1216.977          33.000    22626586.656 4  92652075.133 4       948.269          24.000
G19  23094199.508 7 121360856.042 7      2940.723          44.000    23094196.570 7  94566881.244 7      2291.472          43.000
R02  19944725.906 8 106428836.403 8     -2649.719          51.000    19944729.570 7  82778012.851 7     -2060.892          47.000
R11  23146574.289 5 123688274.341 5     -3457.125          31.000
R12  19808707.758 6 105814542.974 6     -1651.957          37.000    19808711.953 5  82300206.644 5     -1284.859          30.000
R21  22900348.438 5 122544360.658 5       791.516          31.000    22900352.227 5  95312303.706 5       615.620          33.000
C05  39780061.078 6 207145216.279 6        25.152          36.000    39780056.805 6 160177804.154 6        19.265          36.000
C23  21910834.641 8 114095506.482 8       158.492          49.000
E02  26387264.789 8 138666005.342 8      2458.316          50.000    26387268.281 7 106250585.855 7      1883.645          46.000
E03  23750075.586 8 124807488.775 8       212.516          49.000    23750078.656 8  95631719.671 8       162.828          51.000
E05  24975402.125 8 131246604.292 8     -2404.859          51.000    24975406.078 8 100565576.251 8     -1842.696          51.000
E24  23082098.984 7 121297288.065 7     -1955.691          46.000    23082111.172 7  92942147.297 7     -1498.669          44.000
E25  23512184.805 8 123557367.581 8       531.684          51.000    23512187.117 8  94673840.750 8       407.364          51.000
> 2020 05 16 05 43 30.0000000  0 15        .000000000000
G12  24051331.070 6 126390587.208 6      3790.859          36.000    24051334.406 5  98486168.345 5      2953.913          35.000
G13  20940110.578 8 110041011.223 8     -2038.828          51.000    20940110.148 8  85746233.618 8     -1588.697          48.000
G15  20375600.688 8 107074500.414 8      -635.836          51.000    20375598.703 8  83434681.453 8      -495.457          51.000
G19  23077439.359 7 121272781.856 7      2925.223          46.000    23077437.305 6  94498252.052 6      2279.394          41.000
R02  19959682.375 8 106508646.314 8     -2676.562          51.000    19959685.633 7  82840087.214 7     -2081.774          47.000
R11  23165986.492 5 123791956.499 5     -3462.031          31.000
R12  19818014.547 6 105864256.976 6     -1668.078          39.000    19818018.953 5  82338873.017 5     -1297.394          30.000
R21  22895981.523 5 122520974.452 5       761.785          30.000    22895983.000 5  95294123.342 5       592.503          33.000
C05  39779914.734 6 207144454.386 6        20.184          36.000    39779910.383 5 160177214.981 5        15.755          35.000
C23  21909945.453 8 114090875.654 8       144.742          50.000
E02  26373244.242 8 138592323.211 8      2448.172          50.000    26373244.938 7 106194128.151 7      1875.791          45.000
E03  23748897.289 8 124801297.694 8       194.516          49.000    23748900.578 8  95626975.838 8       149.092          51.000
E05  24989153.797 8 131318867.219 8     -2418.273          51.000    24989157.883 8 100620946.516 8     -1852.981          51.000
E24  23093276.750 7 121356027.684 7     -1965.762          46.000    23093288.867 7  92987155.553 7     -1506.281          43.000
E25  23509175.359 8 123541552.857 8       517.004          51.000    23509177.445 8  94661722.965 8       396.119          51.000
> 2020 05 16 05 44  0.0000000  0 16        .000000000000
G12  24029675.914 5 126276800.132 5      3797.277          35.000    24029685.992 4  98397503.020 4      2958.911          29.000
G13  20951763.766 8 110102247.464 8     -2041.883          51.000    20951762.828 8  85793950.141 8     -1591.078          48.000
G15  20379255.922 8 107093708.787 8      -643.070          51.000    20379254.008 8  83449649.003 8      -501.094          51.000
G19  23060743.609 8 121185043.134 8      2925.730          48.000    23060741.109 6  94429884.175 6      2279.787          41.000
R02  19974764.758 8 106589126.323 8     -2687.082          51.000    19974767.656 7  82902682.730 7     -2089.953          47.000
R11  23185394.344 5 123895668.793 5     -3449.812          30.000
R12  19827386.883 6 105914321.580 6     -1667.988          37.000    19827393.094 4  82377812.155 4     -1297.327          28.000
R21  22891755.250 5 122498417.908 5       747.664          31.000    22891756.688 5  95276541.628 5       581.513          31.000
C05  39779770.969 6 207143705.778 6        30.902          36.000    39779766.570 6 160176635.080 6        24.482          36.000
C23  21909110.055 8 114086525.571 8       146.953          50.000
C25  23627539.172 6 123034753.423 6     -2166.090          36.000
E02  26359256.109 8 138518813.533 8      2454.195          49.000    26359254.625 7 106137802.568 7      1880.427          46.000
E03  23747796.367 8 124795513.011 8       192.844          50.000    23747799.688 8  95622543.410 8       147.769          51.000
E05  25002956.438 8 131391399.471 8     -2415.438          51.000    25002960.547 8 100676523.142 8     -1850.814          51.000
E24  23104486.367 7 121414934.437 7     -1959.562          47.000    23104498.469 7  93032291.869 7     -1501.363          44.000
E25  23506223.461 8 123526040.719 8       518.840          51.000    23506225.445 8  94649837.047 8       397.606          51.000
> 2020 05 16 05 44 30.0000000  0 16        .000000000000
G12  24008057.062 6 126163207.650 6      3785.918          38.000    24008074.086 5  98308989.441 5      2950.081          30.000
G13  20963507.406 8 110163959.390 8     -2062.320          51.000    20963505.977 8  85842037.345 8     -1607.003          48.000
G15  20383025.148 8 107113516.194 8      -667.523          51.000    20383023.109 8  83465083.328 8      -520.148          51.000
G17  22606167.344 4 118796229.485 4      1168.230          29.000    22606170.312 5  92568478.541 5       910.319          31.000
G19  23044119.000 8 121097677.025 8      2908.664          48.000    23044115.891 6  94361806.687 6      2266.491          41.000
R02  19989978.828 8 106670308.034 8     -2714.984          51.000    19989981.188 8  82965824.032 8     -2111.658          48.000
R11  23204811.312 5 123999432.989 5     -3456.789          31.000
R12  19836830.141 6 105964769.378 6     -1685.582          36.000    19836838.469 4  82417049.248 4     -1311.008          26.000
C05  39779636.172 6 207143004.018 6        25.484          36.000    39779631.930 6 160176092.474 6        19.622          36.000
C23  21908334.828 8 114082489.445 8       132.066          50.000
C25  23640091.945 5 123100028.232 5     -2176.449          31.000
E02  26345306.797 8 138445510.681 8      2442.734          48.000    26345304.656 7 106081635.474 7      1871.732          46.000
E03  23746779.625 8 124790169.263 8       173.496          51.000    23746782.727 8  95618448.847 8       133.013          51.000
E05  25016816.430 8 131464233.878 8     -2430.066          51.000    25016820.438 8 100732331.306 8     -1862.008          51.000
E24  23115734.109 7 121474041.088 7     -1970.766          47.000    23115745.953 7  93077581.384 7     -1510.154          43.000
E25  23503335.414 8 123510864.664 8       502.988          51.000    23503337.336 8  94638208.643 8       385.466          51.000
> 2020 05 16 05 45  0.0000000  0 14        .000000000000
G12  23986444.125 5 126049653.136 5      3779.676          35.000    23986434.055 5  98220440.821 5      2945.202          33.000
G13  20975310.953 8 110225987.135 8     -2077.137          51.000    20975309.281 7  85890370.638 7     -1618.548          47.000
G15  20386878.305 8 107133764.089 8      -686.504          51.000    20386875.984 8  83480860.901 8      -534.938          51.000
G19  23027535.672 7 121010528.705 7      2896.969          46.000    23027532.430 7  94293898.957 7      2257.378          42.000
R02  20005293.188 8 106752027.270 8     -2737.223          51.000    20005295.461 8  83029383.411 8     -2128.951          48.000
R11  23224208.547 5 124103086.265 5     -3456.941          31.000
R12  19846315.648 6 106015437.111 6     -1696.383          36.000    19846324.633 4  82456502.051 4     -1319.406          24.000
C05  39779480.055 6 207142192.021 6        24.586          36.000    39779476.039 6 160175464.572 6        19.138          37.000
C23  21907589.836 8 114078609.658 8       122.504          50.000
E02  26331366.414 7 138372256.441 7      2436.746          46.000    26331365.062 7 106025505.651 7      1867.102          47.000
E03  23745816.742 8 124785108.394 8       159.648          51.000    23745819.805 8  95614571.030 8       122.343          51.000
E05  25030703.422 8 131537210.681 8     -2439.203          51.000    25030707.383 8 100788248.589 8     -1869.006          51.000
E24  23126989.570 7 121533187.792 7     -1976.629          46.000    23127000.656 7  93122901.571 7     -1514.533          43.000
E25  23500481.008 8 123495865.610 8       492.730          51.000    23500483.117 8  94626715.844 8       377.550          51.000
> 2020 05 16 05 45 30.0000000  0 16        .000000000000
G12  23964874.000 6 125936324.008 6      3776.996          36.000    23964869.477 5  98132132.535 5      2943.117          31.000
G13  20987209.656 8 110288515.237 8     -2089.668          51.000    20987207.656 7  85939093.832 7     -1628.313          47.000
G15  20390850.445 8 107154637.500 8      -703.324          51.000    20390847.938 8  83497125.893 8      -548.045          51.000
G17  22593025.562 4 118727147.556 4      1134.953          29.000    22593029.508 4  92514679.741 4       884.376          29.000
G19  23011029.180 7 120923786.147 7      2887.453          46.000    23011025.906 7  94226307.395 7      2249.963          42.000
R02  20020742.742 8 106834468.822 8     -2757.086          51.000    20020745.172 8  83093504.600 8     -2144.400          48.000
R11  23243620.320 5 124206815.832 5     -3456.168          32.000
R12  19855877.281 6 106066511.058 6     -1706.555          37.000
R21  22879928.086 4 122435124.795 4       666.012          29.000    22879932.797 5  95227324.932 5       518.009          30.000
C05  39779338.047 5 207141452.160 5        26.316          35.000    39779334.312 6 160174893.249 6        20.099          36.000
C23  21906910.203 8 114075069.251 8       115.230          51.000
E02  26317470.562 7 138299236.402 7      2433.070          46.000    26317470.656 8 105969555.278 8      1864.292          48.000
E03  23744942.922 8 124780516.066 8       148.238          51.000    23744945.984 8  95611052.235 8       113.603          51.000
E05  25044652.422 8 131610513.892 8     -2446.008          51.000    25044656.289 8 100844415.970 8     -1874.103          51.000
E24  23138287.578 7 121592558.457 7     -1979.703          47.000    23138298.047 7  93168393.361 7     -1516.894          43.000
E25  23497695.398 8 123481228.137 8       484.875          51.000    23497698.062 8  94615500.100 8       371.552          51.000
> 2020 05 16 05 46  0.0000000  0 16        .000000000000
G12  23943331.305 6 125823127.555 6      3771.332          36.000    23943330.125 5  98043927.537 5      2938.700          31.000
G13  20999185.422 8 110351448.415 8     -2103.957          51.000    20999183.227 7  85988132.673 7     -1639.447          47.000
G15  20394923.367 8 107176041.591 8      -721.715          51.000    20394920.977 8  83513804.395 8      -562.375          51.000
G17  22586602.609 5 118693392.077 5      1117.840          34.000    22586607.688 5  92488375.959 5       871.044          34.000
G19  22994582.664 7 120837358.618 7      2876.375          46.000    22994579.906 7  94158961.305 7      2241.331          44.000
R02  20036309.578 8 106917533.852 8     -2778.613          51.000    20036311.656 8  83158110.732 8     -2161.144          49.000
R11  23263028.133 5 124310524.401 5     -3455.605          30.000
R12  19865495.844 6 106117893.284 6     -1717.156          38.000    19865496.906 5  82536146.564 5     -1335.563          31.000
C05  39779192.141 6 207140692.078 6        26.129          36.000    39779188.445 6 160174306.270 6        20.398          36.000
C23  21906277.766 8 114071774.419 8       106.355          51.000
C25  23677776.562 5 123296422.530 5     -2186.875          31.000
E02  26303601.383 7 138226356.766 7      2427.656          46.000    26303602.922 7 105913712.450 7      1860.122          47.000
E03  23744140.367 8 124776298.661 8       134.906          51.000    23744143.406 8  95607820.707 8       103.421          51.000
E05  25058645.352 8 131684048.163 8     -2454.379          50.000    25058648.938 8 100900760.410 8     -1880.589          51.000
E24  23149609.977 7 121652057.723 7     -1984.793          45.000    23149620.406 7  93213983.673 7     -1520.854          42.000
E25  23494960.633 8 123466857.509 8       475.094          51.000    23494963.609 8  94604488.859 8       364.036          51.000
> 2020 05 16 05 46 30.0000000  0 15        .000000000000
G12  23921814.812 6 125710061.523 6      3765.777          38.000    23921814.727 6  97955824.169 6      2934.366          36.000
G13  21011237.203 8 110414781.261 8     -2118.367          51.000    21011235.047 7  86037482.932 7     -1650.676          46.000
G15  20399096.398 8 107197971.842 8      -740.508          51.000    20399094.383 8  83530892.890 8      -577.019          51.000
G17  22580282.672 5 118660216.568 5      1100.500          35.000    22580294.344 5  92462502.220 5       857.520          33.000
G19  22978195.695 7 120751244.678 7      2864.383          46.000    22978193.711 7  94091859.535 7      2231.987          44.000
R02  20051992.094 8 107001215.878 8     -2800.324          51.000    20051993.867 8  83223196.751 8     -2178.033          49.000
R12  19875171.320 6 106169577.585 6     -1728.512          40.000    19875175.898 5  82576345.525 5     -1344.398          34.000
C05  39779041.625 5 207139908.530 5        25.613          35.000    39779037.898 5 160173701.374 5        20.008          35.000
C23  21905691.391 8 114068720.418 8        97.168          51.000
C25  23690402.242 5 123362101.082 5     -2191.887          31.000
E02  26289758.578 7 138153613.575 7      2421.844          47.000    26289760.750 7 105857974.159 7      1855.621          47.000
E03  23743408.312 8 124772452.365 8       121.324          51.000    23743411.547 8  95604873.532 8        92.930          51.000
E05  25072681.062 8 131757808.041 8     -2463.215          50.000    25072684.773 8 100957277.693 8     -1887.339          51.000
E24  23160955.734 7 121711680.006 7     -1990.078          44.000    23160966.656 7  93259668.236 7     -1524.883          42.000
E25  23492276.008 8 123452748.878 8       465.348          51.000    23492278.648 8  94593678.367 8       356.526          51.000
> 2020 05 16 05 47  0.0000000  0 13        .000000000000
G12  23900339.852 6 125597211.946 6      3761.492          38.000    23900341.266 5  97867889.500 5      2931.036          33.000
G13  21023381.062 8 110478597.036 8     -2132.004          51.000    21023378.773 7  86087209.492 7     -1661.302          45.000
G15  20403385.641 8 107220512.159 8      -758.207          51.000    20403383.961 8  83548456.780 8      -590.811          51.000
G19  22961885.188 7 120665532.340 7      2853.793          46.000    22961883.797 7  94025070.702 7      2223.735          43.000
R02  20067804.992 8 107085596.076 8     -2820.910          51.000    20067806.992 8  83288825.747 8     -2194.044          49.000
R12  19884918.406 6 106221647.341 6     -1738.965          39.000    19884921.523 5  82616844.181 5     -1352.528          33.000
C05  39778902.477 5 207139183.889 5        26.672          35.000    39778898.742 6 160173141.057 6        20.171          36.000
C23  21905167.133 8 114065990.295 8        88.855          51.000
E02  26275958.469 7 138081091.474 7      2416.906          47.000    26275960.266 7 105802405.251 7      1851.942          47.000
E03  23742763.141 8 124769061.897 8       108.711          51.000    23742766.414 8  95602275.631 8        83.262          51.000
E05  25086775.227 8 131831876.544 8     -2470.863          48.000    25086779.359 8 101014031.483 8     -1893.328          51.000
E24  23172340.531 6 121771508.308 6     -1994.473          41.000    23172352.352 7  93305510.689 7     -1528.086          42.000
E25  23489657.273 8 123438986.047 8       456.125          51.000    23489659.633 8  94583132.808 8       349.486          51.000
> 2020 05 16 05 47 30.0000000  0 15        .000000000000
G12  23878881.195 6 125484446.454 6      3757.711          39.000    23878883.320 5  97780020.353 5      2928.086          33.000
G13  21035591.109 8 110542760.167 8     -2144.387          51.000    21035588.438 7  86137206.681 7     -1670.954          43.000
G15  20407765.359 8 107243527.980 8      -774.996          51.000    20407764.000 8  83566391.174 8      -603.893          51.000
G19  22945626.156 7 120580090.610 7      2843.551          45.000    22945625.312 7  93958492.725 7      2215.754          43.000
R02  20083721.961 8 107170534.739 8     -2840.508          51.000    20083724.344 8  83354889.115 8     -2209.284          48.000
R12  19894710.531 5 106273963.910 5     -1747.680          35.000    19894715.383 5  82657534.860 5     -1359.309          33.000
R21  22866144.719 5 122361305.078 5       566.227          32.000    22866146.625 4  95169936.492 4       440.398          29.000
C05  39778749.039 6 207138384.724 6        27.836          36.000    39778745.164 6 160172522.045 6        21.485          36.000
C23  21904679.336 8 114063450.132 8        81.648          51.000
C25  23715686.898 5 123493789.263 5     -2197.238          34.000
E02  26262175.211 8 138008656.083 8      2413.180          48.000    26262176.414 8 105746902.820 8      1849.042          48.000
E03  23742179.250 8 124765993.075 8        97.129          51.000    23742182.375 8  95599924.195 8        74.394          51.000
E05  25100902.242 8 131906117.810 8     -2477.348          48.000    25100906.664 8 101070917.644 8     -1898.221          50.000
E24  23183738.547 6 121831406.701 6     -1997.707          41.000    23183751.570 7  93351406.887 7     -1530.567          42.000
E25  23487078.180 8 123425433.691 8       448.441          51.000    23487081.055 8  94572748.543 8       343.623          51.000
> 2020 05 16 05 48  0.0000000  0 16        .000000000000
G12  23857450.102 6 125371824.521 6      3751.816          38.000    23857451.961 4  97692263.051 4      2923.493          29.000
G13  21047878.023 8 110607327.651 8     -2158.516          51.000    21047875.219 7  86187518.921 7     -1681.963          43.000
G15  20412246.445 8 107267076.579 8      -793.465          51.000    20412245.445 8  83584740.725 8      -618.284          51.000
G17  22561867.570 6 118563408.802 6      1051.016          38.000    22561872.938 6  92387072.340 6       818.973          37.000
G19  22929429.930 7 120494979.538 7      2831.750          44.000    22929429.578 7  93892172.445 7      2206.561          42.000
R02  20099753.242 8 107256087.400 8     -2861.586          51.000    20099756.180 7  83421430.032 7     -2225.678          47.000
R12  19904561.242 6 106326583.925 6     -1758.191          37.000    19904564.070 4  82698461.554 4     -1367.482          29.000
R21  22863043.133 5 122344764.439 5       540.484          31.000    22863052.516 4  95157052.529 4       420.380          26.000
C05  39778592.227 5 207137568.292 5        27.906          35.000    39778588.312 6 160171890.738 6        21.470          36.000
C23  21904238.711 8 114061156.818 8        72.742          51.000
C25  23728366.312 5 123559791.789 5     -2201.473          35.000
E02  26248419.477 8 137936365.711 8      2407.727          50.000    26248420.352 8 105691511.522 8      1844.899          48.000
E03  23741667.406 8 124763304.287 8        83.707          51.000    23741670.617 8  95597863.930 8        64.154          51.000
E05  25115073.492 8 131980588.567 8     -2485.691          50.000    25115077.828 8 101127979.641 8     -1904.639          50.000
E24  23195160.602 6 121891431.920 6     -2002.410          41.000    23195174.836 7  93397400.257 7     -1534.239          42.000
E25  23484550.117 8 123412149.159 8       438.812          51.000    23484553.469 8  94562569.503 8       336.302          51.000
> 2020 05 16 05 48 30.0000000  0 16        .000000000000
G12  23836051.594 6 125259372.100 6      3742.836          37.000    23836053.484 5  97604652.819 5      2916.508          32.000
G13  21060246.148 8 110672322.805 8     -2176.906          51.000    21060243.867 7  86238164.439 7     -1696.291          44.000
G15  20416833.336 8 107291181.958 8      -815.984          51.000    20416832.961 8  83603524.105 8      -635.832          51.000
G17  22555918.898 4 118532153.712 4      1030.148          29.000    22555923.547 4  92362725.650 4       802.719          28.000
G19  22913301.898 7 120410227.557 7      2816.082          43.000    22913301.797 7  93826131.987 7      2194.350          42.000
R02  20115903.891 8 107342275.952 8     -2886.910          51.000    20115906.898 7  83488465.572 7     -2245.375          46.000
R12  19914472.383 6 106379530.785 6     -1773.520          37.000    19914475.359 5  82739652.287 5     -1379.410          30.000
R21  22860094.711 5 122328924.926 5       510.262          31.000
C05  39778436.711 5 207136757.889 5        24.438          35.000    39778432.719 6 160171263.884 6        18.199          36.000
C23  21903850.234 8 114059134.270 8        59.672          51.000
C25  23741071.133 5 123625918.700 5     -2209.598          34.000
E02  26234695.766 8 137864245.337 8      2398.062          49.000    26234696.367 8 105636250.452 8      1837.450          48.000
E03  23741232.672 8 124761020.556 8        66.238          51.000    23741235.930 8  95596114.049 8        50.718          51.000
E05  25129293.359 8 132055312.236 8     -2498.234          51.000    25129296.750 8 101185235.398 8     -1914.169          48.000
E24  23206611.320 6 121951607.382 6     -2011.457          41.000    23206626.328 7  93443508.714 7     -1541.258          42.000
E25  23482078.039 8 123399156.548 8       425.012          51.000    23482081.320 8  94552614.126 8       325.676          51.000
> 2020 05 16 05 49  0.0000000  0 16        .000000000000
G12  23814692.219 5 125147016.157 5      3742.547          34.000
G13  21072686.320 8 110737699.423 8     -2184.926          49.000    21072685.359 7  86289107.252 7     -1702.537          46.000
G15  20421517.750 8 107315798.808 8      -828.480          51.000    20421517.594 8  83622706.036 8      -645.569          51.000
G17  22550068.867 6 118501432.141 6      1018.195          37.000    22550064.211 6  92338749.895 6       793.393          37.000
G19  22897234.039 7 120325792.944 7      2809.449          43.000    22897233.930 6  93760338.776 6      2189.181          41.000
R02  20132165.742 8 107429051.826 8     -2901.625          51.000    20132168.367 8  83555957.938 8     -2256.819          48.000
R12  19924435.336 5 106432756.210 5     -1778.109          34.000    19924442.500 5  82781049.829 5     -1382.974          31.000
R21  22857275.188 6 122313864.948 6       491.141          36.000
C05  39778274.070 5 207135911.020 5        29.742          35.000    39778270.031 6 160170608.988 6        23.014          36.000
C23  21903505.070 8 114057337.347 8        56.750          51.000
C25  23753784.469 5 123692124.860 5     -2207.125          31.000
E02  26220995.305 7 137792250.253 7      2398.391          47.000    26220996.039 8 105581085.382 8      1837.728          49.000
E03  23740866.617 8 124759097.301 8        58.715          51.000    23740869.961 8  95594640.385 8        44.959          51.000
E05  25143552.742 8 132130242.522 8     -2500.547          51.000    25143554.398 8 101242649.456 8     -1916.030          48.000
E24  23218081.977 6 122011886.740 6     -2010.254          41.000    23218097.633 7  93489696.779 7     -1540.453          42.000
E25  23479652.531 8 123386410.203 8       421.359          51.000    23479656.008 8  94542847.440 8       322.902          51.000
> 2020 05 16 05 49 30.0000000  0 17        .000000000000
G12  23793365.430 5 125034933.381 5      3733.832          34.000
G13  21085220.391 8 110803570.949 8     -2201.977          49.000    21085220.992 7  86340435.740 7     -1715.823          47.000
G15  20426321.273 8 107341040.747 8      -849.891          51.000    20426320.750 8  83642375.062 8      -662.255          51.000
G17  22544321.422 4 118471208.271 4       996.488          29.000    22544326.320 4  92315245.483 4       776.484          28.000
G19  22881248.445 6 120241792.683 6      2794.809          40.000    22881248.938 6  93694884.023 6      2177.773          39.000
G28  22721617.906 5 119402893.588 5     -2771.285          34.000
R02  20148559.336 8 107516526.887 8     -2925.594          51.000    20148561.969 8  83623994.095 8     -2275.462          50.000
R12  19934472.719 6 106486374.334 6     -1791.801          36.000    19934479.297 4  82822752.788 4     -1393.623          28.000
R21  22854615.859 5 122299671.990 5       461.691          32.000    22854616.406 4  95121961.193 4       359.093          29.000
C05  39778125.922 5 207135139.514 5        26.207          35.000    39778121.883 5 160170012.391 5        20.534          35.000
C23  21903224.492 8 114055878.663 8        44.875          50.000
C25  23766532.602 5 123758522.599 5     -2214.598          31.000
E02  26207340.148 7 137720494.945 7      2389.840          47.000    26207341.211 8 105526104.015 8      1831.128          50.000
E03  23740591.047 8 124757649.046 8        42.230          51.000    23740594.289 8  95593530.670 8        32.466          51.000
E05  25157872.773 8 132205492.284 8     -2511.645          51.000    25157872.586 8 101300308.271 8     -1924.531          48.000
E24  23229594.055 7 122072382.911 7     -2018.297          42.000    23229610.156 6  93536050.998 6     -1546.496          41.000
E25  23477295.164 8 123374023.625 8       408.719          51.000    23477299.156 8  94533356.432 8       313.201          51.000
> 2020 05 16 05 50  0.0000000  0 17        .000000000000
G12  23772066.180 5 124922999.984 5      3727.891          33.000
G13  21097831.000 8 110869840.652 8     -2215.797          51.000    21097831.906 8  86392074.479 8     -1726.595          48.000
G15  20431225.398 8 107366811.751 8      -868.016          51.000    20431224.547 8  83662456.350 8      -676.376          51.000
G17  22538673.039 6 118441533.594 6       980.402          36.000    22538678.273 5  92292123.953 5       763.950          35.000
G19  22865328.945 7 120158134.515 7      2782.973          44.000    22865328.719 6  93629695.828 6      2168.550          41.000
G28  22737458.023 5 119486137.655 5     -2778.484          34.000
R02  20165064.867 8 107604601.141 8     -2945.895          51.000    20165067.969 8  83692496.254 8     -2291.254          51.000
R12  19944567.055 5 106540286.131 5     -1802.434          32.000    19944568.250 4  82864671.074 4     -1401.896          28.000
R21  22852095.711 5 122286202.737 5       436.734          35.000    22852099.391 5  95111485.222 5       339.679          30.000
C05  39777973.898 5 207134347.733 5        26.316          35.000    39777970.039 5 160169400.896 5        20.787          35.000
C23  21902990.766 8 114054663.113 8        36.406          51.000
C25  23779300.500 5 123825016.297 5     -2218.277          33.000
E02  26193712.828 8 137648884.187 8      2384.473          48.000    26193714.180 8 105471233.408 8      1827.135          51.000
E03  23740387.945 8 124756580.690 8        29.223          51.000    23740390.570 8  95592712.067 8        22.373          51.000
E05  25172235.188 8 132280964.798 8     -2519.461          51.000    25172233.875 8 101358137.785 8     -1930.445          50.000
E24  23241129.078 7 122132999.170 7     -2022.586          42.000    23241145.039 6  93582497.203 6     -1549.828          41.000
E25  23474988.508 8 123361900.733 8       399.664          51.000    23474992.523 8  94524067.465 8       306.266          51.000
> 2020 05 16 05 50 30.0000000  0 15        .000000000000
G12  23750797.961 5 124811235.769 5      3725.039          33.000
G13  21110521.242 8 110936526.128 8     -2226.898          51.000    21110521.789 8  86444037.174 8     -1735.249          48.000
G15  20436233.680 8 107393130.311 8      -883.543          51.000    20436232.852 8  83682964.292 8      -688.475          51.000
G19  22849479.688 7 120074840.453 7      2773.109          46.000    22849477.656 6  93564791.354 6      2160.864          38.000
G28  22753329.664 5 119569554.346 5     -2782.160          34.000
R02  20181685.109 8 107693290.407 8     -2963.586          51.000    20181688.812 8  83761476.758 8     -2305.011          51.000
R21  22849725.227 6 122273506.702 6       412.957          36.000    22849726.266 5  95101610.526 5       321.192          31.000
C05                                                                  39777817.875 5 160168788.849 5        22.545          35.000
C23  21902807.633 8 114053708.765 8        30.348          51.000
C25  23792091.141 5 123891623.677 5     -2218.590          34.000
E02  26180117.047 8 137577437.004 8      2381.805          49.000    26180118.594 8 105416488.188 8      1824.935          51.000
E03  23740260.812 8 124755911.379 8        18.570          51.000    23740262.742 8  95592199.222 8        14.226          51.000
E05  25186643.328 8 132356677.548 8     -2524.922          51.000    25186642.180 8 101416151.403 8     -1934.647          51.000
E24  23252690.602 7 122193753.033 7     -2024.465          43.000    23252705.414 6  93629048.847 6     -1551.294          40.000
E25  23472735.727 8 123350059.665 8       392.875          51.000    23472739.383 8  94514994.437 8       301.052          51.000
> 2020 05 16 05 51  0.0000000  0 16        .000000000000
G12  23729559.344 5 124699626.911 5      3715.531          34.000
G13  21123287.133 8 111003609.494 8     -2244.555          51.000    21123287.148 8  86496309.883 8     -1749.007          48.000
G15  20441342.961 8 107419979.698 8      -905.691          50.000    20441342.023 8  83703885.871 8      -705.734          51.000
G17  22527678.758 5 118383761.212 5       944.848          34.000
G19  22833697.547 7 119991897.418 7      2757.098          47.000    22833693.898 6  93500160.488 6      2148.391          38.000
R02  20198416.516 8 107782574.718 8     -2987.805          51.000    20198420.938 8  83830920.113 8     -2323.848          50.000
R12  19964948.562 6 106649155.985 6     -1824.039          36.000    19964928.375 5  82949286.347 5     -1418.700          34.000
R21  22847493.914 5 122261568.003 5       383.801          32.000    22847496.820 5  95092324.932 5       298.521          34.000
C05  39777666.672 5 207132747.674 5        25.570          35.000    39777662.555 5 160168163.641 5        19.700          35.000
C23  21902671.344 8 114052998.948 8        17.820          51.000
C25  23804900.594 6 123958327.953 6     -2226.344          37.000
E02  26166549.641 8 137506137.445 8      2372.430          50.000    26166551.375 8 105361856.076 8      1817.803          51.000
E03  23740206.547 8 124755625.200 8         1.410          51.000    23740208.148 8  95591979.939 8         1.104          51.000
E05  25201093.555 8 132432612.952 8     -2536.754          51.000    25201093.547 8 101474335.658 8     -1943.746          51.000
E24  23264275.000 7 122254626.925 7     -2033.066          42.000    23264288.266 6  93675692.465 6     -1557.589          40.000
E25  23470532.992 8 123338483.510 8       379.684          51.000    23470536.195 8  94506124.402 8       290.896          51.000
> 2020 05 16 05 51 30.0000000  0 15        .000000000000
G12  23708357.867 5 124588261.170 5      3711.742          34.000    23708362.141 5  97081780.993 5      2892.264          30.000
G13  21136135.703 8 111071127.503 8     -2256.621          51.000    21136135.055 7  86548921.277 7     -1758.409          47.000
G15  20446560.297 8 107447396.620 8      -922.250          51.000    20446559.211 8  83725249.714 8      -718.633          51.000
G19  22817989.562 8 119909346.089 8      2746.316          49.000    22817984.992 6  93435834.843 6      2139.990          38.000
R02  20215265.688 8 107872487.856 8     -3006.484          50.000    20215270.875 8  83900852.565 8     -2338.377          49.000
R12  19975211.953 6 106703998.805 6     -1832.371          39.000    19975196.422 6  82991941.787 6     -1425.178          36.000
R21  22845413.555 5 122250425.727 5       359.336          31.000    22845415.734 5  95083658.839 5       279.487          35.000
C05  39777515.227 5 207131959.222 5        27.191          35.000    39777511.273 5 160167553.987 5        20.854          35.000
C23  21902588.961 8 114052570.320 8        10.828          51.000
C25  23817736.234 5 124025202.663 5     -2228.902          30.000
E02  26153017.812 8 137435023.298 8      2368.516          51.000    26153019.422 8 105307366.039 8      1814.834          51.000
E03  23740232.359 8 124755760.002 8       -10.371          51.000    23740233.828 8  95592083.210 8        -7.926          51.000
E05  25215592.609 8 132508807.230 8     -2542.926          50.000    25215593.992 8 101532718.281 8     -1948.464          51.000
E24  23275888.859 7 122315657.126 7     -2035.484          42.000    23275900.969 6  93722455.854 6     -1559.786          40.000
E25  23468387.469 8 123327209.116 8       372.070          51.000    23468390.273 8  94497485.594 8       285.006          51.000
> 2020 05 16 05 52  0.0000000  0 15        .000000000000
G12  23687189.438 5 124477020.706 5      3707.305          33.000    23687193.414 5  96995101.780 5      2888.815          31.000
G13  21149062.648 8 111139057.928 8     -2270.273          51.000    21149061.688 7  86601854.029 7     -1769.047          47.000
G15  20451881.219 8 107475359.197 8      -940.129          50.000    20451880.367 8  83747038.749 8      -732.568          50.000
G19  22802352.148 8 119827168.511 8      2734.281          48.000    22802347.680 6  93371800.429 6      2130.612          40.000
R02  20232228.727 8 107963005.987 8     -3026.309          51.000    20232233.125 7  83971255.538 7     -2353.796          46.000
R12  19985526.195 6 106759146.511 6     -1842.043          36.000    19985520.852 6  83034834.418 6     -1432.700          37.000
R21  22843477.766 5 122240059.798 5       333.480          30.000    22843478.367 5  95075596.468 5       259.371          33.000
C05  39777363.570 5 207131170.019 5        27.176          35.000    39777359.719 5 160166943.686 5        21.138          35.000
C23  21902556.805 8 114052401.575 8         2.285          51.000
C25  23830595.422 5 124092175.159 5     -2232.402          32.000
E02  26139517.047 8 137364073.876 8      2363.227          50.000    26139518.438 8 105253002.200 8      1810.778          51.000
E03  23740334.336 8 124756295.094 8       -23.527          51.000    23740335.734 8  95592493.212 8       -18.033          51.000
E05  25230136.227 8 132585238.065 8     -2550.617          49.000    25230139.234 8 101591282.188 8     -1954.351          51.000
E24  23287528.227 6 122376821.431 6     -2039.988          41.000    23287540.070 6  93769321.970 6     -1563.102          40.000
E25  23466295.188 8 123316214.894 8       362.750          51.000    23466297.883 8  94489061.452 8       277.939          51.000
> 2020 05 16 05 52 30.0000000  0 14        .000000000000
G12  23666068.102 5 124366026.806 5      3691.652          34.000
G13  21162081.484 8 111207472.555 8     -2292.199          51.000    21162081.008 8  86655164.090 8     -1786.132          48.000
G15  20457319.859 8 107503940.504 8      -966.656          51.000    20457319.430 8  83769309.885 8      -753.239          51.000
G19  22786799.531 7 119745440.730 7      2712.906          45.000    22786795.680 6  93308116.487 6      2113.953          41.000
G28  22817244.539 5 119905431.511 5     -2818.500          34.000
R02  20249318.953 8 108054199.375 8     -3054.738          51.000    20249321.258 7  84042183.689 7     -2375.908          45.000
R12  19995906.320 5 106814671.044 5     -1860.797          33.000    19995915.602 6  83078020.274 6     -1447.280          36.000
C05  39777225.727 5 207130452.121 5        19.047          35.000
C23  21902588.305 8 114052564.426 8       -14.586          51.000
E02  26126060.914 8 137293362.309 8      2349.441          49.000    26126062.031 8 105198820.613 8      1800.266          51.000
E03  23740526.305 8 124757303.719 8       -45.129          51.000    23740527.797 8  95593266.051 8       -34.567          51.000
E05  25244738.586 8 132661977.135 8     -2566.789          49.000    25244742.859 8 101650082.253 8     -1966.707          51.000
E24  23299206.711 6 122438191.441 6     -2052.820          41.000    23299219.102 6  93816345.730 6     -1572.916          40.000
E25  23464269.859 8 123305573.060 8       345.289          51.000    23464272.898 8  94480907.319 8       264.587          51.000
> 2020 05 16 05 53  0.0000000  0 14        .000000000000
G13  21175170.125 8 111276254.318 8     -2300.371          51.000    21175169.953 8  86708760.273 8     -1792.497          48.000
G15  20462854.180 8 107533023.527 8      -979.422          51.000    20462854.000 8  83791971.973 8      -763.189          51.000
G19  22771310.062 6 119664049.999 6      2705.578          39.000    22771307.367 6  93244695.142 6      2108.240          39.000
G28  22833317.289 5 119989896.820 5     -2819.617          35.000
R02  20266512.734 8 108145947.076 8     -3069.004          51.000    20266514.383 7  84113542.943 7     -2387.006          46.000
R12  20006341.438 6 106870452.820 6     -1865.570          36.000    20006355.438 5  83121406.132 5     -1450.999          33.000
R21  22840050.508 5 122221722.810 5       278.453          30.000
C05  39777079.594 5 207129691.693 5        24.352          35.000    39777075.344 5 160165798.757 5        18.882          35.000
C23  21902661.023 8 114052943.504 8       -17.855          51.000
E02  26112627.664 8 137222773.062 8      2349.316          48.000    26112628.523 8 105144732.739 8      1800.147          50.000
E03  23740786.266 8 124758670.357 8       -53.176          51.000    23740787.961 8  95594313.211 8       -40.754          51.000
E05  25259377.656 8 132738907.223 8     -2569.109          51.000    25259382.367 8 101709028.676 8     -1968.601          51.000
E24  23310901.781 6 122499650.097 6     -2051.852          40.000    23310914.914 6  93863437.445 6     -1572.207          39.000
E25  23462289.312 8 123295167.117 8       341.270          50.000    23462292.727 8  94472933.931 8       261.495          51.000
> 2020 05 16 05 53 30.0000000  0 13        .000000000000
G13  21188339.742 8 111345461.105 8     -2311.742          51.000    21188339.586 8  86762687.664 8     -1801.358          48.000
G15  20468495.352 8 107562667.444 8      -995.188          51.000    20468495.109 8  83815071.127 8      -775.471          51.000
G19  22755896.000 6 119583058.733 6      2695.332          39.000    22755895.086 6  93181585.121 6      2100.259          38.000
G28  22849430.430 5 120074568.774 5     -2823.828          32.000
R02  20283820.391 8 108238305.542 8     -3086.438          51.000    20283823.086 8  84185377.281 8     -2400.562          48.000
R12  20016838.102 6 106926550.015 6     -1872.953          37.000    20016853.680 5  83165037.235 5     -1456.741          33.000
C05  39776936.352 5 207128945.356 5        27.090          35.000    39776932.117 5 160165221.656 5        20.715          35.000
C23  21902786.508 8 114053597.140 8       -24.160          51.000
E02  26099229.086 8 137152365.655 8      2346.098          49.000    26099229.586 8 105090784.226 8      1797.677          51.000
E03  23741125.531 8 124760454.621 8       -64.289          51.000    23741127.586 8  95595680.357 8       -49.269          51.000
E05  25274064.352 8 132816086.374 8     -2574.484          50.000    25274069.016 8 101768165.918 8     -1972.768          51.000
E24  23322624.492 7 122561255.463 7     -2053.754          42.000    23322638.328 6  93910641.584 6     -1573.763          38.000
E25  23460365.109 8 123285055.731 8       334.371          51.000    23460368.352 8  94465186.245 8       256.176          51.000
> 2020 05 16 05 54  0.0000000  0 13        .000000000000
G13  21201575.766 8 111415016.434 8     -2327.629          51.000    21201575.695 8  86816886.615 8     -1813.737          48.000
G15  20474228.883 8 107592796.028 8     -1015.520          51.000    20474228.312 8  83838547.942 8      -791.314          51.000
G17  22497121.852 5 118223160.846 5       838.629          33.000
G19  22740545.469 6 119502394.954 6      2679.930          40.000    22740544.992 6  93118730.186 6      2088.254          39.000
R02  20301227.516 8 108331195.193 8     -3108.367          51.000    20301231.336 8  84257624.789 8     -2417.616          48.000
R12  20027381.070 6 106982884.163 6     -1885.152          37.000    20027401.461 5  83208852.686 5     -1466.233          33.000
C05  39776781.578 5 207128139.568 5        24.113          35.000    39776777.422 5 160164598.518 5        19.365          35.000
C23  21902950.148 8 114054450.198 8       -34.941          51.000
E02  26085851.188 8 137082065.094 8      2338.215          49.000    26085851.188 8 105036917.571 8      1791.679          51.000
E03  23741529.953 8 124762581.497 8       -79.906          51.000    23741532.328 8  95597310.021 8       -61.203          51.000
E05  25288783.805 8 132893437.969 8     -2584.547          50.000    25288788.109 8 101827435.269 8     -1980.379          50.000
E24  23334360.758 7 122622931.051 7     -2060.277          42.000    23334374.180 6  93957899.495 6     -1578.855          38.000
E25  23458482.961 8 123275162.944 8       322.941          51.000    23458485.641 8  94457606.050 8       247.410          51.000
> 2020 05 16 05 54 30.0000000  0 13        .000000000000
G13  21214889.680 8 111484981.337 8     -2338.438          51.000    21214889.812 7  86871404.716 7     -1822.159          47.000
G15  20480066.211 8 107623470.193 8     -1031.055          51.000    20480065.344 8  83862449.873 8      -803.419          51.000
G19  22725269.844 6 119422123.510 6      2669.676          39.000    22725270.289 6  93056180.901 6      2080.261          39.000
R02  20318745.633 8 108424674.348 8     -3125.223          51.000    20318749.695 8  84330330.804 8     -2430.729          49.000
R03  20022105.023 6 107179905.861 6      1043.676          36.000    20022109.664 4  83362151.648 4       811.748          26.000
R12  20038001.859 6 107039414.986 6     -1892.422          37.000    20038019.727 5  83252902.676 5     -1471.878          33.000
C05  39776627.125 5 207127335.183 5        27.508          35.000    39776622.914 5 160163976.574 5        20.951          35.000
C23  21903163.609 8 114055563.280 8       -40.906          51.000
E02  26072505.758 8 137011933.308 8      2335.449          49.000    26072505.430 8 104983180.253 8      1789.473          51.000
E03  23742011.492 8 124765112.949 8       -90.629          51.000    23742013.883 8  95599249.699 8       -69.386          51.000
E05  25303547.188 8 132971022.330 8     -2589.492          49.000    25303550.891 8 101886882.993 8     -1984.180          49.000
E24  23346122.180 7 122684737.329 7     -2061.996          42.000    23346134.523 6  94005257.523 6     -1579.839          37.000
E25  23456653.750 8 123265549.801 8       316.184          51.000    23456656.125 8  94450240.135 8       242.277          51.000
> 2020 05 16 05 55  0.0000000  0 14        .000000000000
G13  21228277.266 8 111555334.131 8     -2352.496          51.000    21228277.469 7  86926225.044 7     -1833.117          47.000
G15  20486003.406 8 107654669.613 8     -1049.801          51.000    20486002.266 8  83886761.075 8      -818.027          51.000
G19  22710066.219 6 119342227.239 6      2655.836          41.000    22710067.820 6  92993924.124 6      2069.486          40.000
R02  20336370.312 8 108518719.595 8     -3145.305          51.000    20336374.094 8  84403477.103 8     -2446.348          48.000
R03  20016328.328 4 107148987.089 4      1017.832          28.000    20016328.625 4  83338090.179 4       791.650          26.000
R12  20048651.211 6 107096321.851 6     -1902.605          38.000    20048665.141 4  83297163.657 4     -1479.807          28.000
C05  39776469.102 5 207126512.440 5        27.051          34.000    39776464.953 5 160163340.366 5        20.522          35.000
C23  21903423.297 8 114056916.068 8       -50.035          51.000
C25  23908229.094 5 124496370.908 5     -2254.848          30.000
E02  26059188.727 8 136941950.579 8      2329.375          49.000    26059188.570 8 104929557.153 8      1784.843          51.000
E03  23742566.367 8 124768029.283 8      -104.559          51.000    23742568.656 8  95601484.285 8       -80.089          51.000
E05  25318350.586 8 133048818.185 8     -2597.594          48.000    25318353.844 8 101946492.769 8     -1990.286          49.000
E24  23357904.211 6 122746653.094 6     -2066.504          40.000    23357916.312 6  94052699.427 6     -1583.350          37.000
E25  23454873.484 8 123256195.651 8       306.664          50.000    23454875.727 8  94443072.666 8       234.997          51.000
> 2020 05 16 05 55 30.0000000  0 13        .000000000000
G13  21241744.164 8 111626103.319 8     -2362.605          51.000    21241743.734 7  86981369.830 7     -1840.994          46.000
G15  20492046.156 8 107686423.360 8     -1064.363          51.000    20492044.719 8  83911504.235 8      -829.374          51.000
G19  22694940.773 7 119262739.049 7      2646.129          43.000    22694941.891 6  92931985.301 6      2061.919          41.000
R02  20354106.172 8 108613357.591 8     -3161.016          51.000    20354109.078 7  84477084.404 7     -2458.568          46.000
R12  20059360.164 6 107153532.427 6     -1908.711          39.000    20059361.766 4  83341616.670 4     -1484.553          28.000
R21  22833999.047 5 122189340.677 5       154.250          32.000
C05  39776312.977 5 207125699.614 5        30.652          34.000    39776308.930 5 160162712.619 5        23.186          34.000
C23  21903734.750 8 114058537.479 8       -55.207          51.000
E02  26045905.633 8 136872146.881 8      2327.160          50.000    26045905.969 8 104876071.222 8      1783.116          51.000
E03  23743200.344 8 124771360.457 8      -114.645          51.000    23743202.367 8  95604036.737 8       -87.874          51.000
E05  25333200.125 8 133126853.874 8     -2601.816          49.000    25333202.766 8 102006286.342 8     -1993.689          50.000
E24  23369712.758 6 122808706.836 6     -2067.504          41.000    23369724.719 5  94100247.074 5     -1584.140          35.000
E25  23453148.125 8 123247129.552 8       300.766          50.000    23453149.977 8  94436125.901 8       230.394          51.000
> 2020 05 16 05 56  0.0000000  0 14        .000000000000
G13  21255283.914 8 111697255.047 8     -2380.148          51.000    21255283.070 7  87036812.695 7     -1854.664          45.000
G15  20498187.930 8 107718697.866 8     -1086.617          51.000    20498186.359 8  83936653.180 8      -846.718          51.000
G19  22679887.289 7 119183629.542 7      2628.352          42.000    22679887.805 7  92870341.566 7      2048.069          42.000
G28  22930458.875 5 120500344.870 5     -2854.805          33.000
R02  20371945.953 8 108708551.716 8     -3184.523          51.000    20371947.477 7  84551124.196 7     -2476.855          43.000
R12  20070120.805 6 107211011.744 6     -1922.941          37.000    20070124.070 5  83386330.725 5     -1495.624          31.000
C05  39776152.961 5 207124865.544 5        25.719          34.000    39776148.797 5 160162067.347 5        20.422          34.000
C23  21904091.469 8 114060394.895 8       -68.008          51.000
C25  23934215.828 5 124631792.065 5     -2262.551          31.000
E02  26032650.164 8 136802490.033 8      2317.340          49.000    26032651.211 8 104822697.801 8      1775.690          51.000
E03  23743907.242 8 124775074.315 8      -132.172          51.000    23743909.031 8  95606882.399 8      -101.290          51.000
E05  25348089.352 8 133205095.658 8     -2613.426          50.000    25348091.828 8 102066237.826 8     -2002.549          51.000
E24  23381540.930 6 122870864.856 6     -2075.762          40.000    23381552.703 5  94147874.636 5     -1590.716          32.000
E25  23451471.477 8 123238318.372 8       287.379          51.000    23451472.820 8  94429374.459 8       220.223          51.000
> 2020 05 16 05 56 30.0000000  0 14        .000000000000
G13  21268909.445 8 111768857.871 8     -2392.387          51.000    21268908.523 7  87092607.040 7     -1864.200          45.000
G15  20504441.742 8 107751562.396 8     -1103.477          51.000    20504440.375 8  83962261.883 8      -859.852          51.000
G17  22474389.016 5 118103708.884 5       752.094          30.000    22474401.391 5  92028918.206 5       586.056          32.000
G19  22664919.227 7 119104971.499 7      2616.008          43.000    22664919.617 7  92809049.664 7      2038.448          42.000
R02  20389902.062 8 108804369.051 8     -3202.414          51.000    20389902.141 6  84625648.708 6     -2490.766          41.000
R12  20080944.719 6 107268828.497 6     -1931.191          40.000    20080952.258 5  83431299.299 5     -1502.038          33.000
C05  39776002.203 5 207124081.165 5        27.297          34.000
C23  21904506.703 8 114062556.860 8       -75.430          51.000
C25  23947249.008 5 124699727.737 5     -2265.062          30.000
E02  26019435.805 8 136733050.025 8      2312.785          50.000    26019437.555 8 104769490.526 8      1772.122          51.000
E03  23744700.289 8 124779240.839 8      -144.680          51.000    23744702.047 8  95610074.913 8      -110.885          51.000
E05  25363031.250 8 133283611.974 8     -2620.031          51.000    25363033.555 8 102126399.655 8     -2007.586          51.000
E24  23393401.922 6 122933195.740 6     -2079.020          40.000    23393413.758 5  94195581.691 5     -1592.629          32.000
E25  23449856.438 8 123229831.158 8       279.316          51.000    23449857.602 8  94422871.280 8       213.977          51.000
> 2020 05 16 05 57  0.0000000  0 14        .000000000000
G13  21282606.930 8 111840837.857 8     -2405.473          51.000    21282606.039 7  87148695.318 7     -1874.397          45.000
G15  20510793.602 8 107784943.084 8     -1121.113          51.000    20510792.625 8  83988272.805 8      -873.595          51.000
G19  22650024.258 7 119026695.365 7      2602.910          45.000    22650023.453 6  92748055.245 6      2028.242          41.000
G28  22963089.836 4 120671862.253 4     -2864.988          29.000
R02  20407959.617 8 108900731.786 8     -3221.059          50.000    20407960.484 7  84700597.468 7     -2505.268          43.000
R03  19994732.227 4 107033340.333 4       911.184          29.000    19994722.141 4  83248133.279 4       708.698          26.000
R12  20091817.555 6 107326906.922 6     -1940.148          41.000    20091827.578 5  83476471.452 5     -1509.001          35.000
C05  39775846.797 5 207123271.362 5        27.434          34.000
C23  21904966.633 8 114064950.780 8       -83.559          51.000
E02  26006248.875 8 136663754.310 8      2307.574          49.000    26006251.258 8 104716393.805 8      1768.153          51.000
E03  23745565.594 8 124783787.420 8      -157.832          51.000    23745567.398 8  95613558.653 8      -120.912          51.000
E05  25378011.281 8 133362328.634 8     -2627.129          51.000    25378013.531 8 102186714.999 8     -2012.980          51.000
E24  23405281.805 6 122995625.518 6     -2082.316          40.000    23405295.305 5  94243418.523 5     -1595.362          33.000
E25  23448289.062 8 123221594.514 8       270.406          51.000    23448290.367 8  94416560.081 8       207.260          51.000
> 2020 05 16 05 57 30.0000000  0 16        .000000000000
G13  21296363.852 8 111913131.106 8     -2420.246          51.000    21296363.219 7  87205027.720 7     -1885.909          46.000
G15  20517231.641 8 107818776.763 8     -1140.684          51.000    20517230.953 8  84014636.708 8      -888.841          51.000
G19  22635190.609 7 118948741.301 7      2587.816          46.000    22635188.648 6  92687311.791 6      2016.480          41.000
G28  22979477.164 5 120757943.196 5     -2872.652          34.000
R02  20426107.055 8 108997573.067 8     -3241.285          51.000    20426108.859 7  84775918.484 7     -2520.997          44.000
R03  19989683.047 4 107006340.188 4       882.883          29.000    19989681.273 4  83227127.104 4       686.690          26.000
R12  20102726.180 6 107385181.473 6     -1951.145          40.000    20102736.586 5  83521796.127 5     -1517.557          35.000
R21  22831777.836 5 122177427.250 5        44.848          33.000    22831774.094 4  95026893.212 4        34.885          24.000
C05  39775674.680 5 207122375.095 5        26.141          34.000    39775670.305 5 160160140.807 5        20.123          35.000
C23  21905459.000 8 114067514.189 8       -93.543          51.000
C25  23973411.273 5 124835839.632 5     -2273.656          30.000
E02  25993077.648 8 136594540.531 8      2300.398          50.000    25993080.320 8 104663359.892 8      1762.637          51.000
E03  23746491.188 8 124788651.789 8      -172.844          51.000    23746493.336 8  95617285.881 8      -132.430          51.000
E05  25393017.094 8 133441181.749 8     -2636.086          51.000    25393019.484 8 102247134.908 8     -2019.897          51.000
E24  23417168.555 6 123058090.500 6     -2088.051          41.000    23417183.953 5  94291281.229 5     -1599.860          33.000
E25  23446757.172 8 123213545.172 8       259.918          51.000    23446758.758 8  94410392.401 8       199.131          51.000
> 2020 05 16 05 58  0.0000000  0 15        .000000000000
G13  21310223.500 8 111985965.048 8     -2428.730          50.000    21310223.422 7  87261781.431 7     -1892.517          46.000
G15  20523799.453 8 107853291.790 8     -1153.738          51.000    20523798.922 8  84041531.540 8      -899.014          51.000
G19  22620462.617 7 118871341.582 7      2578.676          47.000    22620460.141 6  92627000.352 6      2009.358          41.000
G28  22995895.445 5 120844230.809 5     -2873.168          33.000
R02  20444387.867 8 109095122.123 8     -3255.203          51.000    20444390.000 7  84851789.962 7     -2531.825          46.000
R12  20113715.117 6 107443882.942 6     -1955.680          41.000    20113720.836 5  83567452.760 5     -1521.090          33.000
R21  22831603.578 6 122176474.812 6        24.281          37.000    22831604.438 4  95026183.197 4        18.882          27.000
C05  39775529.422 5 207121618.977 5        31.488          34.000    39775525.117 5 160159556.158 5        24.035          34.000
C23  21906027.148 8 114070473.338 8       -97.254          51.000
C25  23986524.945 5 124904129.258 5     -2272.523          30.000
E02  25979965.961 8 136525637.847 8      2299.719          51.000    25979968.320 8 104610564.347 8      1762.110          51.000
E03  23747520.773 8 124794063.018 8      -181.324          51.000    23747523.336 8  95621432.138 8      -138.970          51.000
E05  25408091.898 8 133520398.861 8     -2638.445          51.000    25408094.172 8 102307833.706 8     -2021.666          50.000
E24  23429105.586 6 123120818.373 6     -2087.215          41.000    23429122.023 5  94339345.400 5     -1599.785          32.000
E25  23445304.359 8 123205911.376 8       255.602          51.000    23445306.109 8  94404543.119 8       195.877          51.000
> 2020 05 16 05 58 30.0000000  0 14        .000000000000
G13  21324144.969 8 112059123.317 8     -2442.902          50.000    21324145.094 7  87318787.880 7     -1903.560          47.000
G15  20530455.852 8 107888272.000 8     -1172.738          51.000    20530455.391 8  84068788.841 8      -913.822          51.000
G19  22605799.547 7 118794283.851 7      2564.047          45.000    22605796.547 7  92566955.457 7      1997.965          43.000
R02  20462759.500 8 109193155.928 8     -3274.734          51.000    20462762.016 7  84928038.433 7     -2547.016          47.000
R12  20124743.508 6 107502790.519 6     -1965.938          41.000    20124746.508 6  83613269.702 6     -1529.062          36.000
R21  22831560.523 5 122176271.952 5        -2.691          32.000    22831560.445 4  95026001.721 4        -2.090          29.000
C05  39775370.047 5 207120788.868 5        29.895          34.000
C23  21906630.430 8 114073614.571 8      -106.699          51.000
C25  23999645.758 5 124972440.652 5     -2276.051          30.000
E02  25966872.672 8 136456831.364 8      2292.996          51.000    25966874.695 8 104557842.506 8      1756.983          51.000
E03  23748613.570 8 124799806.208 8      -195.875          51.000    23748616.305 8  95625832.746 8      -150.074          51.000
E05  25423194.469 8 133599763.499 8     -2646.832          51.000    25423195.578 8 102368645.524 8     -2028.089          48.000
E24  23441051.375 6 123183592.756 6     -2092.254          41.000    23441068.266 5  94387467.191 5     -1603.057          30.000
E25  23443889.750 8 123198477.289 8       245.609          51.000    23443891.609 8  94398846.865 8       188.215          51.000
> 2020 05 16 05 59  0.0000000  0 15        .000000000000
G12  23394521.320 5 122939036.789 5      3619.211          33.000    23394534.266 5  95796674.913 5      2820.164          33.000
G13  21338152.125 8 112132731.445 8     -2456.391          51.000    21338152.359 7  87376144.842 7     -1914.071          47.000
G15  20537224.852 8 107923843.445 8     -1190.844          51.000    20537224.359 8  84096506.829 8      -927.930          51.000
G19  22591225.844 7 118717698.173 7      2549.492          43.000    22591222.281 6  92507278.391 6      1986.620          39.000
R02  20481245.555 8 109291800.136 8     -3293.539          51.000    20481248.266 8  85004761.673 8     -2561.641          48.000
R12  20135834.273 6 107562031.051 6     -1975.004          38.000    20135837.383 6  83659345.703 6     -1536.108          38.000
R21  22831676.812 5 122176807.893 5       -29.598          34.000    22831676.844 4  95026478.296 4       -23.017          29.000
C05  39775220.820 5 207120012.127 5        29.625          34.000    39775216.656 5 160158314.332 5        23.295          34.000
C23  21907292.852 8 114077062.905 8      -115.422          51.000
C25  24012792.594 5 125040908.039 5     -2280.453          32.000
E02  25953821.680 8 136388247.970 8      2287.141          51.000    25953824.000 8 104505291.608 8      1752.508          51.000
E03  23749793.766 8 124806008.189 8      -209.707          51.000    23749796.516 8  95630584.899 8      -160.670          51.000
E05  25438348.781 8 133679400.934 8     -2654.426          50.000    25438347.773 7 102429666.349 7     -2033.950          47.000
E24  23453029.711 6 123246539.179 6     -2096.336          38.000    23453046.125 5  94435696.806 5     -1606.017          30.000
E25  23442537.086 8 123191368.874 8       236.227          51.000    23442539.133 8  94393400.161 8       181.041          51.000
> 2020 05 16 05 59 30.0000000  0 15        .000000000000
G12  23373888.336 6 122830601.549 6      3610.121          36.000    23373900.203 6  95712179.999 6      2813.081          36.000
G13  21352219.797 8 112206657.059 8     -2471.199          51.000    21352219.781 7  87433749.202 7     -1925.610          47.000
G15  20544081.414 8 107959874.260 8     -1210.500          51.000    20544080.977 8  84124582.752 8      -943.247          51.000
G19  22576716.789 6 118641456.505 6      2533.664          38.000    22576713.961 6  92447869.317 6      1974.284          38.000
R02  20499820.398 8 109390917.378 8     -3313.688          51.000    20499823.250 7  85081852.817 7     -2577.312          47.000
R12  20146961.070 6 107621469.790 6     -1986.570          39.000    20146965.977 6  83705575.881 6     -1545.107          39.000
R21  22831918.883 5 122178189.739 5       -57.352          35.000
C05  39775056.844 5 207119158.006 5        27.387          34.000    39775052.617 5 160157653.863 5        21.413          34.000
C23  21907988.930 8 114080688.090 8      -125.629          51.000
C25  24025945.289 4 125109400.618 4     -2285.352          29.000
E02  25940788.109 8 136319756.968 8      2279.609          50.000    25940790.922 8 104452811.496 8      1746.774          51.000
E03  23751036.570 8 124812538.186 8      -224.961          51.000    23751039.297 8  95635588.404 8      -172.376          51.000
E05  25453529.734 8 133759178.882 8     -2663.445          50.000    25453528.195 8 102490794.842 8     -2040.819          48.000
E24  23465015.125 5 123309486.516 5     -2102.277          33.000    23465032.188 5  94483959.121 5     -1610.776          31.000
E25  23441221.414 8 123184454.556 8       225.320          51.000    23441223.359 8  94388102.177 8       172.672          51.000
