     3.02           OBSERVATION DATA    M (MIXED)           RINEX VERSION / TYPE
SAVERINEX           SC600               20200518 195932 LCL PGM / RUN BY / DATE
       G = GPS       R = GLONASS       C = COMPASS          COMMENT
       S = SBAS      J = QZSS          E = GALILEO          COMMENT
BEAN                                                        MARKER NAME
1                                                           MARKER NUMBER
GEODETIC                                                    MARKER TYPE
Unige DICCA         GTER                                    OBSERVER / AGENCY
SC60291900056       SC600               2.12(191202)        REC # / TYPE / VERS
                    HEMA45          NONE                    ANT # / TYPE
  4509407.8091   693652.4678  4442337.6214                  APPROX POSITION XYZ
        0.0000        0.0000        0.0000                  ANTENNA: DELTA H/E/N
G    8 C1C L1C D1C S1C C2Y L2Y D2Y S2Y                      SYS / # / OBS TYPES
R    8 C1C L1C D1C S1C C2P L2P D2P S2P                      SYS / # / OBS TYPES
C    4 C1I L1I D1I S1I                                      SYS / # / OBS TYPES
E    8 C1C L1C D1C S1C C7Q L7Q D7Q S7Q                      SYS / # / OBS TYPES
DBHZ                                                        COMMENT
     30.000                                                 INTERVAL
  2020    05    18    17    00    0.0000000     GPS         TIME OF FIRST OBS
  2020    05    18    17    59   30.0000000     GPS         TIME OF LAST OBS
     0                                                      RCV CLOCK OFFS APPL
G L1C  0.00000                                              SYS / PHASE SHIFT
G L2Y  0.00000                                              SYS / PHASE SHIFT
R L1C  0.00000                                              SYS / PHASE SHIFT
R L2P  0.25000                                              SYS / PHASE SHIFT
C L1I  0.00000                                              SYS / PHASE SHIFT
E L1C  0.50000                                              SYS / PHASE SHIFT
E L7Q -0.25000                                              SYS / PHASE SHIFT
 12 R05  1 R06 -4 R07  5 R08  6 R09 -2 R10 -5 R11  0 R12 -1 GLONASS SLOT / FRQ #
    R19  3 R20  2 R21  4 R22 -3                             GLONASS SLOT / FRQ #
 C1C   71.950 C2C   71.950 C2P   71.950                     GLONASS COD/PHS/BIS
    18                                                      LEAP SECONDS
*** Above antenna height is from mark to ANTENNA BOTTOM.    COMMENT
    17     4        0.0000        ANT MEASURE TYPE/HEIGT    COMMENT
    0.0000    0.0000    0.0458    0.0405    0.0000          COMMENT
                    BASE STATION                            COMMENT
                                                            END OF HEADER
> 2020 05 18 17 00  0.0000000  0 14        .000000000000
G08  20372828.477 8 107059934.705 8       503.156          51.000    20372830.664 8  83423332.590 8       392.070          51.000
G10  21612477.414 7 113574338.690 7     -1979.551          44.000    21612479.875 7  88499504.032 7     -1542.507          44.000
G14  24220596.000 6 127280091.635 6      2921.277          40.000    24220596.047 6  99179308.692 6      2276.320          38.000
G20  23732709.961 5 124716232.990 5     -3324.070          35.000
G22  23453709.875 5 123250068.249 5      3291.930          33.000    23453709.828 5  96039011.750 5      2565.143          32.000
G27  20861969.852 8 109630389.197 8     -1753.676          50.000    20861971.805 8  85426268.573 8     -1366.498          50.000
G32  23104170.844 5 121413232.083 5      2393.797          35.000    23104168.164 6  94607708.209 6      1865.296          36.000
R07  19953531.578 8 106812889.359 8      1815.398          51.000    19953533.359 8  83076616.197 8      1411.977          48.000
R12  23500969.414 6 125537913.243 6     -3790.676          36.000    23500972.555 4  97640596.913 4     -2948.309          25.000
R22  19606891.438 6 104662877.228 6       339.984          36.000    19606895.750 5  81404492.506 5       264.429          32.000
C27  21618937.656 8 112575465.836 8      -625.652          51.000
E12  21675947.031 8 113907860.965 8       -74.055          51.000    21675946.375 8  87280054.515 8       -56.737          51.000
E19  25641472.359 7 134746895.288 7      1558.715          44.000    25641474.148 7 103247633.168 7      1194.319          42.000
E24  24603471.477 6 129292099.846 6     -2528.734          41.000    24603484.938 8  99068043.702 8     -1937.593          48.000
> 2020 05 18 17 00 30.0000000  0 13        .000000000000
G08  20369944.344 8 107044778.303 8       510.055          51.000    20369946.367 8  83411522.405 8       397.445          51.000
G10  21623759.883 7 113633627.919 7     -1970.352          45.000    21623762.203 7  88545703.403 7     -1535.339          45.000
G14  24203871.422 6 127192210.679 6      2940.336          41.000    24203872.211 6  99110830.093 6      2291.174          40.000
G20  23751641.344 5 124815720.723 5     -3306.109          32.000
G27  20871965.367 8 109682917.346 8     -1745.500          49.000    20871967.711 8  85467199.600 8     -1360.130          49.000
G32  23090478.742 6 121341286.298 6      2404.906          36.000    23090475.844 6  94551646.640 6      1873.953          36.000
R07  19943371.086 8 106758502.015 8      1813.348          51.000    19943373.383 8  83034314.950 8      1410.382          48.000
R12  23522218.766 5 125651418.029 5     -3773.262          34.000    23522221.758 4  97728930.242 4     -2934.765          27.000
R22  19604957.641 6 104652556.039 6       351.176          41.000    19604960.195 5  81396464.984 5       273.140          32.000
C27  21622515.562 8 112594096.859 8      -613.645          51.000
E12  21676328.852 8 113909867.555 8       -56.988          51.000    21676327.977 8  87281592.036 8       -43.651          51.000
E19  25632552.336 7 134700021.770 7      1569.109          44.000    25632553.766 7 103211717.126 7      1202.290          42.000
E24  24617870.883 6 129367774.768 6     -2513.113          39.000    24617884.672 8  99126028.375 8     -1925.767          48.000
> 2020 05 18 17 01  0.0000000  0 14        .000000000000
G08  20367138.742 8 107030034.595 8       475.055          51.000    20367140.555 8  83400033.797 8       370.172          51.000
G10  21635108.664 7 113693265.472 7     -2003.227          44.000    21635111.273 7  88592174.232 7     -1560.953          43.000
G14  24187156.398 7 127104375.612 7      2917.406          43.000    24187157.070 6  99042387.278 6      2273.307          39.000
G20  23770589.258 5 124915292.471 5     -3330.098          32.000
G22  23416090.953 5 123052372.128 5      3280.145          32.000    23416085.266 5  95884956.597 5      2555.957          32.000
G27  20882032.250 8 109735821.687 8     -1779.156          48.000    20882035.234 8  85508423.772 8     -1386.356          49.000
R07  19933339.945 8 106704806.790 8      1768.625          50.000    19933342.664 8  82992552.001 8      1375.597          48.000
R12  23543485.836 5 125765018.590 5     -3797.926          34.000    23543490.484 4  97817286.114 4     -2953.948          27.000
R21  21783990.359 5 116570499.731 5     -2624.328          31.000    21783987.086 5  90665955.569 5     -2041.144          32.000
R22  19603081.961 7 104642542.794 7       319.051          42.000    19603086.008 6  81388676.910 6       248.151          36.000
C27  21626142.266 8 112612982.309 8      -643.223          51.000
E12  21676730.945 8 113911980.641 8       -81.691          51.000    21676729.859 8  87283211.158 8       -62.679          51.000
E19  25623691.633 7 134653458.025 7      1537.383          45.000    25623692.938 7 103176038.439 7      1178.040          42.000
E24  24632301.086 7 129443604.456 7     -2539.637          43.000    24632313.883 7  99184131.628 7     -1946.012          46.000
> 2020 05 18 17 01 30.0000000  0 13        .000000000000
G08  20364428.430 8 107015791.445 8       468.961          51.000    20364430.312 8  83388935.237 8       365.424          51.000
G10  21646539.844 7 113753335.693 7     -2006.836          46.000    21646542.180 7  88638982.218 7     -1563.768          46.000
G14  24170467.570 7 127016675.679 7      2923.508          44.000    24170467.789 6  98974049.744 6      2278.061          39.000
G22  23397339.555 5 122953848.614 5      3282.449          32.000    23397335.367 5  95808184.998 5      2557.753          32.000
G27  20892187.234 8 109789188.076 8     -1784.035          50.000    20892190.398 8  85550007.957 8     -1390.157          50.000
R07  19923455.016 8 106651894.381 8      1753.266          51.000    19923458.023 8  82951397.926 8      1363.651          48.000
R12  23564785.219 5 125878798.320 5     -3793.312          32.000    23564792.336 4  97905781.381 4     -2950.354          26.000
R21  21798682.484 4 116649147.376 4     -2623.312          27.000    21798683.086 4  90727115.378 4     -2040.351          27.000
R22  19601280.414 6 104632926.397 6       316.578          41.000    19601286.086 6  81381197.434 6       246.224          37.000
C27  21629834.492 8 112632208.279 8      -644.023          51.000
E12  21677169.797 8 113914287.004 8       -77.676          51.000    21677168.602 8  87284978.355 8       -59.479          51.000
E19  25614906.586 7 134607291.658 7      1534.625          44.000    25614907.656 7 103140664.216 7      1175.959          43.000
E24  24646777.398 7 129519673.388 7     -2537.055          46.000    24646788.891 7  99242418.143 7     -1943.947          46.000
> 2020 05 18 17 02  0.0000000  0 15        .000000000000
G08  20361802.133 8 107001989.766 8       452.984          51.000    20361804.109 8  83378180.678 8       352.975          51.000
G10  21658041.617 7 113813776.609 7     -2020.645          44.000    21658043.094 7  88686078.996 7     -1574.528          45.000
G14  24153793.477 7 126929053.985 7      2919.684          43.000    24153794.219 6  98905773.143 6      2275.078          40.000
G22  23378626.586 5 122855517.599 5      3275.465          33.000    23378624.742 5  95731563.448 5      2552.307          32.000
G27  20902419.156 8 109842955.818 8     -1798.590          51.000    20902421.742 8  85591904.897 8     -1401.499          51.000
R07  19913705.391 8 106599705.716 8      1727.848          51.000    19913708.375 8  82910806.752 8      1343.885          48.000
R08  22490263.898 5 120434349.746 5      4381.559          30.000
R12  23586101.281 4 125992723.846 4     -3798.277          29.000    23586120.516 4  97994372.116 4     -2954.222          29.000
R21  21813423.117 4 116728001.858 4     -2632.707          29.000
R22  19599541.570 6 104623647.000 6       304.055          40.000    19599547.070 6  81373980.131 6       236.487          37.000
C27  21633580.578 8 112651715.767 8      -654.637          51.000
C28  25039431.859 4 130386875.791 4     -2668.742          29.000
E12  21677634.023 8 113916726.905 8       -83.277          51.000    21677632.773 8  87286847.886 8       -63.834          51.000
E19  25606185.406 7 134561463.802 7      1522.379          42.000    25606186.758 7 103105549.420 7      1166.328          44.000
E24  24661287.133 7 129595919.501 7     -2544.176          47.000    24661298.352 7  99300840.413 7     -1949.505          46.000
> 2020 05 18 17 02 30.0000000  0 14        .000000000000
G08  20359265.859 8 106988661.383 8       435.512          51.000    20359267.852 8  83367794.922 8       339.360          51.000
G10  21669619.078 7 113874616.546 7     -2035.453          43.000    21669620.727 7  88733486.773 7     -1586.064          43.000
G14  24137140.305 6 126841544.061 6      2914.285          40.000    24137141.953 6  98837583.666 6      2270.875          37.000
G20  23827562.875 4 125214699.674 4     -3334.270          27.000
G22  23359958.047 5 122757411.696 5      3265.379          34.000    23359955.641 5  95655117.337 5      2544.460          32.000
G27  20912733.336 8 109897154.891 8     -1814.758          51.000    20912735.109 8  85634137.915 8     -1414.097          51.000
R07  19904097.336 8 106548274.197 8      1700.820          51.000    19904100.500 8  82870804.492 8      1322.860          48.000
R08  22465737.242 5 120303028.362 5      4372.738          34.000    22465759.422 4  93569079.620 4      3401.022          28.000
R22  19597871.734 6 104614736.813 6       289.988          41.000    19597877.078 6  81367049.923 6       225.546          37.000
C27  21637386.555 8 112671535.429 8      -666.680          51.000
C28  25054829.578 4 130467075.079 4     -2675.547          27.000
E12  21678129.547 8 113919331.122 8       -90.375          51.000    21678128.188 8  87288843.313 8       -69.206          51.000
E19  25597535.117 7 134516006.591 7      1508.199          43.000    25597536.969 7 103070718.578 7      1155.636          44.000
E24  24675835.781 7 129672371.337 7     -2552.625          47.000    24675847.789 7  99359420.309 7     -1955.928          47.000
> 2020 05 18 17 03  0.0000000  0 14        .000000000000
G08  20356821.508 8 106975816.300 8       421.922          51.000    20356823.617 8  83357785.763 8       328.770          51.000
G10  21681273.867 7 113935862.252 7     -2046.438          46.000    21681275.672 7  88781210.702 7     -1594.630          45.000
G14  24120510.422 6 126754157.339 6      2912.582          39.000    24120511.828 5  98769490.099 5      2269.551          34.000
G22  23341333.891 5 122659541.251 5      3260.594          33.000    23341330.555 5  95578854.697 5      2540.732          32.000
G27  20923131.156 8 109951793.338 8     -1826.770          51.000    20923132.289 8  85676713.302 8     -1423.457          51.000
G32  23022926.188 5 120986262.106 5      2339.836          32.000    23022936.586 5  94275071.130 5      1823.237          31.000
R07  19894632.648 8 106497610.891 8      1677.840          50.000    19894635.992 7  82831399.731 7      1304.987          47.000
R08  22441261.414 5 120171933.865 5      4368.793          30.000    22441276.094 4  93467117.415 4      3397.959          29.000
R22  19596273.453 7 104606205.971 7       279.797          42.000    19596277.305 6  81360414.866 6       217.623          36.000
C27  21641254.008 8 112691676.386 8      -674.891          51.000
C28  25070261.953 5 130547427.626 5     -2678.539          30.000
E12  21678658.016 8 113922108.700 8       -93.605          51.000    21678656.695 8  87290971.570 8       -71.667          51.000
E19  25588957.086 7 134470929.820 7      1498.125          42.000    25588959.742 7 103036179.219 7      1147.995          44.000
E24  24690424.336 7 129749035.644 7     -2557.070          45.000    24690437.906 7  99418162.993 7     -1959.284          47.000
> 2020 05 18 17 03 30.0000000  0 16        .000000000000
G01  22780796.219 5 119713891.850 5      2717.742          30.000
G08  20354466.219 8 106963439.298 8       405.422          51.000    20354468.359 8  83348141.340 8       315.913          51.000
G10  21693002.328 7 113997495.243 7     -2060.191          45.000    21693003.742 7  88829236.375 7     -1605.347          45.000
G14  24103902.062 6 126666880.471 6      2907.754          40.000    24103903.359 5  98701482.207 5      2265.788          34.000
G22  23322768.250 4 122561953.880 4      3252.422          28.000
G27  20933609.227 8 110006854.096 8     -1841.773          51.000    20933609.922 8  85719617.756 8     -1435.148          51.000
G32  23009610.562 5 120916287.075 5      2327.562          35.000    23009615.898 5  94220545.309 5      1813.697          35.000
R07  19885308.953 7 106447701.194 7      1651.785          47.000    19885312.227 8  82792581.082 8      1284.722          48.000
R08  22416821.211 5 120041054.549 5      4359.801          34.000    22416833.383 4  93365322.530 4      3390.956          25.000
R21  21857937.234 5 116966182.137 5     -2658.816          35.000
R22  19594743.047 6 104598039.202 6       266.695          41.000    19594745.281 6  81354062.932 6       207.430          37.000
C27  21645180.398 8 112712122.762 8      -686.098          51.000
C28  25085721.133 5 130627907.870 5     -2684.742          32.000
E12  21679216.422 8 113925043.484 8       -99.773          50.000    21679215.164 8  87293220.292 8       -76.456          51.000
E19  25580448.711 7 134426218.498 7      1484.766          43.000    25580451.516 7 103001919.915 7      1137.761          44.000
E24  24705049.117 7 129825893.981 7     -2564.531          43.000    24705064.781 7  99477054.381 7     -1965.042          47.000
> 2020 05 18 17 04  0.0000000  0 14        .000000000000
G01  22765302.102 5 119632460.687 5      2718.609          34.000
G08  20352191.711 8 106951486.230 8       396.461          51.000    20352193.805 8  83338827.255 8       308.931          51.000
G10  21704795.422 6 114059468.276 6     -2066.133          41.000    21704796.609 6  88877527.038 6     -1609.974          41.000
G14  24087306.773 6 126579671.302 6      2910.863          39.000    24087305.930 5  98633527.091 5      2268.205          32.000
G22  23304213.727 5 122464475.815 5      3251.262          35.000
G27  20944158.906 8 110062291.333 8     -1849.062          51.000    20944159.164 8  85762815.586 8     -1440.828          51.000
G32  22996352.234 6 120846607.232 6      2322.766          37.000    22996363.508 6  94166249.810 6      1809.956          37.000
R07  19876117.453 7 106398501.287 7      1633.270          46.000    19876120.727 7  82754314.465 7      1270.321          47.000
R22  19593272.812 7 104590191.423 7       261.543          42.000    19593273.680 6  81347959.125 6       203.425          37.000
C27  21649156.875 8 112732830.283 8      -689.621          51.000
C28  25101194.664 5 130708482.578 5     -2681.719          33.000
E12  21679796.250 8 113928090.670 8       -98.301          50.000    21679795.062 8  87295555.142 8       -75.309          51.000
E19  25572001.734 7 134381828.728 7      1479.488          44.000    25572004.570 7 102967906.993 7      1133.583          44.000
E24  24719701.906 7 129902899.226 7     -2564.020          44.000    24719719.367 8  99536058.386 8     -1964.689          48.000
> 2020 05 18 17 04 30.0000000  0 15        .000000000000
G08  20350027.602 8 106940113.551 8       372.570          51.000    20350029.617 8  83329965.431 8       290.315          51.000
G10  21716682.109 6 114121934.557 6     -2087.055          41.000    21716683.805 6  88926202.096 6     -1626.276          41.000
G14  24070754.688 7 126492688.200 7      2898.832          42.000    24070750.539 5  98565748.170 5      2258.836          33.000
G22  23285727.359 6 122367337.875 6      3235.539          39.000    23285706.297 5  95351077.919 5      2521.205          30.000
G27  20954809.609 8 110118259.767 8     -1871.398          51.000    20954809.641 8  85806427.335 8     -1458.233          51.000
G32  22983180.023 6 120777380.728 6      2303.195          38.000    22983185.320 6  94112307.027 6      1794.695          37.000
R06  21029723.281 4 112218632.118 4     -2479.258          28.000
R07  19867088.992 8 106350171.286 8      1599.652          50.000    19867092.203 7  82716724.460 7      1244.174          47.000
R21  21887845.445 5 117126264.400 5     -2676.633          32.000
R22  19591892.273 7 104582822.108 7       240.754          42.000    19591893.430 6  81342227.452 6       187.253          38.000
C27  21653213.148 8 112753953.319 8      -707.867          51.000
C28  25116717.297 5 130789305.421 5     -2694.910          33.000
E12  21680427.109 8 113931405.856 8      -111.922          50.000    21680426.000 8  87298095.343 8       -85.731          51.000
E19  25563645.664 7 134337916.957 7      1458.871          45.000    25563649.195 7 102934260.344 7      1117.815          44.000
E24  24734412.367 7 129980204.777 7     -2578.641          45.000    24734430.891 8  99595292.473 8     -1975.889          49.000
> 2020 05 18 17 05  0.0000000  0 13        .000000000000
G08  20347945.172 8 106929170.027 8       356.453          51.000    20347946.969 8  83321438.012 8       277.756          51.000
G10  21728633.258 7 114184739.713 7     -2100.379          43.000    21728635.781 7  88975141.197 7     -1636.659          43.000
G14  24054217.625 7 126405781.760 7      2894.594          42.000    24054214.938 5  98498029.024 5      2255.537          34.000
G22  23267276.148 6 122270383.754 6      3227.672          39.000    23267260.828 5  95275529.405 5      2515.075          35.000
G27  20965532.141 8 110174606.303 8     -1885.676          51.000    20965532.383 8  85850333.682 8     -1469.361          51.000
R07  19858195.172 8 106302558.247 8      1573.852          51.000    19858197.570 7  82679692.121 7      1224.110          47.000
R08  22343759.680 4 119649806.435 4      4334.750          28.000
R22  19590572.672 7 104575777.342 7       228.309          43.000    19590574.016 6  81336748.155 6       177.573          39.000
C27  21657320.484 8 112775341.237 8      -718.570          51.000
C28  25132259.766 5 130870224.872 5     -2700.496          31.000
E12  21681079.984 8 113934836.940 8      -117.496          50.000    21681079.102 8  87300724.357 8       -89.997          51.000
E19  25555352.242 7 134294332.270 7      1446.113          45.000    25555356.133 7 102900864.332 7      1108.034          45.000
E24  24749150.961 7 130057656.302 7     -2585.266          46.000    24749169.758 8  99654638.364 8     -1980.975          50.000
> 2020 05 18 17 05 30.0000000  0 14        .000000000000
G08  20345960.984 8 106918742.964 8       341.395          51.000    20345962.859 8  83313313.024 8       266.022          51.000
G10  21740665.211 7 114247968.013 7     -2112.223          44.000    21740667.828 7  89024409.996 7     -1645.888          44.000
G14  24037712.102 7 126319041.057 7      2890.863          44.000    24037711.398 6  98430438.952 6      2252.624          38.000
G22  23248879.508 6 122173684.114 6      3220.559          39.000
G27  20976342.844 8 110231416.618 8     -1898.934          51.000    20976343.352 8  85894601.416 8     -1479.692          51.000
G32  22957021.641 5 120639955.851 5      2279.574          32.000    22957026.836 5  94005186.490 5      1776.292          32.000
R07  19849452.031 8 106255751.642 8      1549.203          51.000    19849453.656 7  82643287.024 7      1204.939          47.000
R08  22319495.781 5 119519893.453 5      4328.539          32.000
R22  19589330.875 7 104569146.117 7       216.656          44.000    19589332.469 6  81331590.549 6       168.510          40.000
C27  21661495.266 8 112797080.096 8      -728.070          51.000
C28  25147836.258 5 130951326.062 5     -2703.730          30.000
E12  21681771.406 8 113938470.666 8      -122.152          50.000    21681770.773 8  87303508.639 8       -93.591          51.000
E19  25547137.781 7 134251162.315 7      1434.562          46.000    25547141.125 7 102867786.067 7      1099.249          44.000
E24  24763933.727 8 130135338.176 8     -2590.809          48.000    24763951.812 8  99714160.725 8     -1985.165          50.000
> 2020 05 18 17 06  0.0000000  0 14        .000000000000
G08  20344068.258 8 106908796.760 8       324.918          51.000    20344070.336 8  83305562.731 8       253.183          51.000
G10  21752770.477 7 114311580.489 7     -2125.391          44.000    21752772.164 7  89073978.129 7     -1656.145          44.000
G14  24021231.117 6 126232432.371 6      2886.078          41.000    24021232.414 6  98362951.672 6      2248.895          40.000
G22  23230525.961 6 122077236.115 6      3212.070          39.000
G27  20987234.375 8 110288653.143 8     -1913.621          51.000    20987235.070 8  85939201.274 8     -1491.133          51.000
G32  22944051.836 5 120571784.555 5      2267.512          34.000    22944051.875 5  93952065.767 5      1766.889          34.000
R07  19840853.031 8 106209716.465 8      1522.992          51.000    19840854.008 7  82607481.933 7      1184.549          47.000
R08  22295279.234 6 119390222.511 6      4319.590          37.000    22295277.625 4  92859042.629 4      3359.684          26.000
R21  21933095.094 5 117368435.926 5     -2701.637          31.000    21933108.055 4  91286586.337 4     -2101.276          27.000
R22  19588159.977 7 104562892.419 7       203.539          46.000    19588162.242 6  81326726.536 6       158.305          41.000
C27  21665730.688 8 112819133.765 8      -739.047          51.000
E12  21682494.430 8 113942270.429 8      -128.105          50.000    21682493.945 8  87306420.149 8       -98.183          51.000
E19  25538995.078 7 134208371.262 7      1421.426          44.000    25538997.930 7 102834998.145 7      1089.126          44.000
E24  24778753.250 8 130213211.425 8     -2597.629          49.000    24778769.773 8  99773829.739 8     -1990.418          49.000
> 2020 05 18 17 06 30.0000000  0 14        .000000000000
G08  20342265.094 8 106899321.010 8       309.148          51.000    20342267.273 8  83298179.025 8       240.895          51.000
G10  21764946.156 7 114375563.250 7     -2137.785          45.000    21764947.492 7  89123834.816 7     -1665.807          45.000
G11  20933391.758 5 110005725.269 5      2205.090          31.000
G14  24004772.641 6 126145946.911 6      2882.078          39.000    24004776.398 6  98295560.461 6      2245.775          39.000
G22  23212219.953 5 121981038.924 5      3204.203          34.000
G27  20998204.289 8 110346303.384 8     -1927.500          50.000    20998205.547 8  85984123.515 8     -1501.948          50.000
R07  19832396.000 8 106164442.505 8      1497.531          51.000    19832396.352 7  82572268.888 7      1164.747          46.000
R08  22271107.508 5 119260785.561 5      4311.906          35.000    22271107.195 4  92758369.547 4      3353.711          28.000
R21  21948275.438 6 117449668.152 6     -2710.750          36.000    21948284.750 4  91349774.879 4     -2108.364          26.000
R22  19587057.555 7 104557005.252 7       191.109          46.000    19587059.891 7  81322147.644 7       148.641          42.000
C27  21670024.414 8 112841490.981 8      -749.168          51.000
E12  21683246.984 8 113946224.797 8      -133.297          50.000    21683246.492 8  87309450.118 8      -102.119          51.000
E19  25530922.242 7 134165948.690 7      1409.016          44.000    25530924.219 7 102802492.528 7      1079.743          43.000
E24  24793606.570 8 130291262.330 8     -2603.641          49.000    24793621.258 8  99833634.893 8     -1994.896          48.000
> 2020 05 18 17 07  0.0000000  0 14        .000000000000
G01  22673094.828 5 119147916.673 5      2676.773          35.000
G08  20340553.219 8 106890324.763 8       295.168          51.000    20340555.539 8  83291168.961 8       230.001          51.000
G10  21777193.391 7 114439922.614 7     -2148.297          45.000    21777194.969 7  89173984.930 7     -1674.001          44.000
G14  23988339.945 6 126059596.210 6      2879.332          38.000    23988344.867 6  98228274.164 6      2243.635          38.000
G22  23193954.586 5 121885058.968 5      3197.930          31.000    23193944.109 5  94975340.517 5      2491.893          31.000
G27  21009254.359 8 110404374.897 8     -1939.418          49.000    21009256.117 8  86029374.045 8     -1511.235          50.000
R07  19824082.781 8 106119939.790 8      1473.926          51.000    19824082.773 7  82537655.673 7      1146.387          47.000
R08  22246980.023 5 119131595.015 5      4305.703          32.000    22246979.164 5  92657888.023 5      3348.877          30.000
R22  19586025.289 7 104551494.419 7       180.844          46.000    19586028.195 7  81317861.418 7       140.653          42.000
C27  21674378.094 8 112864160.452 8      -757.547          51.000
C28  25194729.805 5 131195547.046 5     -2715.367          32.000
E12  21684030.656 8 113950342.387 8      -136.586          51.000    21684030.102 8  87312605.160 8      -104.669          51.000
E19  25522921.289 7 134123904.257 7      1398.543          44.000    25522922.469 7 102770276.665 7      1071.521          43.000
E24  24808494.531 8 130369497.253 8     -2607.500          48.000    24808507.891 7  99893581.082 7     -1997.961          47.000
> 2020 05 18 17 07 30.0000000  0 11        .000000000000
G08  20338934.828 8 106881820.068 8       274.637          51.000    20338937.156 8  83284541.922 8       214.003          51.000
G10  21789513.750 7 114504667.150 7     -2165.258          43.000    21789515.414 7  89224435.234 7     -1687.214          43.000
G14  23971936.273 6 125973393.696 6      2870.332          40.000    23971941.484 6  98161103.434 6      2236.625          40.000
G27  21020386.727 8 110462877.788 8     -1957.988          49.000    21020388.516 8  86074960.728 8     -1525.705          49.000
R07  19815915.656 8 106076221.438 8      1443.523          50.000    19815916.133 7  82503652.520 7      1122.740          47.000
R08  22222900.727 5 119002666.197 5      4292.727          34.000    22222903.617 5  92557610.066 5      3338.790          32.000
R22  19585065.430 7 104546372.097 7       163.605          46.000    19585068.797 7  81313877.372 7       127.249          43.000
C27  21678793.828 8 112887153.287 8      -772.461          51.000
E12  21684847.484 8 113954634.381 8      -146.594          51.000    21684846.914 8  87315893.834 8      -112.301          51.000
E19  25514994.758 7 134082250.118 7      1381.457          44.000    25514995.648 7 102738359.858 7      1058.480          43.000
E24  24823418.867 7 130447925.070 7     -2618.102          47.000    24823431.617 8  99953675.041 8     -2006.012          48.000
> 2020 05 18 17 08  0.0000000  0 14        .000000000000
G08  20337405.367 8 106873782.579 8       260.727          51.000    20337407.773 8  83278278.943 8       203.164          51.000
G10  21801902.102 7 114569769.714 7     -2175.324          45.000    21801903.773 7  89275164.472 7     -1695.058          45.000
G11  20895898.891 5 109808689.210 5      2176.137          31.000
G14  23955557.453 7 125887317.464 7      2867.848          44.000    23955561.680 7  98094031.112 7      2234.690          43.000
G22  23157550.523 6 121693738.217 6      3180.301          37.000    23157545.297 4  94826289.778 4      2478.159          28.000
G27  21031596.555 8 110521786.192 8     -1969.840          50.000    21031597.922 8  86120863.354 8     -1534.943          50.000
G32  22892840.164 5 120302689.753 5      2218.926          30.000
R07  19807890.406 8 106033263.834 8      1419.832          49.000    19807890.914 7  82470241.028 7      1104.314          47.000
R08  22198867.297 6 118873977.256 6      4286.199          39.000    22198873.414 5  92457518.768 5      3333.714          33.000
R22  19584174.039 7 104541614.085 7       153.078          46.000    19584177.852 7  81310176.686 7       119.061          42.000
C27  21683266.938 8 112910444.891 8      -780.773          51.000
E12  21685692.688 8 113959075.907 8      -149.926          50.000    21685692.188 8  87319297.090 8      -114.887          51.000
E19  25507137.812 7 134040961.936 7      1370.895          43.000    25507138.797 7 102706723.507 7      1050.324          43.000
E24  24838374.383 7 130526518.500 7     -2621.789          47.000    24838387.555 8 100013895.916 8     -2008.990          48.000
> 2020 05 18 17 08 30.0000000  0 15        .000000000000
G08  20335967.828 8 106866227.934 8       243.340          51.000    20335970.164 8  83272392.205 8       189.615          51.000
G10  21814361.031 7 114635242.501 7     -2188.910          45.000    21814362.977 7  89326182.194 7     -1705.644          45.000
G14  23939205.992 7 125801384.461 7      2861.645          47.000    23939209.148 7  98027070.368 7      2229.853          44.000
G22  23139423.023 6 121598473.194 6      3170.980          41.000    23139412.500 4  94752057.442 4      2470.903          28.000
G27  21042886.469 8 110581113.610 8     -1984.941          51.000    21042887.242 8  86167092.477 8     -1546.708          51.000
G32  22880213.312 5 120236328.285 5      2206.027          35.000    22880218.297 6  93690654.514 6      1718.988          36.000
R07  19800010.336 8 105991083.033 8      1392.594          50.000    19800011.477 8  82437433.765 8      1083.132          48.000
R08  22174883.523 6 118745546.810 6      4276.312          41.000    22174889.391 5  92357628.500 5      3326.024          33.000
R22  19583353.766 7 104537235.853 7       139.184          46.000    19583357.430 7  81306771.403 7       108.254          43.000
C27  21687800.320 8 112934049.895 8      -792.383          51.000
C28  25241836.523 4 131440872.951 4     -2733.613          28.000
E04  27188398.180 6 142875997.055 6      3113.395          40.000    27188400.930 6 109476423.802 6      2385.462          38.000
E12  21686569.156 8 113963681.612 8      -156.621          50.000    21686568.797 8  87322826.130 8      -120.023          51.000
E19  25499353.461 7 134000055.377 7      1356.754          44.000    25499354.219 7 102675379.554 7      1039.707          42.000
E24  24853363.211 7 130605289.904 7     -2629.043          46.000    24853377.844 8 100074253.182 8     -2014.494          49.000
> 2020 05 18 17 09  0.0000000  0 17        .000000000000
G01  22612316.477 5 118828524.639 5      2650.078          30.000
G08  20334627.117 8 106859182.207 8       227.270          51.000    20334629.352 8  83266902.032 8       177.093          51.000
G10  21826894.938 7 114701108.469 7     -2200.852          42.000    21826897.125 7  89377506.331 7     -1714.949          42.000
G14  23922886.938 7 125715622.744 7      2856.672          46.000    23922889.062 7  97960243.118 7      2225.981          43.000
G22  23121345.062 7 121503476.845 7      3163.168          42.000    23121333.023 4  94678034.451 4      2464.818          27.000
G27  21054260.828 8 110640884.453 8     -1998.965          51.000    21054261.430 8  86213667.115 8     -1557.638          51.000
G32  22867662.023 6 120170362.269 6      2193.094          36.000    22867664.336 6  93639252.650 6      1708.913          37.000
R07  19792280.406 8 105949706.192 8      1366.664          51.000    19792282.305 8  82405251.823 8      1062.961          48.000
R08  22150954.586 6 118617404.190 6      4267.414          41.000    22150958.789 5  92257962.089 5      3319.103          33.000
R21  22024903.102 5 117859694.711 5     -2753.691          30.000
R22  19582609.648 7 104533264.435 7       126.441          46.000    19582613.117 7  81303682.503 7        98.343          43.000
C27  21692398.609 8 112957993.622 8      -802.863          51.000
C28  25257600.664 5 131522956.913 5     -2738.770          31.000
E04  27170629.312 6 142782619.714 6      3112.371          39.000    27170631.820 6 109404875.024 6      2384.699          38.000
E12  21687481.711 8 113968476.981 8      -162.172          51.000    21687481.508 8  87326500.504 8      -124.289          51.000
E19  25491647.016 7 133959556.646 7      1343.934          45.000    25491646.805 7 102644348.043 7      1029.902          42.000
E24  24868390.211 7 130684262.405 7     -2634.867          44.000    24868406.492 8 100134764.562 8     -2019.014          49.000
> 2020 05 18 17 09 30.0000000  0 16        .000000000000
G01  22597204.445 5 118749119.991 5      2642.062          31.000    22597212.430 5  92531778.734 5      2058.744          31.000
G08  20333372.242 8 106852587.602 8       209.637          51.000    20333374.375 8  83261763.379 8       163.353          51.000
G10  21839492.250 7 114767306.849 7     -2214.703          45.000    21839494.305 7  89429089.476 7     -1725.743          45.000
G14  23906589.203 7 125629977.038 7      2850.094          44.000    23906590.555 7  97893506.234 7      2220.855          42.000
G22  23103307.000 7 121408692.135 7      3153.250          42.000    23103295.766 5  94604176.369 5      2457.084          31.000
G27  21065708.047 8 110701039.090 8     -2014.172          51.000    21065708.742 8  86260540.833 8     -1569.485          51.000
G32  22855174.125 6 120104737.396 6      2179.223          39.000    22855175.633 6  93588116.559 6      1698.096          38.000
R07  19784690.367 8 105909075.698 8      1339.215          51.000    19784692.195 8  82373650.325 8      1041.612          49.000
R08  22127069.133 6 118489494.076 6      4256.910          41.000    22127071.820 5  92158476.508 5      3310.930          34.000
R22  19581930.914 7 104529641.062 7       112.496          46.000    19581934.031 7  81300864.323 7        87.497          42.000
C27  21697050.953 8 112982218.173 8      -814.859          51.000
C28  25273382.070 5 131605132.113 5     -2743.688          30.000
E04  27152860.719 6 142689247.059 6      3109.891          39.000    27152862.938 6 109333329.880 6      2382.703          37.000
E12  21688419.203 8 113973403.538 8      -169.004          51.000    21688419.133 8  87330275.404 8      -129.511          51.000
E19  25484007.047 7 133919408.408 7      1329.805          44.000    25484007.023 7 102613585.159 7      1018.962          43.000
E24  24883444.930 7 130763375.278 7     -2642.023          46.000    24883461.781 8 100195383.461 8     -2024.429          50.000
> 2020 05 18 17 10  0.0000000  0 15        .000000000000
G08  20332224.477 8 106846556.256 8       197.629          51.000    20332226.539 8  83257063.623 8       153.997          51.000
G10  21852173.625 7 114833946.646 7     -2222.453          45.000    21852175.562 7  89481016.547 7     -1731.785          46.000
G14  23890334.484 7 125544561.301 7      2849.520          42.000    23890336.484 6  97826948.617 6      2220.411          41.000
G22  23085351.766 6 121314326.765 6      3149.512          36.000
G27  21077248.859 8 110761687.944 8     -2023.852          49.000    21077250.219 8  86307799.672 8     -1577.027          49.000
G32  22842770.977 6 120039567.728 6      2170.969          36.000    22842771.188 5  93537335.054 5      1691.667          35.000
R07  19777261.086 8 105869305.983 8      1317.426          51.000    19777263.266 8  82342718.339 8      1024.664          49.000
R08  22103248.500 6 118361933.478 6      4252.410          40.000    22103251.891 5  92059262.758 5      3307.433          35.000
R22  19581338.758 7 104526480.048 7       103.711          46.000    19581340.961 7  81298405.784 7        80.664          43.000
C27  21701778.414 8 113006834.110 8      -821.094          51.000
C28  25289218.688 5 131687548.984 5     -2745.906          35.000
E04  27135114.422 6 142595992.246 6      3112.547          39.000    27135117.289 6 109261875.034 6      2384.837          37.000
E12  21689402.906 8 113978572.812 8      -170.320          51.000    21689402.922 8  87334236.269 8      -130.442          51.000
E19  25476454.945 7 133879722.678 7      1321.102          44.000    25476455.523 7 102583176.638 7      1012.285          43.000
E24  24898547.922 8 130842737.689 8     -2643.516          49.000    24898564.312 8 100256193.551 8     -2025.497          50.000
> 2020 05 18 17 10 30.0000000  0 16        .000000000000
G01  22567097.664 5 118590883.442 5      2633.027          32.000
G08  20331148.391 8 106840901.668 8       180.246          51.000    20331150.258 8  83252657.446 8       140.452          51.000
G10  21864902.852 7 114900838.098 7     -2235.812          44.000    21864904.391 7  89533139.744 7     -1742.192          44.000
G14  23874088.281 7 125459190.895 7      2842.535          43.000    23874090.586 6  97760426.284 6      2214.962          40.000
G27  21088847.625 8 110822642.520 8     -2038.836          49.000    21088850.047 8  86355296.738 8     -1588.703          49.000
G32  22830419.992 6 119974668.528 6      2156.840          39.000    22830420.805 6  93486764.260 6      1680.648          39.000
R07  19769957.094 8 105830207.977 8      1290.020          50.000    19769959.609 8  82312308.775 8      1003.345          49.000
R08  22079458.422 6 118234534.995 6      4241.770          40.000    22079461.742 5  91960175.082 5      3299.154          34.000
R21  22071441.953 5 118108773.669 5     -2778.254          33.000
R22  19580797.852 7 104523591.944 7        89.781          47.000    19580799.977 7  81296159.484 7        69.830          43.000
C27  21706545.281 8 113031655.887 8      -832.711          51.000
C28  25305053.883 6 131769994.547 6     -2750.035          37.000
E04  27117355.664 6 142502669.482 6      3109.742          39.000    27117358.273 6 109190368.085 6      2382.679          36.000
E12  21690397.133 8 113983797.508 8      -177.070          51.000    21690397.219 8  87338239.609 8      -135.770          51.000
E19  25468955.664 7 133840313.140 7      1307.078          45.000    25468956.375 7 102552979.755 7      1001.357          43.000
E24  24913662.578 8 130922159.970 8     -2650.422          51.000    24913678.000 8 100317049.512 8     -2030.855          50.000
> 2020 05 18 17 11  0.0000000  0 17        .000000000000
G08  20330189.547 8 106835862.833 8       162.336          51.000    20330191.055 8  83248731.090 8       126.496          51.000
G10  21877724.797 7 114968217.190 7     -2249.523          45.000    21877725.781 7  89585642.907 7     -1752.875          45.000
G11  20822478.336 5 109422882.454 5      2113.754          33.000
G14  23857896.812 7 125374106.564 7      2835.883          44.000    23857899.867 6  97694126.872 6      2209.782          41.000
G22  23049505.664 7 121125960.773 7      3129.703          45.000    23049499.312 4  94383844.905 4      2438.736          29.000
G27  21100550.180 8 110884140.116 8     -2054.414          50.000    21100552.961 8  86403216.965 8     -1600.842          50.000
G32  22818166.047 6 119910280.523 6      2142.125          37.000    22818168.664 6  93436591.767 6      1669.188          38.000
R06  21220960.891 4 113239113.270 4     -2748.117          28.000
R07  19762824.125 8 105792025.201 8      1262.152          50.000    19762826.828 8  82282611.042 8       981.674          50.000
R08  22055745.078 6 118107545.845 6      4230.750          40.000    22055748.398 5  91861405.759 5      3290.583          33.000
R22  19580353.086 7 104521219.859 7        74.949          46.000    19580356.258 7  81294314.534 7        58.294          43.000
C27  21711396.828 8 113056919.823 8      -844.965          51.000
C28  25320939.008 6 131852703.879 6     -2756.711          40.000
E04  27099630.109 6 142409518.808 6      3106.672          38.000    27099631.664 6 109118992.976 6      2380.622          37.000
E12  21691447.258 8 113989316.070 8      -184.137          51.000    21691447.430 8  87342468.112 8      -141.083          51.000
E19  25461554.297 7 133801419.188 7      1292.512          45.000    25461555.336 7 102523177.900 7       990.432          43.000
E24  24928833.453 8 131001878.219 8     -2657.492          51.000    24928847.852 8 100378132.244 8     -2036.257          51.000
> 2020 05 18 17 11 30.0000000  0 15        .000000000000
G08  20329316.531 8 106831274.392 8       145.199          51.000    20329317.961 8  83245155.691 8       113.142          51.000
G10  21890607.430 7 115035915.428 7     -2262.055          45.000    21890608.391 7  89638394.763 7     -1762.640          45.000
G14  23841729.414 7 125289145.224 7      2829.785          45.000    23841732.727 6  97627923.274 6      2205.027          41.000
G22  23031670.945 7 121032230.637 7      3120.512          47.000    23031661.328 5  94310808.471 5      2431.571          32.000
G27  21112324.797 8 110946013.574 8     -2068.961          51.000    21112327.188 8  86451430.027 8     -1612.177          51.000
G32  22805978.773 6 119846239.969 6      2128.648          40.000    22805981.391 6  93386690.009 6      1658.684          40.000
R07  19755830.812 8 105754590.121 8      1235.188          50.000    19755833.734 8  82253494.877 8       960.701          49.000
R08  22032076.898 6 117980799.921 6      4220.531          39.000    22032082.422 5  91762825.554 5      3282.632          32.000
R22  19579973.734 8 104519195.892 8        61.387          49.000    19579977.523 7  81292740.321 7        47.745          43.000
C27  21716301.594 8 113082461.387 8      -856.184          51.000
C28  25336842.211 6 131935511.571 6     -2762.309          36.000
E04  27081906.016 5 142316375.658 5      3104.465          35.000    27081906.844 6 109047623.716 6      2378.614          37.000
E12  21692521.734 8 113994962.441 8      -190.480          51.000    21692521.922 8  87346794.545 8      -145.962          51.000
E19  25454219.688 7 133762875.194 7      1278.691          45.000    25454221.117 7 102493644.211 7       979.875          44.000
E24  24944028.219 8 131081724.011 8     -2663.812          50.000    24944041.867 8 100439312.685 8     -2041.130          51.000
> 2020 05 18 17 12  0.0000000  0 15        .000000000000
G08  20328536.227 8 106827173.950 8       127.758          51.000    20328537.641 8  83241960.535 8        99.552          51.000
G10  21903557.188 7 115103967.368 7     -2274.801          43.000    21903558.711 7  89691422.210 7     -1772.572          43.000
G14  23825593.148 7 125204346.590 7      2823.160          45.000    23825595.977 7  97561846.462 7      2199.868          42.000
G22  23013882.273 7 120938752.508 7      3110.930          46.000    23013874.555 5  94237968.437 5      2424.104          31.000
G27  21124177.891 8 111008298.679 8     -2083.816          51.000    21124179.711 8  86499963.847 8     -1623.753          51.000
G32  22793865.367 6 119782586.238 6      2114.539          41.000    22793869.266 6  93337089.757 6      1647.696          41.000
R07  19748984.359 8 105717941.298 8      1207.641          51.000    19748987.211 8  82224990.242 8       939.276          48.000
R08  22008461.961 6 117854338.579 6      4210.074          37.000    22008470.625 5  91664466.746 5      3274.502          30.000
R22  19579667.234 8 104517558.528 8        47.355          49.000    19579671.016 7  81291466.814 7        36.832          44.000
C27  21721266.805 8 113108317.288 8      -867.891          51.000
C28  25352768.375 5 132018453.493 5     -2768.031          32.000
E04  27064190.367 5 142223279.669 5      3101.320          32.000    27064190.617 6 108976289.747 6      2376.830          36.000
E12  21693627.625 8 114000773.692 8      -197.156          51.000    21693627.781 8  87351247.313 8      -150.981          51.000
E19  25446959.000 7 133724719.177 7      1264.672          45.000    25446960.633 7 102464407.806 7       969.082          44.000
E24  24959253.406 8 131161732.121 8     -2670.359          48.000    24959266.961 8 100500617.512 8     -2046.075          51.000
> 2020 05 18 17 12 30.0000000  0 14        .000000000000
G08  20327853.953 8 106823589.331 8       111.008          50.000    20327855.445 8  83239167.322 8        86.500          50.000
G10  21916578.703 6 115172398.027 6     -2287.262          39.000    21916580.633 6  89744744.788 6     -1782.282          40.000
G14  23809493.656 7 125119740.696 7      2817.074          46.000    23809495.594 6  97495919.854 6      2195.126          40.000
G22  22996145.711 7 120845554.649 7      3102.117          42.000    22996141.469 6  94165346.807 6      2417.237          36.000
G27  21136114.359 8 111071021.756 8     -2098.004          51.000    21136115.758 8  86548838.942 8     -1634.808          51.000
G32  22781831.414 6 119719349.278 6      2101.402          39.000    22781836.125 6  93287814.204 6      1637.459          38.000
R07  19742290.312 8 105682108.139 8      1180.957          51.000    19742292.805 7  82197120.039 7       918.525          46.000
R22  19579438.641 8 104516336.652 8        33.926          50.000    19579442.195 7  81290516.469 7        26.387          43.000
C27  21726297.469 8 113134514.822 8      -878.836          51.000
C28  25368721.914 4 132101555.927 4     -2771.594          29.000
E04  27046488.945 5 142130257.907 5      3099.668          31.000    27046488.430 6 108905013.449 6      2374.870          37.000
E12  21694770.102 8 114006777.285 8      -203.133          50.000    21694770.227 8  87355847.467 8      -155.581          51.000
E19  25439777.227 7 133686979.352 7      1251.215          44.000    25439778.906 7 102435490.298 7       958.735          43.000
E24  24974513.945 8 131241927.608 8     -2676.074          48.000    24974527.984 8 100562065.955 8     -2050.495          51.000
> 2020 05 18 17 13  0.0000000  0 14        .000000000000
G08  20327265.180 8 106820496.101 8        95.008          51.000    20327266.672 8  83236757.003 8        74.032          50.000
G10  21929667.148 6 115241179.587 6     -2298.383          40.000    21929668.875 6  89798340.837 6     -1790.945          39.000
G14  23793426.453 8 125035304.757 8      2811.785          48.000    23793427.430 6  97430125.629 6      2191.001          39.000
G22  22978456.680 6 120752613.379 6      3094.219          38.000    22978454.328 5  94092925.098 5      2411.086          33.000
G27  21148128.922 8 111134156.204 8     -2111.219          51.000    21148130.148 8  86598034.582 8     -1645.106          51.000
G32  22769871.688 6 119656506.026 6      2088.453          36.000    22769877.750 5  93238845.495 5      1627.369          35.000
R07  19735744.266 8 105647065.694 8      1155.012          51.000    19735746.180 7  82169864.838 7       898.345          46.000
R08  21961391.898 4 117602252.811 4      4190.594          29.000    21961405.797 4  91468465.070 4      3259.351          27.000
R22  19579283.266 8 104515505.204 8        21.285          50.000    19579285.828 7  81289869.793 7        16.555          43.000
C27  21731389.070 8 113161028.888 8      -888.992          51.000
E04                                                                  27028796.984 6 108833776.547 6      2373.996          36.000
E12  21695944.250 8 114012947.880 8      -208.348          50.000    21695944.352 8  87360575.589 8      -159.640          51.000
E19  25432669.656 7 133649631.053 7      1238.594          44.000    25432671.695 7 102406872.809 7       949.040          44.000
E24  24989804.969 8 131322282.848 8     -2681.004          48.000    24989819.562 8 100623636.836 8     -2054.255          50.000
> 2020 05 18 17 13 30.0000000  0 14        .000000000000
G08  20326766.594 8 106817876.114 8        78.152          51.000    20326768.086 8  83234715.447 8        60.898          51.000
G10  21942818.609 6 115310291.089 6     -2310.594          41.000    21942820.266 6  89852193.935 6     -1800.463          41.000
G14  23777388.414 7 124951022.845 7      2805.570          47.000    23777389.391 6  97364451.453 6      2186.162          38.000
G22  22960814.750 7 120659911.653 7      3084.703          44.000    22960809.062 5  94020690.057 5      2403.671          30.000
G27  21160217.781 8 111197682.249 8     -2125.230          51.000    21160218.805 8  86647535.368 8     -1656.024          51.000
G32  22757984.648 5 119594040.279 5      2074.277          35.000    22757990.891 5  93190170.869 5      1616.323          33.000
R07  19729342.398 8 105612796.084 8      1128.098          51.000    19729344.227 7  82143210.764 7       877.412          45.000
R08  21937950.594 6 117476680.979 6      4179.742          37.000    21937953.047 5  91370798.430 5      3250.911          30.000
R22  19579197.492 8 104515046.383 8         7.676          50.000    19579199.141 7  81289512.916 7         5.970          43.000
C27  21736537.852 8 113187841.094 8      -899.988          51.000
E04                                                                  27011112.430 6 108762566.046 6      2372.421          37.000
E12  21697146.656 8 114019266.960 8      -214.336          50.000    21697146.656 8  87365417.474 8      -164.270          51.000
E19  25425633.281 7 133612656.787 7      1225.012          43.000    25425635.703 7 102378541.888 7       938.705          43.000
E24  25005122.531 8 131402776.828 8     -2686.629          48.000    25005137.555 8 100685314.018 8     -2058.601          50.000
> 2020 05 18 17 14  0.0000000  0 16        .000000000000
G08  20326364.055 8 106815760.288 8        62.863          51.000    20326365.438 8  83233066.748 8        48.984          51.000
G10  21956038.078 6 115379760.220 6     -2320.855          41.000    21956039.531 6  89906325.720 6     -1808.459          41.000
G14  23761385.508 7 124866927.898 7      2800.863          45.000    23761386.070 6  97298922.967 6      2182.491          38.000
G22  22943225.906 8 120567480.760 8      3077.301          48.000    22943217.516 5  93948666.086 5      2397.900          30.000
G27  21172386.469 8 111261628.920 8     -2137.855          51.000    21172387.477 8  86697363.907 8     -1665.861          51.000
G32  22746175.719 6 119531960.497 6      2062.551          36.000    22746180.070 6  93141815.850 6      1607.182          37.000
R07  19723090.961 8 105579331.561 8      1102.824          51.000    19723092.547 7  82117182.830 7       857.752          47.000
R08  21914561.047 6 117351422.617 6      4170.820          39.000    21914562.477 5  91273375.371 5      3243.971          33.000
R21  22181747.211 5 118699008.801 5     -2838.973          31.000
R22  19579187.305 8 104514991.444 8        -4.180          50.000    19579187.797 7  81289470.205 7        -3.251          43.000
C27  21741749.570 8 113214981.384 8      -909.477          51.000
E04                                                                  26993440.383 6 108691406.302 6      2371.601          38.000
E12  21698383.109 8 114025764.745 8      -218.828          51.000    21698383.008 8  87370396.290 8      -167.659          51.000
E19  25418673.492 6 133576087.265 6      1213.074          41.000    25418676.281 7 102350521.079 7       929.439          43.000
E24  25020471.812 8 131483437.466 8     -2690.758          48.000    25020487.125 8 100747118.879 8     -2061.672          51.000
E33  26212812.688 6 137749277.621 6     -1991.305          36.000
> 2020 05 18 17 14 30.0000000  0 15        .000000000000
G08  20326053.008 8 106814125.728 8        46.777          51.000    20326054.203 8  83231793.054 8        36.450          51.000
G10  21969321.039 6 115449561.281 6     -2332.141          39.000    21969321.859 6  89960716.154 6     -1817.249          39.000
G14  23745413.734 7 124782999.267 7      2795.176          44.000    23745414.102 6  97233524.221 6      2178.065          38.000
G22  22925684.898 8 120475298.634 8      3068.797          49.000    22925678.391 6  93876835.956 6      2391.273          37.000
G27  21184630.445 8 111325971.716 8     -2151.137          51.000    21184631.625 8  86747501.113 8     -1676.210          51.000
G32  22734441.078 6 119470293.895 6      2048.859          36.000    22734439.680 5  93093763.957 5      1596.508          35.000
R07  19716985.594 8 105546648.971 8      1076.668          51.000    19716987.320 7  82091763.079 7       837.411          47.000
R08  21891225.023 6 117226457.759 6      4160.812          39.000    21891227.414 6  91176180.553 6      3236.187          36.000
R22  19579248.281 8 104515317.762 8       -16.922          50.000    19579248.719 7  81289724.004 7       -13.161          44.000
C27  21747020.031 8 113242426.726 8      -919.672          51.000
C28  25432812.367 5 132435372.195 5     -2788.465          30.000
E04  26975776.125 6 141758653.270 6      3093.391          38.000    26975776.266 5 108620280.633 5      2370.503          35.000
E12  21699649.148 8 114032418.027 8      -224.254          50.000    21699648.945 8  87375494.258 8      -171.864          51.000
E19  25411786.281 6 133539899.792 6      1200.027          41.000    25411789.719 7 102322793.040 7       919.460          43.000
E24  25035847.875 8 131564239.163 8     -2695.449          48.000    25035863.391 8 100809031.809 8     -2065.461          51.000
> 2020 05 18 17 15  0.0000000  0 15        .000000000000
G08  20325840.531 8 106813008.989 8        27.922          51.000    20325841.594 8  83230922.858 8        21.757          51.000
G10  21982673.508 6 115519727.884 6     -2345.781          39.000    21982674.773 6  90015391.438 6     -1827.881          39.000
G14  23729481.047 7 124699275.809 7      2786.605          44.000    23729480.023 6  97168285.249 6      2171.384          38.000
G22  22908198.156 8 120383402.705 8      3057.613          48.000    22908194.461 6  93805228.827 6      2382.556          41.000
G27  21196956.367 8 111390745.514 8     -2167.078          51.000    21196957.602 8  86797974.164 8     -1688.632          51.000
G32  22722787.992 6 119409054.796 6      2032.953          38.000    22722783.172 5  93046045.246 5      1584.128          33.000
R07  19711033.344 8 105514786.035 8      1047.656          51.000    19711035.070 8  82066980.805 8       814.847          48.000
R08  21867950.258 6 117101826.925 6      4148.043          41.000    21867954.023 6  91079245.502 6      3226.259          38.000
R21  22213693.000 5 118869948.369 5     -2858.801          34.000    22213689.188 4  92454401.870 4     -2223.515          24.000
R22  19579387.602 8 104516062.930 8       -32.570          50.000    19579388.555 7  81290303.578 7       -25.332          45.000
C27  21752356.180 8 113270212.973 8      -932.676          51.000
E04  26958130.008 6 141665910.382 6      3089.418          38.000    26958126.922 5 108549218.007 5      2366.983          34.000
E12  21700951.711 8 114039262.955 8      -232.184          51.000    21700951.180 8  87380739.058 8      -177.871          51.000
E19  25404979.945 7 133504131.486 7      1184.621          44.000    25404983.172 7 102295386.157 7       907.532          43.000
E24  25051257.172 8 131645215.724 8     -2702.875          48.000    25051272.672 8 100871078.705 8     -2071.046          50.000
> 2020 05 18 17 15 30.0000000  0 16        .000000000000
G08  20325721.758 8 106812384.589 8        13.391          51.000    20325723.078 8  83230436.298 8        10.434          51.000
G10  21996090.164 6 115590230.964 6     -2354.840          41.000    21996092.469 6  90070328.869 6     -1834.940          41.000
G14  23713582.484 7 124615733.467 7      2782.453          44.000    23713582.352 6  97103187.356 6      2168.145          40.000
G22  22890760.750 7 120291767.662 7      3050.910          47.000    22890758.969 7  93733824.969 7      2377.333          43.000
G27  21209358.758 8 111455922.308 8     -2178.641          51.000    21209359.945 8  86848761.258 8     -1697.642          51.000
G32  22711211.930 6 119348218.782 6      2022.074          39.000    22711207.969 6  92998640.754 6      1575.648          36.000
R07  19705229.477 8 105483716.338 8      1023.191          51.000    19705231.180 8  82042815.483 8       795.816          49.000
R08  21844733.617 7 116977506.190 7      4139.562          42.000    21844737.508 6  90982551.646 6      3219.660          40.000
R21  22229741.352 5 118955788.523 5     -2864.426          32.000
R22  19579600.633 8 104517200.575 8       -43.672          50.000    19579602.312 7  81291188.408 7       -33.967          46.000
C27  21757752.945 8 113298313.563 8      -941.148          51.000
C28  25465007.914 5 132602971.646 5     -2798.070          30.000
E04  26940492.727 6 141573224.535 6      3089.223          38.000    26940487.703 5 108478199.062 5      2367.429          33.000
E12  21702285.750 8 114046272.826 8      -235.699          50.000    21702284.688 8  87386110.260 8      -180.607          51.000
E19  25398249.016 7 133468756.293 7      1173.434          44.000    25398251.492 7 102268280.504 7       899.035          44.000
E24  25066694.039 7 131726338.025 7     -2705.707          47.000    25066709.180 8 100933237.276 8     -2073.186          49.000
> 2020 05 18 17 16  0.0000000  0 16        .000000000000
G01  22404133.516 4 117734515.898 4      2558.961          29.000
G08  20325697.125 8 106812254.915 8        -4.656          51.000    20325698.664 8  83230335.237 8        -3.628          51.000
G10  22009570.664 7 115661070.572 7     -2367.594          42.000    22009572.891 7  90125528.543 7     -1844.878          42.000
G14  23697719.562 7 124532377.417 7      2774.668          43.000    23697720.805 6  97038234.598 6      2162.079          39.000
G22  22873373.039 7 120200397.560 7      3040.551          44.000    22873372.883 7  93662627.483 7      2369.257          44.000
G27  21221837.609 8 111521503.364 8     -2193.535          49.000    21221839.180 8  86899863.362 8     -1709.248          49.000
G32  22699710.422 5 119287793.893 5      2007.344          34.000    22699718.195 5  92951551.122 5      1564.164          35.000
R07  19699574.391 8 105453443.185 8       995.055          51.000    19699576.094 8  82019269.703 8       773.931          49.000
R08  21821576.023 7 116853501.966 7      4127.434          42.000    21821580.062 6  90886103.981 6      3210.229          41.000
R22  19579887.883 8 104518734.146 8       -58.480          50.000    19579889.906 7  81292381.180 7       -45.485          46.000
C27  21763210.523 8 113326731.084 8      -953.215          51.000
C28  25481148.602 4 132687004.148 4     -2802.848          29.000
E04  26922865.812 6 141480599.955 6      3085.727          37.000    26922860.148 5 108407227.102 5      2364.609          34.000
E12  21703651.594 8 114053450.257 8      -242.746          50.000    21703650.133 8  87391609.843 8      -185.961          51.000
E19  25391593.258 7 133433777.304 7      1158.703          46.000    25391595.180 7 102241478.443 7       887.867          43.000
E24  25082158.461 7 131807606.273 7     -2712.066          46.000    25082172.812 8 100995507.695 8     -2077.993          48.000
> 2020 05 18 17 16 30.0000000  0 15        .000000000000
G08  20325769.523 8 106812635.433 8       -20.562          51.000    20325771.250 8  83230631.743 8       -16.023          51.000
G10  22023117.430 6 115732259.142 6     -2378.129          39.000    22023118.492 6  90181000.142 6     -1853.084          40.000
G14  23681895.961 7 124449225.251 7      2768.902          43.000    23681898.562 6  96973440.750 6      2157.586          41.000
G22  22856038.500 7 120109308.097 7      3032.445          44.000    22856039.688 7  93591648.639 7      2362.944          44.000
G27  21234395.688 8 111587502.366 8     -2206.246          48.000    21234397.688 8  86951291.159 8     -1719.153          48.000
R07  19694071.086 8 105423983.156 8       969.195          51.000    19694072.891 8  81996356.366 8       753.819          49.000
R08  21798481.562 7 116729833.105 7      4117.465          42.000    21798485.195 7  90789917.136 7      3202.473          43.000
R21  22261970.172 5 119128249.763 5     -2881.152          30.000    22261956.742 4  92655287.054 4     -2240.902          26.000
R22  19580252.180 8 104520679.731 8       -70.988          49.000    19580254.742 7  81293894.407 7       -55.213          46.000
C27  21768731.883 8 113355480.296 8      -963.121          51.000
C28  25497314.086 5 132771181.084 5     -2807.207          31.000
E04  26905253.648 6 141388053.094 6      3084.277          36.000    26905248.625 5 108336314.695 5      2363.245          35.000
E12  21705052.148 8 114060810.222 8      -247.621          50.000    21705050.383 8  87397249.288 8      -189.721          51.000
E19  25385016.102 7 133399210.243 7      1146.180          46.000    25385017.602 7 102214992.000 7       878.212          44.000
E24  25097653.000 7 131889033.112 7     -2716.129          45.000    25097666.328 7 101057899.651 7     -2081.196          47.000
> 2020 05 18 17 17  0.0000000  0 15        .000000000000
G08  20325937.484 8 106813518.453 8       -37.379          51.000    20325939.469 8  83231319.788 8       -29.129          51.000
G10  22036728.625 6 115803786.102 6     -2389.609          39.000    22036729.602 6  90236735.441 6     -1862.030          39.000
G14  23666110.422 7 124366271.640 7      2762.352          45.000    23666114.070 7  96908801.659 7      2152.485          42.000
G22  22838757.328 8 120018492.647 8      3023.117          49.000    22838757.812 7  93520883.363 7      2355.676          45.000
G27  21247032.391 8 111653909.982 8     -2220.047          51.000    21247033.914 8  87003037.352 8     -1729.907          51.000
G32  22676956.055 6 119168207.601 6      1979.172          36.000    22676965.594 6  92858374.085 6      1542.206          36.000
R07  19688718.148 8 105395328.473 8       942.277          51.000    19688720.086 8  81974069.421 8       732.885          50.000
R08  21775449.406 7 116606495.045 7      4106.121          42.000    21775452.148 7  90693987.575 7      3193.653          44.000
R22  19580692.250 8 104523029.954 8       -84.652          49.000    19580694.797 7  81295722.331 7       -65.841          46.000
C27  21774315.352 8 113384553.203 8      -974.098          51.000
C28  25513507.805 5 132855493.235 5     -2812.605          33.000
E04  26887655.438 5 141295577.538 5      3081.617          35.000    26887651.406 6 108265456.868 6      2361.197          38.000
E12  21706485.867 8 114068344.704 8      -253.566          50.000    21706483.930 8  87403022.464 8      -194.291          51.000
E19  25378515.477 7 133365047.753 7      1132.426          45.000    25378517.195 7 102188815.568 7       867.796          45.000
E24  25113176.016 7 131970608.115 7     -2721.109          47.000    25113188.352 7 101120405.103 7     -2085.000          47.000
> 2020 05 18 17 17 30.0000000  0 15        .000000000000
G08  20326200.164 8 106814899.162 8       -55.230          51.000    20326202.422 8  83232395.658 8       -43.037          51.000
G10  22050402.398 6 115875643.334 6     -2401.562          39.000    22050404.320 6  90292728.104 6     -1871.344          39.000
G14  23650362.859 7 124283513.178 7      2754.594          47.000    23650366.164 7  96844314.574 7      2146.437          43.000
G22  22821527.734 8 119927946.541 8      3012.863          50.000    22821526.266 7  93450327.998 7      2347.686          44.000
G27  21259746.203 8 111720719.280 8     -2234.488          51.000    21259746.961 8  87055096.509 8     -1741.163          51.000
G32  22665697.133 6 119109040.238 6      1964.395          37.000    22665705.320 6  92812269.480 6      1530.688          38.000
R07  19683514.438 8 105367474.018 8       914.160          51.000    19683516.578 8  81952404.883 8       711.013          49.000
R08  21752477.977 6 116483485.683 6      4094.125          39.000    21752480.523 7  90598313.646 7      3184.319          44.000
R22  19581207.383 8 104525779.861 8       -99.172          51.000    19581209.508 7  81297861.142 7       -77.134          46.000
C27  21779959.680 8 113413944.184 8      -985.906          51.000
C28  25529723.477 5 132939934.329 5     -2818.219          33.000
E04  26870070.844 5 141203169.117 5      3078.312          35.000    26870067.859 6 108194650.508 6      2358.710          40.000
E12  21707951.727 8 114076048.062 8      -260.484          49.000    21707949.711 8  87408925.036 8      -199.604          51.000
E19  25372090.438 7 133331284.822 7      1117.934          44.000    25372092.742 7 102162945.296 7       856.563          45.000
E24  25128726.102 8 132052323.296 8     -2726.984          48.000    25128737.867 7 101183017.953 7     -2089.519          47.000
> 2020 05 18 17 18  0.0000000  0 14        .000000000000
G08  20326560.500 8 106816792.515 8       -71.238          51.000    20326562.961 8  83233870.985 8       -55.510          51.000
G10  22064141.125 6 115947843.046 6     -2412.016          40.000    22064143.000 6  90348987.580 6     -1879.493          40.000
G14  23634656.047 8 124200967.273 8      2748.430          48.000    23634658.656 7  96779993.177 7      2141.634          43.000
G22  22804352.180 8 119837686.077 8      3004.410          51.000    22804348.961 7  93379995.229 7      2341.102          43.000
G27  21272539.180 8 111787943.513 8     -2247.199          51.000    21272539.242 8  87107479.009 8     -1751.064          51.000
R07  19678463.281 8 105340435.321 8       888.117          50.000    19678465.438 8  81931374.776 8       690.758          50.000
R08  21729568.953 6 116360823.419 6      4083.594          37.000    21729573.906 7  90502909.597 7      3176.125          44.000
R22  19581800.555 8 104528945.033 8      -111.938          51.000    19581802.484 7  81300322.932 7       -87.062          47.000
C27  21785667.906 8 113443667.630 8      -995.844          51.000
C28  25545965.766 5 133024517.909 5     -2821.484          35.000
E04  26852502.086 5 141110850.112 5      3076.523          34.000    26852500.391 6 108123908.023 6      2357.441          41.000
E12  21709452.547 8 114083934.959 8      -265.305          49.000    21709450.523 8  87414968.229 8      -203.312          51.000
E19  25365744.102 7 133297936.436 7      1105.398          43.000    25365747.078 7 102137392.654 7       846.808          45.000
E24  25144305.352 8 132134190.885 8     -2730.832          49.000    25144316.961 7 101245747.576 7     -2092.477          46.000
> 2020 05 18 17 18 30.0000000  0 14        .000000000000
G08  20327015.586 8 106819183.797 8       -87.402          51.000    20327018.219 8  83235734.310 8       -68.109          51.000
G10  22077942.047 6 116020367.701 6     -2421.836          40.000    22077942.484 6  90405500.220 6     -1887.148          40.000
G14  23618987.148 7 124118621.578 7      2742.078          47.000    23618989.047 7  96715827.769 7      2136.687          45.000
G22  22787228.031 8 119747697.411 8      2995.691          50.000    22787223.688 7  93309874.260 7      2334.308          44.000
G27  21285407.875 8 111855566.321 8     -2260.125          51.000    21285407.516 8  87160172.097 8     -1761.133          51.000
R07  19673561.391 7 105314197.579 7       861.816          47.000    19673564.414 8  81910967.653 8       670.302          50.000
R08  21706724.320 6 116238496.860 6      4072.414          40.000    21706729.781 7  90407766.726 7      3167.436          43.000
R22  19582468.789 8 104532511.074 8      -124.988          51.000    19582470.375 7  81303096.520 7       -97.213          47.000
C27  21791436.930 8 113473708.703 8     -1006.039          51.000
C28  25562231.750 5 133109228.263 5     -2825.551          34.000
E04                                                                  26834945.578 7 108053219.063 7      2355.902          42.000
E12  21710985.453 8 114091990.446 8      -270.742          49.000    21710983.547 8  87421140.607 8      -207.515          51.000
E19  25359473.773 7 133264988.434 7      1092.289          42.000    25359477.391 7 102112146.808 7       836.877          45.000
E24  25159910.398 8 132216193.520 8     -2735.137          49.000    25159922.039 7 101308580.679 7     -2095.778          46.000
> 2020 05 18 17 19  0.0000000  0 15        .000000000000
G01  22317108.641 6 117277197.339 6      2520.012          36.000    22317105.203 6  91384814.706 6      1963.645          36.000
G08  20327560.930 8 106822050.042 8      -105.375          51.000    20327563.727 8  83237967.734 8       -82.110          51.000
G10  22091799.977 6 116093191.264 6     -2434.164          38.000    22091800.383 6  90462245.859 6     -1896.748          38.000
G14  23603351.875 8 124036455.504 8      2734.012          48.000    23603353.320 7  96651802.324 7      2130.402          44.000
G22  22770150.984 8 119657958.040 8      2985.301          51.000    22770146.320 7  93239947.529 7      2326.211          44.000
G27  21298347.570 8 111923562.818 8     -2274.578          51.000    21298347.281 8  87213156.367 8     -1772.395          51.000
R07  19668804.391 7 105288737.536 7       833.848          47.000    19668808.375 8  81891165.369 8       648.548          49.000
R08  21683939.125 7 116116485.059 7      4059.926          44.000    21683944.484 7  90312868.703 7      3157.720          42.000
R22  19583207.781 8 104536455.002 8      -139.652          51.000    19583209.492 8  81306164.007 8      -108.622          48.000
C27  21797262.469 8 113504043.989 8     -1017.926          51.000
C28  25578517.438 5 133194041.242 5     -2830.055          30.000
E04  26817395.805 5 140926362.813 5      3070.996          33.000    26817399.422 7 107982566.834 7      2352.942          43.000
E12  21712546.086 8 114100190.986 8      -277.543          50.000    21712544.266 8  87427424.128 8      -212.702          51.000
E19  25353275.523 6 133232417.929 6      1077.359          41.000    25353279.297 7 102087190.174 7       825.692          43.000
E24  25175536.109 8 132298305.274 8     -2740.652          49.000    25175548.125 7 101371497.392 7     -2099.953          45.000
> 2020 05 18 17 19 30.0000000  0 15        .000000000000
G08  20328214.508 8 106825484.854 8      -121.273          51.000    20328217.398 8  83240644.201 8       -94.499          51.000
G10  22105732.008 6 116166404.582 6     -2444.449          39.000    22105734.367 6  90519295.222 6     -1904.766          39.000
G14  23587768.695 8 123954564.451 8      2727.969          49.000    23587769.844 7  96587991.158 7      2125.690          45.000
G22  22753139.352 8 119568562.656 8      2976.797          51.000    22753135.141 7  93170288.812 7      2319.585          44.000
G27  21311375.945 8 111992024.981 8     -2287.137          51.000    21311375.656 8  87266503.511 8     -1782.181          51.000
G32  22621479.469 5 118876670.183 5      1908.812          35.000    22621484.164 5  92631171.383 5      1487.392          33.000
R07  19664211.148 8 105264151.038 8       807.852          48.000    19664215.336 8  81872042.511 8       628.329          49.000
R08  21661232.398 7 115994887.179 7      4049.047          47.000    21661236.594 6  90218292.635 6      3149.262          41.000
R22  19584035.297 8 104540872.221 8      -152.324          51.000    19584037.078 8  81309599.614 8      -118.474          48.000
C27  21803162.172 8 113534765.942 8     -1027.828          51.000
C28  25594840.656 5 133279048.525 5     -2834.180          32.000
E04  26799876.891 4 140834303.555 4      3067.676          28.000    26799880.531 7 107912024.053 7      2351.550          44.000
E12  21714152.164 8 114108629.990 8      -282.551          50.000    21714150.477 8  87433890.370 8      -216.530          51.000
E19  25347167.062 7 133200318.861 7      1064.797          42.000    25347170.195 7 102062594.815 7       815.776          42.000
E24  25191199.797 8 132380617.170 8     -2744.277          48.000    25191212.266 7 101434567.470 7     -2102.788          44.000
> 2020 05 18 17 20  0.0000000  0 14        .000000000000
G08  20328956.992 8 106829386.761 8      -138.316          51.000    20328959.766 8  83243684.642 8      -107.779          51.000
G10  22119718.398 7 116239903.076 7     -2455.105          42.000    22119721.047 6  90576566.740 6     -1913.072          37.000
G14  23572218.633 7 123872849.209 7      2720.184          47.000    23572219.500 7  96524316.994 7      2119.627          45.000
G22  22736173.977 8 119479410.181 8      2967.297          50.000    22736170.703 7  93100819.386 7      2312.182          45.000
G27  21324473.102 8 112060849.388 8     -2300.559          51.000    21324472.938 8  87320132.887 8     -1792.643          51.000
G32  22610624.422 5 118819641.561 5      1893.359          33.000    22610625.516 5  92586734.749 5      1475.369          34.000
R07  19659761.953 8 105240334.331 8       780.617          50.000    19659766.539 8  81853518.427 8       607.150          48.000
R08  21638584.320 8 115873602.677 8      4037.129          48.000    21638586.406 6  90123960.330 6      3139.992          40.000
R22  19584931.953 8 104545659.918 8      -166.277          51.000    19584934.023 8  81313323.356 8      -129.327          49.000
C27  21809116.664 8 113565773.270 8     -1038.773          51.000
E04                                                                  26782369.766 7 107841513.680 7      2349.503          44.000
E12  21715784.094 8 114117205.349 8      -288.535          50.000    21715782.625 8  87440461.091 8      -221.082          51.000
E19  25341128.930 6 133168589.486 6      1051.145          41.000    25341131.445 7 102038282.712 7       805.258          42.000
E24  25206881.391 7 132463024.702 7     -2748.953          47.000    25206894.719 7 101497710.817 7     -2106.344          44.000
> 2020 05 18 17 20 30.0000000  0 14        .000000000000
G08  20329796.508 8 106833798.792 8      -155.297          51.000    20329799.367 8  83247122.574 8      -121.011          51.000
G10  22133766.781 6 116313727.595 6     -2465.848          40.000    22133767.578 6  90634092.271 6     -1921.440          40.000
G14  23556710.391 7 123791355.592 7      2712.941          45.000    23556711.297 7  96460815.534 7      2113.983          43.000
G22  22719263.375 8 119390545.265 8      2957.719          51.000    22719260.539 7  93031574.057 7      2304.719          44.000
G27  21337646.961 8 112130077.863 8     -2314.020          51.000    21337646.453 8  87374077.121 8     -1803.135          51.000
G32  22599855.961 6 118763053.607 6      1879.156          37.000    22599861.750 6  92542640.378 6      1464.275          37.000
R07  19655465.297 8 105217331.913 8       753.527          51.000    19655469.062 7  81835627.664 7       586.077          47.000
R08  21616003.289 7 115752679.121 7      4025.137          47.000    21616003.859 6  90029908.777 6      3130.665          39.000
R22  19585906.523 8 104550862.887 8      -180.039          51.000    19585908.680 8  81317370.104 8      -140.030          49.000
C27  21815134.078 8 113597108.824 8     -1049.602          51.000
E04  26764875.617 5 140650365.405 5      3063.230          32.000    26764875.820 7 107771070.085 7      2347.285          45.000
E12  21717450.125 8 114125960.412 8      -294.578          50.000    21717448.938 8  87447169.503 8      -225.695          51.000
E19  25335169.672 7 133137273.857 7      1037.309          42.000    25335172.211 7 102014287.644 7       794.782          43.000
E24  25222588.844 7 132545568.761 7     -2753.301          47.000    25222603.109 7 101560958.780 7     -2109.783          45.000
> 2020 05 18 17 21  0.0000000  0 17        .000000000000
G01  22259848.219 5 116976267.877 5      2493.629          35.000    22259842.539 5  91150333.413 5      1943.091          35.000
G08  20330725.203 8 106838679.527 8      -172.617          51.000    20330728.156 8  83250925.726 8      -134.507          51.000
G10  22147868.430 6 116387833.333 6     -2477.184          38.000    22147869.742 6  90691836.968 6     -1930.270          37.000
G14  23541236.812 7 123710044.079 7      2705.332          44.000    23541237.328 7  96397455.926 7      2108.051          43.000
G22  22702399.930 8 119301926.829 8      2947.496          51.000    22702396.648 7  92962520.777 7      2296.753          43.000
G27  21350889.117 8 112199666.787 8     -2327.852          51.000    21350888.336 8  87428302.187 8     -1813.913          51.000
G32  22589165.000 6 118706865.210 6      1864.609          36.000    22589168.977 6  92498857.307 6      1452.945          36.000
R07  19651312.711 8 105195101.261 8       725.855          51.000    19651315.844 7  81818337.191 7       564.557          46.000
R08  21593481.641 7 115632077.292 7      4012.379          47.000    21593481.898 6  89936107.439 6      3120.742          39.000
R21  22409280.516 5 119916576.372 5     -2957.195          31.000
R22  19586951.195 8 104556439.034 8      -194.395          51.000    19586953.242 8  81321707.102 8      -151.196          49.000
C27  21821206.180 8 113628730.667 8     -1061.074          51.000
C28  25643932.680 5 133534685.590 5     -2848.168          31.000
E04                                                                  26747390.352 7 107700662.078 7      2344.568          44.000
E12  21719142.328 8 114134852.956 8      -301.027          50.000    21719141.461 8  87453983.272 8      -230.660          51.000
E19  25329281.453 7 133106330.248 7      1022.973          42.000    25329283.922 7 101990577.617 7       783.803          43.000
E24  25238313.695 7 132628204.751 7     -2758.395          47.000    25238328.602 7 101624277.181 7     -2113.575          46.000
> 2020 05 18 17 21 30.0000000  0 14        .000000000000
G08  20331763.984 8 106844137.854 8      -191.613          51.000    20331766.828 8  83255178.954 8      -149.312          51.000
G10  22162043.812 6 116462326.678 6     -2489.699          40.000    22162047.344 6  90749883.751 6     -1940.025          39.000
G14  23525818.617 7 123629026.217 7      2695.359          43.000    23525819.617 7  96334325.146 7      2100.280          42.000
G22  22685604.336 8 119213664.615 8      2935.953          50.000    22685600.781 7  92893745.089 7      2287.759          44.000
G27  21364220.016 8 112269723.643 8     -2343.129          51.000    21364219.039 8  87482891.865 8     -1825.818          50.000
R07  19647325.289 8 105173753.673 8       696.809          51.000    19647327.797 7  81801733.567 7       541.965          45.000
R08  21571041.188 8 115511911.635 8      3998.219          48.000    21571042.203 7  89842645.347 7      3109.729          42.000
R22  19588086.508 8 104562499.677 8      -210.199          51.000    19588088.516 8  81326420.930 8      -163.491          49.000
C27  21827354.109 8 113660746.559 8     -1073.883          51.000
C28  25660359.688 5 133620209.098 5     -2853.539          32.000
E04                                                                  26729934.094 7 107630374.290 7      2340.904          44.000
E12  21720881.531 8 114143991.963 8      -308.848          51.000    21720880.789 8  87460985.882 8      -236.608          51.000
E19  25323484.719 7 133075867.952 7      1007.332          42.000    25323486.836 7 101967236.403 7       771.843          43.000
E24  25254076.484 8 132711039.149 8     -2764.488          48.000    25254091.133 7 101687747.627 7     -2118.256          46.000
> 2020 05 18 17 22  0.0000000  0 16        .000000000000
G08  20332893.352 8 106850071.720 8      -205.934          51.000    20332895.953 8  83259802.742 8      -160.468          51.000
G10  22176273.281 6 116537102.577 6     -2497.254          41.000    22176277.680 6  90808150.667 6     -1945.912          40.000
G14  23510437.195 7 123548201.835 7      2690.535          42.000    23510438.656 7  96271345.137 7      2096.524          42.000
G22  22668856.984 8 119125657.325 8      2929.234          50.000    22668853.828 7  92825168.064 7      2282.520          44.000
G27  21377619.727 8 112340144.306 8     -2353.461          48.000    21377619.445 7  87537765.040 7     -1833.866          47.000
G32  22568055.008 6 118595934.521 6      1835.445          36.000    22568056.305 5  92412417.490 5      1430.208          35.000
R07  19643483.000 8 105153184.739 8       672.461          51.000    19643484.688 7  81785735.562 7       523.028          45.000
R08  21548663.578 8 115392080.937 8      3988.660          49.000    21548665.328 7  89749443.771 7      3102.294          44.000
R21  22442538.453 4 120094566.138 4     -2973.043          28.000
R22  19589293.086 8 104568941.151 8      -221.176          51.000    19589295.141 8  81331430.959 8      -172.029          50.000
C27  21833558.000 8 113693054.726 8     -1081.926          51.000
C28  25676804.305 5 133705828.621 5     -2855.762          34.000
E04  26712489.680 5 140375081.457 5      3054.629          33.000    26712488.094 7 107560129.303 7      2340.766          43.000
E12  21722648.109 8 114153274.780 8      -311.895          51.000    21722647.367 8  87468098.688 8      -238.948          51.000
E19  25317760.367 7 133045784.937 7       996.340          42.000    25317762.523 7 101944185.775 7       763.366          43.000
E24  25269857.422 8 132793967.019 8     -2765.809          48.000    25269870.609 7 101751289.684 7     -2119.322          45.000
> 2020 05 18 17 22 30.0000000  0 15        .000000000000
G08  20334118.398 8 106856509.005 8      -223.324          51.000    20334120.680 8  83264818.796 8      -174.019          51.000
G10  22190561.273 6 116612186.167 6     -2508.086          40.000    22190564.734 6  90866657.304 6     -1954.356          40.000
G14  23495098.836 7 123467601.355 7      2682.699          43.000    23495100.766 7  96208539.609 7      2090.415          42.000
G22  22652163.547 8 119037934.174 8      2918.977          49.000    22652160.984 7  92756812.399 7      2274.527          44.000
G27  21391093.508 7 112410955.021 7     -2367.074          46.000    21391094.406 7  87592942.229 7     -1844.470          46.000
G32  22557618.859 5 118541106.783 5      1819.555          33.000    22557623.914 5  92369694.667 5      1417.841          31.000
R07  19639791.359 8 105133423.085 8       644.887          50.000    19639793.109 7  81770365.429 7       501.579          47.000
R08  21526354.586 8 115272617.255 8      3975.551          49.000    21526356.734 7  89656527.630 7      3092.098          46.000
R22  19590576.625 8 104575792.704 8      -235.551          51.000    19590578.992 8  81336759.927 8      -183.206          50.000
C27  21839823.805 8 113725682.479 8     -1093.262          51.000
C28  25693271.109 5 133791570.509 5     -2860.191          34.000
E04                                                                  26695058.180 7 107489949.499 7      2338.043          42.000
E12  21724447.320 8 114162729.141 8      -318.293          51.000    21724446.500 8  87475342.935 8      -243.791          51.000
E19  25312113.344 7 133016109.554 7       982.070          42.000    25312116.273 7 101921447.510 7       752.615          43.000
E24  25285661.195 7 132877013.666 7     -2770.441          47.000    25285672.445 7 101814922.733 7     -2122.767          45.000
> 2020 05 18 17 23  0.0000000  0 15        .000000000000
G08  20335442.133 8 106863464.658 8      -240.586          51.000    20335444.133 8  83270238.771 8      -187.470          51.000
G10  22204910.039 6 116687589.439 6     -2519.121          40.000    22204912.508 6  90925413.067 6     -1962.952          39.000
G14  23479806.570 7 123387241.802 7      2674.441          43.000    23479808.742 6  96145921.831 6      2083.980          41.000
G22  22635526.812 8 118950510.334 8      2908.992          48.000    22635525.617 7  92688689.961 7      2266.747          45.000
G27  21404644.383 7 112482168.872 7     -2380.547          47.000    21404646.742 7  87648433.544 7     -1854.969          47.000
G32  22547271.961 5 118486713.176 5      1804.801          33.000
R07  19636253.219 8 105114483.808 8       617.418          49.000    19636255.148 7  81755634.890 7       480.214          47.000
R08  21504117.250 8 115153538.518 8      3962.773          48.000    21504119.977 7  89563910.872 7      3082.157          47.000
R22  19591939.820 8 104583069.575 8      -249.793          51.000    19591942.586 8  81342419.695 8      -194.283          50.000
C27  21846153.898 8 113758644.102 8     -1104.371          50.000
C28  25709763.172 5 133877448.279 5     -2865.273          35.000
E04  26677647.992 5 140191986.094 5      3048.105          34.000    26677647.625 7 107419847.149 7      2335.370          42.000
E12  21726281.844 8 114172369.593 8      -324.500          51.000    21726281.047 8  87482729.779 8      -248.625          51.000
E19  25306546.758 7 132986856.649 7       967.984          43.000    25306549.820 7 101899032.973 7       741.711          42.000
E24  25301489.836 7 132960191.199 7     -2774.848          47.000    25301499.461 7 101878656.077 7     -2126.203          44.000
> 2020 05 18 17 23 30.0000000  0 15        .000000000000
G08  20336861.797 8 106870924.266 8      -257.434          51.000    20336863.570 8  83276051.432 8      -200.598          51.000
G10  22219316.516 5 116763295.623 5     -2528.953          34.000    22219318.719 5  90984404.874 5     -1970.607          34.000
G14  23464558.211 7 123307111.535 7      2667.070          43.000    23464560.117 6  96083482.721 6      2078.240          41.000
G22  22618944.695 8 118863372.768 8      2899.504          48.000    22618944.820 7  92620790.574 7      2259.354          46.000
G27  21418269.648 8 112553770.273 8     -2393.570          49.000    21418272.820 8  87704226.837 8     -1865.117          48.000
G32  22537008.367 5 118432786.108 5      1790.152          34.000    22537014.680 5  92285296.536 5      1394.921          34.000
R07  19632865.703 8 105096352.184 8       590.500          48.000    19632868.117 8  81741532.526 8       459.278          49.000
R08  21481949.648 8 115034834.105 8      3950.234          48.000    21481953.086 8  89471585.237 8      3072.405          48.000
R22  19593380.281 8 104590758.087 8      -263.445          51.000    19593382.953 8  81348399.639 8      -204.902          50.000
C27  21852545.156 8 113791925.437 8     -1115.055          51.000
C28  25726278.102 5 133963446.919 5     -2868.695          34.000
E04  26660253.203 5 140100585.041 5      3044.684          35.000    26660254.305 7 107349812.625 7      2332.999          42.000
E12  21728149.000 8 114182182.015 8      -330.336          51.000    21728148.320 8  87490248.375 8      -253.136          51.000
E19  25301058.234 7 132958012.499 7       954.227          43.000    25301060.172 6 101876931.605 6       731.197          41.000
E24  25317340.086 7 133043483.028 7     -2778.738          46.000    25317349.203 7 101942476.987 7     -2129.055          45.000
> 2020 05 18 17 24  0.0000000  0 14        .000000000000
G08  20338379.156 8 106878897.484 8      -273.770          51.000    20338380.789 8  83282264.319 8      -213.327          51.000
G10  22233781.594 6 116839311.219 6     -2538.496          40.000    22233784.812 5  91043637.871 5     -1978.052          35.000
G14  23449355.836 7 123227221.887 7      2659.648          43.000    23449357.375 7  96021231.094 7      2072.456          42.000
G22  22602419.438 8 118776531.628 8      2890.312          49.000    22602419.609 7  92553122.192 7      2252.195          46.000
G27  21431970.445 8 112625766.586 8     -2405.836          49.000    21431973.844 8  87760327.858 8     -1874.674          49.000
R07  19629630.836 7 105079037.877 7       564.168          47.000    19629633.922 8  81728065.813 8       438.797          49.000
R08  21459854.602 8 114916516.738 8      3937.988          48.000    21459858.453 8  89379560.656 8      3062.883          48.000
R22  19594899.516 8 104598868.077 8      -276.723          51.000    19594902.102 8  81354707.407 8      -215.229          50.000
C27  21859000.055 8 113825535.158 8     -1125.211          51.000
C28  25742819.156 5 134049574.547 5     -2872.582          35.000
E04  26642875.992 5 140009260.908 5      3042.613          33.000    26642880.398 7 107279853.937 7      2331.099          42.000
E12  21730050.562 8 114192175.332 8      -335.504          51.000    21730049.906 8  87497905.585 8      -257.143          51.000
E19  25295648.961 7 132929586.370 7       941.086          43.000    25295650.031 6 101855150.561 6       721.122          40.000
E24  25333212.867 7 133126895.660 7     -2781.785          45.000    25333222.898 7 102006390.495 7     -2131.474          46.000
> 2020 05 18 17 24 30.0000000  0 15        .000000000000
G08  20339991.062 8 106887367.364 8      -291.578          51.000    20339992.562 8  83288864.214 8      -227.207          51.000
G10  22248302.000 6 116915616.821 6     -2549.246          39.000    22248305.602 6  91103096.679 6     -1986.432          36.000
G14  23434196.555 7 123147558.577 7      2650.488          43.000    23434197.875 7  95959155.846 7      2065.316          43.000
G22  22585947.672 8 118689970.928 8      2879.711          50.000    22585947.219 7  92485672.338 7      2243.931          46.000
G27  21445743.023 8 112698139.294 8     -2419.648          49.000    21445746.117 8  87816722.164 8     -1885.440          49.000
G32  22516743.742 5 118326289.791 5      1760.016          32.000    22516745.656 5  92202310.785 5      1371.429          31.000
R07  19626545.648 8 105062523.398 8       536.172          48.000    19626548.945 8  81715221.193 8       417.023          49.000
R08  21437829.008 7 114798572.459 7      3924.293          47.000    21437833.203 7  89287826.259 7      3052.231          47.000
R22  19596494.531 8 104607382.992 8      -291.539          51.000    19596497.266 8  81361330.108 8      -226.753          50.000
C27  21865514.742 8 113859456.224 8     -1136.723          51.000
C28  25759381.047 5 134135813.146 5     -2877.012          30.000
E04  26625515.828 5 139918032.232 5      3038.754          34.000    26625522.586 7 107209959.166 7      2328.049          42.000
E12  21731983.328 8 114202332.548 8      -342.195          51.000    21731982.617 8  87505688.375 8      -262.163          51.000
E19  25290316.242 7 132901561.905 7       926.574          44.000    25290316.836 6 101833677.308 6       709.901          40.000
E24  25349104.062 7 133210409.658 7     -2786.457          42.000    25349116.273 7 102070381.682 7     -2135.009          47.000
> 2020 05 18 17 25  0.0000000  0 16        .000000000000
G08  20341701.203 8 106896353.901 8      -308.000          51.000    20341702.570 8  83295866.706 8      -240.000          51.000
G10  22262910.250 5 116992382.299 5     -2558.852          34.000
G14  23419084.828 7 123068144.165 7      2643.328          45.000    23419086.070 7  95897274.538 7      2059.736          43.000
G22  22569533.344 8 118603711.956 8      2870.406          49.000    22569532.430 7  92418457.604 7      2236.683          47.000
G27  21459590.609 8 112770906.845 8     -2432.020          50.000    21459593.156 8  87873424.140 8     -1895.080          51.000
G32  22506735.594 5 118273712.530 5      1745.086          31.000    22506746.258 5  92161347.623 5      1359.813          32.000
R07  19623613.758 8 105046829.450 8       509.551          50.000    19623617.164 8  81703014.774 8       396.314          49.000
R08  21415877.359 7 114681024.928 7      3911.746          46.000    21415881.805 7  89196400.450 7      3042.469          46.000
R21  22543384.219 5 120634174.258 5     -3022.629          34.000    22543383.211 4  93826598.444 4     -2350.937          26.000
R22  19598169.477 8 104616323.836 8      -304.988          51.000    19598172.492 8  81368284.075 8      -237.216          51.000
C27  21872092.781 8 113893708.274 8     -1147.066          51.000
C28  25775967.609 5 134222181.581 5     -2880.266          30.000
E04                                                                  26608184.797 7 107140144.803 7      2325.939          43.000
E12  21733951.141 8 114212673.647 8      -347.559          51.000    21733950.305 8  87513612.064 8      -266.305          51.000
E19  25285063.938 7 132873959.215 7       913.156          44.000    25285064.273 6 101812527.231 6       699.847          39.000
E24  25365017.227 6 133294042.573 6     -2789.473          41.000    25365032.414 8 102134464.009 8     -2137.382          48.000
> 2020 05 18 17 25 30.0000000  0 14        .000000000000
G08  20343512.141 8 106905870.413 8      -322.344          51.000    20343513.617 8  83303282.159 8      -251.177          51.000
G10  22277522.281 5 117069155.940 5     -2566.301          32.000
G14  23404023.516 7 122988994.371 7      2637.570          47.000    23404024.375 7  95835599.410 7      2055.250          42.000
G22  22553179.008 8 118517769.122 8      2863.195          48.000    22553177.680 7  92351489.214 7      2231.061          47.000
G27  21473515.578 8 112844081.066 8     -2442.281          51.000    21473517.711 8  87930442.990 8     -1903.073          51.000
R07  19620837.836 8 105031969.161 8       485.191          51.000    19620841.273 8  81691456.785 8       377.371          49.000
R08  21394001.945 7 114563891.684 7      3901.273          44.000    21394007.477 7  89105296.869 7      3034.324          45.000
R22  19599926.922 8 104625704.815 8      -316.355          51.000    19599929.812 8  81375580.378 8      -246.057          51.000
C27  21878736.664 8 113928304.400 8     -1155.312          51.000
C28  25792581.922 5 134308692.412 5     -2882.785          31.000
E04                                                                  26590870.016 7 107070422.257 7      2325.211          43.000
E12  21735956.414 8 114223212.041 8      -350.949          51.000    21735955.492 8  87521686.930 8      -268.984          51.000
E19  25279894.531 7 132846792.483 7       901.883          44.000    25279894.000 6 101791711.199 6       691.239          38.000
E24  25380956.109 6 133377805.462 6     -2790.625          41.000    25380973.164 7 102198645.914 7     -2138.247          47.000
> 2020 05 18 17 26  0.0000000  0 15        .000000000000
G08  20345413.742 8 106915863.658 8      -342.398          51.000    20345415.531 8  83311069.091 8      -266.804          51.000
G10  22292210.922 6 117146348.473 6     -2578.668          39.000    22292208.656 5  91282867.560 5     -2009.355          34.000
G14  23389002.984 8 122910058.147 8      2626.398          48.000    23389002.961 6  95774090.704 6      2046.544          41.000
G22  22536874.836 8 118432089.646 8      2850.266          49.000    22536872.836 7  92284726.018 7      2220.986          46.000
G27  21487507.484 8 112917606.756 8     -2458.102          51.000    21487509.297 8  87987735.701 8     -1915.404          51.000
G32  22486999.234 5 118169995.742 5      1713.578          35.000
R07  19618207.703 8 105017887.970 8       454.980          51.000    19618210.648 8  81680504.754 8       353.874          48.000
R08  21372194.250 7 114447120.951 7      3884.922          42.000    21372200.820 7  89014475.200 7      3021.606          44.000
R22  19601756.508 8 104635472.319 8      -333.387          51.000    19601759.391 8  81383177.312 8      -259.301          50.000
C27  21885436.336 8 113963191.233 8     -1169.102          51.000
C28  25809211.875 5 134395291.162 5     -2889.332          33.000
E04                                                                  26573567.945 7 107000751.571 7      2320.455          43.000
E12  21737989.047 8 114233894.076 8      -359.871          51.000    21737988.039 8  87529871.854 8      -275.715          51.000
E19  25274797.922 7 132820008.039 7       885.168          43.000    25274795.914 6 101771188.117 6       678.018          37.000
E24  25396910.352 7 133461642.274 7     -2797.004          42.000    25396927.633 7 102262884.449 7     -2143.323          47.000
> 2020 05 18 17 26 30.0000000  0 15        .000000000000
G08  20347416.695 8 106926389.282 8      -359.340          51.000    20347418.469 8  83319270.879 8      -280.005          51.000
G10  22306961.102 6 117223856.333 6     -2588.641          36.000    22306961.617 5  91343263.191 5     -2017.129          35.000
G14  23374034.289 8 122831393.404 8      2618.066          49.000    23374033.477 6  95712793.554 6      2040.055          41.000
G22  22520631.445 8 118346729.865 8      2840.371          49.000    22520629.078 7  92218211.941 7      2213.276          46.000
G27  21501576.320 8 112991537.657 8     -2470.750          51.000    21501577.938 8  88045344.161 8     -1925.260          51.000
G32  22477254.961 5 118118784.909 5      1698.598          35.000    22477280.172 5  92040694.162 5      1323.589          35.000
R07  19615733.602 8 105004642.264 8       428.008          51.000    19615736.328 8  81670202.570 8       332.895          48.000
R08  21350467.484 7 114330773.243 7      3871.691          44.000    21350472.969 7  88923982.575 7      3011.316          43.000
R22  19603669.258 8 104645683.001 8      -347.332          51.000    19603672.359 8  81391118.947 8      -270.147          51.000
C27  21892202.219 8 113998423.403 8     -1179.723          51.000
C28  25825867.594 5 134482031.883 5     -2892.699          32.000
E04                                                                  26556289.609 7 106931176.320 7      2317.950          44.000
E12  21740059.750 8 114244775.088 8      -365.656          51.000    21740058.484 8  87538209.249 8      -280.139          51.000
E19  25269784.453 7 132793661.739 7       871.363          43.000    25269781.547 6 101751000.720 6       667.509          37.000
E24  25412889.141 7 133545605.899 7     -2800.473          43.000    25412905.727 7 102327220.125 7     -2145.787          46.000
> 2020 05 18 17 27  0.0000000  0 15        .000000000000
G08  20349520.125 8 106937443.025 8      -376.910          51.000    20349521.789 8  83327884.188 8      -293.696          51.000
G10  22321768.672 5 117301672.333 5     -2598.980          31.000    22321771.023 5  91403899.002 5     -2025.177          31.000
G14  23359116.977 8 122752998.672 8      2609.113          49.000    23359115.797 6  95651706.820 6      2033.078          41.000
G22  22504448.102 8 118261687.156 8      2829.848          48.000    22504445.711 7  92151944.917 7      2205.076          46.000
G27  21515720.938 8 113065868.186 8     -2483.805          51.000    21515722.273 8  88103264.000 8     -1935.435          51.000
G32  22467602.383 5 118068083.197 5      1682.879          30.000    22467639.172 5  92001186.285 5      1311.322          32.000
R07  19613414.844 8 104992227.573 8       400.426          51.000    19613416.953 7  81660546.726 7       311.442          47.000
R08  21328820.391 7 114214847.633 7      3857.496          47.000    21328824.188 7  88833818.278 7      3000.278          43.000
R22  19605664.516 8 104656333.351 8      -361.941          51.000    19605667.914 8  81399402.548 8      -281.510          51.000
C27  21899033.492 8 114033996.732 8     -1191.078          51.000
C28  25842549.125 5 134568909.554 5     -2897.332          32.000
E04                                                                  26539034.375 7 106861694.532 7      2314.843          44.000
E12  21742167.539 8 114255851.033 8      -372.047          51.000    21742165.930 8  87546696.012 8      -285.099          51.000
E19  25264853.430 7 132767749.970 7       856.887          42.000    25264850.797 6 101731146.261 6       656.653          38.000
E24  25428890.484 7 133629689.817 7     -2804.336          44.000    25428906.312 7 102391647.988 7     -2148.765          45.000
> 2020 05 18 17 27 30.0000000  0 13        .000000000000
G08  20351719.320 8 106949000.101 8      -393.277          51.000    20351721.164 8  83336889.705 8      -306.450          51.000
G10  22336629.703 5 117379781.046 5     -2607.953          32.000    22336631.016 5  91464753.650 5     -2032.168          31.000
G14  23344246.508 8 122674851.602 8      2601.055          49.000    23344245.359 6  95590813.062 6      2026.799          41.000
G22  22488320.625 8 118176937.085 8      2820.418          48.000    22488318.383 7  92085905.925 7      2197.731          46.000
G27  21529936.633 8 113140571.974 8     -2495.953          51.000    21529937.531 8  88161474.714 8     -1944.899          51.000
R07  19611246.430 8 104980618.430 8       373.895          51.000    19611247.797 7  81651517.407 7       290.807          47.000
R08  21307247.930 8 114099321.845 8      3844.449          48.000    21307250.719 7  88743965.006 7      2990.130          42.000
R22  19607737.594 8 104667399.124 8      -375.449          51.000    19607741.000 8  81408009.257 8      -292.016          51.000
C27  21905925.594 8 114069886.415 8     -1201.176          51.000
E04  26521785.594 5 139372917.408 5      3017.566          31.000    26521797.844 7 106792288.435 7      2312.449          43.000
E12  21744307.625 8 114267097.201 8      -377.320          51.000    21744305.727 8  87555313.192 8      -289.062          51.000
E19  25260000.438 6 132742248.402 6       843.602          41.000    25259998.164 6 101711606.122 6       646.336          38.000
E24  25444909.141 7 133713866.877 7     -2806.973          45.000    25444924.578 7 102456147.215 7     -2150.770          44.000
> 2020 05 18 17 28  0.0000000  0 14        .000000000000
G08  20354013.727 8 106961057.454 8      -411.238          51.000    20354015.625 8  83346285.045 8      -320.445          51.000
G10  22351543.492 5 117458152.625 5     -2618.367          33.000    22351543.109 5  91525822.360 5     -2040.292          33.000
G14  23329422.383 7 122596950.938 7      2591.488          47.000    23329421.250 7  95530111.276 7      2019.345          42.000
G22  22472248.781 8 118092477.321 8      2809.469          50.000    22472246.586 7  92020093.160 7      2189.199          45.000
G27  21544222.539 8 113215643.699 8     -2509.512          51.000    21544222.984 8  88219972.138 8     -1955.464          51.000
G32  22448567.297 5 117968009.769 5      1651.359          34.000    22448570.859 5  91923144.387 5      1286.774          33.000
R07  19609227.656 8 104969811.132 8       345.887          51.000    19609228.773 7  81643111.771 7       269.023          47.000
R08  21285749.273 7 113984195.954 7      3829.867          47.000    21285751.836 7  88654422.729 7      2978.789          42.000
R22  19609887.727 8 104678877.015 8      -390.500          51.000    19609891.227 8  81416936.487 8      -303.722          51.000
C27  21912877.719 8 114106088.562 8     -1212.875          51.000
E04  26504568.422 5 139282445.029 5      3013.656          34.000    26504579.445 7 106722956.250 7      2309.192          42.000
E12  21746479.484 8 114278509.873 8      -384.184          51.000    21746477.383 8  87564057.955 8      -294.300          51.000
E19  25255224.555 6 132717153.118 6       828.672          40.000    25255223.148 6 101692377.245 6       635.025          39.000
E24  25460944.188 7 133798130.957 7     -2811.207          46.000    25460959.469 7 102520713.118 7     -2154.039          44.000
> 2020 05 18 17 28 30.0000000  0 13        .000000000000
G08  20356408.367 8 106973641.380 8      -429.270          51.000    20356410.195 8  83356090.698 8      -334.496          51.000
G10  22366513.867 5 117536823.814 5     -2628.008          30.000    22366514.148 5  91587124.644 5     -2047.798          30.000
G14  23314650.062 7 122519326.443 7      2581.699          47.000    23314649.891 7  95469624.711 7      2011.714          42.000
G22  22456237.523 8 118008335.925 8      2798.418          51.000    22456235.578 7  91954528.506 7      2180.585          44.000
G27  21558583.289 8 113291108.762 8     -2523.059          51.000    21558583.523 8  88278776.071 8     -1966.020          51.000
R07  19607363.445 8 104959832.633 8       317.684          51.000    19607364.281 7  81635350.719 7       247.087          47.000
R08  21264329.922 7 113869501.170 7      3814.949          47.000    21264333.227 7  88565215.726 7      2967.183          43.000
R22  19612120.367 8 104690795.341 8      -405.699          51.000    19612123.773 8  81426206.290 8      -315.544          50.000
C27  21919894.992 8 114142629.768 8     -1224.746          51.000
E04  26487374.141 5 139192088.713 5      3009.035          35.000    26487385.203 7 106653719.916 7      2305.472          42.000
E12  21748688.203 8 114290116.094 8      -391.098          51.000    21748685.992 8  87572951.027 8      -299.651          51.000
E19  25250531.367 6 132692491.848 6       814.027          41.000    25250531.453 6 101673480.998 6       623.541          40.000
E24  25477000.500 7 133882506.623 7     -2815.266          46.000    25477015.922 7 102585364.527 7     -2157.199          44.000
> 2020 05 18 17 29  0.0000000  0 13        .000000000000
G08  20358898.047 8 106986724.943 8      -448.270          51.000    20358899.867 8  83366285.665 8      -349.304          51.000
G10  22381534.844 5 117615763.109 5     -2639.492          33.000    22381537.062 5  91648635.714 5     -2056.747          31.000
G14  23299925.461 7 122441953.100 7      2571.250          45.000    23299926.602 7  95409333.822 7      2003.571          43.000
G22  22440281.680 8 117924486.438 8      2786.293          50.000    22440279.930 7  91889191.299 7      2171.140          44.000
G27  21573013.234 8 113366938.061 8     -2537.598          51.000    21573013.648 8  88337863.809 8     -1977.349          51.000
R07  19605648.719 8 104950654.775 8       288.738          50.000    19605649.617 8  81628212.371 8       224.574          48.000
R08  21242986.914 7 113755212.646 7      3798.906          47.000    21242990.883 7  88476324.658 7      2954.705          44.000
R22  19614430.570 8 104703126.617 8      -421.695          51.000    19614433.711 8  81435797.270 8      -327.985          50.000
C27  21926971.922 8 114179482.515 8     -1237.406          50.000
E04  26470198.164 5 139101828.470 5      3003.488          34.000    26470209.875 7 106584559.502 7      2301.078          42.000
E12  21750928.438 8 114301888.382 8      -399.004          51.000    21750926.234 8  87581971.357 8      -305.829          51.000
E19  25245916.000 7 132668237.342 7       798.008          42.000    25245916.859 6 101654896.364 6       611.287          41.000
E24  25493072.516 7 133966964.006 7     -2820.129          44.000    25493088.148 7 102650078.551 7     -2161.108          44.000
> 2020 05 18 17 29 30.0000000  0 15        .000000000000
G08  20361489.562 8 107000343.606 8      -461.797          51.000    20361491.164 8  83376897.598 8      -359.842          51.000
G10  22396613.445 6 117695005.085 6     -2645.156          37.000    22396617.680 6  91710382.652 6     -2061.161          36.000
G14  23285255.930 7 122364868.637 7      2565.648          45.000    23285257.398 7  95349268.025 7      1999.207          43.000
G22  22424387.914 8 117840965.601 8      2779.684          48.000    22424385.336 7  91824110.181 7      2165.987          43.000
G27  21587518.445 8 113443165.455 8     -2546.465          50.000    21587519.719 8  88397261.734 8     -1984.261          50.000
G32  22420698.383 5 117821541.520 5      1604.586          35.000    22420686.898 5  91808966.344 5      1250.339          30.000
R07  19604090.156 8 104942313.299 8       265.156          51.000    19604091.992 8  81621724.568 8       206.233          49.000
R08  21221728.094 8 113641369.891 8      3788.328          49.000    21221732.062 7  88387780.309 7      2946.477          45.000
R21  22697697.016 4 121459959.099 4     -3094.043          28.000    22697698.234 4  94468863.694 4     -2406.472          25.000
R22  19616824.992 8 104715907.458 8      -432.426          51.000    19616827.984 8  81445737.935 8      -336.331          50.000
C27  21934115.281 8 114216681.790 8     -1244.648          50.000
E04  26453047.859 5 139011704.370 5      3002.547          34.000    26453060.203 6 106515503.338 6      2300.937          40.000
E12  21753207.016 8 114313862.255 8      -401.371          50.000    21753204.797 8  87591146.135 8      -307.550          51.000
E19  25241384.898 7 132644425.475 7       787.469          42.000    25241386.172 6 101636650.904 6       603.265          41.000
E24  25509166.391 7 134051536.234 7     -2819.996          44.000    25509182.133 7 102714880.538 7     -2160.761          45.000
> 2020 05 18 17 30  0.0000000  0 16        .000000000000
G08  20364175.422 8 107014458.041 8      -479.094          51.000    20364176.758 8  83387895.851 8      -373.320          51.000
G10  22411742.023 6 117774507.451 6     -2654.602          36.000    22411746.727 6  91772332.558 6     -2068.518          36.000
G14  23270634.906 7 122288036.619 7      2556.570          45.000    23270635.891 7  95289398.940 7      1992.136          43.000
G22  22408549.391 8 117757735.079 8      2769.133          49.000    22408545.867 7  91759255.253 7      2157.769          43.000
G27  21602091.320 8 113519750.197 8     -2559.168          48.000    21602093.570 8  88456938.125 8     -1994.157          48.000
G32  22411581.539 5 117773654.850 5      1588.102          35.000    22411582.016 5  91771652.346 5      1237.494          35.000
R07  19602680.594 8 104934767.937 8       237.891          51.000    19602682.672 8  81615855.945 8       185.026          48.000
R08  21200545.875 8 113527936.537 8      3773.758          50.000    21200549.547 7  88299554.395 7      2935.145          44.000
R21  22715061.969 5 121552894.054 5     -3101.715          33.000
R22  19619296.148 8 104729098.866 8      -447.008          51.000    19619299.242 8  81455997.895 8      -347.673          50.000
C27  21941318.047 8 114254188.531 8     -1255.703          51.000
C28  25943123.469 5 135092667.971 5     -2921.000          31.000
E04  26435915.344 5 138921673.751 5      2998.773          33.000    26435927.719 6 106446522.600 6      2297.875          41.000
E12  21755516.430 8 114325998.644 8      -407.625          49.000    21755514.297 8  87600445.428 8      -312.243          51.000
E19  25236930.586 7 132621017.333 7       773.422          43.000    25236932.594 7 101618714.817 7       592.350          42.000
E24  25525274.250 7 134136181.721 7     -2823.121          45.000    25525289.695 7 102779738.642 7     -2163.072          44.000
> 2020 05 18 17 30 30.0000000  0 16        .000000000000
G08  20366961.359 8 107029098.893 8      -495.547          51.000    20366962.695 8  83399304.281 8      -386.143          51.000
G10  22426925.531 5 117854298.006 5     -2663.453          30.000    22426929.156 5  91834507.042 5     -2075.412          30.000
G11  20400400.414 5 107204848.695 5      1665.855          30.000
G14  23256068.375 7 122211489.812 7      2547.863          46.000    23256069.141 7  95229752.121 7      1985.348          43.000
G22  22392771.984 8 117674825.908 8      2759.457          50.000    22392769.055 7  91694650.748 7      2150.226          44.000
G27  21616737.812 7 113596720.843 7     -2570.984          47.000    21616740.641 7  88516915.233 7     -2003.367          47.000
G32  22402561.688 6 117726259.944 6      1573.016          41.000    22402568.609 6  91734721.284 6      1225.726          41.000
R07  19601425.188 8 104928048.760 8       211.398          51.000    19601427.578 8  81610629.930 8       164.421          48.000
R08  21179446.938 8 113414946.885 8      3760.129          51.000    21179449.391 7  88211673.610 7      2924.548          43.000
R22  19621850.273 8 104742732.289 8      -460.637          51.000    19621853.211 8  81466601.652 8      -358.273          50.000
C27  21948585.812 8 114292032.494 8     -1265.844          51.000
C28  25959966.508 5 135180365.781 5     -2924.867          31.000
E04                                                                  26418820.094 7 106377641.719 7      2295.292          43.000
E12  21757862.594 8 114338327.786 8      -412.930          49.000    21757860.641 8  87609892.426 8      -316.386          51.000
E19  25232558.688 7 132598043.329 7       759.836          42.000    25232561.430 7 101601111.355 7       582.191          42.000
E24  25541401.133 7 134220928.282 7     -2825.254          46.000    25541416.219 7 102844674.203 7     -2164.922          43.000
> 2020 05 18 17 31  0.0000000  0 18        .000000000000
G01  21982951.672 5 115521197.424 5      2355.043          32.000    21982957.047 5  90016527.652 5      1835.098          31.000
G08  20369834.586 8 107044198.347 8      -513.906          51.000    20369836.039 8  83411070.061 8      -400.449          51.000
G10  22442151.078 5 117934307.330 5     -2673.586          32.000    22442153.133 5  91896851.932 5     -2083.317          32.000
G11  20390928.000 5 107155056.756 5      1652.391          30.000
G14  23241544.109 7 122135163.577 7      2537.570          47.000    23241544.781 7  95170277.177 7      1977.328          42.000
G22  22377043.297 8 117592172.177 8      2747.746          50.000    22377041.562 7  91630245.260 7      2141.101          46.000
G27  21631444.695 7 113674008.743 7     -2584.484          46.000    21631447.938 7  88577139.533 7     -2013.884          46.000
G32  22393623.633 6 117679291.369 6      1555.875          36.000    22393628.516 5  91698122.402 5      1212.373          35.000
R07  19600311.633 8 104922087.412 8       183.043          51.000    19600314.070 8  81605993.326 8       142.367          48.000
R08  21158418.680 8 113302335.654 8      3744.273          51.000    21158419.625 7  88124087.172 7      2912.216          43.000
R21  22749925.891 5 121739437.982 5     -3117.527          32.000
R22  19624474.594 8 104756740.067 8      -476.234          51.000    19624477.125 8  81477496.588 8      -370.405          49.000
C27  21955905.516 8 114330146.980 8     -1277.965          51.000
C28  25976822.109 4 135268128.891 4     -2929.914          28.000
E04                                                                  26401724.594 7 106308810.368 7      2291.245          42.000
E12  21760232.594 8 114350782.689 8      -420.309          49.000    21760231.047 8  87619435.789 8      -322.109          51.000
E19  25228256.594 7 132575436.718 7       744.531          42.000    25228259.641 6 101583789.430 6       570.341          41.000
E24  25557533.906 7 134305706.514 7     -2829.574          46.000    25557548.672 6 102909633.998 6     -2168.133          41.000
> 2020 05 18 17 31 30.0000000  0 14        .000000000000
G08  20372830.727 8 107059943.971 8      -531.238          51.000    20372832.109 8  83423339.354 8      -413.952          51.000
G10  22457453.633 5 118014719.752 5     -2682.754          34.000    22457455.898 5  91959510.904 5     -2090.461          34.000
G14  23227097.977 7 122059247.226 7      2527.941          47.000    23227098.781 7  95111121.627 7      1969.828          42.000
G22  22361399.266 8 117509961.779 8      2737.324          51.000    22361398.484 7  91566185.215 7      2132.980          46.000
G27  21646247.555 7 113751799.239 7     -2597.008          47.000    21646251.109 8  88637755.451 8     -2023.645          48.000
G32  22384802.781 6 117632937.830 6      1539.488          36.000    22384803.977 5  91662002.740 5      1199.598          35.000
R07  19599375.055 8 104917073.681 8       155.793          51.000    19599377.617 8  81602093.783 8       121.172          48.000
R08  21137497.180 8 113190297.192 8      3729.500          51.000    21137496.820 7  88036946.219 7      2900.725          43.000
R22  19627204.688 8 104771312.925 8      -490.711          51.000    19627206.930 8  81488831.025 8      -381.664          48.000
C27  21963312.719 8 114368717.043 8     -1288.910          51.000
E04                                                                  26384677.141 6 106240173.040 6      2288.001          41.000
E12  21762662.008 8 114363550.383 8      -426.422          49.000    21762660.922 8  87629218.817 8      -326.691          51.000
E19  25224060.297 7 132553384.849 7       730.273          43.000    25224063.383 6 101566892.532 6       559.569          40.000
E24  25573707.609 7 134390700.968 7     -2832.188          45.000    25573722.406 6 102974759.467 6     -2170.124          40.000
> 2020 05 18 17 32  0.0000000  0 14        .000000000000
G08  20375907.828 8 107076114.574 8      -547.648          51.000    20375909.148 8  83435939.797 8      -426.739          51.000
G10  22472790.141 5 118095311.874 5     -2691.340          34.000    22472794.203 5  92022309.906 5     -2097.151          35.000
G14  23212688.164 8 121983522.429 8      2519.426          48.000    23212688.953 7  95052115.354 7      1963.192          42.000
G22  22345797.945 8 117427974.994 8      2727.621          51.000    22345797.531 7  91502299.418 7      2125.419          46.000
G27  21661104.234 8 113829869.636 8     -2608.664          50.000    21661107.844 8  88698589.522 8     -2032.725          50.000
G32  22376057.742 5 117586980.410 5      1523.406          33.000    22376057.703 4  91626191.673 4      1187.058          29.000
R07  19598573.398 8 104912782.016 8       129.410          51.000    19598575.766 7  81598755.841 7       100.652          47.000
R08  21116640.242 8 113078609.440 8      3715.418          49.000    21116640.000 7  87950078.043 7      2889.770          45.000
R22  19629998.531 8 104786226.955 8      -504.383          51.000    19630000.695 8  81500430.812 8      -392.298          49.000
C27  21970765.031 8 114407523.485 8     -1298.941          51.000
E04  26367626.078 6 138562808.461 6      2982.410          36.000    26367637.227 6 106171561.578 6      2285.292          41.000
E12  21765109.109 8 114376409.958 8      -431.805          49.000    21765108.359 8  87639072.250 8      -330.833          51.000
E19  25219927.609 7 132531667.027 7       716.758          42.000    25219930.539 6 101550251.601 6       549.201          40.000
E24  25589879.719 7 134475688.278 7     -2834.355          44.000    25589895.273 6 103039879.495 6     -2171.938          40.000
> 2020 05 18 17 32 30.0000000  0 13        .000000000000
G08  20379085.633 8 107092813.861 8      -565.758          51.000    20379087.047 8  83448952.214 8      -440.850          51.000
G10  22488179.648 5 118176184.881 5     -2700.352          33.000    22488185.531 5  92085327.809 5     -2104.170          32.000
G14  23198335.078 8 121908095.409 8      2508.883          48.000    23198335.273 7  94993341.078 7      1954.974          42.000
G22  22330258.711 8 117346316.082 8      2716.246          50.000    22330258.227 7  91438669.133 7      2116.555          46.000
G27  21676033.812 8 113908322.038 8     -2621.754          50.000    21676037.398 8  88759721.251 8     -2042.925          50.000
R07  19597926.172 8 104909317.364 8       101.395          51.000    19597928.094 7  81596061.124 7        78.862          47.000
R08  21095868.602 7 112967381.683 7      3699.582          46.000    21095869.297 7  87863567.592 7      2877.453          46.000
R22  19632876.250 8 104801588.210 8      -519.727          51.000    19632878.516 8  81512378.428 8      -404.232          48.000
C27  21978282.570 8 114446668.836 8     -1310.746          51.000
E04  26350614.078 6 138473403.727 6      2977.578          38.000    26350624.461 6 106103056.624 6      2281.536          38.000
E12  21767593.516 8 114389465.226 8      -438.746          49.000    21767592.930 8  87649075.632 8      -336.128          51.000
E19  25215878.219 7 132510386.879 7       701.719          42.000    25215881.438 6 101533946.082 6       537.693          39.000
E24  25606069.602 7 134560769.796 7     -2837.645          43.000    25606086.484 6 103105071.729 6     -2174.476          40.000
> 2020 05 18 17 33  0.0000000  0 13        .000000000000
G08  20382362.664 8 107110034.389 8      -581.930          51.000    20382364.000 8  83462370.803 8      -453.452          51.000
G10  22503620.969 5 118257329.231 5     -2708.223          32.000    22503625.508 5  92148557.121 5     -2110.303          31.000
G14  23184037.617 8 121832961.752 8      2500.293          48.000    23184037.414 7  94934795.406 7      1948.280          42.000
G22  22314780.438 8 117264979.028 8      2706.617          49.000    22314779.469 7  91375289.639 7      2109.052          46.000
G27  21691034.375 8 113987147.685 8     -2632.930          51.000    21691037.695 8  88821143.795 8     -2051.634          51.000
R07  19597432.102 8 104906671.937 8        75.277          50.000    19597434.219 7  81594003.590 7        58.552          47.000
R08  21075181.000 7 112856610.021 7      3685.582          45.000    21075183.883 7  87777411.841 7      2866.564          47.000
R22  19635836.609 8 104817390.046 8      -533.266          51.000    19635838.656 8  81524668.729 8      -414.762          48.000
C27  21985863.602 8 114486145.797 8     -1320.629          51.000
E04  26333627.789 6 138384132.419 6      2974.375          40.000    26333639.984 5 106034653.875 5      2278.914          34.000
E12  21770113.781 8 114402709.114 8      -443.820          50.000    21770113.102 8  87659223.543 8      -340.073          50.000
E19  25211910.922 6 132489537.659 6       688.672          41.000    25211913.594 6 101517970.744 6       527.612          37.000
E24  25622275.906 7 134645936.091 7     -2839.422          43.000    25622293.945 6 103170328.937 6     -2175.864          39.000
> 2020 05 18 17 33 30.0000000  0 13        .000000000000
G08  20385735.234 8 107127757.006 8      -599.793          51.000    20385736.516 8  83476180.631 8      -467.371          51.000
G10  22519110.000 5 118338723.010 5     -2717.820          33.000    22519110.562 5  92211980.825 5     -2117.779          31.000
G14  23169792.633 7 121758104.534 7      2489.941          47.000    23169792.727 7  94876465.126 7      1940.214          44.000
G22  22299360.086 8 117183945.352 8      2695.352          49.000    22299358.266 7  91312146.555 7      2100.277          46.000
G27  21706101.906 8 114066325.518 8     -2645.809          51.000    21706104.781 8  88882840.782 8     -2061.669          50.000
R07  19597086.969 8 104904825.240 8        47.566          50.000    19597089.023 7  81592567.278 7        36.993          47.000
R08  21054575.953 7 112746277.998 7      3669.723          46.000    21054580.656 7  87691598.045 7      2854.232          47.000
R22  19638875.555 8 104833613.364 8      -548.531          51.000    19638878.164 8  81537286.833 8      -426.635          49.000
C27  21993504.602 8 114525934.885 8     -1332.125          51.000
E04  26316661.836 6 138294976.693 6      2969.266          38.000    26316681.680 5 105966369.549 5      2275.262          30.000
E12  21772666.297 8 114416122.307 8      -450.660          50.000    21772665.406 8  87669501.175 8      -345.296          50.000
E19  25208021.711 6 132469100.452 6       673.641          38.000    25208022.977 6 101502311.097 6       516.070          36.000
E24  25638494.477 6 134731165.435 6     -2842.551          41.000    25638513.211 6 103235634.442 6     -2178.184          38.000
> 2020 05 18 17 34  0.0000000  0 15        .000000000000
G08  20389207.352 8 107146002.510 8      -615.996          51.000    20389208.570 8  83490397.908 8      -479.997          51.000
G10  22534649.977 5 118420384.863 5     -2725.656          33.000    22534648.430 5  92275613.380 5     -2123.885          31.000
G11  20335643.688 5 106864536.744 5      1576.477          30.000
G14  23155604.625 7 121683546.987 7      2481.098          45.000    23155605.016 7  94818368.359 7      1933.323          44.000
G22  22284001.875 8 117103237.350 8      2685.703          50.000    22283999.625 7  91249257.254 7      2092.759          46.000
G27  21721239.875 8 114145874.790 8     -2656.656          50.000    21721242.594 8  88944827.191 8     -2070.122          50.000
R07  19596895.328 8 104903797.775 8        21.504          51.000    19596896.938 7  81591768.137 7        16.725          47.000
R08  21034058.930 8 112636410.389 8      3655.453          49.000    21034064.008 7  87606145.532 7      2843.133          46.000
R21  22855584.594 6 122304831.016 6     -3163.547          36.000
R22  19641997.742 8 104850280.095 8      -562.086          51.000    19642000.711 8  81550249.821 8      -437.178          49.000
C27  22001209.688 8 114566056.621 8     -1342.000          51.000
E04  26299720.859 6 138205958.999 6      2965.570          37.000    26299739.906 6 105898161.000 6      2272.673          37.000
E12  21775254.992 8 114429725.841 8      -455.855          50.000    21775254.055 8  87679924.651 8      -349.196          51.000
E19  25204214.422 6 132449096.264 6       660.539          38.000    25204215.328 6 101486983.242 6       506.151          36.000
E24  25654729.039 6 134816476.384 6     -2844.312          40.000    25654747.203 6 103301002.454 6     -2179.366          37.000
> 2020 05 18 17 34 30.0000000  0 14        .000000000000
G08  20392779.148 8 107164772.144 8      -634.449          51.000    20392780.453 8  83505023.607 8      -494.376          51.000
G14  23141474.211 7 121609292.984 7      2469.867          46.000    23141475.125 7  94760508.158 7      1924.572          43.000
G22  22268706.156 8 117022857.133 8      2673.773          48.000    22268703.383 7  91186623.355 7      2083.463          47.000
G27  21736448.383 8 114225795.289 8     -2670.242          51.000    21736451.250 8  89007102.877 8     -2080.708          51.000
G32  22333749.023 5 117364650.364 5      1440.359          32.000    22333750.141 5  91452965.016 5      1122.352          31.000
R07  19596856.727 8 104903590.592 8        -6.828          51.000    19596858.305 7  81591607.015 7        -5.308          47.000
R08  21013630.117 8 112527011.831 8      3638.707          50.000    21013634.078 7  87521057.841 7      2830.109          45.000
R21  22873347.227 5 122399874.896 5     -3172.512          34.000
R22  19645203.500 8 104867392.244 8      -577.961          51.000    19645206.555 8  81563559.244 8      -449.528          49.000
C27  22008979.023 8 114606512.178 8     -1354.184          51.000
E04  26282807.508 6 138117082.370 6      2960.266          39.000    26282822.188 7 105830060.702 7      2268.187          43.000
E12  21777880.195 8 114443521.223 8      -463.148          50.000    21777879.141 8  87690495.142 8      -354.928          51.000
E19  25200490.281 6 132429526.658 6       644.957          39.000    25200491.312 6 101471988.378 6       494.170          37.000
E24  25670978.820 6 134901867.944 6     -2848.074          36.000    25670995.625 6 103366432.280 6     -2181.961          38.000
> 2020 05 18 17 35  0.0000000  0 14        .000000000000
G08  20396449.766 8 107184060.939 8      -651.426          51.000    20396451.328 8  83520053.841 8      -507.605          51.000
G14  23127401.500 7 121535340.224 7      2460.434          47.000    23127402.570 7  94702882.677 7      1917.224          43.000
G22  22253472.023 8 116942800.950 8      2663.391          48.000    22253468.867 7  91124241.952 7      2075.369          47.000
G27  21751726.352 8 114306080.407 8     -2682.074          51.000    21751729.133 8  89069662.695 8     -2089.928          51.000
G32  22325570.398 5 117321674.954 5      1423.664          32.000    22325573.820 5  91419477.737 5      1109.355          31.000
R07  19596970.266 8 104904197.834 8       -33.590          51.000    19596971.961 8  81592079.331 8       -26.125          48.000
R08  20993288.625 8 112418081.088 8      3623.496          50.000    20993291.453 7  87436333.985 7      2818.278          45.000
R21  22891153.141 5 122495150.576 5     -3179.898          32.000    22891158.789 4  95274044.811 4     -2473.257          26.000
R22  19648491.648 8 104884945.526 8      -592.195          51.000    19648494.711 8  81577211.779 8      -460.599          49.000
C27  22016811.477 8 114647296.510 8     -1364.699          51.000
E04  26265921.414 7 138028343.521 7      2956.047          42.000    26265932.250 7 105762065.964 7      2264.987          46.000
E12  21780540.977 8 114457503.692 8      -468.773          50.000    21780539.852 8  87701208.976 8      -359.211          51.000
E19  25196848.492 6 132410387.251 6       630.977          40.000    25196848.734 6 101457323.103 6       483.703          36.000
E24  25687241.570 6 134987332.995 6     -2849.727          36.000    25687257.383 6 103431918.378 6     -2183.425          37.000
> 2020 05 18 17 35 30.0000000  0 13        .000000000000
G08  20400219.875 8 107203872.741 8      -669.281          51.000    20400221.453 8  83535491.607 8      -521.518          51.000
G14  23113387.461 8 121461695.270 8      2449.406          48.000    23113388.266 7  94645497.040 7      1908.631          42.000
G22  22238300.617 8 116863073.533 8      2651.828          48.000    22238297.570 7  91062116.748 7      2066.363          47.000
G27  21767073.984 8 114386732.474 8     -2694.648          51.000    21767076.500 8  89132508.456 8     -2099.726          51.000
G32  22317487.203 5 117279206.025 5      1407.406          33.000
R07  19597236.500 8 104905622.739 8       -61.289          51.000    19597238.086 8  81593187.600 8       -47.666          48.000
R08  20973035.438 8 112309625.125 8      3607.059          48.000    20973037.656 7  87351979.363 7      2805.490          44.000
R22  19651863.359 8 104902944.548 8      -607.586          51.000    19651866.422 8  81591210.994 8      -472.564          49.000
C27  22024707.727 8 114688413.319 8     -1376.320          51.000
E04  26249063.039 7 137939747.919 7      2950.598          45.000    26249071.188 7 105694181.040 7      2260.857          47.000
E12  21783238.117 8 114471677.403 8      -475.898          51.000    21783237.086 8  87712069.328 8      -364.637          51.000
E19  25193289.297 7 132391681.799 7       616.000          42.000    25193288.211 6 101442990.364 6       472.042          37.000
E24  25703518.453 5 135072873.229 5     -2852.699          33.000    25703534.023 6 103497462.097 6     -2185.849          38.000
> 2020 05 18 17 36  0.0000000  0 13        .000000000000
G08  20404085.484 8 107224185.994 8      -685.453          51.000    20404086.984 8  83551320.103 8      -534.119          51.000
G14  23099428.430 8 121388338.939 8      2440.352          48.000    23099428.945 7  94588336.312 7      1901.576          42.000
G22  22223187.734 8 116783654.410 8      2642.203          48.000    22223184.797 8  91000231.765 8      2058.860          48.000
G27  21782486.828 8 114467728.110 8     -2705.492          51.000    21782489.000 8  89195621.930 8     -2108.176          51.000
G32  22309498.086 5 117237224.137 5      1391.379          33.000    22309507.211 5  91353698.645 5      1084.188          33.000
R07  19597651.094 8 104907842.358 8       -87.117          51.000    19597652.602 8  81594913.970 8       -67.758          48.000
R08  20952867.281 8 112201625.668 8      3592.484          48.000    20952869.148 7  87267979.796 7      2794.155          44.000
R22  19655314.852 8 104921367.896 8      -621.102          51.000    19655317.719 8  81605540.246 8      -483.079          49.000
C27  22032663.656 8 114729840.791 8     -1386.027          51.000
E04  26232228.141 7 137851275.419 7      2946.902          47.000    26232234.922 7 105626390.445 7      2258.079          47.000
E12  21785967.555 8 114486020.650 8      -480.863          51.000    21785966.547 8  87723059.599 8      -368.520          51.000
E19  25189808.742 7 132373388.979 7       602.777          43.000    25189807.328 6 101428973.772 6       462.057          39.000
E24  25719805.016 5 135158487.540 5     -2854.129          34.000    25719821.250 6 103563044.919 6     -2186.792          39.000
> 2020 05 18 17 36 30.0000000  0 14        .000000000000
G08  20408052.031 8 107245030.056 8      -703.770          51.000    20408053.508 8  83567562.218 8      -548.392          51.000
G10  22613116.500 5 118832729.075 5     -2770.270          34.000
G14  23085530.383 8 121315303.412 8      2429.012          48.000    23085530.906 7  94531425.578 7      1892.736          43.000
G22  22208139.305 8 116704574.240 8      2630.195          48.000    22208136.555 8  90938610.853 8      2049.503          48.000
G27  21797970.312 8 114549095.409 8     -2718.512          51.000    21797971.836 8  89259024.998 8     -2118.321          51.000
R07  19598219.609 8 104910886.085 8      -115.262          51.000    19598221.133 8  81597281.336 8       -89.648          48.000
R08  20932790.625 8 112094115.816 8      3575.359          48.000    20932791.977 7  87184361.057 7      2780.835          42.000
R21  22944820.789 4 122782369.656 4     -3203.719          28.000
R22  19658851.344 8 104940246.570 8      -637.004          51.000    19658854.359 8  81620223.641 8      -495.447          50.000
C27  22040684.883 8 114771608.230 8     -1398.074          51.000
E04  26215422.875 8 137762957.423 8      2941.203          49.000    26215428.977 7 105558718.241 7      2253.649          45.000
E12  21788734.945 8 114500563.409 8      -488.180          51.000    21788733.898 8  87734202.730 8      -374.003          51.000
E19  25186412.492 7 132355538.943 7       587.516          43.000    25186411.352 6 101415296.507 6       450.282          40.000
E24                                                                  25736123.953 6 103628687.942 6     -2189.235          41.000
> 2020 05 18 17 37  0.0000000  0 13        .000000000000
G08  20412118.727 8 107266400.448 8      -721.074          51.000    20412120.133 8  83584214.459 8      -561.876          51.000
G14  23071693.102 8 121242587.087 8      2418.570          48.000    23071693.742 7  94474763.531 7      1884.603          44.000
G22  22193154.391 8 116625829.524 8      2619.238          48.000    22193152.133 7  90877251.347 7      2040.965          47.000
G27  21813523.375 8 114630828.317 8     -2730.559          50.000    21813523.812 8  89322712.967 8     -2127.708          50.000
G32  22293813.352 5 117154779.189 5      1356.020          31.000
R07  19598941.234 8 104914748.814 8      -142.355          51.000    19598942.617 8  81600285.685 8      -110.721          48.000
R08  20912805.227 7 111987095.164 7      3559.102          47.000    20912806.148 6  87101122.824 6      2768.193          41.000
R22  19662472.664 8 104959576.582 8      -651.750          51.000    19662475.680 8  81635258.074 8      -506.917          50.000
C27  22048770.094 8 114813711.052 8     -1408.926          51.000
E04  26198646.352 8 137674791.122 8      2936.504          49.000    26198652.953 7 105491162.268 7      2249.875          42.000
E12  21791539.461 8 114515301.451 8      -494.465          51.000    21791538.508 8  87745495.504 8      -378.864          51.000
E19  25183099.555 7 132338127.335 7       573.109          43.000    25183098.938 6 101401955.168 6       439.208          40.000
E24  25752423.461 5 135329903.923 5     -2858.930          34.000    25752440.867 7 103694386.016 7     -2190.779          42.000
> 2020 05 18 17 37 30.0000000  0 14        .000000000000
G08  20416260.453 8 107288165.504 8      -737.633          51.000    20416262.047 8  83601174.219 8      -574.782          51.000
G11  20274488.719 5 106543156.069 5      1483.359          31.000
G14  23057891.742 8 121170060.738 8      2408.977          48.000    23057893.062 7  94418249.545 7      1877.125          45.000
G22  22178208.617 8 116547289.496 8      2608.996          49.000    22178205.742 7  90816051.345 7      2032.987          46.000
G27  21829120.438 8 114712793.535 8     -2741.402          48.000    21829120.633 8  89386581.938 8     -2136.158          48.000
G32  22286100.898 5 117114243.311 5      1340.461          35.000    22286100.227 5  91257851.772 5      1044.506          34.000
R07  19599790.359 8 104919295.261 8      -168.605          51.000    19599791.875 8  81603821.814 8      -131.138          48.000
R08  20892886.062 7 111880432.537 7      3543.723          46.000    20892887.141 6  87018163.044 6      2756.229          40.000
R22  19666153.758 8 104979224.957 8      -665.762          51.000    19666156.422 8  81650540.140 8      -517.815          50.000
C27  22056894.781 8 114856018.584 8     -1419.129          51.000
E04  26181873.711 8 137586646.546 8      2932.344          48.000    26181884.773 5 105423622.879 5      2246.666          35.000
E12  21794356.234 8 114530103.303 8      -499.930          51.000    21794355.344 8  87756837.168 8      -383.063          51.000
E19  25179844.875 7 132321022.918 7       559.301          43.000    25179844.516 6 101388849.194 6       428.810          40.000
E24  25768728.219 6 135415583.702 6     -2860.695          37.000    25768745.867 7 103760036.651 7     -2191.779          43.000
> 2020 05 18 17 38  0.0000000  0 14        .000000000000
G08  20420527.602 8 107310589.559 8      -755.637          51.000    20420529.383 8  83618647.491 8      -588.808          51.000
G11  20266063.695 5 106498878.747 5      1469.781          31.000
G14  23044177.383 8 121097991.530 8      2397.527          48.000    23044179.188 7  94362091.762 7      1868.203          44.000
G22  22163352.641 8 116469220.186 8      2597.195          51.000    22163348.602 7  90755218.168 7      2023.792          45.000
G27  21844811.891 8 114795254.228 8     -2753.957          48.000    21844812.781 8  89450836.979 8     -2145.941          48.000
G32  22278503.953 5 117074332.391 5      1321.566          34.000    22278506.266 5  91226752.413 5      1029.792          34.000
R07  19600817.539 8 104924794.446 8      -196.305          51.000    19600819.188 7  81608098.964 7      -152.681          47.000
R08  20873084.781 7 111774401.202 7      3526.695          45.000    20873086.188 6  86935694.257 6      2742.988          41.000
R22  19669944.609 8 104999461.236 8      -681.551          51.000    19669947.250 8  81666279.440 8      -530.095          50.000
C27  22065108.828 8 114898792.978 8     -1430.895          50.000
E04  26165155.664 7 137498790.074 7      2926.418          47.000    26165173.938 5 105356304.087 5      2242.257          35.000
E12  21797235.570 8 114545233.933 8      -507.129          51.000    21797234.750 8  87768430.758 8      -388.597          51.000
E19  25176698.977 7 132304490.222 7       544.277          42.000    25176698.547 6 101376181.320 6       417.062          39.000
E24  25785072.227 6 135501464.032 6     -2863.203          41.000    25785088.844 7 103825840.976 7     -2193.934          45.000
> 2020 05 18 17 38 30.0000000  0 14        .000000000000
G08  20424894.750 8 107333539.766 8      -774.055          51.000    20424896.750 8  83636530.739 8      -603.159          51.000
G14  23030524.984 8 121026248.838 8      2385.656          48.000    23030527.211 7  94306188.396 7      1858.953          44.000
G22  22148561.117 8 116391488.972 8      2585.055          51.000    22148556.500 7  90694648.437 7      2014.331          45.000
G27  21860572.234 8 114878075.576 8     -2766.996          49.000    21860573.797 8  89515373.022 8     -2156.101          49.000
G32  22271004.820 6 117034941.816 6      1303.949          40.000    22271009.180 6  91196058.590 6      1016.061          38.000
R07  19601997.352 8 104931109.583 8      -224.328          51.000    19601999.094 7  81613010.740 7      -174.477          47.000
R08  20853376.414 7 111668868.541 7      3509.094          46.000    20853378.562 7  86853613.327 7      2729.295          43.000
R21  23016968.227 4 123168407.942 4     -3234.785          28.000    23016981.000 4  95797690.041 4     -2515.941          24.000
R22  19673820.602 8 105020150.792 8      -697.543          51.000    19673823.266 8  81682371.295 8      -542.533          51.000
C27  22073386.727 8 114941902.058 8     -1442.789          49.000
E04  26148466.281 7 137411090.170 7      2920.371          44.000    26148482.547 6 105289105.345 6      2237.765          41.000
E12  21800152.086 8 114560560.354 8      -514.480          51.000    21800151.320 8  87780174.364 8      -394.227          51.000
E19  25173636.773 6 132288396.540 6       528.793          40.000    25173635.773 6 101363849.831 6       405.182          37.000
E24  25801428.023 6 135587409.504 6     -2866.105          41.000    25801444.047 7 103891695.182 7     -2196.274          45.000
> 2020 05 18 17 39  0.0000000  0 14        .000000000000
G03  24240295.133 6 127383608.067 6      3606.121          37.000    24240299.750 4  99259973.942 4      2809.964          28.000
G08  20429349.125 8 107356949.220 8      -787.625          51.000    20429351.266 8  83654771.834 8      -613.734          51.000
G14  23016922.492 7 120954768.694 7      2378.742          47.000    23016924.742 7  94250489.582 7      1853.565          44.000
G22  22133821.219 8 116314030.581 8      2577.770          49.000    22133817.211 7  90634291.286 7      2008.652          46.000
G27  21876388.414 8 114961189.306 8     -2774.961          51.000    21876390.414 8  89580136.918 8     -2162.307          51.000
G32  22263595.328 6 116996006.965 6      1290.742          37.000    22263597.930 6  91165719.737 6      1005.776          37.000
R07  19603316.648 8 104938172.021 8      -247.418          51.000    19603318.297 7  81618503.751 7      -192.436          47.000
R08  20833749.539 7 111563770.574 7      3496.309          47.000    20833752.844 7  86771870.504 7      2719.354          44.000
R22  19677768.883 8 105041226.832 8      -708.613          51.000    19677771.547 8  81698763.741 8      -551.144          51.000
C27  22081715.914 8 114985279.695 8     -1450.008          48.000
E04  26131792.781 7 137323481.981 7      2919.051          43.000    26131804.719 7 105221976.899 7      2236.774          47.000
E12  21803093.211 8 114576016.283 8      -517.102          50.000    21803092.648 8  87792017.199 8      -396.203          51.000
E19  25170644.531 5 132272675.609 5       518.133          35.000    25170642.711 5 101351803.911 5       397.304          33.000
E24  25817782.867 7 135673351.270 7     -2864.320          42.000    25817798.328 7 103957546.543 7     -2194.814          44.000
> 2020 05 18 17 39 30.0000000  0 14        .000000000000
G03  24219715.781 6 127275468.117 6      3600.035          37.000    24219715.812 4  99175686.495 4      2805.222          28.000
G08  20433888.203 8 107380802.865 8      -806.086          51.000    20433890.469 8  83673359.078 8      -628.119          51.000
G14  23003367.719 7 120883538.903 7      2366.488          47.000    23003369.969 7  94194985.871 7      1844.017          43.000
G22  22119129.891 7 116236831.551 7      2565.238          44.000    22119127.219 7  90574136.175 7      1998.884          44.000
G27  21892257.117 8 115044579.122 8     -2787.863          51.000    21892259.359 8  89645115.961 8     -2172.364          51.000
G32  22256270.586 6 116957514.510 6      1271.969          38.000    22256274.383 6  91135725.697 6       991.144          38.000
R07  19604772.594 8 104945965.609 8      -275.539          51.000    19604774.031 7  81624565.445 7      -214.308          47.000
R08  20814202.234 8 111459095.493 8      3478.555          48.000    20814206.344 7  86690456.593 7      2705.543          45.000
R22  19681786.766 8 105062674.873 8      -724.824          51.000    19681789.242 8  81715445.547 8      -563.752          50.000
C27  22090093.812 7 115028911.126 7     -1462.242          47.000
E04  26115134.469 7 137235952.319 7      2912.852          44.000    26115143.320 8 105154908.668 8      2231.901          51.000
E12  21806056.211 8 114591587.128 8      -524.520          50.000    21806055.977 8  87803948.098 8      -401.914          51.000
E19  25167720.688 5 132257264.871 5       502.441          31.000    25167717.219 5 101339968.450 5       385.550          30.000
E24  25834133.672 6 135759272.434 6     -2867.383          40.000    25834148.391 7 104023382.103 7     -2196.969          44.000
> 2020 05 18 17 40  0.0000000  0 15        .000000000000
G03  24199180.938 5 127167561.399 5      3593.789          34.000    24199176.273 5  99091569.389 5      2800.370          30.000
G08  20438541.992 8 107405258.358 8      -823.926          51.000    20438544.375 8  83692415.278 8      -642.023          51.000
G10  22724880.555 6 119420060.960 6     -2825.473          36.000
G14  22989891.102 7 120812719.574 7      2355.145          46.000    22989893.219 7  94139802.018 7      1835.178          42.000
G22  22104518.719 7 116160050.403 7      2553.711          46.000    22104516.750 7  90514306.682 7      1989.905          45.000
G27  21908208.016 8 115128400.881 8     -2800.016          50.000    21908210.430 8  89710431.588 8     -2181.830          50.000
G32  22249059.953 5 116919623.955 5      1254.098          31.000    22249064.133 5  91106200.460 5       977.204          31.000
R07  19606394.898 8 104954650.061 8      -302.973          51.000    19606396.398 7  81631320.021 7      -235.645          47.000
R08  20794765.195 8 111355007.454 8      3461.102          49.000    20794768.711 7  86609499.290 7      2691.971          45.000
R22  19685904.414 8 105084655.637 8      -740.309          51.000    19685907.055 8  81732541.691 8      -575.796          51.000
C27  22098551.414 8 115072952.305 8     -1473.523          50.000
E04  26098523.094 7 137148660.519 7      2907.012          47.000    26098529.250 8 105088022.724 8      2227.466          51.000
E12  21809071.219 8 114607430.772 8      -531.461          50.000    21809071.023 8  87816088.020 8      -407.226          51.000
E19  25164894.766 5 132242415.092 5       487.223          33.000    25164894.453 5 101328601.297 5       373.991          31.000
E24  25850509.734 6 135845328.435 6     -2869.703          40.000    25850524.055 7 104089321.007 7     -2198.699          44.000
> 2020 05 18 17 40 30.0000000  0 13        .000000000000
G08  20443304.242 8 107430284.279 8      -843.500          51.000    20443306.492 8  83711915.990 8      -657.273          51.000
G11  20225049.867 5 106283351.976 5      1400.656          34.000
G14  22976487.359 7 120742282.192 7      2341.723          47.000    22976489.664 7  94084915.789 7      1824.722          42.000
G22  22089982.242 8 116083656.602 8      2540.168          50.000    22089979.305 7  90454779.120 7      1979.355          45.000
G27  21924234.617 8 115212621.651 8     -2813.754          49.000    21924237.531 8  89776058.114 8     -2192.539          49.000
R07  19608177.570 8 104964192.062 8      -332.133          51.000    19608178.867 7  81638741.589 7      -258.326          47.000
R08  20775432.195 8 111251477.361 8      3441.906          48.000    20775434.977 7  86528975.944 7      2677.038          45.000
R22  19690115.867 8 105107138.206 8      -757.566          51.000    19690118.930 8  81750028.107 8      -589.218          50.000
C27  22107082.430 8 115117371.980 8     -1486.797          51.000
E04  26081952.055 8 137061576.861 8      2899.473          49.000    26081956.273 8 105021296.290 8      2221.671          51.000
E12  21812132.141 8 114623516.089 8      -540.066          50.000    21812131.977 8  87828413.123 8      -413.874          51.000
E19  25162160.969 6 132228051.895 6       470.816          37.000    25162162.625 5 101317596.591 5       360.770          34.000
E24  25866904.977 6 135931485.714 6     -2873.535          40.000    25866919.531 7 104155337.531 7     -2201.728          43.000
> 2020 05 18 17 41  0.0000000  0 14        .000000000000
G08  20448153.938 8 107455770.193 8      -857.871          51.000    20448156.031 8  83731775.134 8      -668.474          51.000
G11  20217078.570 5 106241463.893 5      1389.480          33.000
G14  22963135.945 7 120672119.419 7      2333.352          47.000    22963138.273 6  94030243.570 6      1818.199          41.000
G22  22075498.695 8 116007541.037 8      2531.758          51.000    22075494.602 7  90395468.375 7      1972.801          45.000
G27  21940316.094 8 115297129.914 8     -2822.473          50.000    21940318.914 8  89841908.665 8     -2199.329          50.000
G32  22234944.609 6 116845419.539 6      1219.855          37.000    22234949.094 6  91048398.838 6       950.531          36.000
R07  19610099.047 8 104974478.616 8      -355.965          51.000    19610100.305 7  81646742.250 7      -276.862          47.000
R08  20756183.055 8 111148396.925 8      3427.723          48.000    20756185.555 7  86448802.289 7      2666.007          46.000
R22  19694400.570 8 105130011.274 8      -769.707          51.000    19694403.773 8  81767818.261 8      -598.661          50.000
C27  22115665.086 8 115162061.039 8     -1494.898          51.000
E04  26065400.086 8 136974593.125 8      2897.082          49.000    26065403.312 8 104954646.442 8      2219.713          51.000
E12  21815218.188 8 114639733.398 8      -543.535          49.000    21815217.969 8  87840839.375 8      -416.568          51.000
E19  25159499.266 6 132214064.833 6       459.254          39.000    25159502.867 6 101306879.271 6       351.755          37.000
E24  25883298.414 6 136017632.211 6     -2872.055          38.000    25883313.188 7 104221345.789 7     -2200.659          43.000
> 2020 05 18 17 41 30.0000000  0 15        .000000000000
G08  20453099.914 8 107481760.700 8      -875.078          51.000    20453101.984 8  83752027.463 8      -681.879          51.000
G10  22773445.898 5 119675265.769 5     -2848.410          32.000
G11  20209183.055 5 106199973.907 5      1375.844          32.000    20209185.234 4  82753234.651 4      1072.086          27.000
G14  22949845.711 8 120602278.101 8      2322.227          48.000    22949847.172 6  93975821.808 6      1809.527          38.000
G22  22061076.562 8 115931749.384 8      2520.656          51.000    22061072.039 7  90336410.027 7      1964.151          45.000
G27  21956460.820 8 115381968.492 8     -2833.738          51.000    21956462.969 8  89908016.620 8     -2208.108          51.000
G32  22228029.508 6 116809074.477 6      1202.879          36.000    22228029.148 6  91020077.948 6       937.305          36.000
R07  19612167.984 8 104985554.010 8      -382.680          51.000    19612168.930 7  81655356.458 7      -297.640          47.000
R08  20737026.961 8 111045814.701 8      3410.836          48.000    20737029.195 7  86369016.094 7      2652.872          46.000
R22  19698767.242 8 105153320.967 8      -784.594          51.000    19698770.422 8  81785948.022 8      -610.240          50.000
C27  22124307.859 8 115207063.384 8     -1505.637          51.000
E04  26048875.805 8 136887755.534 8      2891.828          50.000    26048878.609 8 104888108.566 8      2215.825          51.000
E12  21818337.938 8 114656127.577 8      -549.730          49.000    21818337.438 8  87853401.136 8      -421.270          51.000
E19  25156917.477 6 132200497.509 6       444.500          40.000    25156921.609 6 101296483.539 6       340.866          39.000
E24  25899698.195 6 136103810.295 6     -2873.441          38.000    25899713.289 7 104287378.242 7     -2201.662          44.000
> 2020 05 18 17 42  0.0000000  0 13        .000000000000
G08  20458143.547 8 107508264.002 8      -892.074          51.000    20458145.852 8  83772679.374 8      -695.123          51.000
G14  22936618.719 7 120532769.088 7      2311.309          47.000    22936618.711 6  93921658.974 6      1801.020          38.000
G22  22046717.297 8 115856291.234 8      2509.594          51.000    22046712.672 7  90277611.518 7      1955.528          45.000
G27  21972669.641 8 115467144.088 8     -2844.816          51.000    21972671.156 8  89974387.180 8     -2216.740          51.000
G32  22221213.266 6 116773249.247 6      1185.129          38.000    22221214.336 6  90992162.183 6       923.477          37.000
R07  19614385.484 8 104997425.525 8      -408.992          51.000    19614386.812 7  81664589.889 7      -318.102          47.000
R08  20717966.414 8 110943743.038 8      3393.637          49.000    20717968.031 7  86289627.027 7      2639.495          46.000
R22  19703217.555 8 105177076.172 8      -799.379          51.000    19703220.719 8  81804424.272 8      -621.739          50.000
C27  22133011.789 8 115252387.111 8     -1516.160          50.000
E04  26032380.891 8 136801074.119 8      2886.652          49.000    26032383.695 8 104821690.348 8      2211.991          51.000
E12  21821492.836 8 114672707.170 8      -555.691          49.000    21821492.430 8  87866104.967 8      -425.775          51.000
E19  25154417.188 7 132187358.330 7       430.781          42.000    25154421.016 6 101286415.906 6       330.121          40.000
E24  25916105.672 5 136190052.973 5     -2873.309          33.000    25916120.906 7 104353439.631 7     -2202.500          42.000
> 2020 05 18 17 42 30.0000000  0 15        .000000000000
G03  24096940.734 5 126630283.696 5      3568.422          34.000
G08  20463288.523 8 107535300.887 8      -909.547          51.000    20463290.648 8  83793747.067 8      -708.738          51.000
G11  20193630.297 5 106118222.611 5      1347.762          33.000
G14  22923459.234 7 120463616.034 7      2299.691          46.000    22923458.180 6  93867773.573 6      1791.973          38.000
G22  22032424.984 8 115781188.602 8      2498.008          50.000    22032420.828 7  90219090.015 7      1946.500          45.000
G27  21988946.148 8 115552676.326 8     -2856.547          51.000    21988947.367 8  90041035.645 8     -2225.881          51.000
G32  22214499.562 6 116737966.660 6      1167.547          39.000    22214501.906 6  90964669.265 6       909.780          38.000
R07  19616755.586 8 105010113.794 8      -436.059          51.000    19616757.312 7  81674458.557 7      -339.154          47.000
R08  20699005.977 8 110842206.102 8      3376.172          50.000    20699007.070 7  86210653.888 7      2625.911          45.000
R22  19707755.578 8 105201299.250 8      -814.719          51.000    19707758.414 8  81823264.424 8      -633.673          50.000
C27  22141781.664 8 115298053.081 8     -1527.402          51.000
E04  26015919.805 8 136714571.878 8      2880.836          48.000    26015922.781 8 104755409.430 8      2207.376          51.000
E12  21824687.172 8 114689493.783 8      -562.582          49.000    21824687.164 8  87878967.417 8      -431.012          51.000
E19  25152002.914 7 132174669.048 7       416.348          42.000    25152006.367 6 101276692.962 6       318.732          40.000
E24  25932523.945 5 136276330.728 5     -2876.453          33.000    25932539.664 6 104419544.543 6     -2203.733          36.000
> 2020 05 18 17 43  0.0000000  0 15        .000000000000
G03  24076580.344 6 126523282.437 6      3563.688          37.000    24076585.461 5  98589612.188 5      2776.918          33.000
G08  20468528.352 8 107562836.265 8      -926.734          51.000    20468530.070 8  83815203.212 8      -722.128          51.000
G11  20185971.695 6 106077968.727 6      1334.340          37.000
G14  22910361.188 7 120394786.885 7      2288.191          45.000    22910359.648 6  93814140.499 6      1783.009          37.000
G22  22018193.656 8 115706407.472 8      2486.750          50.000    22018190.375 7  90160819.008 7      1937.727          45.000
G27  22005283.273 8 115638528.479 8     -2867.637          51.000    22005284.703 8  90107933.424 8     -2234.522          51.000
G32  22207882.141 6 116703193.369 6      1150.398          36.000    22207883.211 5  90937573.197 5       896.420          31.000
R07  19619271.352 8 105023581.648 8      -462.484          51.000    19619273.508 8  81684933.564 8      -359.710          48.000
R08  20680138.875 8 110741172.160 8      3358.730          51.000    20680139.539 7  86132071.978 7      2612.346          44.000
R22  19712374.688 8 105225955.314 8      -829.715          51.000    19712377.336 8  81842441.342 8      -645.334          50.000
C27  22150610.945 8 115344026.389 8     -1538.090          51.000
E04  25999486.742 8 136628215.403 8      2875.484          49.000    25999489.125 8 104689240.203 8      2203.323          50.000
E12  21827914.227 8 114706452.617 8      -568.758          49.000    21827914.562 8  87891961.816 8      -435.706          51.000
E19  25149667.508 6 132162394.763 6       401.848          39.000    25149670.156 6 101267288.010 6       307.688          39.000
E24                                                                  25948962.484 6 104485664.557 6     -2204.652          39.000
> 2020 05 18 17 43 30.0000000  0 14        .000000000000
G03  24056253.109 6 126416458.514 6      3558.785          37.000    24056253.094 5  98506372.880 5      2773.088          31.000
G08  20473869.695 8 107590905.059 8      -943.422          51.000    20473871.695 8  83837074.991 8      -735.134          51.000
G11  20178394.109 5 106038148.849 5      1320.797          35.000
G14  22897331.969 7 120326319.397 7      2277.562          46.000    22897330.406 6  93760789.198 6      1774.724          38.000
G22  22004030.922 8 115631984.020 8      2475.898          50.000    22004028.547 7  90102826.720 7      1929.272          46.000
G27  22021686.836 8 115724734.116 8     -2878.316          48.000    22021689.414 8  90175106.660 8     -2242.844          48.000
R07  19621939.484 8 105037863.977 8      -488.531          50.000    19621941.727 8  81696042.051 8      -379.969          48.000
R08  20661372.875 8 110640679.895 8      3341.914          50.000    20661372.477 7  86053911.382 7      2599.270          44.000
R22  19717081.773 8 105251080.805 8      -844.098          51.000    19717084.414 8  81861983.358 8      -656.520          50.000
C27  22159506.039 8 115390341.746 8     -1548.430          51.000
E04  25983088.930 8 136542041.605 8      2870.566          50.000    25983089.766 8 104623210.982 8      2199.498          49.000
E12  21831180.789 8 114723619.175 8      -574.559          49.000    21831181.273 8  87905115.399 8      -440.267          51.000
E19  25147417.250 6 132150570.585 6       387.746          39.000    25147419.406 6 101258227.901 6       296.952          39.000
E24                                                                  25965394.695 5 104551825.035 5     -2205.071          34.000
> 2020 05 18 17 44  0.0000000  0 15        .000000000000
G03  24035953.570 5 126309780.758 5      3553.926          34.000    24035954.500 5  98423247.412 5      2769.290          33.000
G08  20479306.055 8 107619474.203 8      -960.766          51.000    20479308.484 8  83859336.630 8      -748.649          51.000
G11  20170893.750 5 105998731.603 5      1307.777          33.000
G14  22884366.242 7 120258182.869 7      2265.617          47.000    22884365.500 6  93707695.821 6      1765.416          40.000
G22  21989930.844 8 115557886.378 8      2464.430          51.000    21989928.680 7  90045088.331 7      1920.338          45.000
G27  22038150.766 7 115811258.670 7     -2889.598          47.000    22038154.852 7  90242528.390 7     -2251.635          47.000
G32  22194952.258 6 116635251.056 6      1114.789          36.000    22194951.500 5  90884605.950 5       868.670          35.000
R07  19624752.938 8 105052925.851 8      -515.066          51.000    19624755.492 8  81707756.837 8      -400.607          49.000
R08  20642701.953 8 110540699.156 8      3324.059          49.000    20642701.305 7  85976148.656 7      2585.382          45.000
R22  19721870.516 8 105276642.860 8      -859.461          51.000    19721873.055 8  81881864.922 8      -668.473          50.000
C27  22168460.500 8 115436966.361 8     -1559.387          51.000
E04  25966720.180 8 136456019.315 8      2864.914          51.000    25966719.445 8 104557297.883 8      2195.197          49.000
E12  21834480.641 8 114740960.877 8      -580.961          48.000    21834481.391 8  87918403.175 8      -445.113          51.000
E19  25145246.750 5 132139163.873 5       373.086          35.000    25145249.148 6 101249487.643 6       286.242          37.000
E24                                                                  25981829.906 5 104617999.135 5     -2205.936          32.000
> 2020 05 18 17 44 30.0000000  0 14        .000000000000
G03  24015686.734 5 126203279.584 5      3547.539          30.000    24015689.023 4  98340259.526 4      2764.304          29.000
G08  20484843.031 8 107648572.292 8      -978.473          51.000    20484845.375 8  83882010.451 8      -762.446          51.000
G11  20163475.180 6 105959747.259 6      1292.785          36.000
G14  22871469.570 7 120190408.749 7      2253.375          46.000    22871469.461 7  93654884.870 7      1755.880          42.000
G22  21975898.562 8 115484144.179 8      2452.375          51.000    21975896.008 7  89987626.940 7      1910.945          45.000
G27  22054681.703 8 115898129.307 8     -2901.066          48.000    22054685.977 8  90310219.758 8     -2260.574          48.000
G32  22188641.547 7 116602083.112 7      1096.582          42.000    22188642.031 7  90858760.773 7       854.473          42.000
R07  19627717.203 8 105068795.120 8      -542.176          51.000    19627719.961 8  81720099.604 8      -421.692          49.000
R08  20624132.133 8 110441262.892 8      3305.742          49.000    20624132.938 7  85898809.358 7      2571.133          47.000
R22  19726746.625 8 105302671.313 8      -875.117          51.000    19726748.977 8  81902109.252 8      -680.650          50.000
C27  22177479.570 8 115483928.556 8     -1570.750          51.000
E04  25950386.078 8 136370179.011 8      2858.508          51.000    25950384.477 8 104491524.224 8      2190.285          49.000
E12  21837819.414 8 114758506.812 8      -588.086          48.000    21837820.266 8  87931847.439 8      -450.542          51.000
E19  25143160.219 5 132128198.346 5       357.398          32.000    25143162.570 5 101241089.382 5       274.120          33.000
> 2020 05 18 17 45  0.0000000  0 13        .000000000000
G03  23995451.992 5 126096931.479 5      3540.699          30.000
G08  20490482.523 8 107678208.721 8      -996.746          51.000    20490485.039 8  83905103.767 8      -776.685          51.000
G11  20156141.727 6 105921207.375 6      1277.027          37.000    20156133.898 5  82535994.180 5       995.086          31.000
G14  22858644.000 7 120123009.881 7      2240.461          45.000    22858644.781 7  93602366.346 7      1745.817          42.000
G22  21961935.680 8 115410768.622 8      2439.793          49.000    21961932.570 7  89930451.251 7      1901.137          46.000
G27  22071280.672 8 115985354.467 8     -2913.191          50.000    22071284.078 8  90378187.343 8     -2270.022          50.000
G32  22182436.258 6 116569471.637 6      1077.902          40.000    22182434.531 6  90833349.206 6       839.924          41.000
R07  19630834.250 8 105085480.633 8      -569.598          51.000    19630837.094 8  81733077.222 8      -443.020          49.000
R08  20605666.344 8 110342384.916 8      3286.770          48.000    20605668.930 8  85821904.243 8      2556.376          48.000
R22  19731712.000 8 105329177.124 8      -891.375          51.000    19731714.359 8  81922724.845 8      -693.292          50.000
C27  22186564.859 8 115531238.111 8     -1582.609          51.000
E04  25934088.594 8 136284532.471 8      2851.770          51.000    25934086.883 8 104425899.018 8      2185.122          50.000
E12  21841199.047 8 114776267.328 8      -595.453          48.000    21841199.969 8  87945456.139 8      -456.253          51.000
> 2020 05 18 17 45 30.0000000  0 13        .000000000000
G08  20496216.641 8 107708341.495 8     -1013.578          51.000    20496219.672 8  83928583.826 8      -789.804          51.000
G11  20148884.773 6 105883071.503 6      1263.645          38.000    20148879.094 5  82506277.912 5       984.667          30.000
G14  22845882.156 7 120055946.324 7      2229.008          44.000    22845883.211 6  93550109.077 6      1736.889          41.000
G22  21948034.352 8 115337718.679 8      2428.711          48.000    21948031.477 7  89873529.258 7      1892.505          47.000
G27  22087938.586 8 116072890.297 8     -2923.672          49.000    22087941.102 8  90446397.005 8     -2278.189          49.000
G32  22176327.984 5 116537375.998 5      1060.043          33.000    22176327.281 5  90808339.631 5       826.014          33.000
R07  19634095.367 8 105102937.850 8      -595.602          51.000    19634098.297 8  81746655.055 8      -463.246          49.000
R08  20587297.898 7 110244024.995 7      3269.082          47.000    20587301.188 7  85745402.078 7      2542.619          46.000
R22  19736758.977 8 105356118.121 8      -906.074          51.000    19736761.508 8  81943678.931 8      -704.724          50.000
C27  22195708.875 8 115578853.054 8     -1593.133          51.000
E04  25917819.633 8 136199039.282 8      2846.422          49.000    25917818.586 8 104360391.305 8      2181.084          51.000
E12  21844611.430 8 114794200.611 8      -601.508          48.000    21844612.656 8  87959197.224 8      -460.839          51.000
E19  25139242.922 5 132107613.336 5       328.746          35.000
> 2020 05 18 17 46  0.0000000  0 14        .000000000000
G08  20502049.594 8 107738993.157 8     -1030.277          51.000    20502052.789 8  83952468.232 8      -802.814          51.000
G10  22921505.719 5 120453326.766 5     -2913.305          34.000
G11  20141709.000 6 105845363.991 6      1249.637          37.000    20141706.203 5  82476895.399 5       973.737          34.000
G14  22833187.984 6 119989243.628 6      2217.426          41.000    22833189.836 6  93498132.940 6      1727.867          40.000
G22  21934199.633 8 115265017.988 8      2417.668          51.000    21934197.414 7  89816879.381 7      1883.897          47.000
G27  22104659.359 8 116160758.039 8     -2934.312          49.000    22104661.297 8  90514865.327 8     -2286.474          48.000
G32  22170322.875 6 116505831.500 6      1043.223          37.000    22170320.625 6  90783750.891 6       812.892          36.000
R07  19637505.219 8 105121189.301 8      -621.496          51.000    19637507.602 8  81760850.622 8      -483.383          49.000
R08  20569031.141 7 110146209.441 7      3251.496          46.000    20569034.516 7  85669323.345 7      2528.944          45.000
R22  19741891.742 8 105383518.090 8      -920.863          51.000    19741894.758 8  81964989.983 8      -716.227          50.000
C27  22204915.797 8 115626795.874 8     -1603.504          51.000
E04  25901583.477 7 136113724.104 7      2840.871          46.000    25901584.062 8 104295019.965 8      2176.834          51.000
E12  21848061.281 7 114812329.937 7      -607.410          47.000    21848062.430 8  87973088.506 8      -465.406          51.000
E19  25137406.508 6 132097961.716 6       314.289          36.000
> 2020 05 18 17 46 30.0000000  0 15        .000000000000
G03  23934937.719 5 125778939.268 5      3525.723          31.000
G08  20507972.477 8 107770117.339 8     -1046.754          51.000    20507975.445 8  83976720.836 8      -815.652          51.000
G10  22938148.906 5 120540786.319 5     -2919.875          32.000
G11  20134605.742 6 105808040.330 6      1236.598          36.000    20134604.266 5  82447811.961 5       963.577          30.000
G14  22820554.320 7 119922858.314 7      2206.188          42.000    22820556.672 6  93446404.106 6      1719.107          40.000
G22  21920423.164 8 115192621.664 8      2406.609          51.000    21920421.266 8  89760466.672 8      1875.280          48.000
G27  22121433.727 7 116248910.063 7     -2944.531          46.000    22121436.047 7  90583555.202 7     -2294.440          46.000
G32  22164412.258 5 116474771.811 5      1025.930          32.000    22164410.664 5  90759548.536 5       799.426          33.000
R07  19641054.273 8 105140186.506 8      -647.109          51.000    19641056.414 8  81775626.230 8      -503.307          50.000
R08  20550858.461 7 110048895.172 7      3234.031          47.000    20550861.414 7  85593634.507 7      2515.358          44.000
R22  19747101.617 8 105411331.008 8      -935.461          51.000    19747105.047 8  81986622.221 8      -727.581          50.000
C27  22214176.727 8 115675020.848 8     -1613.656          51.000
E04  25885371.828 7 136028542.725 7      2835.656          45.000    25885374.812 8 104229751.100 8      2172.755          51.000
E12  21851539.828 7 114830609.655 7      -613.332          47.000    21851540.539 8  87987095.041 8      -469.875          51.000
E19  25135643.617 5 132088701.728 5       301.281          35.000
> 2020 05 18 17 47  0.0000000  0 14        .000000000000
G03  23914835.688 5 125673301.095 5      3518.492          30.000
G08  20514003.883 8 107801811.859 8     -1064.082          51.000    20514006.734 8  84001417.834 8      -829.155          51.000
G11  20127594.375 6 105771199.765 6      1221.945          36.000    20127593.180 5  82419105.009 5       952.168          33.000
G14  22808001.477 7 119856891.048 7      2193.770          43.000    22808003.273 6  93395001.004 6      1709.428          41.000
G22  21906723.453 8 115120628.527 8      2394.871          51.000    21906721.531 8  89704368.158 8      1866.136          48.000
G27  22138280.523 7 116337442.533 7     -2955.512          47.000    22138283.367 7  90652541.587 7     -2302.993          47.000
G32  22158614.336 5 116444303.313 5      1007.453          34.000
R07  19644760.820 8 105160027.474 8      -673.547          51.000    19644762.828 8  81791058.104 8      -523.870          50.000
R08  20532798.523 8 109952185.413 8      3215.410          48.000    20532801.055 7  85518415.818 7      2500.875          43.000
R22  19752407.789 8 105439656.997 8      -950.914          50.000    19752411.250 8  82008653.551 8      -739.600          50.000
C27  22223509.914 8 115723624.746 8     -1624.598          51.000
E04  25869206.062 7 135943594.727 7      2829.496          47.000    25869209.641 8 104164661.072 8      2168.008          51.000
E12  21855065.695 7 114849138.030 7      -619.969          47.000    21855066.211 8  88001292.111 8      -475.038          51.000
E19  25133974.211 6 132079931.492 6       286.168          39.000    25133976.383 5 101204108.791 5       219.146          34.000
> 2020 05 18 17 47 30.0000000  0 14        .000000000000
G03  23894759.461 5 125567796.964 5      3514.090          31.000
G08  20520123.852 8 107833971.403 8     -1080.246          51.000    20520126.570 8  84026477.203 8      -841.750          51.000
G11  20120656.086 6 105734739.259 6      1208.516          37.000    20120654.523 6  82390694.235 6       941.700          36.000
G14  22795509.133 7 119791239.593 7      2182.477          43.000    22795510.656 7  93343844.091 7      1700.634          42.000
G22  21893080.648 8 115048934.632 8      2384.301          51.000    21893078.297 7  89648502.814 7      1857.900          47.000
G27  22155180.070 8 116426249.097 8     -2965.301          49.000    22155182.555 8  90721741.506 8     -2310.624          49.000
G32  22152911.273 5 116414334.081 5       990.027          33.000    22152925.992 5  90712554.663 5       771.450          31.000
R07  19648604.906 8 105180604.077 8      -698.652          51.000    19648606.789 8  81807062.130 8      -543.396          50.000
R08  20514832.164 8 109855975.922 8      3198.062          49.000    20514833.586 7  85443586.241 7      2487.382          43.000
R22  19757790.039 8 105468390.177 8      -965.125          50.000    19757793.875 8  82031001.576 8      -750.653          50.000
C27  22232895.508 8 115772503.528 8     -1634.484          50.000
E04  25853066.711 8 135858776.933 8      2824.629          49.000    25853069.258 8 104099670.865 8      2164.197          51.000
E12  21858619.055 7 114867810.593 7      -625.453          47.000    21858619.523 8  88015599.655 8      -479.249          51.000
E19  25132378.359 6 132071546.298 6       272.543          39.000    25132382.188 6 101197683.751 6       208.847          37.000
> 2020 05 18 17 48  0.0000000  0 14        .000000000000
G08  20526351.914 8 107866699.743 8     -1102.531          51.000    20526354.617 8  84051979.790 8      -859.115          51.000
G10  22988324.891 5 120804444.245 5     -2943.848          35.000    22988331.492 5  94133358.785 5     -2293.901          34.000
G11  20113810.547 6 105698764.331 6      1189.016          39.000    20113809.594 6  82362661.776 6       926.506          37.000
G14  22783097.102 7 119726010.226 7      2165.176          46.000    22783098.305 7  93293016.113 7      1687.153          43.000
G22  21879514.734 8 114977645.227 8      2367.320          49.000    21879512.172 7  89592952.688 7      1844.665          47.000
G27  22172151.617 8 116515432.237 8     -2981.195          50.000    22172153.742 8  90791234.810 8     -2323.009          50.000
G32  22147321.367 5 116384958.076 5       967.008          35.000    22147328.406 5  90689664.203 5       753.516          34.000
R07  19652605.953 8 105202020.716 8      -730.051          51.000    19652607.367 8  81823719.518 8      -567.817          50.000
R08  20496979.875 8 109760376.590 8      3174.242          50.000    20496980.562 7  85369231.251 7      2468.858          43.000
R22  19763268.898 8 105497636.841 8      -985.637          51.000    19763272.758 8  82053748.980 8      -766.606          49.000
C27  22242353.961 8 115821760.206 8     -1650.230          50.000
E04  25836972.367 8 135774195.339 8      2813.273          50.000    25836974.016 8 104034861.644 8      2155.655          51.000
E12  21862219.727 8 114886731.846 8      -636.965          48.000    21862220.109 8  88030097.746 8      -488.100          51.000
E19  25130875.820 6 132063650.366 6       252.883          40.000    25130879.977 6 101191633.615 6       193.866          37.000
> 2020 05 18 17 48 30.0000000  0 15        .000000000000
G03  23854706.578 6 125357339.824 6      3499.047          36.000    23854713.516 5  97681040.862 5      2726.524          35.000
G08  20532657.688 8 107899837.489 8     -1118.277          51.000    20532660.289 8  84077801.372 8      -871.385          51.000
G10  23005113.805 5 120892673.109 5     -2949.496          34.000    23005118.508 5  94202108.577 5     -2298.309          33.000
G11  20107027.250 6 105663117.303 6      1176.184          40.000    20107026.531 5  82334884.893 5       916.504          33.000
G14  22770735.523 7 119661046.266 7      2154.215          46.000    22770736.281 6  93242394.888 6      1678.612          41.000
G22  21865995.586 8 114906602.253 8      2357.113          49.000    21865992.750 7  89537594.575 7      1836.715          46.000
G27  22189163.977 8 116604830.962 8     -2990.375          49.000    22189166.398 8  90860896.084 8     -2330.165          49.000
G32  22141814.766 6 116356022.040 6       950.414          37.000    22141822.820 6  90667116.558 6       740.585          36.000
R07  19656733.250 8 105224113.536 8      -754.703          51.000    19656734.625 8  81840902.835 8      -586.991          50.000
R08  20479212.414 8 109665228.201 8      3157.090          51.000    20479212.859 7  85295226.987 7      2455.514          45.000
R22  19768814.117 8 105527235.760 8      -999.449          51.000    19768817.328 8  82076770.361 8      -777.349          50.000
C27  22251855.156 8 115871236.717 8     -1659.672          50.000
E04  25820892.719 8 135689692.344 8      2808.531          51.000    25820893.562 8 103970112.655 8      2152.045          50.000
E12  21865837.539 8 114905742.888 8      -642.059          48.000    21865837.945 8  88044664.618 8      -491.892          51.000
E19  25129436.102 6 132056084.603 6       239.746          39.000    25129439.172 6 101185836.480 6       183.815          37.000
> 2020 05 18 17 49  0.0000000  0 14        .000000000000
G03  23834739.461 6 125252430.695 6      3494.691          37.000    23834760.305 5  97599293.495 5      2723.142          32.000
G08  20539085.008 8 107933612.967 8     -1133.562          51.000    20539087.281 8  84104119.903 8      -883.295          51.000
G11  20100350.078 6 105628028.638 6      1162.930          39.000    20100348.852 6  82307543.064 6       906.179          37.000
G14  22758468.055 7 119596579.208 7      2143.617          45.000    22758468.930 6  93192160.830 6      1670.351          41.000
G22  21852567.156 8 114836034.933 8      2347.211          50.000    21852564.211 8  89482607.068 8      1828.996          48.000
G27  22206260.531 8 116694672.393 8     -2999.172          48.000    22206263.125 8  90930902.352 8     -2337.017          48.000
G32  22136435.625 6 116327755.594 6       933.855          37.000    22136446.391 6  90645090.946 6       727.689          38.000
R07  19661030.102 8 105247114.313 8      -778.906          51.000    19661031.258 8  81858792.316 8      -605.816          51.000
R08  20461573.438 8 109570767.074 8      3140.125          50.000    20461573.875 7  85221757.269 7      2442.322          47.000
R22  19774469.062 8 105557420.274 8     -1013.000          51.000    19774471.930 8  82100247.187 8      -787.892          50.000
C27  22261442.359 8 115921159.640 8     -1668.656          51.000
E04  25804871.492 8 135605498.580 8      2804.098          50.000    25804871.945 8 103905600.612 8      2148.615          50.000
E12  21869516.180 8 114925072.869 8      -646.793          49.000    21869516.516 8  88059475.894 8      -495.589          51.000
E19  25128102.789 6 132049077.637 6       227.059          39.000    25128104.664 6 101180467.518 6       174.103          37.000
> 2020 05 18 17 49 30.0000000  0 14        .000000000000
G03  23814801.164 5 125147665.626 5      3489.719          35.000    23814824.258 5  97517658.376 5      2719.258          34.000
G08  20545603.117 8 107967865.488 8     -1149.855          51.000    20545605.383 8  84130810.145 8      -895.991          51.000
G11  20093748.805 6 105593339.441 6      1149.758          40.000    20093747.188 6  82280512.539 6       895.915          37.000
G14  22746264.961 7 119532451.250 7      2131.637          45.000    22746265.859 6  93142190.999 6      1661.016          40.000
G22  21839199.156 8 114765783.915 8      2336.316          51.000    21839195.891 7  89427866.019 7      1820.506          47.000
G27  22223410.422 8 116784794.504 8     -3008.758          50.000    22223412.844 8  91001127.322 8     -2344.487          50.000
G32  22131153.938 6 116299999.877 6       916.539          37.000    22131164.398 6  90623463.191 6       714.186          37.000
R07  19665465.531 8 105270857.847 8      -803.891          51.000    19665466.961 8  81877259.513 8      -625.248          50.000
R08  20444032.266 8 109476832.715 8      3122.156          49.000    20444033.172 7  85148697.282 7      2428.344          47.000
R22  19780203.266 8 105588027.870 8     -1027.410          51.000    19780205.680 8  82124053.062 8      -799.097          50.000
C27  22271085.180 8 115971369.849 8     -1678.570          51.000
E04  25788878.453 8 135521455.391 8      2798.812          49.000    25788879.156 8 103841203.945 8      2144.539          50.000
E12  21873225.141 8 114944561.851 8      -652.516          50.000    21873225.102 8  88074408.998 8      -499.914          51.000
E19  25126845.648 6 132042469.509 6       213.523          39.000    25126847.359 6 101175404.194 6       163.588          38.000
> 2020 05 18 17 50  0.0000000  0 14        .000000000000
G03  23794895.758 5 125043074.822 5      3483.613          33.000    23794920.789 5  97436159.144 5      2714.507          35.000
G08  20552217.406 8 108002623.137 8     -1167.051          51.000    20552219.477 8  84157893.989 8      -909.390          51.000
G11  20087229.078 6 105559079.635 6      1134.605          39.000    20087227.633 5  82253816.582 5       884.108          35.000
G14  22734132.391 7 119468693.611 7      2118.941          45.000    22734133.508 6  93092509.762 6      1651.126          41.000
G22  21825897.023 8 114695879.026 8      2324.301          51.000    21825893.867 8  89373394.697 8      1811.143          48.000
G27  22240618.836 8 116875224.301 8     -3019.586          51.000    22240620.070 8  91071592.079 8     -2352.927          51.000
G32  22125975.734 5 116272784.844 5       897.785          34.000    22125987.297 5  90602256.639 5       699.582          34.000
R07  19670044.883 8 105295371.921 8      -830.051          51.000    19670046.094 8  81896325.995 8      -645.595          50.000
R08  20426594.766 8 109383457.788 8      3103.000          49.000    20426596.367 7  85076072.366 7      2413.444          46.000
R22  19786022.242 8 105619088.385 8     -1042.965          51.000    19786024.383 8  82148211.212 8      -811.198          50.000
C27  22280788.602 8 116021895.545 8     -1689.477          51.000
E04  25772919.500 8 135437593.248 8      2792.277          49.000    25772920.805 8 103776945.985 8      2139.579          50.000
E12  21876969.883 8 114964238.874 8      -659.086          51.000    21876969.297 8  88089486.198 8      -505.065          51.000
E19  25125669.273 6 132036288.754 6       198.684          36.000    25125671.508 6 101170668.326 6       152.274          38.000
> 2020 05 18 17 50 30.0000000  0 15        .000000000000
G03  23775025.953 4 124938671.662 4      3480.906          27.000    23775052.984 4  97354806.072 4      2712.398          28.000
G08  20558930.148 8 108037897.691 8     -1180.215          51.000    20558931.508 8  84185380.650 8      -919.648          51.000
G10  23072716.547 5 121247940.947 5     -2968.539          34.000    23072711.711 5  94478886.781 5     -2313.147          33.000
G11  20080793.484 6 105525262.840 6      1124.328          39.000    20080792.641 6  82227465.799 6       876.103          36.000
G14  22722072.727 7 119405320.283 7      2110.105          44.000    22722074.250 6  93043128.000 6      1644.241          41.000
G22  21812662.711 8 114626332.973 8      2316.422          51.000    21812660.156 8  89319202.964 8      1805.004          49.000
G27  22257887.516 8 116965971.825 8     -3026.000          50.000    22257887.219 8  91142304.407 8     -2357.922          50.000
G32  22120902.938 5 116246129.249 5       883.070          30.000
R07  19674769.891 8 105320666.366 8      -851.805          51.000    19674771.570 8  81915999.452 8      -662.515          49.000
R08  20409264.094 7 109290657.544 7      3087.996          46.000    20409266.820 7  85003894.372 7      2401.775          45.000
R22  19791928.258 8 105650614.021 8     -1054.324          51.000    19791930.453 8  82172731.107 8      -820.030          50.000
C27  22290554.922 8 116072748.147 8     -1696.367          51.000
E04  25756997.492 8 135353925.576 8      2790.086          48.000    25756999.344 8 103712837.023 8      2137.819          49.000
E12  21880752.445 8 114984116.038 8      -661.590          50.000    21880751.727 8  88104716.736 8      -506.915          51.000
E19  25124576.969 5 132030547.278 5       188.320          34.000    25124578.414 6 101166269.047 6       144.279          36.000
> 2020 05 18 17 51  0.0000000  0 14        .000000000000
G08  20565702.453 8 108073485.676 8     -1201.836          51.000    20565703.492 8  84213111.542 8      -936.499          51.000
G10  23089668.180 5 121337023.874 5     -2979.516          33.000    23089661.539 5  94548302.006 5     -2321.704          33.000
G11  20074404.070 6 105491687.805 6      1104.969          40.000    20074403.781 6  82201303.422 6       861.018          37.000
G14  22710047.789 7 119342131.327 7      2092.879          42.000    22710049.680 6  92993889.912 6      1630.815          41.000
G22  21799458.102 8 114556944.151 8      2299.953          51.000    21799456.633 8  89265133.749 8      1792.171          50.000
G27  22275177.531 8 117056832.813 8     -3040.906          49.000    22275176.711 8  91213105.149 8     -2369.537          49.000
G32  22115928.047 5 116219986.212 5       860.617          30.000
R07  19679601.906 8 105346533.209 8      -882.316          51.000    19679603.727 8  81936118.094 8      -686.246          49.000
R08  20392002.555 7 109198228.405 7      3064.207          47.000    20392006.117 7  84932005.014 7      2383.269          44.000
R22  19797882.891 8 105682400.007 8     -1074.422          51.000    19797884.883 8  82197453.509 8      -835.661          49.000
C27  22300345.156 8 116123726.648 8     -1711.648          51.000
E04  25741074.320 8 135270251.588 8      2778.680          49.000    25741076.891 8 103648723.200 8      2129.157          49.000
E12  21884534.469 8 115003991.160 8      -672.902          50.000    21884533.898 8  88119945.708 8      -515.609          51.000
E19                                                                  25123530.555 6 101162051.044 6       129.544          36.000
> 2020 05 18 17 51 30.0000000  0 15        .000000000000
G03  23735406.078 5 124730428.688 5      3464.176          32.000    23735412.484 5  97192542.093 5      2699.364          33.000
G08  20572656.312 8 108110027.451 8     -1218.918          51.000    20572657.562 8  84241585.640 8      -949.806          51.000
G10  23106739.852 5 121426736.256 5     -2986.160          35.000    23106730.781 5  94618207.776 5     -2326.878          34.000
G11  20068182.812 6 105458996.420 6      1089.918          38.000    20068182.391 6  82175829.631 6       849.287          36.000
G14  22698178.820 6 119279769.256 6      2080.109          36.000    22698181.648 5  92945296.035 5      1620.858          35.000
G22  21786405.719 8 114488353.475 8      2288.004          51.000    21786404.492 8  89211686.485 8      1782.863          49.000
G27  22292610.562 8 117148445.917 8     -3051.348          48.000    22292610.242 8  91284491.931 8     -2377.677          49.000
G32  22111077.352 5 116194483.933 5       841.621          33.000    22111086.711 4  90541191.973 4       655.809          29.000
R07  19684662.484 8 105373623.037 8      -908.086          51.000    19684664.289 8  81957187.964 8      -706.289          48.000
R08  20374933.953 8 109106825.961 8      3044.895          48.000    20374936.383 7  84860914.234 7      2368.254          42.000
R22  19804008.203 8 105715096.940 8     -1089.801          51.000    19804010.281 8  82222884.436 8      -847.626          49.000
C27  22310281.195 8 116175465.347 8     -1722.406          51.000
E04  25725272.516 8 135187213.268 8      2772.230          50.000    25725275.555 8 103585096.451 8      2124.207          50.000
E12  21888438.031 8 115024504.932 8      -679.438          50.000    21888437.734 8  88135664.037 8      -520.638          51.000
E19                                                                  25122650.461 5 101158505.106 5       118.437          35.000
> 2020 05 18 17 52  0.0000000  0 14        .000000000000
G03  23715631.805 5 124626512.045 5      3456.727          34.000    23715636.781 5  97111568.157 5      2693.559          33.000
G08  20579646.844 8 108146762.589 8     -1237.230          51.000    20579648.250 8  84270210.409 8      -964.079          51.000
G10  23123787.547 6 121516309.899 6     -2993.113          36.000
G11  20061986.000 6 105426431.075 6      1073.738          39.000    20061984.664 6  82150454.014 6       836.679          38.000
G14  22686323.828 6 119217477.688 6      2066.113          36.000    22686327.289 5  92896757.150 5      1609.961          35.000
G22  21773360.992 8 114419802.725 8      2274.828          51.000    21773359.383 8  89158270.369 8      1772.596          48.000
G27  22310041.938 8 117240050.238 8     -3062.770          48.000    22310042.719 8  91355871.849 8     -2386.577          48.000
R07  19689806.492 8 105401160.866 8      -935.105          51.000    19689808.609 8  81978606.275 8      -727.304          48.000
R08  20357912.992 8 109015679.912 8      3024.219          49.000    20357913.484 6  84790022.935 6      2352.176          41.000
R22  19810159.719 8 105747934.362 8     -1106.582          51.000    19810162.125 8  82248424.627 8      -860.675          49.000
C27  22320218.586 8 116227211.701 8     -1734.453          51.000
E04  25709448.148 8 135104053.209 8      2764.543          51.000    25709451.406 8 103521376.427 8      2118.298          50.000
E12  21892318.656 8 115044898.557 8      -687.129          50.000    21892318.852 8  88151290.314 8      -526.591          51.000
E19                                                                  25121791.742 5 101155049.440 5       106.216          32.000
> 2020 05 18 17 52 30.0000000  0 15        .000000000000
G03  23695904.656 5 124522849.694 5      3454.508          34.000    23695909.875 5  97030792.397 5      2691.827          33.000
G08  20586746.680 8 108184072.961 8     -1250.102          51.000    20586748.125 8  84299283.418 8      -974.105          51.000
G10  23140881.055 6 121606141.754 6     -2994.871          37.000
G11  20055885.836 6 105394374.982 6      1063.004          39.000    20055884.258 6  82125475.264 6       828.312          38.000
G14  22674557.023 6 119155640.610 6      2056.934          40.000    22674558.156 5  92848572.469 5      1602.805          31.000
G22  21760396.594 8 114351674.693 8      2267.062          51.000    21760394.023 7  89105183.630 7      1766.545          46.000
G27  22327544.289 8 117332025.649 8     -3068.902          49.000    22327545.625 8  91427540.945 8     -2391.356          49.000
R07  19695106.539 8 105429533.214 8      -956.430          51.000    19695108.617 7  82000673.663 7      -743.890          47.000
R08  20341012.906 8 108925182.097 8      3009.004          49.000    20341012.383 7  84719635.838 7      2340.339          42.000
R22  19816410.125 8 105781300.479 8     -1117.797          51.000    19816413.023 8  82274376.021 8      -869.398          49.000
C27  22330229.547 8 116279343.611 8     -1740.992          51.000
E04  25693673.859 8 135021154.768 8      2762.148          51.000    25693677.188 8 103457856.874 8      2116.398          49.000
E12  21896249.250 8 115065554.062 8      -689.598          50.000    21896249.633 8  88167117.243 8      -528.486          51.000
E19  25121028.820 5 132011893.745 5       128.355          33.000    25121027.656 5 101151969.470 5        98.290          31.000
E33  27143385.133 5 142639445.252 5     -2240.227          32.000
> 2020 05 18 17 53  0.0000000  0 15        .000000000000
G03  23676209.367 5 124419354.151 5      3445.812          34.000    23676213.836 5  96950146.688 5      2685.055          34.000
G08  20593938.969 8 108221868.888 8     -1269.016          51.000    20593940.672 8  84328734.788 8      -988.843          51.000
G10  23158004.109 6 121696119.364 6     -3003.180          36.000
G11  20049865.789 6 105362740.261 6      1046.027          40.000    20049864.367 6  82100824.836 6       815.086          38.000
G14  22662860.656 6 119094171.267 6      2041.773          41.000    22662860.484 6  92800674.365 6      1590.992          38.000
G22  21747495.914 8 114283881.087 8      2253.203          51.000    21747492.531 7  89052357.484 7      1755.746          45.000
G27  22345100.211 8 117424281.369 8     -3080.844          51.000    22345101.781 8  91499428.461 8     -2400.657          51.000
G32  22097100.320 5 116121049.744 5       788.117          30.000    22097108.016 4  90483956.523 4       614.126          26.000
R07  19700545.312 8 105458647.754 8      -983.852          51.000    19700547.609 7  82023318.312 7      -765.218          46.000
R08  20324217.367 8 108835244.709 8      2987.465          50.000    20324218.062 7  84649684.589 7      2323.584          45.000
R22  19822742.664 8 105815105.324 8     -1135.117          51.000    19822745.680 8  82300668.664 8      -882.869          49.000
C27  22340297.641 8 116331772.536 8     -1753.602          51.000
E04  25677932.664 8 134938430.587 8      2753.438          51.000    25677935.625 8 103394470.845 8      2109.705          48.000
E12  21900212.719 8 115086382.718 8      -698.289          49.000    21900213.164 8  88183076.849 8      -535.014          51.000
E19  25120341.891 5 132008287.518 5       111.855          34.000    25120344.266 5 101149216.925 5        86.082          30.000
> 2020 05 18 17 53 30.0000000  0 16        .000000000000
G03  23656558.828 5 124316092.589 5      3440.996          30.000    23656561.844 4  96869683.317 4      2681.308          29.000
G08  20601236.039 8 108260215.577 8     -1285.637          51.000    20601237.945 8  84358615.307 8     -1001.795          51.000
G10  23175170.578 5 121786317.780 5     -3009.199          33.000
G11  20043938.930 6 105331594.294 6      1031.586          41.000    20043938.008 6  82076555.246 6       803.833          37.000
G14  22651246.945 6 119033137.887 6      2028.719          41.000    22651247.070 6  92753115.931 6      1580.823          38.000
G22  21734671.516 8 114216488.220 8      2241.387          51.000    21734668.219 7  88999843.596 7      1746.538          46.000
G27  22362721.820 8 117516881.218 8     -3090.742          51.000    22362723.469 8  91571584.154 8     -2408.371          51.000
G32  22092657.609 5 116097706.797 5       770.016          32.000    22092660.039 4  90465724.320 4       600.003          28.000
R07  19706134.719 8 105488568.895 8     -1009.141          51.000    19706136.914 7  82046590.314 7      -784.887          46.000
R08  20307539.711 8 108745937.679 8      2968.055          49.000    20307541.805 7  84580223.579 7      2308.487          47.000
R21  23578580.547 4 126173746.410 4     -3441.938          29.000
R22  19829170.203 8 105849415.803 8     -1150.398          51.000    19829173.484 8  82327354.573 8      -894.757          50.000
C27  22350435.945 8 116384563.223 8     -1764.008          51.000
E04  25662236.930 8 134855947.964 8      2746.957          50.000    25662239.453 7 103331269.913 7      2104.847          45.000
E12  21904221.555 8 115107450.476 8      -704.609          49.000    21904222.242 8  88199219.671 8      -539.881          50.000
E19  25119745.641 6 132005163.202 6        97.945          36.000
> 2020 05 18 17 54  0.0000000  0 13        .000000000000
G08  20608622.742 8 108299033.769 8     -1302.738          51.000    20608624.867 8  84388863.225 8     -1015.121          51.000
G11  20038090.531 6 105300859.706 6      1016.773          41.000    20038089.336 6  82052606.216 6       792.291          38.000
G14  22639701.266 6 118972464.184 6      2015.543          41.000    22639702.102 6  92705837.779 6      1570.556          38.000
G22  21721908.492 8 114149418.729 8      2229.285          51.000    21721905.711 7  88947581.654 7      1737.105          46.000
G27  22380393.672 8 117609744.936 8     -3100.809          51.000    22380395.406 8  91643945.491 8     -2416.211          51.000
G32  22088319.383 5 116074897.744 5       750.758          33.000    22088327.617 5  90447951.058 5       585.009          31.000
R07  19711859.789 8 105519214.957 8     -1034.520          51.000    19711862.117 7  82070426.153 7      -804.623          46.000
R08  20290965.617 8 108657183.799 8      2948.371          50.000    20290968.875 8  84511192.808 8      2293.178          49.000
R22  19835677.750 8 105884152.842 8     -1165.961          51.000    19835680.836 8  82354372.244 8      -906.859          51.000
C27  22360628.820 8 116437637.653 8     -1774.789          51.000
E04  25646571.594 7 134773630.140 7      2740.176          47.000    25646573.242 7 103268195.323 7      2099.585          43.000
E12  21908261.023 8 115128679.236 8      -711.305          49.000    21908261.852 8  88215485.856 8      -545.029          51.000
E19  25119227.164 6 132002436.359 6        83.195          36.000
> 2020 05 18 17 54 30.0000000  0 14        .000000000000
G03  23617349.023 5 124110035.997 5      3430.203          33.000    23617332.133 5  96709030.676 5      2672.895          33.000
G08  20616082.023 8 108338233.429 8     -1316.395          51.000    20616084.094 8  84419408.391 8     -1025.762          51.000
G11  20032303.820 6 105270448.752 6      1004.598          41.000    20032301.875 6  82028909.365 6       782.803          40.000
G14  22628207.930 7 118912063.283 7      2005.281          43.000    22628208.641 6  92658772.136 6      1562.557          36.000
G22  21709190.039 8 114082584.118 8      2220.449          51.000    21709188.086 7  88895502.731 7      1730.220          47.000
G27  22398098.234 8 117702781.752 8     -3107.438          51.000    22398100.141 8  91716441.697 8     -2421.380          51.000
G32  22084060.344 5 116052521.446 5       735.055          34.000    22084066.578 5  90430515.018 5       572.767          35.000
R07  19717702.898 8 105550493.467 8     -1056.520          51.000    19717704.719 7  82094753.899 7      -821.737          45.000
R08  20274479.117 8 108568895.467 8      2931.715          51.000    20274482.430 8  84442524.120 8      2280.223          49.000
R22  19842248.367 8 105919226.388 8     -1178.188          51.000    19842251.219 8  82381651.646 8      -916.368          51.000
C27  22370859.062 8 116490907.195 8     -1782.250          51.000
E04  25630920.195 7 134691389.717 7      2736.574          46.000    25630921.594 7 103205180.021 7      2096.877          44.000
E12  21912314.297 8 115149980.258 8      -714.602          49.000    21912315.133 8  88231807.404 8      -547.558          50.000
E19  25118766.406 6 132000017.742 6        72.086          38.000
> 2020 05 18 17 55  0.0000000  0 14        .000000000000
G03  23597810.062 6 124007366.150 6      3420.031          38.000    23597795.812 6  96629028.395 6      2664.966          37.000
G08  20623669.727 8 108378108.582 8     -1336.512          51.000    20623671.953 8  84450479.898 8     -1041.441          51.000
G11  20026634.719 7 105240656.850 7       986.523          42.000    20026632.516 6  82005694.903 6       768.720          40.000
G14  22616823.102 7 118852231.620 7      1988.695          42.000    22616823.148 6  92612150.117 6      1549.636          38.000
G22  21696572.555 8 114016278.890 8      2205.340          51.000    21696570.695 7  88843836.343 7      1718.450          47.000
G27  22415891.000 8 117796283.744 8     -3120.488          49.000    22415893.242 8  91789300.365 8     -2431.549          49.000
G32  22079941.406 5 116030872.960 5       713.750          31.000    22079948.398 4  90413646.026 4       556.172          28.000
R07  19723719.898 8 105582701.397 8     -1085.051          51.000    19723721.328 7  82119804.509 7      -843.928          45.000
R08  20258136.336 8 108481375.036 8      2908.535          51.000    20258138.914 8  84374452.682 8      2262.194          49.000
R22  19848937.938 8 105954935.562 8     -1196.871          51.000    19848940.398 8  82409425.429 8      -930.903          51.000
C27  22381182.531 8 116544662.716 8     -1796.047          51.000
E04  25615340.469 8 134609522.172 8      2726.559          48.000    25615342.844 7 103142450.390 7      2089.244          47.000
E12  21916437.422 8 115171647.742 8      -724.348          49.000    21916438.164 8  88248409.758 8      -555.100          51.000
E19  25118421.141 6 131998201.093 6        54.195          37.000
> 2020 05 18 17 55 30.0000000  0 13        .000000000000
G03  23578303.219 6 123904861.064 6      3413.805          41.000    23578292.688 6  96549154.482 6      2660.114          41.000
G08  20631347.461 8 108418456.503 8     -1353.098          51.000    20631349.852 8  84481919.815 8     -1054.362          51.000
G11  20021045.391 7 105211283.985 7       971.773          43.000    20021043.531 6  81982806.943 6       757.226          40.000
G14  22605508.117 7 118792769.749 7      1975.504          43.000    22605506.648 6  92565816.180 6      1539.351          36.000
G22  21684017.789 8 113950302.279 8      2193.414          51.000    21684014.797 7  88792426.035 7      1709.154          46.000
G27  22433733.125 8 117890047.279 8     -3130.082          48.000    22433735.711 8  91862362.818 8     -2439.025          48.000
R07  19729871.609 8 105615631.127 8     -1109.980          51.000    19729873.219 7  82145416.540 7      -863.315          45.000
R08  20241898.867 8 108394419.693 8      2888.809          50.000    20241900.562 8  84306820.759 8      2246.854          48.000
R22  19855708.125 8 105991075.460 8     -1212.215          51.000    19855710.547 8  82437534.228 8      -942.834          50.000
C27  22391560.406 8 116598703.899 8     -1806.441          51.000
E04  25599794.289 8 134527827.411 8      2719.805          49.000    25599797.578 8 103079853.112 8      2084.066          50.000
E12  21920592.094 8 115193480.256 8      -730.824          49.000    21920592.633 8  88265138.532 8      -559.976          50.000
E19  25118151.688 6 131996784.330 6        40.332          38.000
> 2020 05 18 17 56  0.0000000  0 14        .000000000000
G03  23558831.000 7 123802543.388 7      3404.625          43.000    23558825.414 7  96469426.567 7      2652.958          43.000
G08  20639118.961 8 108459297.320 8     -1372.230          50.000    20639121.477 8  84513743.818 8     -1069.270          50.000
G11  20015539.875 7 105182352.329 7       954.379          43.000    20015538.453 6  81960262.785 6       743.669          40.000
G14  22594268.102 7 118733700.934 7      1959.840          45.000    22594266.617 6  92519788.581 6      1527.148          39.000
G22  21671529.656 8 113884676.092 8      2178.949          51.000    21671525.625 7  88741288.797 7      1697.886          44.000
G27  22451628.859 8 117984091.614 8     -3142.207          49.000    22451631.250 8  91935644.062 8     -2448.473          49.000
G32  22072009.102 6 115989222.984 6       673.844          36.000    22072013.359 6  90381213.342 6       525.067          38.000
R07  19736161.695 8 105649302.144 8     -1137.410          51.000    19736163.383 7  82171605.116 7      -884.652          46.000
R08  20225770.773 8 108308053.655 8      2866.152          50.000    20225772.000 7  84239647.181 7      2229.227          47.000
R22  19862563.039 8 106027667.994 8     -1230.016          51.000    19862565.383 8  82465995.087 8      -956.676          49.000
C27  22401997.070 8 116653051.237 8     -1819.320          51.000
E04  25584285.398 8 134446328.133 8      2710.648          48.000    25584289.766 8 103017405.633 8      2077.044          51.000
E12  21924782.234 8 115215499.178 8      -739.758          50.000    21924782.602 8  88282010.152 8      -566.824          51.000
E19  25117962.477 6 131995788.457 6        23.684          36.000
> 2020 05 18 17 56 30.0000000  0 14        .000000000000
G03  23539403.797 7 123700464.537 7      3403.082          43.000    23539402.516 7  96389884.746 7      2651.758          43.000
G08  20646993.797 8 108500680.932 8     -1383.914          50.000    20646996.414 8  84545990.776 8     -1078.378          50.000
G11  20010128.125 7 105153913.172 7       944.254          44.000    20010126.352 6  81938102.396 6       735.782          40.000
G14  22583112.906 7 118675077.403 7      1951.129          46.000    22583111.859 6  92474107.958 6      1520.363          40.000
G22  21659117.781 8 113819451.154 8      2171.996          51.000    21659113.859 7  88690464.200 7      1692.464          45.000
G27  22469587.484 8 118078464.792 8     -3146.637          50.000    22469589.234 8  92009181.592 8     -2451.925          50.000
G32  22068214.297 6 115969245.055 6       660.406          37.000    22068212.867 6  90365639.088 6       514.602          37.000
R07  19742599.117 8 105683762.951 8     -1157.258          51.000    19742601.172 7  82198407.975 7      -900.089          46.000
R08  20209762.648 8 108222330.990 8      2851.262          50.000    20209763.438 7  84172973.993 7      2217.648          46.000
R22  19869511.984 8 106064764.334 8     -1240.426          51.000    19869514.688 8  82494847.766 8      -964.776          49.000
C27  22412501.758 8 116707753.887 8     -1824.867          51.000
E04  25568823.445 8 134365075.983 8      2708.809          49.000    25568828.883 8 102955147.490 8      2075.542          51.000
E12  21929017.492 8 115237754.780 8      -741.375          50.000    21929017.477 8  88299063.133 8      -568.102          51.000
E19  25117863.406 6 131995263.464 6        14.340          36.000
> 2020 05 18 17 57  0.0000000  0 14        .000000000000
G03  23520014.680 7 123598586.332 7      3391.500          42.000    23520016.516 7  96310499.233 7      2642.730          42.000
G08  20654964.711 8 108542566.531 8     -1405.664          51.000    20654967.047 8  84578628.901 8     -1095.323          51.000
G11  20004802.828 7 105125928.264 7       924.195          44.000    20004800.508 7  81916295.975 7       720.152          42.000
G14  22572035.141 7 118616862.038 7      1932.566          45.000    22572034.633 6  92428745.380 6      1505.896          40.000
G22  21646774.867 8 113754588.318 8      2154.980          51.000    21646771.695 7  88639921.736 7      1679.209          45.000
G27  22487600.906 8 118173125.355 8     -3161.230          50.000    22487602.234 8  92082943.037 8     -2463.296          50.000
G32  22064513.812 6 115949833.893 6       636.234          36.000    22064514.953 5  90350513.271 5       495.767          35.000
R07  19749176.656 8 105718971.091 8     -1187.191          50.000    19749178.312 7  82225792.075 7      -923.371          46.000
R08  20193867.211 8 108137214.016 8      2825.910          50.000    20193868.266 7  84106771.947 7      2197.933          46.000
R22  19876548.484 8 106102324.283 8     -1260.883          51.000    19876551.023 8  82524061.045 8      -980.687          49.000
C27  22423067.156 8 116762772.114 8     -1840.301          50.000
E04  25553401.594 8 134284032.860 8      2696.922          49.000    25553406.984 8 102893049.498 8      2066.458          51.000
E12  21933290.320 8 115260207.691 8      -752.832          50.000    21933290.094 8  88316267.285 8      -576.768          51.000
E19                                                                  25117847.922 5 101139166.890 5        -3.487          31.000
> 2020 05 18 17 57 30.0000000  0 14        .000000000000
G03  23500668.922 6 123496935.015 6      3385.609          40.000    23500672.766 6  96231290.532 6      2638.140          39.000
G08  20663036.070 8 108584978.247 8     -1421.438          51.000    20663037.945 8  84611676.995 8     -1107.614          51.000
G11  19999568.945 7 105098423.703 7       909.953          45.000    19999566.438 7  81894863.846 7       709.054          42.000
G14  22561039.844 7 118559081.612 7      1919.887          44.000    22561039.570 6  92383721.699 6      1496.016          38.000
G22  21634505.688 8 113690113.102 8      2143.789          51.000    21634502.852 7  88589681.290 7      1670.485          45.000
G27  22505673.617 8 118268096.188 8     -3169.750          50.000    22505674.648 8  92156946.262 8     -2469.938          50.000
G32  22060928.250 5 115931010.082 5       618.824          35.000    22060935.398 5  90335845.512 5       482.204          34.000
R07  19755897.680 8 105754949.491 8     -1210.996          50.000    19755899.312 7  82253775.281 7      -941.886          46.000
R08  20178089.883 8 108052730.356 8      2806.613          50.000    20178091.492 7  84041062.481 7      2182.921          47.000
R22  19883676.609 8 106140373.768 8     -1275.461          51.000    19883679.078 8  82553655.041 8      -992.025          48.000
C27  22433697.828 8 116818130.157 8     -1849.906          50.000
E04  25538024.672 8 134203225.158 8      2690.715          50.000    25538029.656 8 102831131.921 8      2061.663          51.000
E12  21937605.477 8 115282883.000 8      -758.523          50.000    21937605.258 8  88333641.858 8      -581.212          51.000
E19                                                                  25117912.281 5 101139427.448 5       -14.307          32.000
> 2020 05 18 17 58  0.0000000  0 13        .000000000000
G03  23481357.055 6 123395460.072 6      3380.250          38.000    23481361.680 6  96152219.272 6      2633.967          37.000
G08  20671197.008 8 108627863.434 8     -1436.816          51.000    20671199.016 8  84645094.020 8     -1119.597          51.000
G11  19994416.852 7 105071348.901 7       895.711          46.000    19994414.375 7  81873766.586 7       697.957          43.000
G14  22550117.648 7 118501686.420 7      1907.219          42.000    22550117.711 6  92338998.181 6      1486.144          39.000
G22  21622300.453 8 113625974.191 8      2132.934          51.000    21622297.672 7  88539702.938 7      1662.029          45.000
G27  22523795.000 8 118363323.496 8     -3177.938          50.000    22523796.367 8  92231149.311 8     -2476.315          50.000
R07  19762752.219 8 105791642.731 8     -1234.457          49.000    19762754.016 7  82282314.463 7      -960.133          46.000
R08  20162421.852 8 107968829.884 8      2787.391          51.000    20162423.898 8  83975806.593 8      2167.974          48.000
R22  19890886.742 8 106178860.052 8     -1289.605          51.000    19890888.672 8  82583588.788 8     -1003.030          48.000
C27  22444384.008 8 116873776.031 8     -1859.051          51.000
E04  25522683.125 8 134122602.506 8      2684.824          51.000    25522687.492 8 102769356.129 8      2057.179          51.000
E12  21941953.141 8 115305729.033 8      -763.859          51.000    21941952.867 8  88351147.243 8      -585.289          51.000
E19                                                                  25118060.133 5 101140013.080 5       -23.996          35.000
> 2020 05 18 17 58 30.0000000  0 14        .000000000000
G03  23462094.766 5 123294125.352 5      3378.809          35.000    23462083.375 5  96073315.831 5      2632.838          35.000
G08  20679450.266 8 108671235.471 8     -1448.398          51.000    20679452.875 8  84678890.387 8     -1128.622          51.000
G11  19989349.555 7 105044719.411 7       885.559          46.000    19989347.328 7  81853016.338 7       690.043          43.000
G14  22539270.914 6 118444693.174 6      1898.344          40.000    22539271.539 5  92294587.841 5      1479.229          35.000
G22  21610162.008 8 113562186.661 8      2125.840          51.000    21610158.781 7  88489998.421 7      1656.502          45.000
G27  22541967.312 7 118458819.746 7     -3182.160          47.000    22541969.062 7  92305561.933 7     -2479.605          47.000
G32  22054074.000 4 115894940.329 4       587.066          29.000    22054083.188 4  90307760.221 4       457.463          29.000
R07  19769742.492 8 105829063.163 8     -1253.992          50.000    19769744.742 7  82311419.236 7      -975.330          46.000
R08  20146866.344 8 107885530.323 8      2772.148          50.000    20146868.500 8  83911018.056 8      2156.115          48.000
R22  19898181.430 8 106217798.129 8     -1300.039          51.000    19898183.727 8  82613873.917 8     -1011.141          50.000
C27  22455128.234 8 116929723.570 8     -1864.629          51.000
E04  25507379.836 8 134042180.888 8      2682.797          51.000    25507383.047 8 102707734.401 8      2055.694          50.000
E12  21946336.188 8 115328760.465 8      -765.422          51.000    21946335.703 8  88368794.678 8      -586.495          51.000
E19                                                                  25118286.320 6 101140918.455 6       -31.350          36.000
> 2020 05 18 17 59  0.0000000  0 13        .000000000000
G08  20687773.086 8 108714971.361 8     -1476.906          51.000    20687775.867 8  84712970.299 8     -1150.839          51.000
G11  19984343.961 7 105018413.976 7       858.395          47.000    19984341.680 7  81832518.607 7       668.879          43.000
G14  22528477.414 6 118387981.211 6      1872.840          41.000    22528478.492 5  92250396.747 5      1459.359          32.000
G22  21598067.180 8 113498628.840 8      2101.855          51.000    21598063.516 7  88440472.896 7      1637.809          46.000
G27  22560166.555 7 118554460.308 7     -3203.414          46.000    22560169.078 7  92380087.027 7     -2496.167          46.000
G32  22050781.961 5 115877642.467 5       557.039          34.000    22050787.508 5  90294278.534 5       434.056          35.000
R07  19776845.227 8 105867083.629 8     -1290.449          49.000    19776847.312 7  82340990.699 7     -1003.683          45.000
R08  20131399.906 8 107802708.925 8      2739.555          49.000    20131402.398 7  83846601.429 7      2130.765          47.000
R22  19905537.156 8 106257063.343 8     -1327.543          51.000    19905539.734 8  82644413.500 8     -1032.533          50.000
C27  22465907.133 8 116985850.719 8     -1886.664          51.000
E04  25492091.711 8 133961839.199 8      2663.809          51.000    25492092.477 8 102646173.954 8      2041.082          48.000
E12  21950731.180 8 115351854.822 8      -783.691          51.000    21950730.578 8  88386490.344 8      -600.431          51.000
E19                                                                  25118566.617 6 101142049.302 6       -51.239          37.000
> 2020 05 18 17 59 30.0000000  0 13        .000000000000
G08  20696215.273 8 108759335.923 8     -1478.473          51.000    20696218.375 8  84747540.066 8     -1152.060          51.000
G10  23383572.453 5 122881452.770 5     -3065.328          34.000    23383574.742 5  95751822.503 5     -2388.564          33.000
G11  19979450.852 7 104992700.128 7       858.062          47.000    19979448.570 7  81812481.828 7       668.620          44.000
G14  22517790.219 7 118331819.140 7      1873.816          43.000    22517789.945 5  92206634.177 5      1460.117          34.000
G22  21586066.766 8 113435567.113 8      2104.574          51.000    21586063.031 7  88391333.898 7      1639.928          46.000
G27  22578443.773 7 118650509.542 7     -3197.680          46.000    22578446.750 7  92454930.556 7     -2491.698          46.000
R07  19784109.758 8 105905972.572 8     -1299.828          50.000    19784111.672 7  82371237.657 7     -1010.977          46.000
R08  20116073.734 8 107720639.738 8      2734.188          48.000    20116076.328 7  83782769.845 7      2126.590          46.000
R22  19913004.828 8 106296926.716 8     -1327.840          51.000    19913007.312 8  82675418.349 8     -1032.764          50.000
C27  22476770.758 8 117042420.852 8     -1882.297          51.000
E04  25476869.609 8 133881845.273 8      2671.457          50.000    25476867.547 8 102584879.982 8      2047.023          48.000
E12  21955188.633 8 115375278.665 8      -775.398          50.000    21955188.078 8  88404438.466 8      -594.130          51.000
E19                                                                  25118954.719 6 101143609.488 6       -50.829          39.000
