     3.02           OBSERVATION DATA    M (MIXED)           RINEX VERSION / TYPE
SAVERINEX           SC600               20200506 165931 LCL PGM / RUN BY / DATE
       G = GPS       R = GLONASS       C = COMPASS          COMMENT
       S = SBAS      J = QZSS          E = GALILEO          COMMENT
BEAN                                                        MARKER NAME
1                                                           MARKER NUMBER
GEODETIC                                                    MARKER TYPE
Unige DICCA         GTER                                    OBSERVER / AGENCY
SC60291900056       SC600               2.12(191226)        REC # / TYPE / VERS
                    HEMA45          NONE                    ANT # / TYPE
  4509407.8091   693652.4678  4442337.6214                  APPROX POSITION XYZ
        0.0000        0.0000        0.0000                  ANTENNA: DELTA H/E/N
G    8 C1C L1C D1C S1C C2Y L2Y D2Y S2Y                      SYS / # / OBS TYPES
R    8 C1C L1C D1C S1C C2P L2P D2P S2P                      SYS / # / OBS TYPES
C    8 C1I L1I D1I S1I C7I L7I D7I S7I                      SYS / # / OBS TYPES
E    8 C1C L1C D1C S1C C7Q L7Q D7Q S7Q                      SYS / # / OBS TYPES
DBHZ                                                        COMMENT
     30.000                                                 INTERVAL
  2020    05    06    14    00    0.0000000     GPS         TIME OF FIRST OBS
  2020    05    06    14    59   30.0000000     GPS         TIME OF LAST OBS
     0                                                      RCV CLOCK OFFS APPL
G L1C  0.00000                                              SYS / PHASE SHIFT
G L2Y  0.00000                                              SYS / PHASE SHIFT
R L1C  0.00000                                              SYS / PHASE SHIFT
R L2P  0.25000                                              SYS / PHASE SHIFT
C L1I  0.00000                                              SYS / PHASE SHIFT
C L7I  0.00000                                              SYS / PHASE SHIFT
E L1C  0.50000                                              SYS / PHASE SHIFT
E L7Q -0.25000                                              SYS / PHASE SHIFT
 14 R01  1 R02 -4 R07  5 R08  6 R10 -5 R11  0 R12 -1 R13 -2 GLONASS SLOT / FRQ #
    R14 -7 R15  0 R17  4 R18 -3 R22 -3 R23  3               GLONASS SLOT / FRQ #
 C1C   71.950 C2C   71.950 C2P   71.950                     GLONASS COD/PHS/BIS
    18                                                      LEAP SECONDS
*** Above antenna height is from mark to ANTENNA BOTTOM.    COMMENT
    17     4        0.0000        ANT MEASURE TYPE/HEIGT    COMMENT
    0.0000    0.0000    0.0458    0.0405    0.0000          COMMENT
                    BASE STATION                            COMMENT
                                                            END OF HEADER
> 2020 05 06 14 00  0.0000000  0 16        .000000000000
G18  20377409.156 8 107084078.445 8      -520.891          50.000    20377409.461 8  83442101.346 8      -405.889          50.000
G20  23196599.961 7 121898971.618 7      3144.133          45.000    23196603.258 7  94986217.679 7      2449.974          45.000
G21  20759422.438 8 109091575.343 8      -697.562          48.000    20759421.094 8  85006368.945 8      -543.555          49.000
G26  20344722.227 8 106912241.967 8       644.223          49.000    20344723.602 8  83308240.781 8       501.992          49.000
G29  22649097.141 6 119021796.545 6     -2600.320          36.000    22649125.648 5  92744350.991 5     -2026.233          35.000
G31  23074326.539 7 121256370.891 7     -3036.051          47.000    23074325.594 7  94485498.345 7     -2365.757          47.000
R14  19553176.773 8 104229414.032 8     -1680.105          51.000    19553181.008 8  81067331.078 8     -1306.749          50.000
R17  20598199.406 6 110225133.988 6      2208.688          38.000    20598200.570 5  85730647.979 5      1717.874          34.000
R23  21580252.812 5 115439794.633 5     -3242.480          31.000
R24  19523254.477 6 104399666.806 6     -1204.461          39.000    19523256.055 5  81199697.808 5      -936.803          33.000
C11  24178351.656 6 125903023.783 6      2265.230          41.000    24178370.859 5  97356276.448 5      1751.424          32.000
C12  21561798.828 8 112278078.281 8       -47.973          48.000    21561798.289 8  86820544.243 8       -37.077          51.000
C24  23437617.062 8 122045804.719 8     -2565.926          51.000
E02                                                                  27734716.219 5 111676208.380 5     -2354.307          33.000
E15  23506675.727 8 123528487.805 8      1223.434          51.000    23506679.109 8  94651715.396 8       937.433          51.000
E30  22797151.430 8 119799823.129 8     -1734.699          51.000    22797153.070 8  91794675.041 8     -1329.149          51.000
> 2020 05 06 14 00 30.0000000  0 15        .000000000000
G18  20380431.852 8 107099964.027 8      -538.598          50.000    20380432.188 8  83454479.720 8      -419.686          50.000
G20  23178666.094 7 121804726.852 7      3138.254          46.000    23178669.070 7  94912780.241 7      2445.393          44.000
G21  20763443.172 8 109112704.963 8      -711.422          48.000    20763441.797 8  85022833.576 8      -554.355          48.000
G26  20341088.242 8 106893145.417 8       628.305          49.000    20341089.945 8  83293360.347 8       489.588          49.000
G31  23091679.609 7 121347557.500 7     -3043.648          45.000    23091677.367 7  94556552.796 7     -2371.677          45.000
R14  19562700.164 8 104280179.398 8     -1704.676          51.000    19562704.273 8  81106815.236 8     -1325.862          49.000
R17  20585850.430 6 110159063.946 6      2195.715          40.000    20585849.234 4  85679260.297 4      1707.781          29.000
R23  21598449.297 5 115537134.265 5     -3246.355          31.000
R24  19530049.094 7 104435999.609 7     -1218.434          42.000    19530049.438 5  81227956.645 5      -947.674          32.000
C11  24165316.914 6 125835141.605 6      2259.609          39.000
C12  21562098.656 8 112279639.257 8       -56.590          48.000    21562097.938 8  86821751.296 8       -43.834          51.000
C24  23452426.914 8 122122929.793 8     -2576.273          50.000
E02                                                                  27752263.406 5 111746869.120 5     -2356.504          34.000
E15  23499716.859 8 123491918.470 8      1214.008          51.000    23499720.008 8  94623694.735 8       930.226          51.000
E30  22807083.953 8 119852017.593 8     -1745.410          51.000    22807084.969 8  91834668.173 8     -1337.428          51.000
> 2020 05 06 14 01  0.0000000  0 15        .000000000000
G18  20383572.570 8 107116469.146 8      -558.602          50.000    20383572.672 8  83467340.850 8      -435.274          49.000
G20  23160782.969 7 121710748.274 7      3130.020          46.000    23160784.836 7  94839550.248 7      2438.979          42.000
G21  20767561.234 8 109134346.231 8      -728.121          48.000    20767560.078 8  85039696.907 8      -567.367          48.000
G26  20337562.391 8 106874616.921 8       609.965          49.000    20337564.398 8  83278922.526 8       475.297          49.000
G29  22678844.578 5 119178125.129 5     -2610.270          35.000    22678867.406 5  92866131.842 5     -2033.985          34.000
G31  23109092.180 6 121439059.456 6     -3053.594          38.000    23109089.570 6  94627852.979 6     -2379.427          39.000
R14  19572379.367 8 104331775.643 8     -1731.840          51.000    19572383.578 8  81146945.606 8     -1346.990          49.000
R17  20573592.984 6 110093480.359 6      2179.895          38.000    20573587.828 4  85628225.953 4      1695.477          28.000
R24  19536939.750 6 104472844.833 6     -1234.770          39.000    19536940.625 5  81256614.066 5      -960.373          32.000
C11  24152329.805 6 125767515.847 6      2251.664          37.000
C12  21562466.297 7 112281553.699 7       -68.027          47.000    21562465.344 8  86823231.649 8       -52.506          51.000
C24  23467314.750 8 122200458.114 8     -2589.172          50.000
E02                                                                  27769839.336 5 111817649.272 5     -2359.796          35.000
E15  23492828.812 8 123455722.940 8      1202.148          51.000    23492831.758 8  94595960.513 8       921.109          51.000
E30  22817094.898 8 119904625.797 8     -1758.668          51.000    22817095.828 8  91874978.318 8     -1347.563          51.000
> 2020 05 06 14 01 30.0000000  0 14        .000000000000
G18  20386806.508 8 107133463.644 8      -575.160          50.000    20386806.703 8  83480583.328 8      -448.174          50.000
G20  23142926.117 7 121616909.791 7      3124.992          45.000    23142926.305 6  94766429.420 6      2435.062          40.000
G21  20771751.953 8 109156368.514 8      -741.008          49.000    20771750.859 8  85056857.130 8      -577.409          49.000
G26  20334120.281 8 106856528.596 8       595.008          50.000    20334122.375 8  83264827.718 8       463.645          50.000
R14  19582189.656 8 104384069.919 8     -1755.387          51.000    19582193.859 8  81187618.887 8     -1365.301          48.000
R17  20561402.266 5 110028252.188 5      2167.312          32.000    20561399.891 5  85577492.990 5      1685.691          31.000
R24  19543900.852 5 104510068.927 5     -1247.379          35.000    19543902.156 4  81285566.206 4      -970.181          28.000
C05  39616919.242 5 206295689.508 5        11.289          35.000    39616923.289 6 159520931.038 6         8.473          36.000
C11  24139366.773 6 125700018.726 6      2247.051          36.000
C12  21562877.148 8 112283693.116 8       -75.582          48.000    21562876.258 8  86824885.987 8       -58.472          51.000
C24  23482256.188 8 122278259.888 8     -2598.477          51.000
E02  27787416.867 5 146023865.790 5     -3081.164          34.000    27787420.469 6 111888449.081 6     -2360.898          37.000
E15  23485987.227 8 123419772.101 8      1193.660          51.000    23485990.133 8  94568413.778 8       914.674          51.000
E30  22827159.656 8 119957518.050 8     -1768.414          51.000    22827160.969 8  91915506.114 8     -1354.977          51.000
> 2020 05 06 14 02  0.0000000  0 14        .000000000000
G18  20390145.438 8 107151009.445 8      -597.371          50.000    20390145.422 8  83494255.373 8      -465.487          50.000
G20  23125108.289 7 121523277.406 7      3114.062          43.000    23125106.562 6  94693469.196 6      2426.548          39.000
G21  20776026.953 8 109178833.478 8      -759.594          50.000    20776025.656 8  85074362.310 8      -591.891          50.000
G26  20330774.258 8 106838944.714 8       574.430          51.000    20330776.250 8  83251125.995 8       447.608          51.000
G31  23144046.070 5 121622770.218 5     -3071.914          31.000    23144036.516 5  94770956.034 5     -2393.708          32.000
R14  19592142.422 8 104437124.489 8     -1784.512          51.000    19592146.648 8  81228883.514 8     -1387.954          48.000
R23  21653197.680 5 115830005.955 5     -3264.754          32.000
R24  19550944.164 6 104547734.027 6     -1266.145          38.000    19550944.328 4  81314861.279 4      -984.776          29.000
C11  24126440.820 6 125632712.866 6      2237.371          36.000    24126452.422 5  97147220.766 5      1729.962          33.000
C12  21563343.109 7 112286119.373 7       -88.941          47.000    21563342.422 8  86826762.135 8       -68.811          51.000
C24  23497262.227 8 122356395.649 8     -2613.371          51.000
E13  27450769.898 7 144254767.370 7      2703.066          43.000    27450770.219 6 110532879.448 6      2071.106          36.000
E15  23479204.445 8 123384128.945 8      1179.578          51.000    23479207.266 8  94541102.796 8       903.839          51.000
E30  22837290.430 8 120010756.855 8     -1783.738          51.000    22837291.875 8  91956299.481 8     -1366.761          51.000
> 2020 05 06 14 02 30.0000000  0 14        .000000000000
G18  20393595.719 8 107169140.559 8      -609.609          49.000    20393595.367 8  83508383.528 8      -475.017          50.000
G20  23107336.836 7 121429889.057 7      3113.160          44.000    23107334.094 6  94620699.146 6      2425.842          38.000
G21  20780392.734 8 109201774.990 8      -768.164          51.000    20780391.289 8  85092238.823 8      -598.569          50.000
G26  20327531.164 8 106821901.687 8       563.562          51.000    20327533.133 8  83237845.696 8       439.137          51.000
G31  23161595.797 6 121714975.557 6     -3073.414          36.000    23161586.000 5  94842804.264 5     -2394.871          35.000
R14  19602244.656 8 104490973.352 8     -1803.730          51.000    19602248.656 8  81270765.941 8     -1402.901          48.000
R17  20537271.367 6 109899087.479 6      2141.969          39.000    20537268.477 4  85477047.589 4      1665.979          29.000
R24  19558075.844 6 104585873.788 6     -1274.598          39.000    19558078.484 5  81344525.655 5      -991.348          30.000
C11  24113558.375 5 125565633.463 5      2237.020          32.000    24113571.727 5  97095350.727 5      1729.482          35.000
C12  21563870.422 7 112288866.755 7       -92.484          47.000    21563869.977 8  86828886.591 8       -71.708          51.000
C24  23512338.586 8 122434898.270 8     -2618.480          51.000
E13  27435338.906 7 144173676.707 7      2704.562          43.000    27435338.641 6 110470745.138 6      2072.345          38.000
E15  23472487.016 8 123348828.552 8      1175.379          51.000    23472489.773 8  94514054.443 8       900.570          51.000
E30  22847493.852 8 120064376.779 8     -1789.336          51.000    22847495.133 8  91997384.897 8     -1371.065          51.000
> 2020 05 06 14 03  0.0000000  0 15        .000000000000
G18  20397121.703 8 107187669.717 8      -627.887          51.000    20397121.672 8  83522821.838 8      -489.262          50.000
G20  23089577.445 7 121336561.698 7      3106.305          45.000    23089574.484 6  94547976.584 6      2420.497          39.000
G21  20784813.438 8 109225005.451 8      -782.824          50.000    20784812.094 8  85110340.515 8      -609.993          50.000
G26  20324355.812 8 106805214.560 8       546.680          51.000    20324357.742 8  83224842.739 8       425.984          51.000
G29  22738629.609 5 119492320.379 5     -2624.879          30.000
G31  23179138.375 6 121807180.918 6     -3081.582          41.000    23179152.242 6  94914744.313 6     -2401.236          40.000
R14  19612460.203 8 104545426.169 8     -1828.832          51.000    19612463.938 8  81313118.097 8     -1422.425          49.000
R17  20525297.320 6 109835001.735 6      2127.914          39.000    20525289.758 4  85427201.109 4      1655.044          28.000
R24  19565261.094 6 104624296.844 6     -1288.828          36.000    19565264.273 4  81374410.199 4     -1002.428          29.000
C11                                                                  24100696.266 5  97043513.366 5      1724.429          35.000
C12  21564423.961 7 112291750.213 7      -101.945          47.000    21564423.461 8  86831116.244 8       -78.903          51.000
C24  23527449.188 8 122513581.391 8     -2629.289          51.000
E13  27419903.977 7 144092565.276 7      2700.355          45.000    27419903.180 6 110408594.880 6      2069.080          37.000
E15  23465799.125 8 123313684.761 8      1165.215          51.000    23465802.320 8  94487126.092 8       892.824          51.000
E30  22857734.133 8 120118191.152 8     -1800.648          51.000    22857735.531 8  92038619.288 8     -1379.760          51.000
> 2020 05 06 14 03 30.0000000  0 16        .000000000000
G18  20400767.969 8 107206830.531 8      -647.297          50.000    20400767.859 8  83537752.341 8      -504.387          50.000
G20  23071875.133 7 121243533.365 7      3097.727          46.000    23071872.594 6  94475487.024 6      2413.816          39.000
G21  20789333.469 8 109248758.219 8      -798.488          50.000    20789332.188 8  85128849.186 8      -622.196          50.000
G26  20321292.961 8 106789119.305 8       528.590          51.000    20321295.078 8  83212300.975 8       411.888          51.000
G29  22753637.617 5 119571172.368 5     -2630.293          31.000
G31  23196763.383 7 121899792.332 7     -3090.504          42.000    23196776.750 7  94986909.018 7     -2408.185          42.000
R14  19622833.344 8 104600719.162 8     -1855.156          51.000    19622836.695 8  81356123.750 8     -1442.899          49.000
R17  20513414.977 5 109771422.042 5      2112.840          30.000    20513407.180 4  85377750.251 4      1643.323          29.000
R24  19572542.617 5 104663239.691 5     -1305.031          32.000    19572545.234 4  81404699.030 4     -1015.018          29.000
C05  39616686.938 5 206294486.427 5         9.922          35.000
C11                                                                  24087873.469 6  96991888.840 6      1718.509          36.000
C12  21565048.508 8 112295001.772 8      -112.535          48.000    21565048.031 8  86833630.546 8       -87.095          51.000
C24  23542638.414 8 122592675.723 8     -2641.500          51.000
E13  27404509.625 7 144011668.657 7      2694.832          44.000    27404509.773 6 110346609.220 6      2065.036          41.000
E15  23459185.633 8 123278932.285 8      1153.723          51.000    23459189.383 8  94460497.589 8       884.093          51.000
E30  22868055.578 8 120172434.187 8     -1813.309          50.000    22868057.773 8  92080182.104 8     -1389.442          51.000
> 2020 05 06 14 04  0.0000000  0 14        .000000000000
G18  20404513.773 8 107226514.652 8      -663.453          51.000    20404513.469 8  83553090.621 8      -516.976          50.000
G20  23054209.977 8 121150699.635 8      3092.547          48.000    23054207.289 6  94403149.075 6      2409.777          40.000
G21  20793932.250 8 109272924.760 8      -811.035          51.000    20793930.984 8  85147680.258 8      -631.975          51.000
G26  20318322.461 8 106773510.003 8       513.512          51.000    20318324.891 8  83200137.868 8       400.139          51.000
G31  23214427.453 7 121992612.822 7     -3095.898          44.000    23214441.172 7  95059236.658 7     -2412.388          43.000
R14  19633343.180 8 104656741.637 8     -1878.109          51.000    19633346.734 8  81399696.773 8     -1460.752          50.000
R17  20501592.258 4 109708165.771 4      2100.902          29.000    20501600.734 4  85328564.555 4      1634.035          29.000
R24  19579901.117 6 104702591.626 6     -1316.922          39.000    19579902.906 4  81435310.044 4     -1024.279          28.000
C11  24075074.117 4 125365228.033 4      2217.703          29.000    24075083.258 4  96940395.117 4      1715.440          28.000
C12  21565723.180 8 112298514.752 8      -120.000          48.000    21565723.039 8  86836347.017 8       -92.816          51.000
C24  23557885.453 8 122672073.159 8     -2650.234          50.000
E13  27389135.805 7 143930880.294 7      2692.453          45.000    27389136.508 7 110284706.525 7      2063.129          42.000
E15  23452626.586 8 123244463.902 8      1145.660          51.000    23452630.344 8  94434086.774 8       877.799          51.000
E30  22878438.195 8 120226998.147 8     -1822.750          51.000    22878441.430 8  92121990.809 8     -1396.683          51.000
> 2020 05 06 14 04 30.0000000  0 14        .000000000000
G18  20408357.555 8 107246713.238 8      -681.898          51.000    20408357.391 8  83568829.781 8      -531.349          51.000
G20  23036580.875 8 121058055.685 8      3084.883          49.000    23036578.648 7  94330959.022 7      2403.805          42.000
G21  20798607.984 8 109297496.017 8      -825.754          50.000    20798607.000 8  85166826.689 8      -643.445          50.000
G26  20315443.289 8 106758380.047 8       496.211          51.000    20315445.773 8  83188348.291 8       386.658          51.000
G31  23232128.930 7 122085632.171 7     -3104.027          43.000    23232142.375 7  95131719.278 7     -2418.723          43.000
R14  19643987.930 8 104713484.285 8     -1903.426          51.000    19643991.602 8  81443829.935 8     -1480.445          50.000
R17  20489863.086 5 109645373.473 5      2086.691          34.000    20489863.617 4  85279753.937 4      1622.976          27.000
R24  19587335.664 5 104742342.343 5     -1331.715          34.000    19587337.391 5  81466227.242 5     -1035.772          30.000
C11  24062314.930 5 125298792.073 5      2211.332          31.000
C12  21566446.594 8 112302280.961 8      -129.742          48.000    21566446.344 8  86839259.294 8      -100.292          51.000
C24  23573188.328 8 122751764.058 8     -2661.246          49.000
E13  27373781.047 7 143850193.251 7      2687.859          44.000    27373782.695 7 110222881.443 7      2059.603          43.000
E15  23446120.148 8 123210271.850 8      1135.176          51.000    23446123.602 8  94407887.682 8       869.807          51.000
E30  22888881.023 8 120281874.632 8     -1834.406          51.000    22888884.609 8  92164038.994 8     -1405.551          51.000
> 2020 05 06 14 05  0.0000000  0 14        .000000000000
G18  20412298.242 8 107267421.167 8      -699.074          51.000    20412298.234 8  83584965.837 8      -544.733          51.000
G20  23018987.562 8 120965600.931 8      3078.418          49.000    23018986.367 7  94258916.408 7      2398.770          43.000
G21  20803359.617 8 109322466.530 8      -839.387          50.000    20803358.844 8  85186284.239 8      -654.068          50.000
G26  20312654.875 8 106743726.768 8       480.168          51.000    20312657.594 8  83176930.131 8       374.157          51.000
G31  23249866.594 7 122178843.489 7     -3110.520          43.000    23249879.281 7  95204351.479 7     -2423.778          42.000
R14  19654766.477 8 104770940.940 8     -1927.367          51.000    19654770.523 8  81488518.416 8     -1499.063          50.000
R17  20478202.914 6 109582967.144 6      2073.559          36.000    20478204.641 4  85231215.720 4      1612.768          27.000
R24  19594842.289 6 104782486.037 6     -1345.117          38.000    19594845.117 5  81497450.193 5     -1046.199          31.000
C11  24049589.609 5 125232519.463 5      2206.102          35.000    24049596.172 5  96837737.871 5      1705.807          32.000
C12  21567217.633 8 112306295.938 8      -138.281          48.000    21567217.070 8  86842363.923 8      -106.928          51.000
C24  23588546.289 8 122831742.630 8     -2671.031          48.000
E13  27358444.867 7 143769604.328 7      2684.289          45.000    27358447.391 7 110161131.550 7      2056.832          44.000
E15  23439665.328 8 123176352.181 8      1125.840          51.000    23439668.758 8  94381897.307 8       862.642          51.000
E30  22899382.852 8 120337059.189 8     -1844.902          51.000    22899386.484 8  92206323.272 8     -1413.644          51.000
> 2020 05 06 14 05 30.0000000  0 13        .000000000000
G18  20416338.484 8 107288652.169 8      -716.582          51.000    20416338.305 8  83601509.480 8      -558.376          50.000
G20  23001433.477 8 120873353.274 8      3071.289          49.000    23001433.414 7  94187035.145 7      2393.212          45.000
G21  20808189.773 8 109347849.842 8      -853.043          50.000    20808188.992 8  85206063.441 8      -664.709          50.000
G26  20309960.328 8 106729566.249 8       463.652          51.000    20309963.031 8  83165895.962 8       361.288          51.000
G31  23267643.062 7 122272258.780 7     -3117.246          42.000    23267650.883 7  95277142.637 7     -2429.020          42.000
R14  19665680.867 8 104829125.076 8     -1951.797          50.000    19665685.656 8  81533772.677 8     -1518.067          50.000
R24  19602425.367 6 104823035.952 6     -1358.590          38.000    19602427.406 5  81528988.947 5     -1056.684          30.000
C11  24036899.047 5 125166420.322 5      2200.449          33.000    24036902.914 5  96786625.778 5      1701.228          34.000
C12  21568039.008 8 112310573.925 8      -147.074          48.000    21568038.648 8  86845671.924 8      -113.760          51.000
C24  23603962.508 8 122912021.739 8     -2681.133          49.000
E13  27343130.406 7 143689129.180 7      2680.555          45.000    27343133.648 7 110099468.833 7      2053.830          44.000
E15  23433265.266 8 123142719.757 8      1116.156          51.000    23433268.703 8  94356127.021 8       855.231          51.000
E30  22909945.797 8 120392566.158 8     -1855.762          51.000    22909949.570 8  92248854.576 8     -1421.911          51.000
> 2020 05 06 14 06  0.0000000  0 13        .000000000000
G18  20420480.062 8 107310415.901 8      -734.102          51.000    20420479.914 8  83618468.238 8      -572.027          51.000
G20  22983921.281 8 120781326.702 8      3064.160          48.000    22983922.445 7  94115326.153 7      2387.657          47.000
G21  20813100.289 8 109373655.291 8      -867.055          50.000    20813099.680 8  85226171.563 8      -675.630          50.000
G26  20307361.789 8 106715910.490 8       446.965          51.000    20307364.195 8  83155255.109 8       348.284          51.000
G31  23285460.016 6 122365886.236 6     -3124.344          41.000    23285461.258 6  95350099.094 6     -2434.557          41.000
R14  19676733.719 8 104888045.683 8     -1976.055          50.000    19676738.695 8  81579599.796 8     -1536.931          48.000
R24  19610086.961 5 104864000.924 5     -1372.145          34.000    19610088.484 5  81560850.540 5     -1067.227          32.000
C11  24024243.055 5 125100505.534 5      2194.492          35.000
C12  21568912.914 8 112315125.111 8      -156.027          48.000    21568913.000 8  86849191.182 8      -120.608          51.000
C24  23619438.883 8 122992610.237 8     -2691.215          49.000
E13  27327839.891 7 143608779.313 7      2676.379          44.000    27327843.688 7 110037902.117 7      2050.765          44.000
E15  23426922.039 8 123109385.363 8      1106.371          51.000    23426925.305 8  94330585.075 8       847.775          51.000
E30  22920571.492 8 120448405.818 8     -1866.652          51.000    22920575.383 8  92291640.786 8     -1430.301          51.000
> 2020 05 06 14 06 30.0000000  0 14        .000000000000
G18  20424721.367 8 107332704.033 8      -751.824          51.000    20424721.445 8  83635835.634 8      -585.834          51.000
G20  22966449.922 7 120689516.701 7      3056.480          46.000    22966452.250 7  94043785.910 7      2381.676          46.000
G21  20818089.484 8 109399874.341 8      -880.977          49.000    20818089.055 8  85246601.998 8      -686.475          49.000
G26  20304858.055 8 106702753.542 8       430.023          51.000    20304860.430 8  83145002.938 8       335.083          51.000
G31  23303316.008 6 122459715.895 6     -3131.105          41.000    23303313.203 6  95423213.052 6     -2439.825          41.000
R14  19687923.375 8 104947693.490 8     -2000.637          50.000    19687927.953 8  81625992.553 8     -1556.048          48.000
R17  20443675.859 6 109398229.124 6      2032.855          37.000
R24  19617822.750 6 104905371.761 6     -1385.934          37.000    19617824.891 5  81593027.879 5     -1077.951          30.000
C11  24011621.547 5 125034768.122 5      2188.246          35.000    24011643.078 5  96684890.406 5      1691.822          32.000
C12  21569837.672 8 112319941.826 8      -165.277          48.000    21569838.109 8  86852915.775 8      -127.818          51.000
C24  23634973.203 8 123073499.099 8     -2701.508          49.000
E13  27312572.227 7 143528548.315 7      2672.059          42.000    27312576.250 7 109976426.471 7      2047.469          45.000
E15  23420634.234 8 123076341.826 8      1096.270          51.000    23420637.023 8  94305266.015 8       840.029          51.000
E30  22931258.805 8 120504570.403 8     -1877.871          50.000    22931262.312 8  92334675.956 8     -1438.909          51.000
> 2020 05 06 14 07  0.0000000  0 14        .000000000000
G18  20429065.016 8 107355530.147 8      -769.332          51.000    20429064.852 8  83653622.216 8      -599.480          50.000
G20  22949022.898 7 120597941.255 7      3049.082          45.000    22949026.242 7  93972428.429 7      2375.908          45.000
G21  20823160.047 8 109426520.581 8      -894.801          50.000    20823159.438 8  85267365.310 8      -697.247          50.000
G26  20302452.273 8 106690111.356 8       413.258          51.000    20302454.789 8  83135151.882 8       322.019          51.000
G31  23321213.719 6 122553760.104 6     -3137.871          40.000    23321207.859 6  95496494.172 6     -2445.094          39.000
R14  19699252.141 8 105008081.793 8     -2024.684          50.000    19699256.570 8  81672961.233 8     -1574.754          49.000
R17  20432324.383 6 109337465.266 6      2018.977          39.000    20432332.508 5  85040296.423 5      1570.315          32.000
R24  19625638.211 6 104947161.512 6     -1399.074          38.000    19625640.984 5  81625530.910 5     -1088.172          31.000
C11  23999035.219 5 124969273.123 5      2182.031          31.000    23999044.781 5  96634207.006 5      1687.152          34.000
C12  21570816.406 8 112325038.340 8      -174.004          48.000    21570816.578 8  86856856.717 8      -134.560          51.000
C24  23650567.445 8 123154701.032 8     -2711.410          49.000
E13  27297330.617 7 143448451.793 7      2668.215          42.000    27297334.414 7 109915053.852 7      2044.446          46.000
E15  23414404.703 8 123043603.884 8      1086.715          51.000    23414406.977 8  94280181.140 8       832.651          51.000
E30  22942010.742 8 120561074.115 8     -1888.543          51.000    22942013.219 8  92377970.974 8     -1447.065          50.000
> 2020 05 06 14 07 30.0000000  0 15        .000000000000
G18  20433500.562 8 107378839.576 8      -775.746          51.000    20433500.422 8  83671785.417 8      -604.474          51.000
G20  22931630.844 7 120506549.986 7      3052.766          44.000    22931634.922 7  93901214.458 7      2378.781          44.000
G21  20828301.484 8 109453539.046 8      -897.633          50.000    20828300.633 8  85288418.659 8      -699.454          50.000
G26  20300134.500 8 106677931.651 8       407.617          51.000    20300137.094 8  83125661.181 8       317.624          51.000
G29  22874547.336 5 120206542.654 5     -2652.117          31.000    22874546.547 5  93667448.149 5     -2066.585          31.000
G31  23339141.773 6 122647962.329 6     -3133.547          39.000    23339133.586 6  95569898.422 6     -2441.728          39.000
R14  19710709.719 8 105069154.248 8     -2037.715          51.000    19710713.531 8  81720462.035 8     -1584.889          48.000
R17  20421038.180 6 109277068.914 6      2016.719          39.000    20421041.664 4  84993321.534 4      1568.559          28.000
R24  19633521.188 5 104989313.539 5     -1401.254          31.000    19633525.508 5  81658315.916 5     -1089.849          30.000
C11                                                                  23986478.359 5  96583631.671 5      1690.698          30.000
C12  21571838.914 8 112330361.123 8      -172.000          48.000    21571838.664 8  86860972.639 8      -133.101          51.000
C24  23666210.828 8 123236161.152 8     -2710.391          48.000
E13  27282104.609 7 143368437.025 7      2675.004          43.000    27282108.367 7 109853743.888 7      2049.732          46.000
E15  23408223.156 8 123011118.040 8      1087.887          51.000    23408225.125 8  94255289.426 8       833.588          51.000
E30  22952817.227 8 120617862.938 8     -1888.453          51.000    22952818.609 8  92421484.441 8     -1447.029          50.000
> 2020 05 06 14 08  0.0000000  0 14        .000000000000
G18  20438055.016 8 107402773.953 8      -801.773          51.000    20438055.133 8  83690435.599 8      -624.755          50.000
G20  22914301.664 7 120415489.182 7      3036.332          44.000    22914305.492 6  93830257.961 6      2365.970          41.000
G21  20833540.766 8 109481071.342 8      -919.754          51.000    20833539.820 8  85309872.420 8      -716.691          50.000
G26  20297932.188 8 106666358.405 8       382.066          51.000    20297934.766 8  83116643.069 8       297.714          51.000
G31  23357126.836 6 122742462.878 6     -3148.453          38.000    23357116.609 6  95643535.127 6     -2453.343          37.000
R14  19722322.438 8 105131053.861 8     -2070.574          51.000    19722325.586 7  81768606.165 7     -1610.447          47.000
R17  20409845.359 5 109217185.656 5      1994.309          34.000
R24  19641497.305 6 105031971.399 6     -1423.859          40.000    19641501.773 4  81691494.215 4     -1107.449          27.000
C11  23973973.570 5 124838767.820 5      2172.387          32.000
C12  21572931.562 7 112336051.204 7      -189.371          47.000    21572931.461 8  86865372.590 8      -146.407          51.000
C24  23681930.195 8 123318019.101 8     -2728.801          48.000
E13  27266921.344 7 143288647.622 7      2662.375          45.000    27266925.516 7 109792606.605 7      2040.011          47.000
E15  23402116.820 8 122979027.137 8      1069.598          51.000    23402118.562 8  94230700.318 8       819.574          51.000
E30  22963705.383 8 120675079.159 8     -1907.832          51.000    22963706.234 8  92465325.398 8     -1461.800          51.000
> 2020 05 06 14 08 30.0000000  0 14        .000000000000
G18  20442656.914 8 107426957.331 8      -809.160          51.000    20442656.883 8  83709279.787 8      -630.514          50.000
G20  22896965.227 7 120324386.709 7      3038.512          44.000    22896967.289 6  93759269.039 6      2367.671          40.000
G21  20838806.297 8 109508741.331 8      -923.566          51.000    20838805.188 8  85331433.470 8      -719.662          51.000
G26  20295774.234 8 106655018.072 8       375.160          51.000    20295776.656 8  83107806.440 8       292.333          51.000
G31  23375096.984 5 122836884.103 5     -3144.699          35.000    23375084.922 5  95717110.019 5     -2450.415          33.000
R14  19734018.391 8 105193398.327 8     -2084.539          51.000    19734021.148 7  81817096.278 7     -1621.311          47.000
R23  21892578.555 5 117110451.804 5     -3292.262          32.000
R24  19649498.148 5 105074751.785 5     -1426.832          34.000    19649500.430 4  81724767.891 4     -1109.755          29.000
C11  23961452.633 5 124773554.544 5      2176.504          32.000
C12  21574023.406 8 112341736.818 8      -188.395          48.000    21574023.305 8  86869769.075 8      -145.651          51.000
C24  23697654.531 8 123399901.698 8     -2728.828          48.000
E13  27251709.547 7 143208709.573 7      2668.031          46.000    27251714.562 8 109731355.452 8      2044.434          48.000
E15  23396014.188 8 122946956.453 8      1069.758          51.000    23396015.992 8  94206126.682 8       819.658          51.000
E30  22974603.641 8 120732347.473 8     -1908.742          51.000    22974604.742 8  92509206.281 8     -1462.522          51.000
> 2020 05 06 14 09  0.0000000  0 14        .000000000000
G18  20447390.875 8 107451834.913 8      -846.082          51.000    20447390.859 8  83728664.930 8      -659.285          51.000
G20  22879706.500 6 120233692.097 6      3011.156          41.000    22879707.531 6  93688597.999 6      2346.359          40.000
G21  20844182.602 8 109536993.833 8      -956.766          51.000    20844181.383 8  85353448.419 8      -745.532          51.000
G26  20293745.719 8 106644358.248 8       338.559          51.000    20293748.125 8  83099500.082 8       263.812          51.000
G31  23393136.289 4 122931760.628 4     -3169.945          28.000    23393122.914 4  95790926.779 4     -2470.081          29.000
R14  19745881.734 8 105256638.554 8     -2128.316          51.000    19745884.617 7  81866283.073 7     -1655.357          46.000
R17  20387614.555 5 109098313.098 5      1957.547          33.000    20387625.898 4  84854227.123 4      1522.536          26.000
R23  21911112.695 5 117209626.161 5     -3315.426          34.000
R24  19657604.469 6 105118106.847 6     -1459.828          38.000    19657605.352 4  81758483.065 4     -1135.422          28.000
C12  21575199.555 8 112347859.900 8      -216.684          48.000    21575199.031 8  86874503.803 8      -167.526          51.000
C24  23713468.828 8 123482249.372 8     -2757.879          49.000
E13  27236554.422 7 143129070.113 7      2644.285          46.000    27236560.422 8 109670333.070 8      2026.153          48.000
E15  23389999.969 8 122915352.370 8      1040.363          51.000    23390002.500 8  94181910.568 8       797.176          51.000
E30  22985596.711 8 120790113.715 8     -1939.082          51.000    22985598.414 8  92553468.694 8     -1485.826          51.000
> 2020 05 06 14 09 30.0000000  0 14        .000000000000
G18  20452264.281 8 107477444.255 8      -850.492          51.000    20452264.195 8  83748620.262 8      -662.721          50.000
G20  22862533.602 7 120143447.458 7      3015.547          43.000    22862534.711 6  93618277.552 6      2349.780          40.000
G21  20849676.781 8 109565866.209 8      -957.406          51.000    20849675.688 8  85375946.391 8      -746.031          50.000
G26  20291854.266 8 106634418.810 8       334.629          51.000    20291856.742 8  83091755.061 8       260.750          51.000
R14  19757920.281 8 105320811.597 8     -2139.105          51.000    19757923.188 7  81916195.394 7     -1663.749          46.000
R17  20376674.719 5 109039775.273 5      1956.598          35.000    20376684.633 4  84808718.785 4      1521.801          28.000
R23  21929709.867 6 117309109.021 6     -3305.688          36.000
R24  19665827.133 6 105162074.456 6     -1460.215          41.000    19665827.953 5  81792678.542 5     -1135.726          32.000
C11  23936607.062 5 124644205.615 5      2157.156          33.000    23936609.000 5  96382807.966 5      1668.304          35.000
C12  21576466.711 7 112354458.371 7      -212.672          47.000    21576466.211 8  86879606.150 8      -164.451          51.000
C24  23729379.883 8 123565098.676 8     -2754.871          49.000
E13  27221463.609 7 143049768.787 7      2653.023          46.000    27221470.539 8 109609569.772 8      2032.905          48.000
E15  23384081.641 8 122884253.642 8      1043.496          51.000    23384085.148 8  94158081.684 8       799.580          51.000
E30  22996691.828 8 120848416.096 8     -1937.035          51.000    22996693.875 8  92598141.922 8     -1484.183          51.000
> 2020 05 06 14 10  0.0000000  0 14        .000000000000
G18  20457172.008 8 107503234.107 8      -893.359          51.000    20457171.742 8  83768716.268 8      -696.124          50.000
G20  22845342.547 7 120053105.746 7      2982.598          43.000    22845343.453 6  93547881.436 6      2324.105          40.000
G21  20855183.953 8 109594807.065 8      -996.527          50.000    20855182.969 8  85398497.721 8      -776.515          50.000
G26  20289995.531 8 106624650.964 8       292.078          51.000    20289997.992 8  83084143.745 8       227.593          51.000
G29  22950832.055 5 120607436.019 5     -2702.793          35.000
R14  19770029.375 8 105385357.929 8     -2188.887          51.000    19770031.523 7  81966398.025 7     -1702.470          46.000
R17  20365748.633 6 108981304.484 6      1916.664          37.000
R24  19674058.961 6 105206092.678 6     -1499.074          40.000    19674061.711 5  81826915.028 5     -1165.944          33.000
C11  23924200.133 5 124579585.957 5      2126.273          34.000    23924202.234 6  96332839.940 6      1644.354          37.000
C12  21577720.352 7 112360986.737 7      -246.855          47.000    21577720.148 8  86884654.302 8      -190.791          51.000
C24  23745282.438 8 123647902.702 8     -2789.746          50.000
E13  27206332.844 7 142970256.434 7      2623.207          46.000    27206340.195 8 109548644.755 8      2010.086          48.000
E15  23378154.922 8 122853110.293 8      1008.246          51.000    23378158.758 8  94134218.606 8       772.546          51.000
E30  23007783.992 8 120906704.051 8     -1973.316          51.000    23007786.539 8  92642804.096 8     -1512.004          51.000
> 2020 05 06 14 10 30.0000000  0 13        .000000000000
G18  20462238.742 8 107529859.483 8      -889.441          51.000    20462238.258 8  83789463.308 8      -693.071          49.000
G20  22828258.492 7 119963326.288 7      2995.105          45.000    22828259.211 6  93477923.438 6      2333.848          41.000
G21  20860828.781 8 109624471.555 8      -988.875          49.000    20860827.812 8  85421612.912 8      -770.552          49.000
G26  20288294.492 8 106615711.987 8       296.152          51.000    20288296.867 8  83077178.310 8       230.768          51.000
R14  19782333.211 8 105450940.709 8     -2191.305          51.000    19782334.484 7  82017406.809 7     -1704.351          47.000
R17  20354959.703 6 108923569.119 6      1924.449          36.000
R24  19682424.711 7 105250827.492 7     -1490.938          43.000    19682427.695 5  81861708.732 5     -1159.621          31.000
C11  23911886.289 4 124515464.449 4      2141.156          29.000    23911891.602 6  96283257.217 6      1655.306          36.000
C12  21579085.750 8 112368094.912 8      -234.809          48.000    21579085.359 8  86890150.802 8      -181.587          51.000
C24  23761300.812 8 123731309.781 8     -2778.445          50.000
E13  27191287.164 7 142891189.945 7      2640.047          46.000    27191294.148 8 109488061.414 8      2022.839          48.000
E15  23372344.719 8 122822578.483 8      1019.441          51.000    23372348.266 8  94110824.106 8       781.130          51.000
E30  23018997.984 8 120965633.190 8     -1963.117          51.000    23019001.016 8  92687957.564 8     -1504.159          51.000
> 2020 05 06 14 11  0.0000000  0 15        .000000000000
G18  20467363.055 8 107556787.801 8      -907.230          50.000    20467362.398 8  83810446.420 8      -706.930          49.000
G20  22811180.945 7 119873580.969 7      2986.500          47.000    22811181.750 7  93407992.035 7      2327.143          42.000
G21  20866509.859 8 109654326.759 8     -1002.848          49.000    20866509.125 8  85444876.717 8      -781.440          49.000
G26  20286650.250 8 106607071.796 8       278.418          51.000    20286652.594 8  83070445.683 8       216.946          51.000
G29  22981520.188 5 120768703.068 5     -2690.555          33.000
G31  23465683.133 5 123312996.441 5     -3187.086          31.000    23465680.547 5  96088037.638 5     -2483.441          31.000
R14  19794729.367 8 105517018.981 8     -2215.461          51.000    19794730.812 8  82068800.993 8     -1723.136          48.000
R17  20344207.242 4 108865963.983 4      1909.090          28.000
R24  19690823.891 6 105295736.231 6     -1504.375          39.000    19690824.719 5  81896637.643 5     -1170.072          31.000
C11  23899565.211 5 124451314.872 5      2134.336          32.000    23899575.062 5  96233652.931 5      1650.005          33.000
C12  21580460.977 7 112375255.925 7      -244.199          47.000    21580460.469 8  86895688.146 8      -188.770          51.000
C24  23777333.328 8 123814791.550 8     -2788.520          50.000
E13  27176225.453 7 142812038.883 7      2635.223          46.000    27176231.430 8 109427413.271 8      2019.176          48.000
E15  23366549.539 8 122792126.927 8      1009.125          51.000    23366553.133 8  94087491.108 8       773.235          51.000
E30  23030232.547 8 121024671.668 8     -1974.371          51.000    23030235.828 8  92733194.826 8     -1512.833          51.000
> 2020 05 06 14 11 30.0000000  0 14        .000000000000
G18  20472590.844 8 107584260.480 8      -924.055          50.000    20472590.148 8  83831853.718 8      -720.043          49.000
G20  22794156.594 8 119784115.597 8      2978.168          48.000    22794157.586 7  93338278.798 7      2320.653          42.000
G21  20872273.227 8 109684614.063 8     -1016.109          50.000    20872272.859 8  85468477.210 8      -791.777          50.000
G26  20285109.180 8 106598974.135 8       261.605          51.000    20285111.773 8  83064135.808 8       203.848          51.000
G31  23483897.727 5 123408707.316 5     -3193.008          35.000    23483893.023 5  96162617.431 5     -2488.055          35.000
R14  19807263.500 8 105583836.645 8     -2238.793          49.000    19807266.609 8  82120770.301 8     -1741.283          50.000
R17  20333534.789 5 108808865.012 5      1896.895          33.000
R24  19699299.242 6 105341063.617 6     -1517.055          37.000    19699300.672 5  81931892.334 5     -1179.928          32.000
C11  23887287.078 5 124387378.194 5      2128.168          35.000    23887293.602 5  96184242.258 5      1645.976          32.000
C12  21581892.172 7 112382709.806 7      -252.664          47.000    21581891.727 8  86901451.969 8      -195.361          51.000
C24  23793425.734 8 123898586.610 8     -2797.590          50.000
E13  27161193.742 7 142733046.622 7      2631.098          47.000    27161198.578 8 109366886.806 8      2015.952          48.000
E15  23360815.555 8 122761998.285 8       999.566          51.000    23360819.711 8  94064405.545 8       765.949          51.000
E30  23041533.820 8 121084061.585 8     -1984.773          51.000    23041537.320 8  92778701.366 8     -1520.851          51.000
> 2020 05 06 14 12  0.0000000  0 14        .000000000000
G18  20477916.977 8 107612250.672 8      -940.352          50.000    20477916.289 8  83853664.241 8      -732.741          49.000
G20  22777181.242 8 119694907.736 8      2970.496          49.000    22777181.859 6  93268766.217 6      2314.675          41.000
G21  20878113.758 8 109715306.349 8     -1028.629          49.000    20878113.414 8  85492393.275 8      -801.529          49.000
G26  20283666.766 8 106591394.488 8       245.309          51.000    20283669.461 8  83058229.579 8       191.150          51.000
G31  23502145.297 6 123504597.351 6     -3198.094          38.000    23502142.234 6  96237336.813 6     -2492.027          39.000
R14  19819931.195 8 105651365.578 8     -2261.535          49.000    19819935.648 8  82173292.826 8     -1758.972          50.000
R17  20322944.219 6 108752182.914 6      1883.938          39.000
R24  19707848.336 6 105386782.163 6     -1528.742          37.000    19707851.516 5  81967451.136 5     -1189.025          33.000
C11  23875045.781 5 124323629.365 5      2122.773          33.000    23875049.961 5  96134947.745 5      1641.273          32.000
C12  21583374.797 7 112390430.740 7      -260.637          47.000    21583374.422 8  86907422.267 8      -201.526          51.000
C24  23809572.672 7 123982667.621 7     -2806.148          47.000
E13  27146187.375 7 142654188.415 7      2627.621          46.000    27146191.352 8 109306463.050 8      2013.360          49.000
E15  23355138.414 8 122732166.937 8       990.723          51.000    23355142.953 8  94041547.774 8       759.077          51.000
E30  23052896.906 8 121143776.691 8     -1994.699          51.000    23052900.516 8  92824457.086 8     -1528.397          51.000
> 2020 05 06 14 12 30.0000000  0 14        .000000000000
G18  20483333.008 8 107640713.791 8      -956.988          49.000    20483332.633 8  83875843.293 8      -745.705          49.000
G20  22760247.125 8 119605916.939 8      2962.461          49.000    22760247.211 6  93199422.784 6      2308.411          41.000
G21  20884022.898 8 109746358.834 8     -1041.453          48.000    20884022.406 8  85516590.038 8      -811.522          48.000
G26  20282315.008 8 106584290.699 8       228.633          51.000    20282317.531 8  83052694.151 8       178.155          51.000
G31  23520418.602 6 123600620.690 6     -3203.297          40.000    23520417.727 6  96312160.122 6     -2496.079          40.000
R14  19832724.055 8 105719559.714 8     -2284.508          50.000    19832729.039 8  82226332.680 8     -1776.842          50.000
R17  20312425.383 5 108695873.514 5      1870.258          32.000    20312432.281 4  84541278.692 4      1454.645          26.000
R24  19716461.492 5 105432845.705 5     -1540.805          30.000    19716466.711 5  82003278.344 5     -1198.401          33.000
C11  23862835.906 4 124260027.577 4      2117.230          27.000    23862835.250 4  96085765.499 4      1637.352          29.000
C12  21584900.477 8 112398375.382 8      -268.883          48.000    21584900.312 8  86913565.574 8      -207.938          51.000
C24  23825764.812 7 124066989.853 7     -2815.020          44.000
E13  27131198.281 7 142575421.779 7      2623.594          46.000    27131202.078 8 109246109.455 8      2010.283          49.000
E15  23349510.156 8 122702589.609 8       981.395          51.000    23349514.859 8  94018884.631 8       751.906          51.000
E30  23064313.484 8 121203773.141 8     -2004.922          51.000    23064317.078 8  92870428.386 8     -1536.266          51.000
> 2020 05 06 14 13  0.0000000  0 13        .000000000000
G18  20488822.031 8 107669559.928 8      -969.809          49.000    20488822.141 8  83898320.816 8      -755.695          49.000
G20  22743337.781 8 119517057.848 8      2957.723          48.000    22743337.898 7  93130182.010 7      2304.722          43.000
G21  20889983.453 8 109777681.696 8     -1050.496          48.000    20889983.055 8  85540997.465 8      -818.568          48.000
G26  20281037.164 8 106577575.225 8       215.387          51.000    20281039.633 8  83047461.318 8       167.834          51.000
G31  23538699.797 6 123696686.118 6     -3204.816          39.000    23538701.102 6  96387016.225 6     -2497.260          39.000
R14  19845624.719 8 105788326.992 8     -2303.742          51.000    19845629.820 8  82279818.294 8     -1791.799          50.000
R24  19725121.602 5 105479162.114 5     -1549.832          34.000    19725127.867 5  82039302.284 5     -1205.425          30.000
C11  23850637.875 4 124196529.685 4      2115.098          28.000
C12  21586452.359 8 112406455.591 8      -273.469          48.000    21586452.297 8  86919813.695 8      -211.478          51.000
C24  23841983.531 6 124151463.547 6     -2820.199          41.000
E13  27116210.039 7 142496658.928 7      2623.422          46.000    27116213.984 8 109185758.750 8      2010.151          50.000
E15  23343913.500 8 122673177.655 8       975.812          51.000    23343918.164 8  93996348.208 8       747.659          51.000
E30  23075766.719 8 121263961.738 8     -2011.344          51.000    23075770.031 8  92916546.928 8     -1541.192          51.000
> 2020 05 06 14 13 30.0000000  0 13        .000000000000
G18  20494435.945 8 107699061.908 8      -994.836          50.000    20494436.133 8  83921309.366 8      -775.197          49.000
G20  22726505.883 7 119428607.821 7      2941.094          46.000    22726506.789 7  93061259.957 7      2291.764          45.000
G21  20896047.273 8 109809547.361 8     -1071.863          48.000    20896046.945 8  85565827.854 8      -835.218          48.000
G26  20279885.531 8 106571523.220 8       190.094          51.000    20279888.297 8  83042745.455 8       148.125          51.000
G31  23557040.461 6 123793065.118 6     -3218.488          38.000    23557043.500 6  96462116.683 6     -2507.916          37.000
R14  19858685.008 8 105857942.915 8     -2335.246          51.000    19858689.438 8  82333963.988 8     -1816.303          49.000
R24  19733883.023 5 105526008.530 5     -1570.859          34.000    19733885.531 4  82075738.296 4     -1221.783          29.000
C11  23838490.930 5 124133313.689 5      2101.094          32.000
C12  21588082.195 8 112414942.427 8      -290.242          48.000    21588082.328 8  86926376.247 8      -224.373          51.000
C24  23858284.266 7 124236358.410 7     -2837.406          43.000
E13  27101275.039 7 142418174.611 7      2610.984          47.000    27101279.109 8 109125621.451 8      2000.627          50.000
E15  23338400.562 8 122644205.136 8       957.883          51.000    23338404.695 8  93974148.494 8       734.001          51.000
E30  23087308.836 8 121324616.007 8     -2030.090          51.000    23087311.297 8  92963022.269 8     -1555.541          51.000
> 2020 05 06 14 14  0.0000000  0 14        .000000000000
G18  20500177.867 8 107729236.216 8     -1007.398          49.000    20500178.227 8  83944821.822 8      -784.983          50.000
G20  22709755.781 7 119340587.686 7      2936.344          46.000    22709757.727 7  92992672.887 7      2288.063          45.000
G21  20902217.539 8 109841972.416 8     -1080.477          48.000    20902217.195 8  85591094.118 8      -841.930          48.000
G26  20278863.773 8 106566153.577 8       177.176          51.000    20278866.656 8  83038561.305 8       138.059          51.000
G31  23575443.734 6 123889772.902 6     -3219.523          36.000    23575447.812 6  96537473.354 6     -2508.720          36.000
R14  19871907.445 8 105928423.368 8     -2354.051          51.000    19871910.961 8  82388782.102 8     -1830.928          48.000
R24  19742745.992 6 105573400.914 6     -1579.273          36.000    19742748.578 5  82112599.102 5     -1228.318          32.000
C05  39615532.539 5 206288471.772 5        10.109          33.000
C11  23826411.250 5 124070445.571 5      2098.777          30.000
C12  21589793.242 8 112423853.297 8      -294.562          48.000    21589793.523 8  86933266.691 8      -227.850          51.000
C24  23874672.109 7 124321690.272 7     -2842.281          47.000
E13  27086396.883 7 142339987.484 7      2610.836          47.000    27086400.836 8 109065711.897 8      2000.526          50.000
E15  23332974.789 8 122615689.863 8       952.484          51.000    23332978.312 8  93952299.131 8       729.814          51.000
E30  23098942.852 8 121385753.151 8     -2036.387          51.000    23098944.664 8  93009867.601 8     -1560.336          51.000
> 2020 05 06 14 14 30.0000000  0 16        .000000000000
G18  20505976.805 8 107759709.820 8     -1026.059          50.000    20505977.422 8  83968567.496 8      -799.526          50.000
G20  22693017.438 7 119252628.763 7      2925.805          45.000    22693019.789 7  92924133.509 7      2279.848          44.000
G21  20908423.250 8 109874583.865 8     -1095.449          49.000    20908422.938 8  85616505.617 8      -853.600          49.000
G26  20277901.391 8 106561095.619 8       158.227          51.000    20277904.289 8  83034620.035 8       123.290          51.000
G31  23593838.195 5 123986434.705 5     -3226.223          32.000    23593843.281 5  96612794.205 5     -2513.940          32.000
R14  19885220.727 8 105999388.983 8     -2378.879          51.000    19885223.469 8  82443977.558 8     -1850.239          49.000
R17  20271118.383 5 108474883.823 5      1814.145          33.000
R23  22116137.234 5 118306419.856 5     -3338.504          31.000
R24  19751640.047 6 105620959.280 6     -1593.352          41.000    19751644.438 5  82149588.945 5     -1239.273          31.000
C05  39615475.344 5 206288175.914 5         7.586          34.000
C11  23814330.109 5 124007557.285 5      2091.738          31.000
C12  21591514.945 8 112432819.369 8      -305.000          48.000    21591515.250 8  86940199.805 8      -235.782          51.000
C24  23891073.398 8 124407088.847 8     -2852.996          49.000
E13  27071504.828 7 142261726.607 7      2604.734          47.000    27071508.414 8 109005745.849 8      1995.791          50.000
E15  23327565.352 8 122587260.098 8       940.992          51.000    23327568.625 8  93930515.297 8       721.035          51.000
E30  23110597.562 8 121447000.820 8     -2048.648          51.000    23110599.719 8  93056797.592 8     -1569.693          51.000
> 2020 05 06 14 15  0.0000000  0 15        .000000000000
G18  20511881.781 8 107790741.072 8     -1043.438          49.000    20511882.398 8  83992747.699 8      -813.068          49.000
G20  22676340.750 7 119164994.004 7      2915.867          45.000    22676343.117 7  92855846.733 7      2272.107          44.000
G21  20914713.680 8 109907639.683 8     -1109.062          48.000    20914713.312 8  85642263.393 8      -864.205          48.000
G26  20277047.961 8 106556610.064 8       140.094          51.000    20277050.820 8  83031124.783 8       109.164          51.000
G31  23612262.805 5 124083285.198 5     -3232.008          32.000    23612277.930 5  96688330.076 5     -2518.445          32.000
R14  19898673.406 8 106071100.833 8     -2402.637          51.000    19898676.406 8  82499753.404 8     -1868.717          49.000
R17  20260990.086 5 108420668.376 5      1799.367          34.000
R24  19760615.445 6 105668945.996 6     -1606.539          39.000    19760615.070 4  82186913.323 4     -1249.536          28.000
C05  39615430.578 5 206287941.766 5         6.969          34.000    39615435.492 5 159514938.385 5         5.688          35.000
C11  23802296.664 5 123944806.577 5      2084.840          31.000    23802300.000 4  95841996.825 4      1611.819          29.000
C12  21593296.602 8 112442097.508 8      -314.359          48.000    21593297.086 8  86947374.254 8      -243.077          51.000
C24  23907536.500 8 124492809.537 8     -2862.590          50.000
E13  27056648.312 7 142183652.447 7      2599.516          46.000    27056651.336 8 108945922.878 8      1991.843          49.000
E15  23322221.328 8 122559175.464 8       930.555          51.000    23322224.516 8  93908995.914 8       712.987          51.000
E30  23122322.602 8 121508618.079 8     -2059.918          51.000    23122325.617 8  93104010.758 8     -1578.391          51.000
> 2020 05 06 14 15 30.0000000  0 15        .000000000000
G18  20517882.242 8 107822273.555 8     -1058.379          50.000    20517882.836 8  84017318.478 8      -824.711          50.000
G20  22659716.156 7 119077631.443 7      2908.508          46.000    22659717.891 7  92787772.057 7      2266.373          42.000
G21  20921077.938 8 109941083.449 8     -1120.164          50.000    20921077.359 8  85668323.487 8      -872.855          50.000
G26  20276293.125 8 106552642.794 8       124.594          51.000    20276295.719 8  83028033.402 8        97.086          51.000
G29  23120648.367 5 121499827.144 5     -2724.184          31.000
R14  19912254.695 8 106143500.679 8     -2423.703          51.000    19912258.969 8  82556064.367 8     -1885.105          50.000
R17  20250934.641 5 108366863.798 5      1787.527          34.000
R23  22153593.672 5 118506786.947 5     -3341.945          32.000
R24  19769658.727 6 105717302.879 6     -1616.508          37.000    19769657.828 5  82224519.813 5     -1257.281          32.000
C05  39615387.023 5 206287715.168 5         8.312          34.000    39615391.859 5 159514765.411 5         6.621          35.000
C12  21595127.727 8 112451632.699 8      -321.059          50.000    21595128.172 8  86954747.475 8      -248.257          51.000
C24  23924050.430 8 124578795.813 8     -2869.578          51.000
E13  27041817.070 7 142105710.700 7      2596.969          46.000    27041819.188 8 108886201.392 8      1989.867          48.000
E15  23316932.172 8 122531380.887 8       922.730          51.000    23316935.242 8  93887698.772 8       707.048          51.000
E30  23134107.703 8 121570549.149 8     -2068.492          51.000    23134111.656 8  93151464.411 8     -1584.943          51.000
> 2020 05 06 14 16  0.0000000  0 14        .000000000000
G18  20523971.820 8 107854274.045 8     -1070.000          50.000    20523972.641 8  84042253.936 8      -833.766          50.000
G20  22643138.195 7 118990512.262 7      2904.289          47.000    22643138.047 6  92719887.002 6      2263.085          39.000
G21  20927509.805 8 109974882.121 8     -1128.207          51.000    20927508.867 8  85694660.100 8      -879.122          50.000
G26  20275630.953 8 106549163.027 8       112.254          51.000    20275633.547 8  83025321.889 8        87.471          51.000
R14  19925959.242 8 106216553.805 8     -2441.535          51.000    19925964.320 8  82612883.455 8     -1898.972          50.000
R17  20240947.203 4 108313396.229 4      1779.168          28.000
R24  19778763.633 6 105765996.017 6     -1624.223          39.000    19778765.703 5  82262392.335 5     -1263.281          32.000
C05  39615338.430 5 206287462.235 5        13.238          34.000    39615343.125 5 159514570.092 5        10.101          35.000
C11  23778341.727 5 123820056.176 5      2078.602          31.000
C12  21597002.203 8 112461393.080 8      -324.719          49.000    21597002.234 8  86962294.818 8      -251.214          51.000
C24  23940608.727 8 124665014.224 8     -2873.527          51.000
E13  27027005.195 7 142027870.338 7      2597.242          45.000    27027006.172 8 108826557.577 8      1990.086          48.000
E15  23311692.180 8 122503844.465 8       917.879          51.000    23311695.117 8  93866599.442 8       703.286          51.000
E30  23145946.367 8 121632761.646 8     -2074.188          51.000    23145951.219 8  93199133.711 8     -1589.304          51.000
> 2020 05 06 14 16 30.0000000  0 14        .000000000000
G18  20530147.461 8 107886726.814 8     -1091.641          51.000    20530148.219 8  84067541.823 8      -850.629          50.000
G20  22626604.617 8 118903625.336 8      2890.152          48.000    22626601.180 5  92652182.974 5      2252.070          35.000
G21  20934006.203 8 110009019.701 8     -1145.898          51.000    20934005.070 8  85721260.822 8      -892.908          51.000
G26  20275058.969 8 106546157.375 8        89.777          51.000    20275061.734 8  83022979.806 8        69.956          51.000
R14  19939783.688 8 106290243.033 8     -2469.180          51.000    19939788.656 8  82670197.271 8     -1920.476          49.000
R17  20231041.562 5 108260348.251 5      1759.844          32.000
R24  19787929.336 6 105815008.744 6     -1641.445          40.000    19787932.094 4  82300513.294 4     -1276.686          29.000
C05  39615281.953 5 206287168.512 5         8.160          34.000    39615286.781 6 159514342.604 6         5.796          36.000
C11  23766399.516 5 123757878.602 5      2068.559          34.000    23766408.141 5  95697450.588 5      1599.015          34.000
C12  21598917.109 8 112471363.973 8      -338.191          49.000    21598916.703 8  86970004.935 8      -261.496          51.000
C24  23957208.336 8 124751448.592 8     -2887.039          51.000
E13  27012209.523 7 141950117.701 7      2588.102          42.000    27012209.805 8 108766980.967 8      1982.950          48.000
E15  23306498.719 8 122476551.761 8       903.422          51.000    23306501.328 8  93845686.874 8       692.098          51.000
E30  23157835.539 8 121695240.480 8     -2089.332          50.000    23157841.016 8  93247007.113 8     -1600.938          51.000
> 2020 05 06 14 17  0.0000000  0 13        .000000000000
G18  20536424.453 8 107919712.007 8     -1107.891          51.000    20536424.859 8  84093244.564 8      -863.291          50.000
G20  22610131.359 8 118817055.252 8      2880.887          48.000    22610123.641 5  92584725.814 5      2244.850          34.000
G21  20940582.242 8 110043576.276 8     -1158.367          51.000    20940580.969 8  85748188.037 8      -902.624          51.000
G26  20274592.914 8 106543708.251 8        72.914          51.000    20274595.766 8  83021071.394 8        56.816          51.000
R14  19953742.508 8 106364648.807 8     -2491.578          51.000    19953746.727 7  82728068.391 7     -1937.897          47.000
R24  19797170.781 4 105864421.928 4     -1653.172          29.000    19797171.031 4  82338945.657 4     -1285.800          29.000
C05  39615233.523 5 206286915.513 5         8.152          34.000    39615238.227 5 159514147.562 5         6.346          35.000
C11  23754501.508 5 123695921.015 5      2061.598          30.000    23754511.336 6  95649541.122 6      1594.484          36.000
C12  21600887.711 8 112481625.730 8      -346.355          49.000    21600887.305 8  86977939.981 8      -267.881          51.000
C24  23973864.422 8 124838177.742 8     -2895.340          51.000
E13  26997443.656 5 141872535.208 5      2583.664          34.000    26997445.898 8 108707534.653 8      1979.819          48.000
E15  23301366.859 8 122449584.225 8       894.047          51.000    23301369.039 8  93825023.463 8       685.037          51.000
E30  23169790.211 8 121758066.597 8     -2099.449          49.000    23169796.234 8  93295146.584 8     -1608.684          51.000
> 2020 05 06 14 17 30.0000000  0 14        .000000000000
G18  20542793.383 8 107953180.656 8     -1122.930          51.000    20542793.852 8  84119324.041 8      -875.010          51.000
G20  22593709.883 8 118730757.326 8      2873.004          49.000    22593701.953 6  92517480.757 6      2238.707          37.000
G21  20947228.664 8 110078502.837 8     -1169.508          51.000    20947227.094 8  85775403.548 8      -911.305          51.000
G26  20274223.945 8 106541769.104 8        56.891          51.000    20274226.664 8  83019560.359 8        44.330          51.000
G29  23183009.594 5 121827537.535 5     -2737.477          33.000
R14  19967826.141 8 106439720.309 8     -2512.699          51.000    19967829.375 7  82786457.274 7     -1954.325          47.000
R24  19806475.117 5 105914122.186 5     -1663.844          34.000    19806479.289 5  82377660.518 5     -1294.101          30.000
C05  39615183.773 5 206286656.797 5         9.871          35.000
C11                                                                  23742645.625 5  95601765.076 5      1590.902          35.000
C12  21602905.023 8 112492130.810 8      -353.414          50.000    21602904.797 8  86986063.163 8      -273.219          51.000
C24  23990567.320 8 124925152.617 8     -2902.414          51.000
E13                                                                  26982705.789 8 108648182.681 8      1977.464          48.000
E15  23296287.227 8 122422894.269 8       885.887          51.000    23296289.742 8  93804572.735 8       678.841          51.000
E30  23181801.648 8 121821191.692 8     -2108.250          48.000    23181808.055 8  93343515.167 8     -1615.466          51.000
> 2020 05 06 14 18  0.0000000  0 15        .000000000000
G18  20549207.062 8 107986884.349 8     -1141.539          51.000    20549207.531 8  84145586.665 8      -889.511          51.000
G20  22577293.828 8 118644487.824 8      2861.195          49.000    22577287.828 6  92450257.826 6      2229.506          40.000
G21  20953898.148 8 110113550.978 8     -1184.465          51.000    20953896.367 8  85802713.789 8      -922.960          51.000
G26  20273905.133 8 106540093.849 8        37.223          51.000    20273907.883 8  83018254.959 8        29.005          51.000
G29  23198621.977 5 121909512.470 5     -2743.047          35.000
R14  19981986.586 8 106515204.266 8     -2537.418          50.000    19981989.234 7  82845166.949 7     -1973.547          46.000
R23  22247407.078 4 119008633.321 4     -3352.641          29.000
R24  19815800.375 6 105963982.702 6     -1677.762          38.000    19815802.820 5  82416440.919 5     -1304.926          30.000
C05  39615085.750 5 206286146.409 5         7.094          34.000    39615090.609 5 159513553.086 5         5.331          35.000
C11                                                                  23730764.875 5  95553933.555 5      1584.664          33.000
C12  21604922.125 8 112502634.115 8      -364.070          50.000    21604921.828 8  86994184.983 8      -281.595          51.000
C24  24007269.359 8 125012126.523 8     -2913.117          49.000
E13  26967940.516 6 141717480.552 6      2574.203          37.000    26967942.617 8 108588736.469 8      1972.202          49.000
E15  23291213.789 8 122396234.853 8       873.914          51.000    23291216.789 8  93784145.400 8       669.613          51.000
E30  23193823.570 8 121884368.134 8     -2120.859          49.000    23193829.703 8  93391923.070 8     -1625.089          51.000
> 2020 05 06 14 18 30.0000000  0 13        .000000000000
G18  20555822.781 8 108021649.447 8     -1158.176          51.000    20555822.891 8  84172676.348 8      -902.475          51.000
G20  22561040.992 8 118559077.542 8      2851.012          49.000    22561037.367 7  92383704.418 7      2221.568          43.000
G21  20960748.016 8 110149547.245 8     -1197.293          51.000    20960746.398 8  85830762.838 8      -932.953          50.000
G26  20273794.039 8 106539511.174 8        19.523          51.000    20273796.867 8  83017800.897 8        15.210          51.000
R14  19996380.648 8 106591937.945 8     -2559.883          49.000    19996383.648 7  82904848.703 7     -1991.017          46.000
R24  19825301.852 6 106014780.782 6     -1690.398          36.000    19825303.945 5  82455950.484 5     -1314.754          30.000
C05  39615097.133 5 206286205.736 5         6.605          34.000    39615101.977 5 159513598.983 5         4.942          35.000
C11  23719015.250 4 123511159.213 4      2043.363          28.000    23719028.328 5  95506680.973 5      1579.678          32.000
C12  21607096.344 8 112513955.408 8      -372.797          50.000    21607095.906 8  87002939.329 8      -288.303          51.000
C24  24024127.234 7 125099917.710 7     -2921.730          46.000
E13  26953311.812 6 141640603.530 6      2569.129          40.000    26953313.883 8 108529830.764 8      1968.517          49.000
E15  23286303.953 8 122370433.619 8       864.066          51.000    23286307.398 8  93764375.620 8       662.071          51.000
E30  23206013.281 8 121948423.011 8     -2131.527          51.000    23206018.391 8  93441004.031 8     -1633.215          51.000
> 2020 05 06 14 19  0.0000000  0 14        .000000000000
G18  20562462.273 8 108056539.485 8     -1173.348          51.000    20562462.211 8  84199863.398 8      -914.294          51.000
G20  22544773.922 7 118473594.660 7      2842.074          47.000    22544772.242 7  92317094.456 7      2214.606          44.000
G21  20967600.047 8 110185554.764 8     -1208.820          51.000    20967598.531 8  85858820.643 8      -941.938          50.000
G26  20273713.359 8 106539086.966 8         3.113          51.000    20273715.922 8  83017470.339 8         2.426          51.000
R14  20010831.086 8 106668970.271 8     -2581.223          49.000    20010834.508 7  82964762.775 7     -2007.615          46.000
R17  20182631.680 5 108001338.123 5      1691.449          34.000
R24  19834798.453 5 106065562.786 5     -1700.969          34.000    19834800.758 5  82495447.700 5     -1322.973          30.000
C05  39615040.062 5 206285908.602 5         8.023          35.000    39615044.508 5 159513368.174 5         6.183          35.000
C11  23707249.945 4 123449876.826 4      2037.508          29.000
C12  21609249.594 8 112525167.750 8      -380.188          50.000    21609249.133 8  87011609.419 8      -294.018          51.000
C24  24040962.852 7 125187597.740 7     -2929.043          46.000
E13  26938638.922 7 141563497.706 7      2565.711          43.000    26938641.648 8 108470749.752 8      1965.842          49.000
E15  23281379.172 8 122344555.480 8       855.551          50.000    23281383.078 8  93744546.929 8       655.522          51.000
E30  23218192.570 8 122012420.626 8     -2140.684          51.000    23218195.961 8  93490041.117 8     -1640.246          51.000
> 2020 05 06 14 19 30.0000000  0 13        .000000000000
G18  20569210.352 8 108092000.370 8     -1187.316          51.000    20569210.102 8  84227495.254 8      -925.182          51.000
G20  22528578.555 8 118388489.481 8      2834.840          48.000    22528578.164 7  92250778.776 7      2208.969          45.000
G21  20974539.055 8 110222019.739 8     -1218.957          51.000    20974537.398 8  85887234.918 8      -949.837          50.000
G26  20273748.125 8 106539269.406 8       -12.055          51.000    20273750.617 8  83017612.488 8        -9.393          51.000
R14  20025423.359 8 106746752.390 8     -2601.012          50.000    20025426.805 8  83025259.959 8     -2023.012          48.000
R24  19844375.914 6 106116782.309 6     -1710.512          40.000    19844379.445 5  82535285.137 5     -1330.401          31.000
C05  39614999.508 5 206285697.522 5         9.883          34.000    39615004.094 5 159513204.759 5         7.337          35.000
C11                                                                  23695532.023 5  95412085.237 5      1572.328          31.000
C12  21611467.016 8 112536714.086 8      -386.305          51.000    21611466.578 8  87020537.781 8      -298.779          51.000
C24  24057863.688 7 125275607.955 7     -2934.938          47.000
E13  26924007.773 7 141486611.184 7      2563.383          44.000    26924010.898 8 108411836.764 8      1964.094          49.000
E15  23276524.969 8 122319047.720 8       848.199          51.000    23276528.711 8  93725002.030 8       649.919          51.000
E30  23230446.133 8 122076807.591 8     -2148.656          51.000    23230448.180 8  93539376.537 8     -1646.307          51.000
> 2020 05 06 14 20  0.0000000  0 14        .000000000000
G18  20576023.109 8 108127801.636 8     -1201.457          51.000    20576022.648 8  84255392.331 8      -936.200          51.000
G20  22512412.383 8 118303536.232 8      2826.781          48.000    22512412.609 7  92184581.477 7      2202.687          46.000
G21  20981521.203 8 110258711.318 8     -1229.336          51.000    20981519.586 8  85915825.776 8      -957.924          50.000
G26  20273854.852 8 106539830.415 8       -27.410          51.000    20273857.180 8  83018049.624 8       -21.359          51.000
G29  23261434.430 5 122239653.150 5     -2752.430          31.000
R14  20040112.219 8 106825049.468 8     -2620.945          51.000    20040116.062 8  83086157.605 8     -2038.516          48.000
R24  19853993.188 6 106168204.510 6     -1719.977          38.000    19853995.266 4  82575280.134 4     -1337.760          29.000
C05  39614932.180 5 206285346.810 5        11.676          35.000    39614936.758 5 159512933.324 5         9.031          35.000
C11  23683821.945 4 123327878.257 4      2030.035          27.000    23683826.016 5  95364931.518 5      1569.380          33.000
C12  21613704.875 8 112548367.088 8      -392.664          50.000    21613704.523 8  87029548.621 8      -303.636          51.000
C24  24074785.391 8 125363719.486 8     -2941.203          49.000
E13  26909375.125 7 141409715.692 7      2560.848          44.000    26909378.000 8 108352916.907 8      1962.193          49.000
E15  23271698.102 8 122293681.240 8       840.730          51.000    23271701.031 8  93705565.397 8       644.223          51.000
E30  23242729.781 8 122141354.204 8     -2156.684          51.000    23242731.336 8  93588834.292 8     -1652.488          51.000
> 2020 05 06 14 20 30.0000000  0 15        .000000000000
G18  20582953.312 8 108164220.189 8     -1211.570          51.000    20582953.039 8  84283770.442 8      -944.081          51.000
G20  22496328.289 7 118219016.350 7      2822.566          46.000    22496329.141 7  92118721.841 7      2199.402          46.000
G21  20988599.172 8 110295906.364 8     -1235.574          51.000    20988597.781 8  85944808.951 8      -962.782          50.000
G26  20274086.773 8 106541049.242 8       -38.957          51.000    20274088.875 8  83018999.347 8       -30.356          51.000
G29  23277181.805 5 122322414.699 5     -2750.000          31.000    23277187.000 5  95316184.975 5     -2142.863          33.000
R14  20054949.828 8 106904141.073 8     -2636.793          51.000    20054953.703 8  83147673.251 8     -2050.839          48.000
R17  20154501.148 5 107850789.067 5      1661.012          32.000
R24  19863699.641 6 106220110.705 6     -1725.004          38.000    19863700.953 4  82615651.592 4     -1341.673          28.000
C05  39614891.102 5 206285132.575 5        17.375          34.000    39614895.805 5 159512768.449 5        13.396          35.000
C11  23672172.102 4 123267209.556 4      2030.164          27.000    23672176.430 6  95318022.635 6      1569.272          37.000
C12  21616016.047 8 112560402.154 8      -394.977          50.000    21616015.836 8  87038854.905 8      -305.499          51.000
C24  24091779.398 8 125452206.272 8     -2943.316          50.000
E13  26894794.203 7 141333090.380 7      2562.266          44.000    26894796.180 8 108294204.069 8      1963.321          49.000
E15  23266951.359 8 122268734.358 8       837.191          51.000    23266953.508 8  93686450.296 8       641.445          51.000
E30  23255096.273 8 122206338.181 8     -2160.801          51.000    23255097.992 8  93638627.176 8     -1655.738          51.000
> 2020 05 06 14 21  0.0000000  0 16        .000000000000
G18  20589941.672 8 108200944.227 8     -1238.406          51.000    20589941.547 8  84312386.573 8      -964.992          50.000
G20  22480267.023 7 118134622.456 7      2801.879          42.000    22480269.711 7  92052960.357 7      2183.282          42.000
G21  20995713.625 8 110333293.301 8     -1258.637          51.000    20995712.336 8  85973941.639 8      -980.756          49.000
G26  20274384.891 8 106542616.335 8       -67.262          51.000    20274387.016 8  83020220.445 8       -52.412          51.000
G29  23292915.500 5 122405105.089 5     -2764.406          33.000
R14  20069876.625 8 106983709.599 8     -2669.512          51.000    20069880.234 7  83209559.864 7     -2076.287          47.000
R17  20145253.016 5 107801284.996 5      1636.488          33.000    20145257.359 4  83845482.352 4      1272.824          27.000
R23  22360392.055 5 119612976.621 5     -3363.465          32.000
R24  19873437.609 6 106272183.173 6     -1747.621          40.000    19873440.992 4  82656152.396 4     -1359.261          29.000
C05  39614817.398 5 206284748.501 5         6.578          34.000    39614821.898 5 159512471.433 5         5.461          34.000
C11                                                                  23660528.117 5  95271120.296 5      1556.646          34.000
C12  21618341.508 8 112572511.379 8      -413.977          50.000    21618341.383 8  87048218.518 8      -320.065          51.000
C24  24108785.734 8 125540758.727 8     -2961.922          50.000
E13  26880205.867 7 141256425.564 7      2546.973          43.000    26880206.664 8 108235460.966 8      1951.573          48.000
E15  23262225.367 8 122243896.581 8       816.930          51.000    23262227.078 8  93667418.771 8       626.010          51.000
E30  23267486.477 8 122271448.383 8     -2181.539          51.000    23267488.930 8  93688516.778 8     -1671.587          51.000
> 2020 05 06 14 21 30.0000000  0 15        .000000000000
G18  20597057.602 8 108238338.995 8     -1247.688          51.000    20597057.461 8  84341525.352 8      -972.224          50.000
G20  22464300.336 6 118050724.435 6      2798.246          41.000    22464304.430 6  91987585.259 6      2180.452          41.000
G21  21002934.133 8 110371237.116 8     -1264.418          51.000    21002932.773 8  86003508.264 8      -985.258          50.000
G26  20274819.273 8 106544899.266 8       -78.238          51.000    20274821.328 8  83021999.332 8       -60.965          51.000
G31  23854228.984 6 125354830.855 6     -3284.008          36.000    23854219.516 6  97679045.103 6     -2558.970          36.000
R14  20084962.180 8 107064124.698 8     -2684.711          51.000    20084965.445 7  83272104.925 7     -2088.109          47.000
R23  22379257.555 5 119713903.811 5     -3357.469          30.000    22379263.047 4  93110860.043 4     -2611.371          24.000
R24  19883276.992 5 106324793.304 5     -1752.180          33.000    19883281.273 4  82697071.404 4     -1362.806          24.000
C05                                                                  39614785.047 5 159512322.544 5         9.986          34.000
C11                                                                  23648951.297 5  95224505.967 5      1556.452          32.000
C12  21620751.031 8 112585057.774 8      -415.824          51.000    21620750.883 8  87057920.181 8      -321.569          51.000
C24  24125873.773 8 125629738.296 8     -2963.348          48.000
E13  26865679.609 7 141180088.766 7      2548.836          44.000    26865679.664 7 108176969.216 7      1952.950          47.000
E15  23257589.570 8 122219534.624 8       813.918          51.000    23257591.344 8  93648751.813 8       623.633          51.000
E30  23279970.242 8 122337050.922 8     -2185.230          51.000    23279973.531 8  93738783.625 8     -1674.364          51.000
> 2020 05 06 14 22  0.0000000  0 15        .000000000000
G18  20604269.188 8 108276236.271 8     -1259.926          51.000    20604269.305 8  84371055.693 8      -981.763          51.000
G20  22448398.047 6 117967158.858 6      2791.605          39.000    22448402.383 6  91922469.290 6      2175.280          39.000
G21  21010228.648 8 110409569.998 8     -1272.547          51.000    21010227.359 8  86033378.056 8      -991.595          49.000
G26  20275358.438 8 106547732.089 8       -91.941          51.000    20275360.148 8  83024206.733 8       -71.643          51.000
G31  23873017.016 6 125453591.403 6     -3282.473          39.000    23873013.070 6  97756001.356 6     -2557.774          38.000
R14  20100174.797 8 107145214.299 8     -2702.367          51.000    20100177.742 8  83335174.560 8     -2101.844          48.000
R23  22398133.797 5 119814902.656 5     -3355.840          35.000
R24  19893182.914 5 106377769.308 5     -1760.172          32.000    19893180.367 4  82738269.321 4     -1369.023          25.000
C05  39614749.266 5 206284393.809 5        16.828          35.000    39614753.469 5 159512195.702 5        12.898          35.000
C11                                                                  23637418.695 5  95178072.819 5      1554.311          31.000
C12  21623212.688 8 112597875.781 8      -420.246          51.000    21623212.492 8  87067831.865 8      -324.946          51.000
C24  24143011.430 8 125718977.789 8     -2967.355          48.000
E13  26851183.719 7 141103913.932 7      2548.109          44.000    26851183.875 7 108118601.546 7      1952.453          47.000
E15  23253012.375 8 122195481.619 8       808.312          51.000    23253014.781 8  93630321.572 8       619.365          51.000
E30  23292515.883 8 122402978.244 8     -2191.297          51.000    23292519.492 8  93789299.342 8     -1679.058          51.000
> 2020 05 06 14 22 30.0000000  0 15        .000000000000
G18  20611539.695 8 108314443.268 8     -1285.855          51.000    20611539.984 8  84400827.383 8     -1001.965          51.000
G20  22432523.656 7 117883737.084 7      2771.270          43.000    22432527.164 7  91857465.372 7      2159.434          42.000
G21  21017560.469 8 110448099.081 8     -1294.840          51.000    21017559.266 8  86063400.725 8     -1008.966          48.000
G26  20275965.922 8 106550924.308 8      -119.609          51.000    20275967.617 8  83026694.170 8       -93.202          51.000
G31  23891795.250 6 125552297.866 6     -3296.629          38.000    23891796.000 6  97832915.442 6     -2568.805          38.000
R14  20115477.219 8 107226781.349 8     -2734.156          51.000    20115479.500 8  83398615.560 8     -2126.566          48.000
R23  22416992.430 6 119915776.463 6     -3367.871          36.000
R24  19903121.242 6 106430914.973 6     -1781.879          40.000    19903129.758 5  82779611.379 5     -1385.903          31.000
C05  39614686.938 5 206284069.947 5         6.617          35.000    39614691.062 5 159511944.019 5         4.769          35.000
C11  23625893.578 4 123026216.310 4      1993.656          29.000    23625889.414 6  95131633.029 6      1541.996          36.000
C12  21625689.859 8 112610775.368 8      -438.395          51.000    21625689.758 8  87077806.656 8      -339.115          51.000
C24  24160162.242 7 125808285.716 7     -2985.203          47.000
E13  26836681.867 7 141027710.519 7      2533.453          44.000    26836683.008 7 108060211.978 7      1941.101          47.000
E15  23248457.578 8 122171546.177 8       788.605          51.000    23248460.664 8  93611981.409 8       604.298          51.000
E30  23305086.719 8 122469038.402 8     -2211.523          51.000    23305090.281 8  93839916.847 8     -1694.505          51.000
> 2020 05 06 14 23  0.0000000  0 15        .000000000000
G18  20618942.984 8 108353348.140 8     -1290.430          51.000    20618943.141 8  84431142.858 8     -1005.530          50.000
G20  22416751.836 7 117800851.760 7      2771.898          47.000    22416754.336 7  91792879.463 7      2159.924          44.000
G21  21025003.383 8 110487212.369 8     -1295.344          51.000    21025002.086 8  86093878.619 8     -1009.359          48.000
G26  20276716.086 8 106554866.385 8      -125.840          51.000    20276717.938 8  83029765.906 8       -98.060          51.000
G31  23910637.508 6 125651336.586 6     -3288.523          37.000    23910640.898 6  97910088.386 6     -2562.489          36.000
R14  20130942.719 8 107309218.727 8     -2744.109          51.000    20130944.422 8  83462733.495 8     -2134.307          48.000
R23  22435900.750 5 120016921.025 5     -3357.770          35.000
R24  19913165.805 6 106484625.076 6     -1781.086          38.000    19913172.375 5  82821385.871 5     -1385.292          30.000
C05  39614667.773 5 206283970.063 5        17.477          35.000    39614671.906 5 159511866.765 5        13.306          34.000
C11                                                                  23614435.320 5  95085506.307 5      1546.352          34.000
C12  21628256.867 8 112624142.347 8      -435.453          51.000    21628256.680 8  87088142.852 8      -336.789          51.000
C24  24177399.781 7 125898046.194 7     -2981.660          47.000
E13  26822249.070 7 140951868.910 7      2539.859          45.000    26822250.961 7 108002099.624 7      1946.168          46.000
E15  23243999.344 8 122148117.802 8       790.488          51.000    23244002.492 8  93594029.803 8       605.714          51.000
E30  23317756.758 8 122535620.258 8     -2210.055          51.000    23317760.086 8  93890934.098 8     -1693.433          51.000
> 2020 05 06 14 23 30.0000000  0 17        .000000000000
G18  20626414.008 8 108392608.469 8     -1317.059          51.000    20626414.367 8  84461735.310 8     -1026.279          51.000
G20  22401017.875 8 117718165.132 8      2750.328          49.000    22401019.508 7  91728448.372 7      2143.116          44.000
G21  21032492.375 8 110526567.671 8     -1318.309          51.000    21032490.922 8  86124545.086 8     -1027.253          48.000
G26  20277544.312 8 106559218.162 8      -154.453          51.000    20277546.156 8  83033156.898 8      -120.353          51.000
G31  23929479.039 6 125750364.238 6     -3303.215          38.000    23929483.844 6  97987252.711 6     -2573.934          37.000
R14  20146505.883 8 107392177.898 8     -2776.488          51.000    20146507.711 8  83527257.250 8     -2159.491          49.000
R17  20100302.062 5 107560824.930 5      1569.555          34.000
R23  22454795.656 6 120117987.803 6     -3370.074          37.000
R24  19923249.273 6 106538550.508 6     -1803.371          37.000    19923252.844 4  82863327.876 4     -1402.619          29.000
C05  39614627.086 5 206283757.593 5         6.074          34.000
C11  23602984.500 5 122906949.382 5      1982.500          31.000
C12  21630848.766 8 112637638.505 8      -454.523          51.000    21630848.328 8  87098578.926 8      -351.472          51.000
C21  26169253.242 7 136270168.650 7      2978.793          46.000
C24  24194658.742 7 125987919.491 7     -3000.199          47.000
E13  26807820.703 8 140876048.884 8      2524.500          48.000    26807822.656 7 107944003.837 7      1934.453          45.000
E15  23239572.781 8 122124855.525 8       770.121          51.000    23239575.289 8  93576205.459 8       590.111          51.000
E30  23330461.086 8 122602382.197 8     -2230.898          51.000    23330464.406 8  93942089.320 8     -1709.405          51.000
> 2020 05 06 14 24  0.0000000  0 16        .000000000000
G18  20633971.656 8 108432324.352 8     -1331.516          51.000    20633972.180 8  84492682.771 8     -1037.545          51.000
G20  22385341.414 8 117635782.015 8      2740.949          49.000    22385342.281 7  91664253.774 7      2135.805          45.000
G21  21040046.500 8 110566265.107 8     -1329.051          51.000    21040045.070 8  86155478.155 8     -1035.624          48.000
G26  20278470.016 8 106564082.062 8      -170.855          51.000    20278471.969 8  83036946.943 8      -133.134          51.000
G31  23948338.062 6 125849479.962 6     -3304.840          37.000    23948344.242 6  98064485.647 6     -2575.203          37.000
R14  20162185.812 8 107475758.711 8     -2796.445          51.000    20162187.875 8  83592264.516 8     -2175.016          49.000
R23  22473694.133 6 120219079.339 6     -3370.523          38.000
R24  19933392.484 6 106592793.212 6     -1813.500          40.000    19933393.656 4  82905516.644 4     -1410.497          25.000
C05  39614583.875 5 206283533.381 5         8.113          34.000    39614588.102 5 159511530.132 5         5.908          35.000
C11  23591572.359 5 122847533.173 5      1977.074          31.000
C12  21633484.672 8 112651364.196 8      -461.422          51.000    21633484.062 8  87109192.491 8      -356.822          51.000
C21  26152085.328 7 136180777.910 7      2979.660          43.000
C24  24211958.445 7 126078004.315 7     -3006.398          46.000
E13  26793416.297 8 140800352.882 8      2521.109          50.000    26793417.570 7 107886003.073 7      1931.807          45.000
E15  23235197.211 8 122101860.924 8       761.941          51.000    23235199.312 8  93558586.227 8       583.828          51.000
E30  23343218.828 8 122669425.134 8     -2239.555          51.000    23343222.305 8  93993459.853 8     -1716.001          51.000
> 2020 05 06 14 24 30.0000000  0 18        .000000000000
G18  20641632.117 8 108472580.084 8     -1348.027          51.000    20641632.578 8  84524050.870 8     -1050.411          50.000
G20  22369739.125 7 117553791.512 7      2729.285          47.000    22369740.258 7  91600365.104 7      2126.716          46.000
G21  21047681.742 8 110606388.683 8     -1341.766          51.000    21047680.102 7  86186743.286 7     -1045.529          47.000
G26  20279509.570 8 106569544.576 8      -189.383          51.000    20279511.641 8  83041203.440 8      -147.571          51.000
G31  23967230.453 6 125948766.847 6     -3309.418          37.000    23967236.016 5  98141851.945 5     -2578.767          35.000
R14  20177997.625 8 107560045.373 8     -2818.441          51.000    20178000.148 8  83657820.803 8     -2192.121          50.000
R17  20082859.383 5 107467415.816 5      1542.609          35.000
R23  22492612.375 6 120320281.563 6     -3372.414          37.000
R24  19943610.602 5 106647438.497 5     -1825.371          35.000    19943612.898 4  82948018.390 4     -1419.733          27.000
C05  39614554.945 5 206283381.986 5         6.734          34.000    39614559.289 5 159511413.794 5         4.917          35.000
C11  23580212.703 4 122788370.630 4      1970.980          29.000
C12  21636180.812 8 112665404.074 8      -470.449          51.000    21636180.273 8  87120049.015 8      -363.863          51.000
C21  26134932.148 6 136091472.211 6      2978.398          38.000
C24  24229314.648 7 126168383.735 7     -3014.715          45.000
E13  26779052.141 8 140724867.364 8      2515.316          50.000    26779052.641 7 107828163.573 7      1927.371          45.000
E15  23230888.625 8 122079219.642 8       751.512          51.000    23230890.883 8  93541237.732 8       575.819          51.000
E27  23708391.039 6 124588437.971 6       570.855          40.000    23708393.484 6  95463874.754 6       437.522          40.000
E30  23356046.094 8 122736834.068 8     -2250.309          51.000    23356049.914 8  94045110.823 8     -1724.277          51.000
> 2020 05 06 14 25  0.0000000  0 18        .000000000000
G18  20649361.250 8 108513196.646 8     -1361.703          51.000    20649361.836 8  84555700.145 8     -1061.067          51.000
G20  22354177.828 7 117472018.888 7      2720.176          47.000    22354179.867 7  91536646.216 7      2119.621          46.000
G21  21055364.062 8 110646759.623 8     -1351.664          51.000    21055362.281 8  86218201.165 8     -1053.245          48.000
G26  20280629.367 8 106575428.990 8      -205.223          51.000    20280631.609 8  83045788.691 8      -159.914          51.000
G31  23986121.703 6 126048044.808 6     -3311.520          38.000    23986127.867 5  98219211.269 5     -2580.411          35.000
R14  20193906.594 8 107644855.321 8     -2837.648          49.000    20193910.727 8  83723784.068 8     -2207.060          50.000
R17  20074240.203 4 107421282.811 4      1529.637          27.000
R23  22511516.805 6 120421412.187 6     -3371.660          39.000
R24  19953869.195 5 106702303.887 5     -1834.531          35.000    19953876.930 4  82990691.542 4     -1426.855          28.000
C05  39614506.508 5 206283130.130 5         8.129          34.000
C11  23568870.531 5 122729286.340 5      1965.879          31.000
C12  21638903.523 8 112679581.911 8      -476.777          51.000    21638903.102 8  87131012.218 8      -368.671          51.000
C21  26117761.500 6 136002078.308 6      2978.918          36.000
C24  24246692.836 7 126258879.922 7     -3020.090          44.000
E13  26764694.195 8 140649415.554 8      2512.590          49.000    26764694.883 7 107770349.916 7      1925.201          46.000
E15  23226613.258 8 122056754.073 8       743.945          51.000    23226615.695 8  93524023.862 8       570.111          51.000
E27  23705157.016 6 124571444.377 6       559.727          41.000    23705161.305 6  95450853.661 6       428.807          41.000
E30  23368909.281 8 122804430.754 8     -2258.270          51.000    23368913.422 8  94096905.655 8     -1730.344          51.000
> 2020 05 06 14 25 30.0000000  0 17        .000000000000
G18  20657184.258 8 108554306.437 8     -1378.422          51.000    20657184.680 8  84587733.760 8     -1074.095          50.000
G20  22338684.242 8 117390601.202 8      2708.203          48.000    22338686.508 7  91473203.882 7      2110.288          45.000
G21  21063118.680 8 110687510.260 8     -1364.359          51.000    21063116.953 7  86249954.928 7     -1063.137          47.000
G26  20281855.047 8 106581869.947 8      -223.777          51.000    20281857.445 8  83050807.609 8      -174.372          51.000
G31  24005036.516 6 126147445.220 6     -3314.777          37.000    24005043.078 5  98296666.062 5     -2582.943          35.000
R14  20209938.391 8 107730321.230 8     -2859.637          50.000    20209943.961 8  83790257.514 8     -2224.162          49.000
R23  22530433.609 6 120522606.792 6     -3374.211          39.000
R24  19964195.766 5 106757524.279 5     -1846.727          33.000
C05  39614464.109 5 206282909.363 5         6.688          34.000    39614468.484 5 159511048.542 5         5.516          34.000
C11  23557564.867 5 122670413.377 5      1958.812          35.000
C12  21641678.328 8 112694030.081 8      -485.863          51.000    21641677.883 8  87142184.452 8      -375.619          51.000
C21  26100602.352 6 135912731.677 6      2977.539          39.000
C24  24264118.445 7 126349623.640 7     -3028.641          42.000
E13  26750367.859 7 140574132.211 7      2506.965          47.000    26750370.117 7 107712665.315 7      1920.969          47.000
E15  23222397.023 8 122034598.110 8       733.625          51.000    23222399.203 8  93507047.215 8       562.194          51.000
E27  23702004.133 7 124554874.111 7       545.594          42.000    23702009.266 6  95438156.948 6       418.127          40.000
E30  23381833.758 8 122872348.431 8     -2268.867          51.000    23381837.672 8  94148946.455 8     -1738.516          51.000
> 2020 05 06 14 26  0.0000000  0 18        .000000000000
G18  20665094.453 8 108595874.057 8     -1392.961          51.000    20665094.758 8  84620124.104 8     -1085.424          50.000
G20  22323252.906 8 117309507.491 8      2697.883          50.000    22323254.461 7  91410013.971 7      2102.246          45.000
G21  21070938.789 8 110728605.000 8     -1375.141          51.000    21070936.875 7  86281976.809 7     -1071.538          47.000
G26  20283180.305 8 106588834.228 8      -240.562          51.000    20283182.789 8  83056234.318 8      -187.451          51.000
G31  24023968.227 6 126246931.958 6     -3317.426          37.000    24023976.117 5  98374188.095 5     -2585.007          35.000
R14  20226087.211 8 107816405.971 8     -2879.488          50.000    20226093.086 8  83857212.286 8     -2239.602          48.000
R17  20057231.008 5 107330308.716 5      1503.051          30.000
R23  22549355.859 6 120623829.154 6     -3374.391          38.000
R24  19974584.336 6 106813063.068 6     -1856.320          36.000
C05  39614421.055 5 206282684.887 5         7.531          35.000    39614425.672 5 159510875.745 5         5.863          35.000
C11  23546292.711 5 122611718.539 5      1954.195          35.000    23546304.227 4  94811209.060 4      1510.552          27.000
C12  21644498.375 8 112708714.640 8      -493.184          51.000    21644497.992 8  87153539.482 8      -381.328          51.000
C21  26083447.898 7 135823401.365 7      2977.547          42.000
C24  24281584.180 6 126440579.264 6     -3035.113          40.000
E13  26736066.914 7 140498984.093 7      2502.977          46.000    26736071.688 8 107655084.325 8      1917.859          48.000
E15  23218233.414 8 122012717.692 8       725.000          51.000    23218235.367 8  93490281.730 8       555.522          51.000
E27  23698926.039 7 124538694.426 7       533.066          42.000    23698929.531 6  95425759.531 6       408.412          41.000
E30  23394812.828 8 122940552.405 8     -2277.934          51.000    23394815.977 8  94201206.638 8     -1745.427          51.000
> 2020 05 06 14 26 30.0000000  0 16        .000000000000
G18  20673091.367 8 108637898.132 8     -1408.820          51.000    20673091.773 8  84652870.154 8     -1097.782          51.000
G20  22307884.188 8 117228741.001 8      2686.348          51.000    22307885.188 7  91347079.084 7      2093.258          44.000
G21  21078824.266 8 110770043.043 8     -1387.383          51.000    21078822.086 7  86314266.207 7     -1081.078          47.000
G26  20284605.289 8 106596322.834 8      -258.812          51.000    20284608.008 8  83062069.573 8      -201.672          51.000
G31  24042916.227 5 126346502.351 5     -3319.785          34.000    24042925.492 5  98451775.282 5     -2586.852          34.000
R14  20242352.430 8 107903106.931 8     -2900.625          51.000    20242357.555 7  83924646.320 7     -2256.042          47.000
R23  22568282.227 5 120725078.918 5     -3376.270          30.000
C05  39614377.781 5 206282460.196 5         7.211          35.000
C11  23535054.539 5 122553202.612 5      1947.477          35.000
C12  21647363.555 8 112723635.473 8      -501.766          51.000    21647363.359 8  87165077.223 8      -387.961          51.000
C21  26066298.328 7 135734090.583 7      2976.219          44.000
C24  24299091.125 7 126531745.151 7     -3042.828          42.000
E13  26721792.102 7 140423972.257 7      2497.676          47.000    26721799.094 8 107597607.778 8      1913.777          48.000
E15  23214122.188 8 121991113.007 8       715.180          51.000    23214124.094 8  93473727.528 8       547.968          51.000
E27  23695922.320 7 124522906.783 7       519.215          42.000    23695924.648 6  95413662.496 6       397.828          41.000
E30  23407846.219 8 123009042.206 8     -2288.191          51.000    23407848.727 8  94253685.831 8     -1753.281          51.000
> 2020 05 06 14 27  0.0000000  0 16        .000000000000
G18  20681172.141 8 108680362.986 8     -1419.637          51.000    20681172.594 8  84685959.644 8     -1106.210          50.000
G20  22292575.711 8 117148291.022 8      2679.492          50.000    22292575.812 7  91284390.860 7      2087.919          43.000
G21  21086771.977 8 110811808.451 8     -1394.566          51.000    21086769.734 8  86346810.703 8     -1086.675          48.000
G26  20286127.297 8 106604322.173 8      -272.066          50.000    20286130.281 8  83068302.824 8      -212.000          50.000
G31  24061881.398 5 126446023.021 5     -3320.434          33.000    24061889.359 5  98529414.041 5     -2587.351          33.000
R14  20258730.414 8 107990406.824 8     -2916.789          51.000    20258734.625 8  83992546.216 8     -2268.611          48.000
R23  22587211.852 5 120826339.912 5     -3372.332          30.000
R24  19995529.625 6 106925052.816 6     -1873.844          38.000    19995533.508 4  83163985.696 4     -1457.431          28.000
C11  23523847.953 5 122494851.755 5      1945.059          33.000
C12  21650271.484 8 112738778.197 8      -505.410          50.000    21650271.219 8  87176786.518 8      -390.758          51.000
C21  26049150.492 7 135644787.944 7      2979.512          44.000
C24  24316637.469 7 126623105.259 7     -3045.484          42.000
E13  26707540.969 8 140349083.113 8      2497.406          48.000    26707549.094 8 107540225.251 8      1913.588          48.000
E15  23210060.469 8 121969769.722 8       710.223          51.000    23210062.398 8  93457373.597 8       544.185          51.000
E27  23692990.172 7 124507498.121 7       510.438          43.000    23692992.797 6  95401855.810 6       391.114          41.000
E30  23420930.945 8 123077802.841 8     -2293.387          51.000    23420933.141 8  94306372.536 8     -1757.252          51.000
> 2020 05 06 14 27 30.0000000  0 16        .000000000000
G18  20689340.773 8 108723289.918 8     -1442.156          50.000    20689341.266 8  84719409.194 8     -1123.758          49.000
G20  22277331.734 8 117068183.117 8      2660.953          49.000    22277331.234 7  91221969.200 7      2073.470          43.000
G21  21094786.062 8 110853922.959 8     -1413.070          51.000    21094783.852 8  86379627.215 8     -1101.094          48.000
G26  20287750.930 8 106612855.845 8      -296.973          50.000    20287754.305 8  83074952.420 8      -231.407          50.000
R14  20275224.219 8 108078325.614 8     -2944.465          50.000    20275228.344 8  84060927.493 8     -2290.139          50.000
R23  22606150.875 4 120927634.701 4     -3380.852          28.000
R24  20006096.695 6 106981531.334 6     -1891.512          36.000    20006094.219 4  83207913.387 4     -1471.179          29.000
C05  39614286.578 5 206281984.990 5         4.059          34.000    39614291.430 5 159510335.329 5         3.362          34.000
C11                                                                  23512672.156 4  94675798.456 4      1494.464          28.000
C12  21653226.406 8 112754165.144 8      -520.438          50.000    21653226.016 8  87188684.673 8      -402.456          51.000
C21  26032008.906 7 135555518.965 7      2971.516          45.000
C24  24334225.266 7 126714680.381 7     -3059.488          44.000
E13  26693317.969 8 140274340.346 8      2485.504          49.000    26693325.477 7 107482954.905 7      1904.387          46.000
E15  23206052.820 8 121948710.649 8       693.629          51.000    23206054.930 8  93441237.431 8       531.515          51.000
E27  23690134.883 7 124492492.406 7       489.910          44.000    23690136.656 6  95390357.946 6       375.383          40.000
E30  23434071.211 8 123146856.452 8     -2310.254          51.000    23434073.172 8  94359283.723 8     -1770.168          51.000
> 2020 05 06 14 28  0.0000000  0 17        .000000000000
G18  20697605.086 8 108766719.841 8     -1453.969          50.000    20697605.383 8  84753250.700 8     -1132.963          49.000
G20  22262160.969 7 116988462.823 7      2652.887          47.000    22262160.578 7  91159849.576 7      2067.188          42.000
G21  21102874.367 8 110896427.598 8     -1421.207          51.000    21102872.359 8  86412747.703 8     -1107.434          48.000
G26  20289484.617 8 106621966.965 8      -311.277          51.000    20289488.148 8  83082051.979 8      -242.554          51.000
G31  24099862.414 5 126645629.439 5     -3328.348          32.000    24099875.500 5  98684960.660 5     -2593.518          33.000
R14  20291841.188 8 108166903.479 8     -2961.453          50.000    20291845.805 8  84129821.350 8     -2303.352          51.000
R23  22625102.945 5 121029005.170 5     -3378.145          34.000    22625105.945 4  94133706.201 4     -2627.449          26.000
R24  20016719.578 4 107038422.328 4     -1898.867          29.000    20016722.531 5  83252123.992 5     -1476.888          30.000
C05  39614251.422 5 206281801.818 5         7.316          34.000    39614256.266 5 159510193.679 5         5.748          35.000
C11                                                                  23501545.789 5  94630982.550 5      1492.066          33.000
C12  21656236.273 8 112769838.112 8      -525.168          50.000    21656235.867 8  87200803.992 8      -406.045          51.000
C21  26014881.711 7 135466328.483 7      2973.730          44.000
C24  24351861.477 7 126806510.584 7     -3063.180          45.000
E13  26679131.172 8 140199787.186 8      2484.055          48.000    26679135.812 7 107425829.845 7      1903.289          45.000
E15  23202107.516 8 121927978.128 8       687.797          51.000    23202110.188 8  93425351.485 8       526.992          51.000
E27  23687364.594 7 124477933.325 7       479.980          44.000    23687365.242 6  95379202.308 6       367.795          41.000
E30  23447275.070 8 123216244.757 8     -2316.375          51.000    23447277.102 8  94412451.337 8     -1774.903          51.000
> 2020 05 06 14 28 30.0000000  0 18        .000000000000
G18  20705959.516 8 108810622.801 8     -1468.066          50.000    20705959.797 8  84787460.787 8     -1143.948          49.000
G20  22247058.914 7 116909104.854 7      2642.359          46.000    22247058.727 7  91098012.254 7      2058.981          42.000
G21  21111031.148 8 110939292.234 8     -1431.719          50.000    21111029.461 8  86446148.708 8     -1115.625          49.000
G26  20291322.977 8 106631627.678 8      -327.953          51.000    20291326.664 8  83089579.797 8      -255.548          51.000
R08  22981258.945 6 123063598.745 6       354.844          36.000    22981261.445 4  95716134.513 4       275.990          27.000
R14  20308575.789 8 108256108.710 8     -2980.625          51.000    20308580.680 8  84199203.161 8     -2318.264          50.000
R17  20016051.328 5 107109963.312 5      1436.543          34.000    20016053.188 4  83307734.100 4      1117.302          25.000
R23  22644058.320 6 121130413.994 6     -3378.074          37.000    22644063.000 4  94212583.599 4     -2627.391          25.000
R24  20027410.641 6 107095597.738 6     -1907.980          37.000    20027415.672 5  83296593.723 5     -1483.985          30.000
C05  39614220.531 5 206281640.706 5         7.910          34.000
C11  23490477.680 4 122321079.255 4      1923.969          28.000    23490460.211 5  94586342.540 5      1488.209          32.000
C12  21659295.711 8 112785768.584 8      -532.270          50.000    21659295.195 8  87213122.444 8      -411.675          51.000
C21  25997764.047 7 135377191.051 7      2973.590          43.000
C24  24369540.383 7 126898565.698 7     -3069.293          44.000
E13  26664975.141 8 140125395.857 8      2479.832          48.000    26664976.109 7 107368828.772 7      1900.412          45.000
E15  23198218.938 8 121907543.628 8       679.305          51.000    23198222.297 8  93409693.904 8       520.419          51.000
E27  23684673.742 7 124463793.595 7       467.375          42.000    23684675.094 7  95368367.932 7       358.187          42.000
E30  23460537.109 8 123285938.536 8     -2325.234          51.000    23460539.406 8  94465852.997 8     -1781.649          51.000
> 2020 05 06 14 29  0.0000000  0 17        .000000000000
G18  20714356.977 8 108854751.815 8     -1495.062          49.000    20714357.219 8  84821847.054 8     -1164.981          48.000
G20  22231979.836 7 116829866.982 7      2618.855          47.000    22231979.922 7  91036268.449 7      2040.664          42.000
G21  21119209.406 8 110982270.034 8     -1454.789          49.000    21119207.898 8  86479637.913 8     -1133.599          49.000
G26  20293219.492 8 106641593.368 8      -357.641          51.000    20293223.188 8  83097345.260 8      -278.684          51.000
R08  22979308.180 5 123053180.950 5       318.043          31.000    22979315.688 4  95708031.869 4       247.364          27.000
R14  20325380.852 8 108345689.472 8     -3012.883          51.000    20325385.609 8  84268877.084 8     -2343.353          49.000
R23  22662980.656 6 121231660.681 6     -3390.781          36.000
R24  20038119.078 6 107152854.701 6     -1930.684          37.000    20038122.750 4  83341126.852 4     -1501.646          29.000
C05  39614147.352 5 206281259.841 5        -3.621          34.000    39614152.102 5 159509773.809 5        -2.803          34.000
C11                                                                  23479368.250 5  94541671.654 5      1474.601          30.000
C12  21662357.820 8 112801713.133 8      -551.871          50.000    21662357.141 8  87225451.765 8      -426.636          51.000
C21  25980609.977 7 135287866.480 7      2960.289          43.000
C24  24387215.164 7 126990600.705 7     -3087.645          43.000
E13  26650803.211 7 140050921.731 7      2463.656          47.000    26650801.930 7 107311764.254 7      1887.802          45.000
E15  23194340.328 8 121887161.698 8       658.301          51.000    23194343.984 8  93394076.598 8       504.412          51.000
E27  23682016.047 7 124449828.967 7       442.305          42.000    23682017.953 7  95357667.743 7       338.978          42.000
E30  23473810.750 8 123355691.639 8     -2346.316          51.000    23473813.008 8  94519300.115 8     -1797.797          51.000
> 2020 05 06 14 29 30.0000000  0 18        .000000000000
G18  20722873.781 8 108899508.031 8     -1498.660          50.000    20722873.727 7  84856722.025 7     -1167.787          47.000
G20  22217000.883 8 116751154.810 8      2618.527          48.000    22217001.539 6  90974934.294 6      2040.408          41.000
G21  21127485.617 8 111025762.278 8     -1454.754          50.000    21127484.125 8  86513527.961 8     -1133.574          49.000
G26  20295250.836 8 106652267.228 8      -363.984          51.000    20295254.281 8  83105662.531 8      -283.627          51.000
G31  24156925.430 5 126945506.193 5     -3335.359          35.000    24156934.750 5  98918588.637 5     -2598.987          34.000
R08  22977535.680 6 123043689.424 6       304.898          36.000    22977542.367 5  95700649.457 5       237.140          30.000
R14  20342332.320 8 108436051.019 8     -3021.402          50.000    20342336.953 8  84339158.266 8     -2349.980          48.000
R17  20000074.984 5 107024455.901 5      1408.258          31.000
R23  22681941.117 5 121333068.078 5     -3380.145          35.000
R24  20048918.930 5 107210601.073 5     -1928.777          30.000    20048921.016 4  83386040.747 4     -1500.154          29.000
C05  39614108.461 5 206281057.559 5         7.742          34.000
C12  21665499.180 8 112818070.466 8      -548.559          50.000    21665498.266 8  87238100.305 8      -424.232          51.000
C21  25963495.984 6 135198756.508 6      2970.645          41.000
C24  24404962.453 7 127083012.626 7     -3083.172          42.000
E13  26636692.211 7 139976768.318 7      2469.859          47.000    26636690.328 7 107254945.446 7      1892.526          46.000
E15  23190548.367 8 121867234.924 8       660.180          51.000    23190551.789 8  93378808.021 8       505.828          51.000
E27  23679468.438 7 124436443.185 7       440.102          42.000    23679469.789 7  95347411.123 7       337.215          42.000
E30  23487172.211 8 123425905.926 8     -2344.543          51.000    23487174.570 8  94573100.643 8     -1796.552          51.000
> 2020 05 06 14 30  0.0000000  0 19        .000000000000
G18  20731470.914 8 108944686.187 8     -1513.977          49.000    20731470.781 7  84891925.775 7     -1179.719          47.000
G20  22202084.508 8 116672767.794 8      2606.398          50.000    22202084.273 6  90913853.498 6      2030.963          41.000
G21  21135820.688 8 111069563.725 8     -1466.145          49.000    21135819.195 8  86547658.962 8     -1142.450          49.000
G26  20297378.469 8 106663446.241 8      -382.121          51.000    20297381.477 8  83114373.436 8      -297.757          51.000
G31  24175972.688 5 127045594.471 5     -3337.410          34.000    24175980.750 5  98996579.464 5     -2600.588          33.000
R08  22975898.523 5 123034917.603 5       279.480          34.000    22975904.836 5  95693826.974 5       217.377          32.000
R14  20359391.109 8 108526983.709 8     -3041.578          50.000    20359394.633 7  84409883.641 7     -2365.672          46.000
R17  19992213.227 5 106982374.840 5      1395.191          34.000    19992209.484 4  83208496.013 4      1085.149          26.000
R23  22700898.227 5 121434475.750 5     -3381.238          35.000
R24  20059770.203 5 107268663.258 5     -1939.777          35.000    20059779.938 4  83431169.113 4     -1508.710          28.000
C05  39614065.039 5 206280831.427 5         6.359          34.000    39614069.430 5 159509441.752 5         5.271          34.000
C11  23457357.273 4 122148624.866 4      1905.336          28.000
C12  21668681.047 8 112834638.577 8      -556.840          50.000    21668679.891 8  87250911.809 8      -430.569          51.000
C21  25946385.000 7 135109662.165 7      2968.562          42.000
C24  24422742.758 7 127175597.772 7     -3089.988          42.000
E13  26622603.477 7 139902732.573 7      2464.887          46.000    26622602.328 7 107198216.789 7      1888.718          47.000
E15  23186804.250 8 121847559.515 8       650.668          51.000    23186807.438 8  93363732.058 8       498.549          51.000
E27  23676992.375 6 124423433.799 6       426.344          41.000    23676994.203 7  95337442.885 7       326.640          44.000
E30  23500582.281 8 123496376.988 8     -2354.316          50.000    23500585.344 8  94627097.941 8     -1803.960          51.000
> 2020 05 06 14 30 30.0000000  0 18        .000000000000
G18  20740166.883 8 108990384.096 8     -1529.180          50.000    20740166.938 7  84927534.539 7     -1191.569          46.000
G20  22187249.961 8 116594808.267 8      2594.301          50.000    22187249.211 7  90853105.849 7      2021.536          43.000
G21  21144233.156 8 111113772.229 8     -1477.645          49.000    21144231.891 8  86582107.157 8     -1151.411          49.000
G26  20299621.305 8 106675230.340 8      -400.199          51.000    20299623.898 8  83123555.843 8      -311.844          51.000
G31  24195045.867 5 127145823.311 5     -3340.449          33.000    24195056.242 4  99074678.967 4     -2602.947          29.000
R08  22974415.078 5 123026968.068 5       253.965          33.000    22974421.172 5  95687644.043 5       197.528          32.000
R14  20376576.023 8 108618585.647 8     -3061.828          51.000    20376578.117 7  84481129.508 7     -2381.425          46.000
R17  19984451.000 5 106940820.243 5      1381.363          32.000
R23  22719871.398 6 121535980.341 6     -3382.113          38.000
R24  20070697.562 5 107327047.599 5     -1950.676          32.000
C05  39614036.180 5 206280681.621 5         6.633          34.000    39614040.570 5 159509326.064 5         4.930          35.000
C12  21671922.039 8 112851515.477 8      -565.090          50.000    21671920.828 8  87263962.103 8      -436.960          51.000
C21  25929297.719 7 135020684.756 7      2966.598          45.000
C24  24440574.133 6 127268452.658 6     -3097.219          40.000
E13  26608556.352 7 139828914.710 7      2459.797          45.000    26608556.633 8 107141655.095 8      1884.684          49.000
E15  23183126.953 8 121828234.730 8       641.016          51.000    23183129.938 8  93348924.777 8       491.117          51.000
E27  23674607.398 7 124410901.286 7       412.539          43.000    23674609.742 7  95327840.027 7       316.104          43.000
E30  23514059.914 8 123567203.406 8     -2364.102          51.000    23514063.906 8  94681367.564 8     -1811.436          51.000
> 2020 05 06 14 31  0.0000000  0 19        .000000000000
G18  20748950.625 8 109036542.434 8     -1557.438          50.000    20748950.648 7  84963502.073 7     -1213.588          46.000
G20  22172486.383 8 116517221.633 8      2568.777          50.000    22172485.438 7  90792648.751 7      2001.645          45.000
G21  21152711.914 8 111158328.874 8     -1502.152          50.000    21152710.859 8  86616826.607 8     -1170.508          49.000
G26  20301968.297 8 106687562.363 8      -431.453          51.000    20301970.688 8  83133165.194 8      -336.197          51.000
R08  22973074.867 5 123019783.340 5       215.293          35.000    22973078.242 4  95682055.964 4       167.447          27.000
R14  20393874.484 8 108710794.879 8     -3095.035          50.000    20393877.000 8  84552847.743 8     -2407.253          48.000
R17  19976744.969 5 106899638.182 5      1353.852          31.000
R18  23568245.477 6 125808898.822 6      3241.863          38.000    23568242.711 4  97851357.011 4      2521.458          28.000
R23  22738852.320 6 121637520.405 6     -3396.586          38.000
R24  20081677.703 5 107385774.654 5     -1973.957          31.000
C05  39614010.844 5 206280548.874 5        -7.336          34.000    39614015.398 5 159509224.053 5        -5.528          34.000
C11                                                                  23435492.820 5  94365027.012 5      1452.760          33.000
C12  21675211.375 8 112868643.816 8      -586.258          50.000    21675210.094 8  87277206.817 8      -453.286          51.000
C21  25912223.648 7 134931769.873 7      2951.723          46.000
C24  24458445.219 6 127361518.062 6     -3116.918          37.000
E13  26594540.195 7 139755257.601 7      2441.328          45.000    26594541.992 8 107085216.566 8      1870.661          50.000
E15  23179505.484 8 121809202.713 8       618.383          51.000    23179508.141 8  93334341.814 8       473.793          51.000
E27  23672302.867 7 124398788.922 7       385.699          43.000    23672304.148 7  95318559.162 7       295.476          43.000
E30  23527594.297 8 123638326.670 8     -2386.898          51.000    23527598.805 8  94735864.630 8     -1828.895          51.000
> 2020 05 06 14 31 30.0000000  0 16        .000000000000
G18  20757816.992 8 109083135.328 8     -1558.012          49.000    20757816.555 7  84999808.241 7     -1214.035          46.000
G20  22157789.422 8 116439986.558 8      2570.930          50.000    22157788.438 7  90732465.615 7      2003.325          46.000
G21  21161252.039 8 111203207.742 8     -1498.930          49.000    21161251.094 8  86651797.163 8     -1167.994          48.000
G26  20304414.836 8 106700418.615 8      -434.918          51.000    20304417.094 8  83143183.036 8      -338.897          51.000
R14  20411280.711 8 108803583.524 8     -3100.227          49.000    20411284.898 8  84625016.673 8     -2411.287          49.000
R18  23549969.758 6 125711368.101 6      3250.699          38.000    23549966.914 4  97775474.891 4      2528.328          26.000
R23  22757834.742 6 121739070.113 6     -3383.074          37.000
C05  39613984.695 5 206280412.954 5         6.793          34.000    39613989.219 5 159509117.934 5         5.491          34.000
C11                                                                  23424620.102 5  94321239.048 5      1458.465          30.000
C12  21678544.508 8 112885999.217 8      -580.023          50.000    21678543.023 8  87290627.122 8      -448.562          51.000
C21  25895157.969 7 134842896.277 7      2964.098          47.000
C24  24476349.234 4 127454768.154 4     -3109.254          29.000
E13  26580550.547 7 139681737.807 7      2450.578          46.000    26580553.438 8 107028883.272 8      1877.716          50.000
E15  23175935.125 8 121790439.122 8       623.336          51.000    23175937.453 8  93319964.515 8       477.579          51.000
E27  23670073.742 7 124387073.674 7       386.191          43.000    23670074.156 7  95309582.550 7       295.904          43.000
E30  23541180.641 8 123709721.788 8     -2382.078          51.000    23541185.164 8  94790569.989 8     -1825.232          51.000
> 2020 05 06 14 32  0.0000000  0 16        .000000000000
G18  20766758.117 8 109130121.326 8     -1570.969          49.000    20766757.766 7  85036420.705 7     -1224.131          47.000
G20  22143151.852 8 116363066.004 8      2560.566          51.000    22143151.078 7  90672527.568 7      1995.247          47.000
G21  21169845.570 8 111248367.310 8     -1508.211          49.000    21169844.922 8  86686986.447 8     -1175.229          49.000
G26  20306953.617 8 106713759.711 8      -450.988          51.000    20306955.719 8  83153578.687 8      -351.419          51.000
R14  20428787.664 8 108896908.338 8     -3117.930          50.000    20428792.844 8  84697602.662 8     -2425.056          49.000
R18  23531718.586 6 125613964.733 6      3246.527          39.000    23531718.734 4  97699708.832 4      2525.077          26.000
R23  22776813.445 5 121840583.904 5     -3381.516          34.000
R24  20103795.773 5 107504027.408 5     -1977.746          35.000
C05  39613950.266 5 206280233.146 5         8.523          34.000    39613954.750 5 159508979.874 5         7.219          35.000
C11                                                                  23413773.367 5  94277561.146 5      1455.481          31.000
C12  21681913.500 8 112903541.798 8      -586.137          50.000    21681911.977 8  87304192.158 8      -453.163          51.000
C21  25878093.008 7 134754027.319 7      2963.953          47.000
E13  26566579.469 7 139608316.068 7      2447.672          45.000    26566583.289 8 106972625.118 8      1875.426          50.000
E15  23172408.047 8 121771903.947 8       615.867          51.000    23172410.641 8  93305762.240 8       471.856          51.000
E27  23667912.750 7 124375716.675 7       374.492          43.000    23667913.039 7  95300880.436 7       286.940          44.000
E30  23554810.961 8 123781347.990 8     -2389.578          51.000    23554815.297 8  94845452.392 8     -1830.975          51.000
> 2020 05 06 14 32 30.0000000  0 18        .000000000000
G18  20775774.953 8 109177505.134 8     -1583.809          49.000    20775775.078 7  85073343.159 7     -1234.137          47.000
G20  22128575.953 8 116286469.490 8      2550.156          50.000    22128574.727 7  90612841.976 7      1987.135          46.000
G21  21178493.562 8 111293812.464 8     -1517.234          49.000    21178493.078 8  86722398.248 8     -1182.261          49.000
G26  20309585.867 8 106727592.534 8      -466.980          51.000    20309587.883 8  83164357.505 8      -363.881          51.000
R14  20446396.602 8 108990772.522 8     -3135.328          51.000    20446401.406 8  84770608.132 8     -2438.589          49.000
R17  19954073.867 4 106778288.130 4      1332.559          29.000
R18  23513493.977 6 125516696.047 6      3242.828          38.000    23513496.609 4  97624056.433 4      2522.197          24.000
R23  22795782.750 5 121942073.265 5     -3380.371          33.000
R24  20114929.961 5 107563554.808 5     -1986.141          35.000
C05  39613908.594 5 206280017.123 5        10.000          34.000    39613913.195 5 159508812.090 5         7.757          35.000
C11  23402953.953 5 121865323.495 5      1877.520          30.000    23402955.773 4  94234003.813 4      1451.597          27.000
C12  21685319.258 8 112921277.629 8      -592.133          50.000    21685318.000 8  87317906.626 8      -457.769          51.000
C21  25861030.031 7 134665172.129 7      2963.906          45.000
C24  24512262.414 6 127641791.169 6     -3118.398          38.000
E13  26552627.914 7 139534999.568 7      2444.648          44.000    26552632.656 8 106916447.583 8      1873.115          50.000
E15  23168925.352 8 121753603.409 8       608.496          51.000    23168928.516 8  93291739.766 8       466.286          51.000
E27  23665821.547 7 124364725.389 7       362.793          44.000    23665821.602 7  95292458.541 7       277.957          45.000
E30  23568486.000 8 123853210.872 8     -2396.902          51.000    23568490.234 8  94900516.116 8     -1836.570          51.000
> 2020 05 06 14 33  0.0000000  0 19        .000000000000
G18  20784881.227 7 109225359.140 7     -1597.145          47.000    20784881.281 7  85110631.982 7     -1244.528          47.000
G20  22114076.211 8 116210274.075 8      2538.953          49.000    22114075.227 7  90553468.962 7      1978.405          46.000
G21  21187209.781 8 111339616.069 8     -1526.910          49.000    21187209.117 8  86758089.357 8     -1189.800          49.000
G26  20312325.820 8 106741991.550 8      -483.477          51.000    20312328.281 8  83175577.509 8      -376.735          51.000
G29  23676877.273 5 124422832.815 5     -2834.094          33.000
R14  20464120.570 8 109085247.855 8     -3153.359          51.000    20464124.609 7  84844088.931 7     -2452.613          47.000
R17  19946672.773 5 106738655.550 5      1319.637          34.000
R18  23495311.047 4 125419564.266 4      3237.535          29.000    23495314.203 4  97548563.056 4      2518.083          25.000
R23  22814765.625 6 122043612.481 6     -3379.422          36.000    22814774.570 4  94922845.684 4     -2628.442          26.000
R24  20126121.422 6 107623411.545 6     -1994.734          36.000
C05  39613873.883 5 206279835.439 5        10.887          35.000    39613878.445 5 159508672.367 5         8.545          34.000
C11  23392178.617 5 121809204.101 5      1873.336          32.000
C12  21688776.102 8 112939279.743 8      -598.703          50.000    21688775.070 8  87331827.002 8      -462.940          51.000
C21  25843983.289 7 134576406.756 7      2963.328          43.000
C24  24530265.602 7 127735550.456 7     -3123.039          42.000
E13  26538709.586 7 139461862.987 7      2440.516          42.000    26538715.461 8 106860407.877 8      1870.299          50.000
E15  23165501.398 8 121735611.356 8       600.492          51.000    23165504.641 8  93277953.647 8       460.138          51.000
E27  23663813.984 7 124354174.833 7       350.098          44.000    23663814.555 7  95284374.329 7       268.391          46.000
E30  23582220.172 8 123925383.555 8     -2404.926          51.000    23582224.055 8  94955817.221 8     -1842.774          51.000
> 2020 05 06 14 33 30.0000000  0 19        .000000000000
G18  20794055.914 8 109273572.407 8     -1623.129          48.000    20794055.961 8  85148200.760 8     -1264.776          48.000
G20  22099632.703 8 116134373.399 8      2515.047          50.000    22099631.758 7  90494325.607 7      1959.777          45.000
G21  21195973.133 8 111385667.056 8     -1549.176          49.000    21195972.344 8  86793973.230 8     -1207.150          49.000
G26  20315152.617 8 106756847.950 8      -512.859          51.000    20315155.555 8  83187153.891 8      -399.631          51.000
R08  22968401.727 5 122994707.709 5        97.754          32.000    22968401.812 5  95662570.444 5        76.034          30.000
R14  20481938.008 8 109180220.659 8     -3184.246          51.000    20481941.008 7  84917956.620 7     -2476.639          45.000
R17  19939326.516 5 106699348.387 5      1294.699          35.000
R23  22833740.062 5 122145062.142 5     -3391.516          33.000    22833744.703 3  95001768.362 3     -2637.845          23.000
R24  20137356.297 6 107683511.952 6     -2016.168          40.000    20137353.266 4  83753815.166 4     -1568.131          25.000
C05  39613825.477 5 206279584.679 5         -.520          34.000    39613829.938 5 159508477.335 5         -.565          34.000
C11  23381423.305 5 121753194.489 5      1854.949          34.000    23381435.820 5  94147348.258 5      1434.077          30.000
C12  21692263.430 8 112957439.595 8      -617.984          50.000    21692262.461 8  87345869.342 8      -477.919          51.000
C21  25826933.461 7 134487625.902 7      2949.875          44.000
C24  24548289.180 7 127829418.298 7     -3140.727          42.000
C25  23120720.039 6 120395653.955 6      -643.375          39.000
E13  26524804.789 7 139388797.630 7      2424.328          43.000    26524810.992 8 106804422.802 8      1857.515          49.000
E15  23162115.219 8 121717818.380 8       579.625          51.000    23162118.391 8  93264320.067 8       444.149          51.000
E27  23661869.492 7 124343956.745 7       324.945          45.000    23661870.820 7  95276544.883 7       248.954          46.000
E30  23595992.641 8 123997755.940 8     -2425.867          51.000    23595995.602 8  95011271.333 8     -1858.790          51.000
> 2020 05 06 14 34  0.0000000  0 20        .000000000000
G18  20803326.180 7 109322287.881 7     -1633.793          47.000    20803326.367 7  85186160.848 7     -1273.085          47.000
G20  22085273.188 8 116058914.974 8      2506.301          50.000    22085272.531 7  90435526.873 7      1952.965          44.000
G21  21204810.859 8 111432109.217 8     -1556.129          49.000    21204810.188 8  86830161.927 8     -1212.568          49.000
G26  20318094.109 8 106772306.728 8      -526.895          51.000    20318097.016 8  83199199.686 8      -410.567          51.000
G31  24328794.820 5 127848680.851 5     -3355.051          33.000
R08  22967888.023 4 122991959.639 4        76.699          29.000    22967888.484 5  95660433.089 5        59.655          31.000
R14  20499875.188 8 109275833.955 8     -3199.352          51.000    20499876.852 7  84992322.408 7     -2488.388          42.000
R17  19932069.148 5 106660514.105 5      1285.207          30.000
R23  22852723.352 4 122246646.451 4     -3388.090          29.000
R24  20148660.539 6 107743943.258 6     -2022.090          40.000    20148663.336 5  83800837.358 5     -1572.740          30.000
C05  39613790.867 5 206279403.866 5         2.863          34.000
C11  23370719.039 5 121697438.118 5      1852.391          33.000    23370723.391 4  94104225.885 4      1432.622          28.000
C12  21695808.664 8 112975900.131 8      -621.887          50.000    21695807.727 8  87360144.194 8      -480.867          51.000
C21  25809909.016 7 134398975.559 7      2951.223          44.000
C24  24566361.609 6 127923535.902 6     -3142.895          41.000
C25  23124438.742 6 120415023.876 6      -656.781          39.000
E13  26510942.023 7 139315948.811 7      2423.215          44.000    26510947.133 8 106748603.624 8      1856.728          49.000
E15  23158794.180 8 121700368.855 8       574.422          51.000    23158797.820 8  93250949.667 8       440.106          51.000
E27  23660015.602 7 124334216.765 7       315.125          44.000    23660017.242 7  95269081.770 7       241.540          46.000
E30  23609830.430 8 124070471.687 8     -2431.078          51.000    23609832.188 8  95066988.547 8     -1862.822          50.000
> 2020 05 06 14 34 30.0000000  0 18        .000000000000
G18  20812688.867 8 109371489.185 8     -1646.711          48.000    20812689.148 8  85224499.544 8     -1283.151          48.000
G20  22070995.688 8 115983886.947 8      2495.035          50.000    22070995.344 7  90377063.487 7      1944.183          43.000
G21  21213719.781 8 111478925.671 8     -1565.453          50.000    21213719.047 8  86866642.279 8     -1219.834          50.000
G26  20321147.578 8 106788353.671 8      -543.363          51.000    20321150.352 8  83211703.790 8      -423.400          51.000
R08  22967527.414 5 122990021.290 5        52.090          32.000    22967526.852 4  95658925.408 4        40.511          29.000
R14  20517928.398 8 109372069.808 8     -3216.793          51.000    20517929.266 7  85067172.404 7     -2501.953          42.000
R18  23440975.898 5 125129548.665 5      3213.203          32.000    23440966.352 5  97322934.347 5      2499.164          31.000
R24  20160025.516 6 107804733.123 6     -2030.402          37.000    20160030.914 5  83848128.443 5     -1579.202          31.000
C05                                                                  39613771.727 5 159508242.665 5         3.292          34.000
C11  23360061.625 5 121641921.037 5      1848.195          31.000    23360057.148 5  94061286.591 5      1429.142          34.000
C12  21699408.781 8 112994646.462 8      -628.320          50.000    21699407.992 8  87374640.038 8      -485.760          51.000
C21  25792907.289 7 134310444.025 7      2950.344          44.000
C24  24584479.375 6 128017886.816 6     -3147.625          40.000
C25  23128265.125 6 120434952.397 6      -672.078          38.000
E13  26497118.320 7 139243302.523 7      2419.660          46.000    26497121.719 8 106692939.643 8      1853.888          49.000
E15  23155535.844 8 121683248.011 8       566.641          51.000    23155540.055 8  93237831.118 8       434.206          51.000
E27  23658250.211 7 124324941.219 7       302.824          45.000    23658252.164 7  95261974.532 7       232.112          46.000
E30  23623730.172 8 124143515.318 8     -2438.875          51.000    23623730.586 8  95122956.986 8     -1868.718          49.000
> 2020 05 06 14 35  0.0000000  0 17        .000000000000
G18  20822121.133 8 109421055.788 8     -1662.195          48.000    20822121.398 8  85263122.855 8     -1295.217          48.000
G20  22056777.992 8 115909173.475 8      2481.223          50.000    22056778.117 7  90318845.207 7      1933.420          44.000
G21  21222677.008 8 111525995.668 8     -1577.188          51.000    21222676.109 8  86903320.189 8     -1228.977          50.000
G26  20324290.344 8 106804870.199 8      -562.492          51.000    20324293.109 8  83224573.795 8      -438.306          51.000
R08  22967297.422 5 122988787.493 5        26.445          30.000    22967294.047 5  95657956.993 5        20.569          30.000
R14  20536072.867 8 109468828.082 8     -3236.828          48.000    20536076.945 7  85142432.139 7     -2517.536          44.000
R24  20171429.867 6 107865712.413 6     -2041.336          37.000    20171432.836 5  83895567.504 5     -1587.706          31.000
C05  39613732.312 5 206279098.072 5         2.863          34.000    39613736.773 5 159508102.167 5         2.604          34.000
C11                                                                  23349416.523 5  94018451.531 5      1423.554          34.000
C12  21703041.016 8 113013560.454 8      -637.234          50.000    21703040.375 8  87389265.544 8      -492.656          51.000
C21  25775905.875 7 134221916.285 7      2946.906          44.000
C24  24602620.078 6 128112351.168 6     -3154.613          40.000
C25  23132175.680 6 120455321.285 6      -689.965          37.000
E13  26483310.758 7 139170740.480 7      2413.348          46.000    26483312.719 8 106637340.188 8      1849.209          49.000
E15  23152317.641 8 121666336.712 8       556.285          51.000    23152322.000 8  93224873.109 8       426.268          51.000
E27  23656550.688 7 124316012.172 7       287.844          45.000    23656553.609 7  95255132.775 7       220.717          46.000
E30  23637669.070 8 124216767.015 8     -2449.148          51.000    23637668.781 8  95179084.856 8     -1876.599          50.000
> 2020 05 06 14 35 30.0000000  0 18        .000000000000
G18  20831643.797 7 109471097.910 7     -1676.293          47.000    20831644.039 7  85302116.731 7     -1306.199          47.000
G20  22042642.219 8 115834889.322 8      2468.617          50.000    22042642.750 7  90260961.500 7      1923.598          44.000
G21  21231703.578 8 111573430.002 8     -1587.664          50.000    21231702.609 8  86940282.005 8     -1237.141          50.000
G26  20327543.875 8 106821968.694 8      -579.984          51.000    20327546.859 8  83237897.262 8      -451.939          51.000
R14  20554333.461 8 109566171.234 8     -3255.207          48.000    20554338.656 7  85218143.511 7     -2531.828          45.000
R17  19910761.148 5 106546510.695 5      1245.109          30.000    19910765.352 4  82869513.945 4       968.412          28.000
R18  23404899.672 5 124936970.698 5      3199.340          33.000    23404900.680 5  97173197.410 5      2488.375          30.000
R24  20182902.953 6 107927051.012 6     -2050.711          41.000    20182901.328 5  83943275.269 5     -1594.997          30.000
C05  39613707.039 5 206278967.234 5         3.027          34.000    39613711.734 5 159508001.038 5         2.262          35.000
C11  23338836.547 5 121531458.571 5      1834.512          31.000    23338820.750 5  93975796.700 5      1418.627          31.000
C12  21706726.586 8 113032752.819 8      -644.758          50.000    21706726.070 8  87404106.296 8      -498.562          51.000
C21  25758926.656 7 134133506.095 7      2944.727          42.000
C24  24620804.875 6 128207037.872 6     -3160.113          38.000
C25  23136191.195 6 120476241.075 6      -706.453          36.000
E13  26469540.164 7 139098375.375 7      2408.434          45.000    26469541.766 8 106581891.659 8      1845.444          50.000
E15  23149160.789 8 121649746.783 8       547.230          51.000    23149164.945 8  93212161.344 8       419.306          51.000
E27  23654938.641 7 124307542.623 7       274.160          46.000    23654942.109 7  95248643.114 7       210.176          46.000
E30  23651668.453 8 124290337.860 8     -2458.012          51.000    23651668.617 8  95235457.297 8     -1883.447          50.000
> 2020 05 06 14 36  0.0000000  0 18        .000000000000
G18  20841239.961 8 109521526.085 8     -1682.383          48.000    20841240.211 7  85341411.428 7     -1310.948          47.000
G20  22028572.266 8 115760949.570 8      2463.941          51.000    22028572.523 7  90203346.143 7      1919.954          44.000
G21  21240782.477 8 111621139.558 8     -1589.910          50.000    21240781.336 8  86977458.293 8     -1238.891          50.000
G26  20330891.766 8 106839561.652 8      -589.656          51.000    20330894.422 8  83251606.042 8      -459.472          51.000
G29  23774457.188 4 124935608.099 4     -2851.867          29.000
R14  20572692.578 8 109664031.019 8     -3265.324          49.000    20572697.625 7  85294256.689 7     -2539.697          47.000
R18  23386920.906 4 124840926.603 4      3202.535          29.000    23386923.266 5  97098536.843 5      2490.855          31.000
R24  20194421.609 6 107988633.550 6     -2051.676          40.000    20194418.836 5  83991172.742 5     -1595.748          34.000
C05  39613675.195 5 206278801.199 5        11.070          35.000    39613679.898 5 159507872.634 5         8.600          35.000
C11  23328269.383 5 121476442.778 5      1836.430          31.000
C12  21710448.883 8 113052136.218 8      -644.371          50.000    21710448.344 8  87419094.772 8      -498.275          51.000
C21  25741953.547 7 134045129.357 7      2950.133          42.000
C24  24639016.641 6 128301858.030 6     -3158.121          37.000
C25  23140295.773 5 120497624.500 5      -715.441          32.000
E13  26455789.844 7 139026119.993 7      2411.621          44.000    26455792.008 8 106526527.190 8      1847.931          50.000
E15  23146048.508 8 121633390.170 8       546.375          51.000    23146052.617 8  93199628.372 8       418.612          51.000
E27  23653397.539 7 124299445.573 7       268.684          45.000    23653401.359 7  95242438.919 7       205.794          47.000
E30  23665711.648 8 124364139.140 8     -2458.840          50.000    23665713.047 8  95292006.313 8     -1884.043          51.000
> 2020 05 06 14 36 30.0000000  0 19        .000000000000
G18  20850913.328 8 109572359.383 8     -1699.352          48.000    20850913.383 7  85381021.764 7     -1324.170          46.000
G20  22014572.477 8 115687378.124 8      2448.047          51.000    22014572.664 7  90146017.799 7      1907.572          45.000
G21  21249917.398 8 111669143.519 8     -1603.051          50.000    21249915.961 8  87014863.973 8     -1249.130          49.000
G26  20334337.836 8 106857670.140 8      -610.336          51.000    20334339.820 8  83265716.566 8      -475.586          51.000
G27  22573854.180 6 118626437.187 6      2594.223          36.000    22573848.875 4  92436137.197 4      2021.472          24.000
R08  22967447.375 5 122989596.405 5       -43.766          34.000    22967453.531 5  95658576.513 5       -34.040          31.000
R14  20591152.328 8 109762425.127 8     -3286.773          51.000    20591156.758 7  85370785.399 7     -2556.382          47.000
R18  23368969.211 5 124745151.669 5      3193.574          30.000    23368974.688 5  97024025.259 5      2483.888          33.000
R24  20205986.469 6 108050479.382 6     -2064.121          38.000    20205987.719 6  84039275.139 6     -1605.424          38.000
C05  39613640.602 5 206278620.738 5         8.348          35.000    39613645.180 5 159507733.083 5         6.268          34.000
C11  23317733.414 5 121421594.378 5      1827.105          35.000
C12  21714211.852 8 113071730.831 8      -654.777          50.000    21714211.148 8  87434246.554 8      -506.246          51.000
C21  25724991.938 7 133956809.285 7      2944.855          42.000
C24  24657258.875 6 128396830.098 6     -3166.375          38.000
C25  23144493.398 5 120519491.501 5      -735.520          31.000
E13  26442064.242 7 138953995.744 7      2404.059          43.000    26442067.359 8 106471263.201 8      1841.948          50.000
E15  23142984.531 8 121617287.437 8       534.469          51.000    23142988.664 8  93187289.934 8       409.564          51.000
E27  23651931.117 7 124291742.877 7       252.105          44.000    23651935.727 7  95236536.813 7       193.238          47.000
E30  23679802.672 8 124438190.698 8     -2470.645          49.000    23679805.977 8  95348747.112 8     -1893.040          51.000
> 2020 05 06 14 37  0.0000000  0 17        .000000000000
G18  20860656.625 7 109623561.136 7     -1719.227          46.000    20860656.484 7  85420919.202 7     -1339.660          46.000
G20  22000636.586 8 115614142.690 8      2429.223          51.000    22000636.930 7  90088951.281 7      1892.904          45.000
G21  21259101.367 8 111717405.308 8     -1619.371          51.000    21259099.703 8  87052470.562 8     -1261.848          49.000
G26  20337875.500 8 106876259.530 8      -634.105          51.000    20337877.562 8  83280201.787 8      -494.108          51.000
R08  22967766.242 5 122991348.008 5       -75.438          33.000    22967769.719 4  95659925.026 4       -58.674          28.000
R14  20609704.695 8 109861314.747 8     -3311.090          51.000    20609708.375 7  85447699.485 7     -2575.292          47.000
R24  20217593.133 6 108112551.614 6     -2079.285          40.000    20217597.023 6  84087553.566 6     -1617.222          39.000
C05  39613596.531 5 206278391.570 5         1.801          35.000    39613601.180 5 159507555.861 5         1.966          34.000
C11  23307223.539 5 121366879.050 5      1815.453          33.000
C12  21718008.781 8 113091501.820 8      -668.215          51.000    21718007.992 8  87449534.739 8      -516.748          51.000
C21  25708036.117 7 133868514.086 7      2936.488          44.000
C24  24675522.641 6 128491917.545 6     -3177.977          39.000
C25  23148777.906 5 120541765.129 5      -757.789          31.000
E13  26428357.477 7 138881968.327 7      2392.965          43.000    26428361.391 8 106416073.405 8      1833.544          51.000
E15  23139962.164 8 121601403.508 8       519.438          51.000    23139965.820 8  93175119.129 8       398.017          51.000
E27  23650533.484 7 124284400.486 7       232.312          45.000    23650538.484 7  95230910.802 7       178.089          47.000
E30  23693934.594 8 124512456.737 8     -2485.395          49.000    23693939.805 8  95405652.237 8     -1904.432          51.000
> 2020 05 06 14 37 30.0000000  0 17        .000000000000
G18  20870491.555 7 109675244.753 7     -1729.023          47.000    20870491.562 7  85461192.169 7     -1347.291          46.000
G20  21986786.891 8 115541361.644 8      2420.117          51.000    21986787.828 7  90032238.822 7      1885.806          47.000
G21  21268355.875 8 111766038.321 8     -1625.559          50.000    21268353.953 8  87090366.412 8     -1266.669          49.000
G26  20341526.641 8 106895445.334 8      -647.695          51.000    20341528.789 8  83295151.742 8      -504.698          51.000
G27  22544309.984 5 118471129.258 5      2581.742          31.000
R14  20628370.969 8 109960813.042 8     -3324.953          51.000    20628374.062 7  85525086.975 7     -2586.075          47.000
R24  20229265.062 7 108174965.516 7     -2084.379          42.000    20229268.055 6  84136097.651 6     -1621.187          38.000
C05  39613565.242 5 206278229.118 5         5.938          34.000    39613569.914 5 159507429.957 5         5.153          34.000
C11  23296761.867 4 121312352.979 4      1813.461          29.000    23296752.312 4  93806360.272 4      1402.020          28.000
C12  21721861.539 8 113111563.073 8      -671.805          51.000    21721860.641 8  87465047.362 8      -519.419          51.000
C21  25691108.180 7 133780360.854 7      2937.680          46.000
C24  24693828.273 6 128587232.390 6     -3179.031          39.000
C25  23153173.688 5 120564642.898 5      -769.770          35.000
E13  26414691.484 7 138810153.648 7      2392.074          44.000    26414696.055 8 106361046.605 8      1832.858          51.000
E15  23137003.297 8 121585853.304 8       514.547          51.000    23137006.312 8  93163204.032 8       394.257          51.000
E27  23649227.094 7 124277534.492 7       222.672          46.000    23649231.430 7  95225649.834 7       170.706          46.000
E30  23708129.336 8 124587051.483 8     -2490.176          49.000    23708135.438 8  95462809.211 8     -1908.075          51.000
> 2020 05 06 14 38  0.0000000  0 19        .000000000000
G18  20880408.672 8 109727359.800 8     -1746.090          48.000    20880408.578 7  85501801.250 7     -1360.589          44.000
G20  21973014.672 8 115468988.670 8      2403.953          51.000    21973016.156 7  89975844.322 7      1873.210          47.000
G21  21277671.531 8 111814992.628 8     -1638.820          50.000    21277669.492 8  87128512.617 8     -1277.003          49.000
G26  20345281.969 8 106915178.910 8      -668.559          51.000    20345283.945 8  83310528.547 8      -520.955          51.000
R08  22968860.695 6 122997193.252 6      -124.715          36.000    22968857.125 4  95664481.623 4       -97.000          26.000
R14  20647141.375 8 110060867.496 8     -3346.008          51.000    20647143.508 7  85602907.041 7     -2602.454          46.000
R17  19876708.859 5 106364292.236 5      1179.055          32.000
R23  23004647.867 5 123059253.627 5     -3388.676          30.000
R24  20240991.539 6 108237670.042 6     -2096.578          41.000    20240993.500 6  84184867.783 6     -1630.672          37.000
C05  39613537.312 5 206278083.289 5         3.383          35.000
C11                                                                  23286338.391 5  93764396.107 5      1395.167          34.000
C12  21725760.602 8 113131865.708 8      -682.375          51.000    21725759.727 8  87480746.642 8      -527.674          51.000
C21  25674198.797 7 133692303.959 7      2931.891          46.000
C24  24712165.945 6 128682724.292 6     -3187.645          41.000
C25  23157668.391 6 120588034.063 6      -790.207          36.000
E13  26401056.969 7 138738503.354 7      2383.848          46.000    26401061.977 8 106306145.767 8      1826.638          51.000
E15  23134098.602 8 121570587.777 8       502.484          51.000    23134101.367 8  93151507.080 8       385.035          51.000
E27  23648002.297 7 124271096.940 7       205.844          45.000    23648005.055 7  95220717.194 7       157.575          45.000
E30  23722377.492 8 124661925.121 8     -2502.105          51.000    23722383.172 8  95520179.873 8     -1917.150          51.000
> 2020 05 06 14 38 30.0000000  0 18        .000000000000
G18  20890400.844 7 109779869.792 7     -1755.055          47.000    20890400.562 7  85542718.107 7     -1367.575          44.000
G20  21959313.914 8 115396991.992 8      2395.426          50.000    21959315.852 7  89919743.035 7      1866.566          47.000
G21  21287041.297 8 111864231.810 8     -1644.273          50.000    21287039.586 8  87166880.799 8     -1281.252          49.000
G26  20349134.992 8 106935425.954 8      -681.602          51.000    20349136.867 8  83326305.466 8      -531.118          51.000
R14  20666008.398 8 110161439.473 8     -3359.148          49.000    20666010.266 7  85681129.635 7     -2612.674          47.000
R17  19870112.984 4 106328987.516 4      1169.875          28.000
R23  23023639.438 4 123160940.876 4     -3383.500          28.000
R24  20252764.531 6 108300628.037 6     -2100.734          40.000    20252766.625 6  84233835.078 6     -1633.905          36.000
C05  39613506.062 5 206277921.040 5         7.309          35.000    39613510.969 5 159507192.270 5         5.809          34.000
C11                                                                  23275951.758 4  93722607.385 4      1393.454          29.000
C12  21729699.086 8 113152375.201 8      -685.363          50.000    21729698.492 8  87496605.870 8      -529.894          51.000
C21  25657301.906 7 133604311.914 7      2933.781          47.000
C24  24730530.117 7 128778356.874 7     -3188.250          42.000
C25  23162252.336 5 120611903.714 5      -802.859          31.000
E13  26387447.305 8 138666983.450 8      2383.617          48.000    26387452.422 8 106251344.849 8      1826.447          51.000
E15  23131241.414 8 121555572.116 8       498.168          51.000    23131244.102 8  93140001.591 8       381.713          51.000
E27  23646852.125 7 124265054.219 7       196.688          44.000    23646854.289 7  95216087.027 7       150.727          46.000
E30  23736672.273 8 124737042.114 8     -2506.184          51.000    23736676.352 8  95577737.013 8     -1920.242          50.000
> 2020 05 06 14 39  0.0000000  0 16        .000000000000
G18  20900474.562 8 109832808.342 8     -1771.199          48.000    20900474.969 7  85583968.941 7     -1380.155          44.000
G20  21945691.906 8 115325409.736 8      2379.699          48.000    21945694.125 7  89863964.682 7      1854.314          47.000
G21  21296471.711 8 111913789.920 8     -1656.590          50.000    21296470.156 8  87205497.524 8     -1290.849          49.000
G26  20353092.461 8 106956221.951 8      -701.789          51.000    20353094.555 8  83342510.131 8      -546.849          51.000
R14  20684977.867 8 110262561.252 8     -3379.156          49.000    20684981.070 7  85759779.880 7     -2628.233          47.000
R17  19863606.133 5 106294157.760 5      1154.871          30.000
R18  23279726.797 5 124268763.865 5      3160.203          34.000    23279725.250 4  96653476.318 4      2457.936          26.000
R24  20264591.414 7 108363873.864 7     -2112.379          43.000    20264593.508 6  84283026.275 6     -1642.964          36.000
C12  21733683.969 8 113173126.327 8      -695.238          50.000    21733683.523 8  87512651.942 8      -537.509          51.000
C21  25640424.328 7 133516422.589 7      2928.535          47.000
C24  24748927.523 7 128874163.134 7     -3195.762          43.000
C25  23166931.531 5 120636289.368 5      -820.434          30.000
E13  26373869.328 8 138595629.930 8      2376.289          49.000    26373874.125 8 106196671.415 8      1820.781          50.000
E15  23128438.344 8 121540841.408 8       486.883          51.000    23128440.820 8  93128714.435 8       373.018          51.000
E27  23645784.156 7 124259442.437 7       180.312          45.000    23645786.750 7  95211787.076 7       138.269          47.000
E30  23751020.055 8 124812436.837 8     -2517.145          51.000    23751022.648 8  95635506.975 8     -1928.739          50.000
> 2020 05 06 14 39 30.0000000  0 18        .000000000000
G10  24109667.523 6 126697185.404 6      3472.152          36.000
G18  20910623.844 8 109886143.054 8     -1782.758          48.000    20910624.453 7  85625528.427 7     -1389.162          43.000
G20  21932143.164 7 115254214.344 7      2368.359          46.000    21932145.320 7  89808487.755 7      1845.475          46.000
G21  21305956.773 8 111963634.644 8     -1664.559          50.000    21305955.125 8  87244337.557 8     -1297.059          49.000
G26  20357148.406 8 106977536.457 8      -717.465          51.000    20357150.914 8  83359118.813 8      -559.067          51.000
R14  20704044.453 8 110364198.477 8     -3394.793          51.000    20704048.672 8  85838831.047 8     -2640.398          48.000
R17  19857172.164 5 106259710.954 5      1143.523          32.000
R24  20276466.773 7 108427374.818 7     -2119.352          42.000    20276467.906 5  84332415.828 5     -1648.385          35.000
C05  39613448.766 5 206277622.540 5         6.723          34.000    39613454.070 5 159506963.819 5         5.594          34.000
C11  23255275.453 5 121096324.880 5      1789.676          31.000
C12  21737709.664 8 113194088.299 8      -700.672          51.000    21737708.945 8  87528861.053 8      -541.768          51.000
C21  25623560.836 8 133428608.366 8      2927.492          48.000
C24  24767352.141 7 128970110.636 7     -3198.895          42.000
C25  23171709.891 5 120661154.038 5      -835.344          34.000
E13  26360317.234 8 138524412.719 8      2373.320          48.000    26360321.328 8 106142102.433 8      1818.461          50.000
E15  23125683.477 8 121526364.724 8       479.969          51.000    23125685.742 8  93117621.921 8       367.756          51.000
E27  23644792.945 7 124254231.789 7       168.621          45.000    23644795.805 7  95207794.492 7       129.224          47.000
E30  23765414.570 8 124888077.705 8     -2523.797          51.000    23765416.359 8  95693465.537 8     -1933.848          51.000
> 2020 05 06 14 40  0.0000000  0 20        .000000000000
G10  24089846.688 6 126593032.438 6      3466.781          36.000    24089852.695 4  98643911.617 4      2701.394          29.000
G18  20920833.344 7 109939794.029 7     -1798.562          47.000    20920833.766 7  85667334.385 7     -1401.474          43.000
G20  21918652.781 6 115183330.168 6      2352.641          41.000    21918655.688 6  89753253.334 6      1833.226          41.000
G21  21315481.234 8 112013686.025 8     -1676.719          50.000    21315479.727 8  87283338.627 8     -1306.534          49.000
G26  20361288.078 8 106999291.562 8      -737.391          50.000    20361290.859 8  83376070.841 8      -574.587          50.000
G31  24558900.844 5 129057894.926 5     -3363.293          30.000
R08  22972711.211 5 123017729.744 5      -223.473          33.000
R14  20723192.867 8 110466268.358 8     -3414.582          51.000    20723197.469 8  85918218.721 8     -2655.786          48.000
R17  19850798.195 4 106225567.367 4      1128.008          29.000    19850795.359 4  82619924.967 4       877.339          26.000
R24  20288373.305 6 108491049.590 6     -2130.363          37.000    20288374.945 6  84381940.661 6     -1656.946          36.000
C05  39613402.102 5 206277379.009 5         4.598          34.000    39613407.281 5 159506774.919 5         3.552          34.000
C11  23244977.055 5 121042687.389 5      1781.273          30.000
C12  21741760.938 8 113215183.491 8      -710.277          50.000    21741759.891 8  87545173.180 8      -549.265          51.000
C21  25606696.664 7 133340794.715 7      2922.195          46.000
C24  24785788.945 7 129066119.992 7     -3206.172          42.000
C25  23176565.164 5 120686422.754 5      -853.898          34.000
E13  26346776.086 7 138453254.333 7      2366.008          47.000    26346779.344 8 106087578.508 8      1812.927          49.000
E15  23122962.109 8 121512063.733 8       468.855          51.000    23122964.086 8  93106664.038 8       359.271          51.000
E27  23643863.508 7 124249345.076 7       152.539          46.000    23643866.188 7  95204050.116 7       116.896          47.000
E30  23779840.727 8 124963885.607 8     -2534.625          51.000    23779842.180 8  95751552.097 8     -1942.103          51.000
> 2020 05 06 14 40 30.0000000  0 19        .000000000000
G10  24070063.305 6 126489076.790 6      3464.266          38.000    24070071.102 6  98562907.302 6      2699.422          36.000
G18  20931142.750 7 109993969.431 7     -1812.258          47.000    20931143.164 7  85709548.992 7     -1412.149          44.000
G20  21905262.969 7 115112970.255 7      2338.906          45.000    21905265.727 7  89698427.378 7      1822.521          45.000
G21  21325084.617 8 112064152.301 8     -1686.863          50.000    21325083.281 8  87322662.998 8     -1314.442          49.000
G26  20365551.625 8 107021697.289 8      -755.438          51.000    20365554.789 8  83393529.823 8      -588.653          51.000
R14  20742461.703 8 110568980.438 8     -3432.113          51.000    20742466.211 8  85998105.889 8     -2669.421          49.000
R17  19844516.711 5 106191940.317 5      1114.648          34.000    19844513.148 5  82593770.674 5       866.949          30.000
R18  23226601.719 5 123985175.189 5      3141.191          34.000    23226589.094 5  96432881.454 5      2443.152          31.000
R23  23099574.242 5 123567145.541 5     -3386.184          32.000
R24  20300351.656 6 108555110.261 6     -2139.543          40.000    20300355.484 6  84431765.652 6     -1664.089          37.000
C05                                                                  39613383.508 5 159506679.732 5         3.326          34.000
C12  21745877.523 8 113236619.528 8      -717.984          50.000    21745876.406 8  87561748.873 8      -555.155          51.000
C21  25589871.992 7 133253192.369 7      2918.711          44.000
C24  24804277.289 7 129162397.128 7     -3211.262          42.000
C25  23181536.570 5 120712302.986 5      -869.980          35.000
E13  26333286.164 8 138382365.192 8      2360.750          48.000    26333288.375 8 106033260.898 8      1808.883          48.000
E15  23120314.023 8 121498148.088 8       459.652          51.000    23120315.859 8  93096001.405 8       352.240          51.000
E27  23643035.602 7 124244992.970 7       138.418          46.000    23643038.188 8  95200715.391 8       106.087          48.000
E30  23794338.117 8 125040069.396 8     -2543.449          51.000    23794339.867 8  95809926.661 8     -1948.862          51.000
> 2020 05 06 14 41  0.0000000  0 20        .000000000000
G10  24050284.000 6 126385142.452 6      3463.512          40.000    24050292.344 5  98481919.518 5      2698.843          30.000
G18  20941517.461 7 110048488.774 7     -1823.680          46.000    20941517.547 7  85752031.631 7     -1421.046          43.000
G20  21891940.617 8 115042958.261 8      2327.254          50.000    21891942.648 7  89643872.576 7      1813.448          44.000
G21  21334732.828 8 112114853.986 8     -1694.559          50.000    21334731.445 8  87362170.801 8     -1320.435          49.000
G26  20369905.016 8 107044575.096 8      -771.152          51.000    20369908.586 8  83411356.660 8      -600.901          51.000
G31  24597297.453 5 129259628.550 5     -3361.863          33.000
R14  20761815.953 8 110672149.729 8     -3447.141          50.000    20761820.539 8  86078348.666 8     -2681.109          49.000
R17  19838285.570 5 106158678.946 5      1103.785          33.000    19838290.742 5  82567886.623 5       858.500          32.000
R18  23208956.930 6 123890982.265 6      3136.906          36.000    23208942.531 5  96359620.392 5      2439.819          31.000
R23  23118570.070 5 123668720.308 5     -3384.195          31.000
R24  20312368.945 6 108619373.568 6     -2146.035          41.000    20312374.156 6  84481748.183 6     -1669.141          39.000
C05  39613344.094 5 206277076.868 5         6.660          34.000    39613348.867 5 159506539.492 5         5.383          34.000
C12  21750025.414 8 113258219.044 8      -723.320          50.000    21750024.469 8  87578450.981 8      -559.199          51.000
C21  25573054.359 7 133165627.164 7      2917.676          44.000
C24  24822782.727 7 129258762.991 7     -3214.238          42.000
C25  23186590.773 6 120738617.040 6      -884.793          37.000
E13  26319813.875 8 138311567.258 8      2357.918          48.000    26319814.805 8 105979013.158 8      1806.725          48.000
E15  23117704.875 8 121484438.883 8       452.980          51.000    23117707.203 8  93085496.952 8       347.155          51.000
E27  23642275.281 7 124240997.706 7       126.668          46.000    23642277.758 8  95197654.073 8        97.117          48.000
E30  23808872.641 8 125116449.496 8     -2549.832          51.000    23808874.898 8  95868451.638 8     -1953.717          51.000
> 2020 05 06 14 41 30.0000000  0 19        .000000000000
G10  24030528.070 6 126281327.304 6      3455.219          41.000    24030537.289 6  98401024.502 6      2692.381          37.000
G18  20951975.156 7 110103445.068 7     -1842.465          47.000    20951974.961 6  85794854.711 6     -1435.687          41.000
G20  21878703.680 8 114973391.930 8      2308.055          51.000    21878704.062 7  89589665.045 7      1798.484          43.000
G21  21344443.484 8 112165883.953 8     -1709.797          50.000    21344441.992 8  87401934.415 8     -1332.309          48.000
G26  20374366.242 8 107068019.864 8      -794.238          51.000    20374369.766 8  83429625.297 8      -618.887          51.000
R08  22977095.711 5 123041290.592 5      -302.602          32.000    22977092.617 4  95698777.525 4      -235.357          28.000
R14  20781272.453 8 110775869.166 8     -3469.848          48.000    20781277.570 8  86159019.330 8     -2698.770          48.000
R17  19832148.367 5 106125817.664 5      1085.098          32.000    19832147.750 4  82542327.826 4       843.962          28.000
R18  23191342.711 5 123797018.674 5      3124.961          32.000    23191340.383 5  96286516.138 5      2430.525          30.000
R24  20324443.383 6 108683934.228 6     -2160.344          38.000    20324447.992 6  84531961.955 6     -1680.264          39.000
C05  39613316.703 5 206276934.203 5          .906          34.000    39613321.438 5 159506429.199 5          .459          34.000
C12  21754222.695 8 113280075.701 8      -736.125          50.000    21754221.883 8  87595351.933 8      -569.237          51.000
C21  25556263.141 7 133078195.756 7      2908.656          44.000
C24  24841323.289 7 129355309.409 7     -3224.562          43.000
C25  23191746.602 6 120765458.093 6      -906.809          40.000
E13  26306377.117 8 138240955.842 8      2347.277          48.000    26306377.430 8 105924908.359 8      1798.566          48.000
E15  23115153.023 8 121471030.627 8       438.598          51.000    23115155.969 8  93075223.107 8       336.104          51.000
E27  23641601.172 8 124237454.819 8       107.305          48.000    23641603.297 8  95194939.390 8        82.223          48.000
E30  23823462.523 8 125193119.630 8     -2563.777          51.000    23823464.750 8  95927198.850 8     -1964.474          51.000
> 2020 05 06 14 42  0.0000000  0 18        .000000000000
G10  24010791.984 6 126177616.334 6      3457.086          39.000    24010804.000 6  98320210.871 6      2693.845          37.000
G18  20962512.391 7 110158818.547 7     -1850.465          46.000    20962512.406 7  85838002.873 7     -1441.921          43.000
G20  21865548.820 8 114904256.049 8      2299.559          51.000    21865547.281 7  89535792.976 7      1791.864          43.000
G21  21354212.797 8 112217222.411 8     -1714.207          50.000    21354211.406 8  87441938.406 8     -1335.746          48.000
G26  20378931.969 8 107092013.771 8      -806.812          51.000    20378935.344 8  83448321.829 8      -628.685          51.000
R14  20800827.586 8 110880116.683 8     -3481.363          48.000    20800833.297 7  86240100.699 7     -2707.727          47.000
R15  19881477.734 5 106240599.919 5       489.629          32.000    19881480.211 4  82631586.032 4       380.826          28.000
R18  23173792.766 5 123703238.770 5      3124.715          30.000    23173777.352 5  96213608.246 5      2430.334          32.000
R24  20336576.789 5 108748801.291 5     -2163.457          32.000    20336572.492 6  84582396.489 6     -1682.689          39.000
C05  39613293.156 5 206276811.285 5         6.117          35.000    39613298.008 5 159506335.630 5         5.035          34.000
C12  21758465.859 8 113302171.321 8      -738.332          50.000    21758465.031 8  87612437.664 8      -570.913          51.000
C21  25539495.523 7 132990883.159 7      2910.598          47.000
C24  24859894.773 7 129452016.533 7     -3223.910          42.000
C25  23196999.062 6 120792807.713 6      -917.902          38.000
E13  26292972.516 8 138170513.518 8      2347.496          48.000    26292972.961 8 105870933.126 8      1798.698          49.000
E15  23112655.234 8 121457905.042 8       435.023          51.000    23112658.422 8  93065165.846 8       333.342          51.000
E27  23641010.109 8 124234347.105 8        98.523          48.000    23641012.031 8  95192558.156 8        75.555          48.000
E30  23838104.180 8 125270060.837 8     -2566.996          51.000    23838105.805 8  95986153.763 8     -1966.919          51.000
> 2020 05 06 14 42 30.0000000  0 17        .000000000000
G10  23991069.328 6 126073976.647 6      3453.477          39.000    23991085.539 5  98239452.663 5      2691.021          35.000
G18  20973121.852 7 110214571.304 7     -1864.520          44.000    20973121.742 7  85881446.602 7     -1452.872          43.000
G20  21852469.430 8 114835517.494 8      2284.668          51.000    21852465.914 7  89482230.497 7      1780.261          43.000
G21  21364033.797 8 112268831.912 8     -1724.711          51.000    21364032.633 8  87482153.615 8     -1343.931          48.000
G26  20383595.438 8 107116520.747 8      -825.387          51.000    20383598.727 8  83467418.142 8      -643.162          51.000
R14  20820476.000 8 110984852.391 8     -3499.219          51.000    20820480.617 7  86321561.737 7     -2721.618          47.000
R15  19878808.758 5 106226372.507 5       460.621          33.000    19878815.359 4  82620520.197 4       358.258          28.000
R24  20348734.680 6 108813843.179 6     -2173.059          36.000    20348741.719 6  84633012.067 6     -1690.157          38.000
C05  39613266.477 5 206276672.632 5         5.230          34.000    39613271.305 5 159506228.438 5         3.915          34.000
C12  21762748.039 8 113324469.879 8      -746.566          49.000    21762747.062 8  87629680.318 8      -577.341          51.000
C21  25522744.797 7 132903656.471 7      2906.227          46.000
C24  24878489.602 7 129548846.653 7     -3229.758          43.000
C25  23202341.719 6 120820629.516 6      -935.125          41.000
E13  26279593.258 8 138100204.818 8      2341.473          49.000    26279594.312 8 105817060.261 8      1794.082          49.000
E15  23110204.242 8 121445025.812 8       425.270          51.000    23110207.625 8  93055297.355 8       325.829          51.000
E27  23640494.906 8 124231639.301 8        83.648          48.000    23640497.023 8  95190483.342 8        64.073          49.000
E30  23852790.508 8 125347236.015 8     -2576.359          51.000    23852791.297 8  96045287.934 8     -1974.052          51.000
> 2020 05 06 14 43  0.0000000  0 17        .000000000000
G10  23971363.336 6 125970426.133 6      3450.336          37.000    23971382.891 5  98158763.983 5      2688.567          31.000
G18  20983805.969 7 110270716.395 7     -1877.727          45.000    20983805.664 7  85925196.034 7     -1463.164          44.000
G20  21839468.273 8 114767193.470 8      2270.805          51.000    21839463.883 7  89428991.068 7      1769.461          43.000
G21  21373908.977 8 112320725.846 8     -1734.113          51.000    21373907.750 8  87522590.446 8     -1351.257          49.000
G26  20388359.453 8 107141555.621 8      -842.996          51.000    20388362.359 8  83486925.812 8      -656.883          51.000
R14  20840219.094 8 111090087.738 8     -3515.832          51.000    20840222.156 7  86403411.380 7     -2734.539          47.000
R15  19876298.594 5 106212965.294 5       433.672          33.000
R24  20360950.695 6 108879172.778 6     -2181.574          40.000    20360958.086 6  84683823.894 6     -1696.783          36.000
C05  39613239.656 5 206276533.208 5         4.879          34.000    39613244.500 5 159506120.080 5         4.162          34.000
C12  21767071.828 8 113346985.736 8      -753.828          49.000    21767070.820 8  87647090.985 8      -582.805          51.000
C21  25506014.047 7 132816533.131 7      2902.656          47.000
C24  24897111.102 7 129645812.282 7     -3234.098          43.000
C25  23207778.453 6 120848937.384 6      -951.121          40.000
E13  26266242.227 8 138030045.103 8      2336.578          48.000    26266244.094 8 105763301.536 8      1790.389          50.000
E15  23107802.828 8 121432407.417 8       416.684          51.000    23107806.289 8  93045628.723 8       319.289          51.000
E27  23640058.555 8 124229346.959 8        69.871          48.000    23640061.031 8  95188726.866 8        53.520          49.000
E30  23867523.867 8 125424658.961 8     -2584.523          51.000    23867524.320 8  96104611.952 8     -1980.316          51.000
> 2020 05 06 14 43 30.0000000  0 20        .000000000000
G10  23951668.430 6 125866934.498 6      3451.496          36.000    23951688.922 5  98078121.084 5      2689.468          35.000
G18  20994557.953 7 110327218.503 7     -1886.801          45.000    20994557.852 7  85969223.648 7     -1470.234          44.000
G20  21826539.438 8 114699253.390 8      2260.836          49.000    21826534.438 7  89376050.806 7      1761.693          42.000
G21  21383831.570 8 112372869.028 8     -1739.547          50.000    21383830.070 8  87563221.510 8     -1355.491          48.000
G26  20393217.461 8 107167085.004 8      -856.492          51.000    20393219.602 8  83506818.818 8      -667.397          51.000
R08  22984912.406 5 123083122.486 5      -394.902          34.000
R14  20860048.719 8 111195785.327 8     -3528.113          51.000    20860050.805 8  86485620.543 8     -2744.091          48.000
R15  19873935.453 6 106200345.768 6       410.266          36.000
R17  19808319.359 5 105998302.435 5      1041.410          31.000    19808312.586 4  82443120.086 4       809.980          25.000
R24  20373208.680 6 108944719.220 6     -2185.395          38.000    20373215.727 5  84734804.393 5     -1699.754          35.000
C05  39613206.266 5 206276359.054 5         8.836          34.000
C11  23173986.719 5 120672987.013 5      1742.879          31.000
C12  21771430.789 8 113369685.362 8      -757.027          48.000    21771429.984 8  87664643.776 8      -585.391          51.000
C21  25489297.406 7 132729482.801 7      2903.148          47.000
C24  24915752.133 6 129742878.254 6     -3234.453          41.000
C25  23213301.867 6 120877697.469 6      -963.473          38.000
E13  26252913.172 8 137960001.452 8      2335.570          48.000    26252915.727 8 105709631.759 8      1789.653          49.000
E15  23105444.797 8 121420016.177 8       411.984          51.000    23105448.211 8  93036134.136 8       315.688          51.000
E27  23639694.805 7 124227437.392 7        60.055          47.000    23639697.781 8  95187263.674 8        45.977          49.000
E30  23882297.695 8 125502295.156 8     -2588.691          51.000    23882298.312 8  96164099.385 8     -1983.528          51.000
> 2020 05 06 14 44  0.0000000  0 19        .000000000000
G10  23931997.594 5 125763569.924 5      3446.129          32.000    23932016.109 5  97997577.280 5      2685.301          32.000
G18  21005389.875 7 110384140.899 7     -1901.445          46.000    21005389.469 7  86013578.752 7     -1481.649          44.000
G20  21813695.953 7 114631765.009 7      2245.102          47.000    21813691.688 7  89323462.481 7      1749.433          43.000
G21  21393813.820 8 112425325.528 8     -1750.754          51.000    21393812.367 8  87604096.708 8     -1364.224          49.000
G26  20398181.938 8 107193173.974 8      -875.949          51.000    20398183.594 8  83527147.869 8      -682.561          51.000
R08  22987216.023 4 123095473.913 4      -422.512          28.000    22987223.289 4  95740965.152 4      -328.617          28.000
R14  20879975.641 8 111302007.195 8     -3546.422          50.000    20879977.891 8  86568237.511 8     -2758.328          48.000
R15  19871734.477 6 106188581.304 6       381.230          38.000
R24  20385519.047 6 109010547.241 6     -2195.961          38.000    20385526.594 5  84786003.925 5     -1707.970          35.000
C05  39613178.977 5 206276216.963 5         7.418          34.000    39613183.984 5 159505876.397 5         5.111          34.000
C11  23163985.562 5 120620908.536 5      1735.266          30.000
C12  21775837.297 7 113392633.030 7      -766.070          47.000    21775836.969 8  87682388.369 8      -592.389          51.000
C21  25472608.062 8 132642572.808 8      2897.574          48.000
C24  24934424.148 6 129840107.015 6     -3240.469          40.000
C25  23218924.133 5 120906973.466 5      -980.594          32.000
E13  26239618.914 8 137890139.440 8      2328.730          49.000    26239621.695 8 105656101.171 8      1784.358          50.000
E15  23103142.266 8 121407916.871 8       401.492          51.000    23103145.883 8  93026863.231 8       307.643          51.000
E27  23639416.547 8 124225976.431 8        44.203          49.000    23639419.656 8  95186144.220 8        33.921          49.000
E30  23897123.930 8 125580208.647 8     -2598.641          51.000    23897125.383 8  96223799.309 8     -1991.235          51.000
> 2020 05 06 14 44 30.0000000  0 18        .000000000000
G18  21016299.266 7 110441469.574 7     -1917.465          46.000    21016298.367 7  86058250.419 7     -1494.128          44.000
G20  21800936.562 8 114564718.801 8      2227.496          48.000    21800933.656 7  89271218.711 7      1735.711          44.000
G21  21403852.812 8 112478080.470 8     -1763.457          51.000    21403851.617 8  87645204.460 8     -1374.119          49.000
G26  20403250.750 8 107219810.284 8      -896.992          51.000    20403252.695 8  83547903.397 8      -698.955          51.000
G31  24731697.180 5 129965940.045 5     -3362.594          30.000
R14  20899996.469 7 111408737.411 7     -3566.086          47.000    20900000.664 8  86651249.914 8     -2773.619          48.000
R15  19869692.273 6 106177660.786 6       350.008          38.000
R17  19796842.703 5 105936890.295 5      1009.777          31.000    19796843.023 5  82395357.456 5       785.376          30.000
R24  20397877.938 5 109076642.685 5     -2207.320          32.000    20397888.055 6  84837411.506 6     -1716.808          36.000
C05  39613155.227 5 206276094.015 5         3.840          35.000    39613160.289 5 159505780.824 5         2.752          34.000
C12  21780289.312 8 113415816.284 8      -776.512          48.000    21780289.281 8  87700315.135 8      -600.593          51.000
C21  25455944.164 8 132555793.856 8      2890.480          48.000
C24  24953124.828 6 129937484.355 6     -3248.180          40.000
C25  23224641.547 4 120936752.571 4     -1001.238          28.000
E13  26226356.961 8 137820447.390 8      2320.180          49.000    26226360.156 8 105602700.819 8      1777.851          50.000
E15  23100892.938 8 121396096.949 8       389.430          51.000    23100896.711 8  93017806.414 8       298.316          51.000
E27  23639222.008 8 124224952.530 8        26.883          50.000    23639224.680 8  95185359.698 8        20.524          50.000
E30  23912000.250 8 125658386.134 8     -2610.340          51.000    23912002.891 8  96283701.540 8     -2000.143          51.000
> 2020 05 06 14 45  0.0000000  0 16        .000000000000
G18  21027279.695 7 110499170.890 7     -1929.648          47.000    21027279.023 7  86103212.491 7     -1503.622          46.000
G20  21788256.688 8 114498085.593 8      2214.012          50.000    21788254.445 7  89219296.738 7      1725.207          46.000
G21  21413942.336 8 112531101.084 8     -1771.938          51.000    21413941.117 8  87686519.206 8     -1380.731          48.000
G26  20408417.812 8 107246962.185 8      -913.820          51.000    20408419.977 8  83569060.689 8      -712.068          51.000
R14  20920106.789 8 111515940.431 8     -3581.336          48.000    20920112.273 7  86734630.068 7     -2785.480          47.000
R15  19867802.320 5 106167552.690 5       323.031          35.000    19867825.570 4  82574830.742 4       251.250          27.000
R17  19791208.867 5 105906771.810 5       998.047          33.000    19791212.516 4  82371937.040 4       776.265          26.000
R24  20410281.055 6 109142971.893 6     -2215.172          36.000    20410291.844 6  84889000.941 6     -1722.911          36.000
C05  39613129.469 5 206275959.130 5         4.574          34.000    39613134.391 5 159505676.001 5         3.247          34.000
C12  21784780.664 8 113439203.432 8      -783.227          48.000    21784780.688 8  87718399.537 8      -605.607          51.000
C21  25439299.836 8 132469117.292 8      2887.293          49.000
C24  24971847.562 6 130034976.810 6     -3252.141          37.000
E13  26213121.102 7 137750894.112 7      2315.895          47.000    26213125.188 8 105549406.798 8      1774.508          49.000
E15  23098690.930 8 121384524.427 8       381.375          51.000    23098694.531 8  93008939.163 8       292.207          51.000
E27  23639104.617 8 124224334.712 8        13.492          49.000    23639107.320 8  95184886.285 8        10.449          51.000
E30  23926920.758 8 125736794.871 8     -2617.637          51.000    23926924.102 8  96343780.957 8     -2005.776          51.000
> 2020 05 06 14 45 30.0000000  0 19        .000000000000
G10  23873109.789 5 125454039.274 5      3436.277          34.000    23873111.656 5  97756396.713 5      2677.622          33.000
G18  21038325.586 8 110557216.334 8     -1939.707          48.000    21038325.117 7  86148442.693 7     -1511.460          45.000
G20  21775651.062 8 114431841.157 8      2202.379          51.000    21775649.531 7  89167677.745 7      1716.139          46.000
G21  21424076.969 8 112584359.034 8     -1778.500          50.000    21424075.453 8  87728018.889 8     -1385.844          49.000
G26  20413678.016 8 107274602.791 8      -928.781          51.000    20413679.844 8  83590598.838 8      -723.726          51.000
G31  24770074.039 4 130167622.191 4     -3357.535          29.000
R14  20940301.914 8 111623585.268 8     -3594.777          50.000    20940306.344 7  86818353.796 7     -2795.938          46.000
R17  19785643.188 5 105877002.718 5       987.398          34.000    19785648.422 4  82348779.219 4       767.977          27.000
R18  23051772.516 4 123051927.451 4      3082.320          28.000    23051779.789 5  95707068.668 5      2397.366          32.000
R24  20422723.820 6 109209505.984 6     -2220.531          39.000    20422734.195 6  84940749.606 6     -1727.080          36.000
C05  39613096.086 5 206275785.910 5         7.062          35.000    39613101.141 5 159505542.552 5         5.407          34.000
C11  23134184.844 5 120465768.422 5      1717.695          31.000    23134200.969 5  93151782.506 5      1327.301          34.000
C12  21789305.867 7 113462767.474 7      -787.770          47.000    21789305.891 8  87736620.736 8      -609.075          51.000
C21  25422670.328 7 132382519.405 7      2885.910          47.000
C24  24990586.352 6 130132555.756 6     -3253.414          36.000
E13  26199906.562 8 137681453.396 8      2313.480          48.000    26199911.375 8 105496199.002 8      1772.718          49.000
E15  23096530.891 8 121373172.188 8       375.438          51.000    23096534.406 8  93000240.692 8       287.727          51.000
E27  23639059.375 8 124224096.899 8         2.270          49.000    23639062.258 8  95184704.047 8         1.742          50.000
E30  23941880.070 8 125815407.012 8     -2623.090          51.000    23941883.461 8  96404016.197 8     -2009.873          50.000
> 2020 05 06 14 46  0.0000000  0 17        .000000000000
G10  23853518.242 6 125351092.734 6      3433.168          40.000    23853521.242 6  97676178.656 6      2675.196          39.000
G18  21049451.055 8 110615680.464 8     -1951.348          49.000    21049450.398 7  86193999.136 7     -1520.534          46.000
G20  21763134.664 8 114366065.082 8      2189.000          51.000    21763133.695 8  89116423.693 8      1705.717          48.000
G21  21434271.055 8 112637929.404 8     -1786.582          49.000    21434269.461 8  87769762.027 8     -1392.142          49.000
G26  20419045.562 8 107302808.586 8      -945.266          51.000    20419047.727 8  83612577.371 8      -736.571          51.000
R14  20960593.867 8 111731746.006 8     -3609.547          51.000    20960597.117 7  86902478.748 7     -2807.425          46.000
R17  19780160.977 4 105847660.818 4       975.152          29.000    19780169.734 4  82325957.735 4       758.455          29.000
R24  20435220.273 6 109276321.171 6     -2227.648          38.000    20435228.914 5  84992716.904 5     -1732.615          34.000
C05  39613070.164 5 206275650.480 5         7.965          34.000    39613075.109 5 159505437.312 5         6.346          34.000
C11                                                                  23124347.281 5  93112082.084 5      1323.250          31.000
C12  21793879.531 8 113486584.038 8      -793.855          48.000    21793879.555 8  87755037.214 8      -613.856          51.000
C21  25406070.469 7 132296078.719 7      2883.012          47.000
C24  25009356.180 6 130230294.900 6     -3256.254          38.000
E13  26186728.578 8 137612202.207 8      2309.445          49.000    26186732.977 8 105443136.413 8      1769.629          49.000
E15  23094427.016 8 121362116.404 8       367.879          51.000    23094430.672 8  92991769.383 8       281.896          51.000
E27  23639101.195 8 124224316.225 8       -10.648          49.000    23639103.867 8  95184872.096 8        -8.150          50.000
E30  23956892.484 8 125894297.912 8     -2630.039          51.000    23956895.461 8  96464465.025 8     -2015.189          49.000
> 2020 05 06 14 46 30.0000000  0 19        .000000000000
G10  23833950.359 6 125248277.239 6      3426.477          41.000    23833955.219 6  97596062.722 6      2669.982          41.000
G18  21060652.406 8 110674544.230 8     -1967.094          49.000    21060651.969 7  86239866.996 7     -1532.800          46.000
G20  21750704.398 8 114300742.484 8      2171.547          51.000    21750703.828 7  89065522.987 7      1692.117          47.000
G21  21444520.914 8 112691793.333 8     -1798.734          50.000    21444519.711 8  87811733.920 8     -1401.611          49.000
G26  20424517.500 8 107331562.164 8      -965.871          51.000    20424519.977 8  83634982.739 8      -752.627          51.000
G27  22284315.000 5 117104865.620 5      2479.645          31.000
R14  20980978.344 8 111840401.302 8     -3628.398          51.000    20980980.750 7  86986988.364 7     -2822.088          46.000
R17  19774756.500 5 105818709.783 5       959.547          32.000    19774760.711 4  82303458.188 4       746.314          26.000
R24  20447766.461 5 109343398.331 5     -2238.520          33.000    20447771.875 5  85044887.988 5     -1741.068          34.000
C05  39613048.172 5 206275535.976 5         4.766          34.000
C11  23114509.125 4 120363315.355 4      1703.816          27.000    23114513.148 5  93072562.367 5      1316.505          30.000
C12  21798498.594 8 113510635.664 8      -803.973          49.000    21798498.414 8  87773635.449 8      -621.655          51.000
C21  25389497.336 7 132209781.047 7      2875.965          43.000
C24  25028153.203 6 130328175.150 6     -3263.070          41.000
C25  23248439.211 5 121060695.498 5     -1063.465          34.000
E13  26173583.828 8 137543123.796 8      2301.375          50.000    26173587.273 8 105390206.243 8      1763.436          49.000
E15  23092376.258 8 121351339.517 8       356.301          51.000    23092379.805 8  92983511.772 8       273.007          51.000
E27  23639226.844 8 124224976.129 8       -27.594          49.000    23639229.406 8  95185377.714 8       -21.131          51.000
E30  23971954.273 8 125973449.289 8     -2641.027          51.000    23971957.047 8  96525113.424 8     -2023.572          49.000
> 2020 05 06 14 47  0.0000000  0 20        .000000000000
G10  23814401.914 6 125145560.887 6      3423.219          40.000    23814407.742 6  97516024.073 6      2667.446          40.000
G18  21071922.695 8 110733770.746 8     -1979.301          49.000    21071922.805 7  86286017.525 7     -1542.309          46.000
G20  21738353.766 8 114235840.666 8      2157.316          50.000    21738353.727 7  89014950.194 7      1681.026          47.000
G21  21454819.656 8 112745914.107 8     -1807.309          50.000    21454818.664 8  87853905.935 8     -1408.292          49.000
G26  20430087.180 8 107360828.424 8      -983.168          51.000    20430089.531 8  83657787.613 8      -766.105          51.000
R08  23004025.359 5 123185465.753 5      -574.156          32.000
R14  21001447.766 8 111949512.205 8     -3643.590          51.000    21001449.797 7  87071852.351 7     -2833.903          46.000
R15  19861780.133 4 106135339.576 4       214.277          28.000
R17  19769422.469 4 105790150.209 4       946.605          28.000    19769427.352 4  82281257.186 4       736.255          28.000
R24  20460352.781 5 109410700.381 5     -2246.164          34.000    20460357.805 5  85097234.025 5     -1747.016          33.000
C05  39613023.695 5 206275408.882 5         5.863          34.000    39613028.555 5 159505250.267 5         4.002          34.000
C11  23104719.500 4 120312335.733 4      1696.484          29.000
C12  21803156.188 8 113534887.428 8      -810.824          50.000    21803155.812 8  87792388.461 8      -626.954          51.000
C21  25372944.531 7 132123594.462 7      2871.840          44.000
C24  25046970.352 7 130426159.755 7     -3266.828          43.000
C25  23254609.055 5 121092873.370 5     -1080.113          31.000
E13  26160465.555 8 137474183.720 8      2296.652          51.000    26160468.188 8 105337382.080 8      1759.746          49.000
E15  23090372.000 8 121340806.235 8       348.008          51.000    23090375.344 8  92975440.811 8       266.673          51.000
E27  23639430.055 8 124226042.242 8       -41.316          50.000    23639432.336 8  95186194.605 8       -31.736          50.000
E30  23987058.438 8 126052825.032 8     -2648.547          49.000    23987061.477 8  96585933.747 8     -2029.463          50.000
> 2020 05 06 14 47 30.0000000  0 19        .000000000000
G10  23794873.430 6 125042946.574 6      3411.965          40.000    23794880.227 6  97436064.950 6      2658.677          39.000
G18  21083261.680 8 110793357.947 8     -1998.852          49.000    21083261.688 7  86332449.099 7     -1557.547          46.000
G20  21726083.484 8 114171362.179 8      2135.516          49.000    21726083.695 7  88964707.235 7      1664.041          46.000
G21  21465166.938 8 112800289.719 8     -1823.566          50.000    21465165.828 8  87896276.526 8     -1420.961          49.000
G26  20435754.250 8 107390607.057 8     -1007.863          51.000    20435756.312 8  83680991.727 8      -785.348          51.000
R08  23007317.914 5 123203092.015 5      -606.570          31.000
R14  21022000.438 8 112059092.432 8     -3666.277          51.000    21022003.039 7  87157078.396 7     -2851.549          46.000
R15  19860663.367 5 106129390.716 5       178.938          34.000    19860679.117 4  82545107.531 4       139.177          26.000
R18  22982829.562 4 122683903.252 4      3047.637          29.000    22982843.250 5  95420848.883 5      2370.381          33.000
R24  20472980.844 5 109478222.502 5     -2261.516          30.000    20472986.344 5  85149751.551 5     -1758.957          33.000
C05  39612996.445 5 206275267.431 5        -2.062          34.000    39613001.234 5 159505140.332 5        -1.184          34.000
C12  21807852.055 8 113559338.726 8      -825.008          50.000    21807851.555 8  87811295.752 8      -637.897          51.000
C21  25356413.227 7 132037521.577 7      2860.547          43.000
C24  25065806.953 7 130524246.437 7     -3277.836          43.000
C25  23260870.383 5 121125515.087 5     -1102.379          32.000
E13  26147373.625 8 137405382.291 8      2284.445          51.000    26147375.797 8 105284664.149 8      1750.341          49.000
E15  23088413.859 8 121330516.008 8       332.266          51.000    23088417.352 8  92967556.100 8       254.659          51.000
E27  23639710.492 8 124227515.025 8       -62.586          50.000    23639712.367 8  95187323.103 8       -47.899          50.000
E30  24002205.016 8 126132423.791 8     -2663.668          49.000    24002208.688 8  96646924.972 8     -2040.953          51.000
> 2020 05 06 14 48  0.0000000  0 20        .000000000000
G10  23775383.211 6 124940532.103 6      3414.461          38.000    23775391.172 6  97356261.535 6      2660.622          38.000
G18  21094687.016 8 110853398.723 8     -2004.887          50.000    21094686.812 7  86379234.099 7     -1562.249          46.000
G20  21713911.633 7 114107404.389 7      2127.234          45.000    21713912.867 7  88914869.994 7      1657.585          45.000
G21  21475580.523 8 112855013.734 8     -1825.844          48.000    21475579.562 8  87938918.620 8     -1422.732          48.000
G26  20441536.609 8 107420992.530 8     -1018.891          51.000    20441538.430 8  83704668.702 8      -793.941          51.000
G27  22242024.422 4 116882626.948 4      2461.266          28.000
R08  23010768.141 5 123221552.978 5      -625.387          34.000
R14  21042655.320 8 112169198.721 8     -3675.164          50.000    21042659.352 7  87242718.571 7     -2858.461          46.000
R15  19859716.297 5 106124326.447 5       157.984          33.000    19859716.375 4  82541129.936 4       122.877          27.000
R17  19758973.062 4 105734235.491 4       920.766          29.000
R24  20485667.227 5 109546076.515 5     -2262.004          32.000    20485671.000 5  85202513.318 5     -1759.336          30.000
C05  39612984.859 5 206275206.566 5         4.504          34.000
C12  21812604.180 8 113584083.172 8      -825.695          50.000    21812603.641 8  87830429.729 8      -638.435          51.000
C21  25339923.188 7 131951658.979 7      2862.633          44.000
C24  25084680.828 7 130622526.930 7     -3275.199          43.000
C25  23267243.406 5 121158713.688 5     -1111.688          30.000
E13  26134325.844 8 137336814.609 8      2285.676          50.000    26134328.148 8 105232125.309 8      1751.446          49.000
E15  23086519.914 8 121320563.191 8       330.168          51.000    23086523.414 8  92959929.922 8       253.022          51.000
E27  23640086.188 8 124229489.822 8       -70.066          50.000    23640088.117 8  95188836.248 8       -53.732          51.000
E30  24017412.375 8 126212339.250 8     -2665.047          50.000    24017416.367 8  96708158.876 8     -2042.052          51.000
> 2020 05 06 14 48 30.0000000  0 18        .000000000000
G10  23755901.641 6 124838160.010 6      3408.633          39.000    23755910.141 6  97276491.146 6      2656.081          38.000
G18  21106167.859 8 110913730.554 8     -2018.617          50.000    21106167.812 7  86426245.893 7     -1572.948          46.000
G20  21701808.688 7 114043809.294 7      2110.957          45.000    21701810.891 7  88865315.333 7      1644.902          45.000
G21  21486029.531 8 112909923.794 8     -1836.320          50.000    21486028.859 8  87981705.698 8     -1430.899          49.000
G26  20447403.570 8 107451824.095 8     -1038.055          51.000    20447405.398 8  83728693.268 8      -808.874          51.000
R14  21063379.805 7 112279682.348 7     -3692.031          47.000    21063385.125 7  87328650.232 7     -2871.583          46.000
R15  19858900.492 5 106120014.660 5       128.336          33.000    19858911.984 4  82537786.515 4        99.817          29.000
R17  19753853.445 5 105706822.648 5       905.793          34.000
R24  20498380.141 5 109614072.433 5     -2271.859          35.000    20498385.016 4  85255392.611 4     -1766.999          29.000
C05  39612958.047 5 206275067.310 5         3.559          35.000
C12  21817381.773 8 113608961.285 8      -834.387          50.000    21817381.391 8  87849667.068 8      -645.252          51.000
C21  25323443.875 7 131865850.388 7      2856.520          43.000
C24  25103560.742 7 130720840.001 7     -3280.367          43.000
C25  23273692.930 5 121192309.023 5     -1128.754          35.000
E13  26121291.734 8 137268320.525 8      2278.965          50.000    26121294.602 8 105179642.855 8      1746.319          49.000
E15  23084659.672 8 121310786.868 8       320.039          51.000    23084662.758 8  92952438.976 8       245.177          51.000
E27  23640527.008 8 124231806.623 8       -85.898          51.000    23640529.344 8  95190611.426 8       -65.791          51.000
E30  24032649.727 8 126292409.625 8     -2674.547          51.000    24032653.586 8  96769511.474 8     -2049.307          51.000
> 2020 05 06 14 49  0.0000000  0 18        .000000000000
G10  23736448.328 6 124735933.874 6      3405.707          40.000    23736457.039 6  97196834.465 6      2653.798          40.000
G18  21117722.844 8 110974452.135 8     -2029.922          50.000    21117722.805 7  86473561.405 7     -1581.757          45.000
G20  21689795.727 8 113980679.897 8      2097.184          49.000    21689797.250 7  88816123.630 7      1634.172          43.000
G21  21496532.883 8 112965119.087 8     -1844.012          50.000    21496532.109 8  88024715.001 8     -1436.895          48.000
G26  20453374.359 8 107483202.104 8     -1054.512          51.000    20453376.242 8  83753143.643 8      -821.697          51.000
G29  24203864.992 5 127192168.215 5     -2927.402          30.000
R14  21084194.031 7 112390641.520 7     -3705.945          46.000    21084201.195 7  87414951.779 7     -2882.402          47.000
R15  19858256.477 4 106116513.602 4       101.754          27.000    19858258.148 4  82535064.479 4        79.148          27.000
R24  20511145.242 6 109682322.006 6     -2278.484          39.000    20511145.844 4  85308468.553 4     -1772.158          27.000
C05  39612935.320 5 206274948.741 5         3.559          34.000
C12  21822203.945 8 113634072.408 8      -840.316          49.000    21822203.797 8  87869084.573 8      -649.813          51.000
C21  25306994.211 7 131780198.193 7      2853.137          42.000
C24  25122465.789 7 130819283.221 7     -3282.773          42.000
C25  23280240.117 6 121226400.027 6     -1143.934          39.000
E13  26108290.586 8 137200001.125 8      2275.059          49.000    26108294.211 8 105127294.245 8      1743.218          49.000
E15  23082852.055 8 121301287.244 8       312.617          51.000    23082854.984 8  92945160.036 8       239.592          51.000
E27  23641052.359 8 124234566.556 8       -98.836          51.000    23641054.719 8  95192726.162 8       -75.675          51.000
E30  24047935.555 8 126372734.377 8     -2681.078          50.000    24047939.109 8  96831058.983 8     -2054.366          51.000
> 2020 05 06 14 49 30.0000000  0 17        .000000000000
G10  23717014.609 7 124633806.804 7      3398.988          42.000    23717022.891 7  97117254.954 7      2648.562          42.000
G18  21129342.008 8 111035511.567 8     -2044.586          50.000    21129341.812 7  86521140.163 7     -1593.184          44.000
G20  21677862.969 8 113917968.708 8      2079.871          51.000    21677862.648 6  88767257.831 6      1620.682          41.000
G21  21507080.625 8 113020547.520 8     -1855.070          50.000    21507079.688 8  88067905.976 8     -1445.509          49.000
G26  20459439.453 8 107515076.268 8     -1074.223          51.000    20459441.453 8  83777980.639 8      -837.057          51.000
R14  21105088.383 7 112502021.764 7     -3723.262          46.000    21105096.000 7  87501580.816 7     -2895.870          46.000
R18  22914464.703 5 122318974.812 5      3025.957          31.000    22914486.500 5  95137041.572 5      2353.522          31.000
R24  20523948.797 6 109750773.074 6     -2288.766          40.000    20523943.836 4  85361692.218 4     -1780.154          26.000
C05  39612907.375 5 206274803.260 5         1.828          34.000
C12  21827061.352 8 113659366.746 8      -849.625          50.000    21827061.312 8  87888643.743 8      -656.993          51.000
C21  25290565.086 6 131694655.656 6      2846.160          40.000
C24  25141385.969 6 130917804.944 6     -3288.879          39.000
C25  23286873.383 6 121260936.028 6     -1161.910          41.000
E13  26095313.359 8 137131806.941 8      2267.566          49.000    26095317.336 8 105075041.566 8      1737.504          50.000
E15  23081087.383 8 121292013.921 8       301.832          51.000    23081090.578 8  92938054.503 8       231.325          51.000
E27  23641652.766 8 124237720.175 8      -115.148          51.000    23641654.578 8  95195142.559 8       -88.156          51.000
E30  24063259.703 8 126453262.361 8     -2691.125          50.000    24063263.219 8  96892762.214 8     -2062.022          51.000
> 2020 05 06 14 50  0.0000000  0 17        .000000000000
G10  23697614.617 7 124531853.679 7      3394.867          43.000    23697621.555 7  97037810.998 7      2645.351          43.000
G18  21141038.703 8 111096978.791 8     -2056.336          50.000    21141038.422 7  86569036.683 7     -1602.340          45.000
G20  21666024.070 8 113855750.109 8      2065.016          51.000    21666022.477 7  88718775.856 7      1609.103          42.000
G21  21517686.016 8 113076279.455 8     -1863.465          49.000    21517685.180 8  88111333.468 8     -1452.051          48.000
G26  20465612.492 8 107547518.252 8     -1091.547          51.000    20465614.906 8  83803260.078 8      -850.556          51.000
R14  21126075.656 7 112613892.288 7     -3737.926          47.000    21126082.586 7  87588591.162 7     -2907.279          47.000
R15  19857427.703 5 106112081.029 5        44.152          31.000    19857428.289 4  82531613.074 4        34.341          27.000
R24  20536802.672 6 109819496.974 6     -2296.086          39.000
C05  39612887.859 5 206274701.515 5         1.141          34.000
C12  21831967.617 8 113684915.078 8      -856.555          49.000    21831967.664 8  87908399.320 8      -662.324          51.000
C21  25274171.547 6 131609296.748 6      2841.688          41.000
C24  25160334.688 6 131016474.306 6     -3291.898          37.000
C25  23293606.414 6 121295987.265 6     -1177.645          41.000
E13  26082373.906 8 137063810.243 8      2262.672          48.000    26082377.859 8 105022940.228 8      1733.649          50.000
E15  23079379.359 8 121283038.443 8       293.523          51.000    23079382.703 8  92931177.195 8       224.920          51.000
E27  23642341.680 8 124241339.912 8      -129.109          51.000    23642343.328 8  95197916.120 8       -99.009          51.000
E30  24078635.328 8 126534064.256 8     -2698.656          49.000    24078639.602 8  96954675.317 8     -2067.757          51.000
> 2020 05 06 14 50 30.0000000  0 18        .000000000000
G10  23678233.539 7 124429997.664 7      3393.691          44.000    23678238.781 7  96958442.707 7      2644.438          44.000
G18  21152797.516 8 111158771.988 8     -2064.887          51.000    21152797.156 7  86617187.202 7     -1609.006          44.000
G20  21654263.898 8 113793946.576 8      2053.438          51.000    21654262.266 7  88670617.305 7      1600.084          44.000
G21  21528333.836 8 113132233.872 8     -1868.332          51.000    21528332.891 7  88154934.292 7     -1455.846          47.000
G26  20471878.344 8 107580447.703 8     -1105.555          51.000    20471881.125 8  83828919.368 8      -861.471          51.000
R14  21147139.211 8 112726168.069 8     -3748.875          48.000    21147145.430 8  87675916.738 8     -2915.792          48.000
R15  19857242.500 4 106111062.721 4        19.414          29.000    19857249.492 4  82530861.462 4        15.103          27.000
R18  22880529.859 5 122137808.873 5      3017.086          33.000    22880526.414 5  94996064.968 5      2346.619          30.000
R24  20549691.922 5 109888411.068 5     -2300.012          35.000    20549692.930 4  85468769.357 4     -1788.898          28.000
C05  39612861.531 5 206274564.809 5         5.539          35.000
C12  21836907.195 8 113710637.874 8      -859.953          49.000    21836907.586 8  87928289.792 8      -664.925          51.000
C21  25257800.648 7 131524044.928 7      2840.312          43.000
C24  25179297.000 6 131115209.885 6     -3291.820          36.000
C25  23300422.836 6 121331473.477 6     -1190.152          37.000
E13  26069457.039 8 136995931.391 8      2261.109          49.000    26069460.867 8 104970929.191 8      1732.493          50.000
E15  23077712.688 8 121274280.406 8       288.727          51.000    23077715.938 8  92924466.483 8       221.247          51.000
E27  23643103.883 8 124245346.325 8      -139.543          51.000    23643105.836 8  95200985.939 8      -106.923          51.000
E30  24094047.398 8 126615058.893 8     -2702.598          49.000    24094052.570 8  97016736.108 8     -2070.828          51.000
> 2020 05 06 14 51  0.0000000  0 18        .000000000000
G10  23658877.969 7 124328276.360 7      3387.449          42.000    23658881.273 6  96879179.404 6      2639.574          41.000
G18  21164624.680 8 111220923.795 8     -2078.727          51.000    21164624.352 7  86665617.156 7     -1619.790          44.000
G20  21642589.430 8 113732595.335 8      2036.539          51.000    21642588.258 7  88622811.181 7      1586.914          45.000
G21  21539030.430 8 113188444.641 8     -1878.996          50.000    21539029.281 7  88198734.879 7     -1464.153          46.000
G26  20478243.734 8 107613898.916 8     -1124.648          51.000    20478246.531 8  83854985.252 8      -876.349          51.000
R14  21168284.766 8 112838880.541 8     -3765.266          48.000    21168289.859 7  87763581.951 7     -2928.543          47.000
R15  19857211.242 5 106110912.805 5        -9.594          35.000    19857214.492 4  82530721.626 4        -7.462          29.000
R18  22863597.867 5 122047413.212 5      3007.777          35.000    22863597.148 5  94925775.998 5      2339.382          30.000
R24  20562625.328 4 109957587.713 4     -2309.770          29.000    20562628.258 4  85522543.074 4     -1796.481          25.000
C05  39612834.977 5 206274426.280 5         3.008          35.000
C12  21841886.789 8 113736569.054 8      -868.809          49.000    21841887.414 8  87948341.406 8      -671.794          51.000
C21  25241458.555 7 131438937.271 7      2833.477          46.000
C24  25198278.234 5 131214043.934 5     -3296.977          35.000
C25  23307328.328 6 121367427.844 6     -1207.258          38.000
E13  26056569.344 8 136928205.520 8      2253.973          49.000    26056572.930 8 104919035.368 8      1727.118          50.000
E15  23076093.867 8 121265774.015 8       278.387          51.000    23076097.195 8  92917948.587 8       213.345          51.000
E27  23643946.312 8 124249774.483 8      -155.559          51.000    23643948.180 8  95204378.933 8      -119.236          51.000
E30  24109502.781 8 126696279.703 8     -2712.148          49.000    24109508.047 8  97078970.181 8     -2078.041          51.000
> 2020 05 06 14 51 30.0000000  0 17        .000000000000
G10  23639557.852 6 124226744.084 6      3381.551          40.000    23639558.953 6  96800063.507 6      2634.981          41.000
G18  21176529.414 8 111283483.440 8     -2091.863          51.000    21176529.266 7  86714364.921 7     -1630.023          46.000
G20  21631010.797 8 113671749.879 8      2020.027          51.000    21631010.320 7  88575399.169 7      1574.047          46.000
G21  21549784.750 8 113244959.058 8     -1888.570          50.000    21549783.531 7  88242772.067 7     -1471.616          46.000
G26  20484718.156 8 107647922.794 8     -1143.340          51.000    20484720.961 8  83881497.374 8      -890.914          51.000
R14  21189521.242 8 112952077.674 8     -3780.949          49.000    21189524.695 7  87851624.093 7     -2940.741          47.000
R15  19857345.773 5 106111639.021 5       -38.496          34.000    19857353.516 5  82531290.106 5       -29.944          34.000
R24  20575591.289 5 110026940.061 5     -2317.664          32.000
C05  39612818.086 5 206274338.199 5         2.609          35.000
C12  21846916.359 8 113762759.004 8      -876.945          49.000    21846916.680 8  87968593.122 8      -678.113          51.000
C21  25225154.617 7 131354027.256 7      2827.367          46.000
C24  25217287.273 5 131313025.014 5     -3301.270          33.000
C25  23314333.180 6 121403900.049 6     -1223.996          40.000
E13  26043720.414 8 136860684.157 8      2247.672          49.000    26043723.531 8 104867298.251 8      1722.212          49.000
E15  23074532.648 8 121257570.096 8       268.703          51.000    23074536.234 8  92911662.471 8       205.883          51.000
E27  23644879.031 8 124254676.102 8      -170.984          51.000    23644880.797 8  95208134.729 8      -131.038          51.000
E30  24125011.117 8 126777776.699 8     -2720.801          49.000    24125015.875 8  97141415.889 8     -2084.760          51.000
> 2020 05 06 14 52  0.0000000  0 18        .000000000000
G10  23620258.711 6 124125322.051 6      3378.344          38.000    23620258.508 6  96721033.483 6      2632.476          39.000
G18  21188495.820 8 111346367.206 8     -2102.203          51.000    21188495.758 7  86763365.241 7     -1638.080          46.000
G20  21619512.820 8 113611330.570 8      2006.160          50.000    21619512.922 7  88528319.225 7      1563.242          45.000
G21  21560581.156 8 113301694.576 8     -1895.500          50.000    21560579.766 7  88286981.544 7     -1477.013          45.000
G26  20491285.992 8 107682437.105 8     -1159.492          51.000    20491289.055 8  83908391.620 8      -903.500          51.000
R14  21210831.766 8 113065672.723 8     -3793.801          49.000    21210834.352 7  87939975.718 7     -2950.737          47.000
R15  19857633.172 6 106113162.929 6       -65.129          37.000    19857634.570 5  82532475.293 5       -50.656          32.000
R17  19720028.305 5 105525851.745 5       818.195          31.000
R24  20588609.109 5 110096541.455 5     -2324.160          34.000
C05  39612795.328 5 206274219.226 5         4.176          34.000
C12  21851980.156 8 113789126.358 8      -882.559          50.000    21851980.008 8  87988982.027 8      -682.487          51.000
C21  25208873.031 7 131269236.565 7      2823.676          46.000
C24  25236306.734 4 131412072.973 4     -3302.871          28.000
C25  23321421.508 6 121440808.019 6     -1238.285          39.000
E13  26030894.625 8 136793285.908 8      2243.879          48.000    26030897.359 8 104815655.458 8      1719.279          48.000
E15  23073013.539 8 121249586.383 8       261.750          51.000    23073017.078 8  92905545.087 8       200.532          51.000
E27  23645886.250 8 124259969.808 8      -183.688          51.000    23645888.609 8  95212190.926 8      -140.754          51.000
E30  24140556.359 8 126859466.829 8     -2726.938          49.000    24140560.617 8  97204009.579 8     -2089.445          51.000
> 2020 05 06 14 52 30.0000000  0 19        .000000000000
G10  23600981.500 5 124024022.180 5      3366.082          35.000    23600982.633 6  96642098.544 6      2622.921          36.000
G18  21200525.227 8 111409581.955 8     -2121.344          51.000    21200525.148 7  86812623.474 7     -1652.995          46.000
G20  21608098.250 8 113551348.882 8      1983.324          49.000    21608098.383 7  88481580.251 7      1545.450          44.000
G21  21571421.000 8 113358658.450 8     -1911.332          49.000    21571419.484 7  88331368.962 7     -1489.350          44.000
G26  20497948.875 8 107717450.265 8     -1184.148          51.000    20497952.031 8  83935674.573 8      -922.713          51.000
G27  22117033.633 5 116225796.162 5      2397.848          34.000
R14  21232216.898 8 113179670.724 8     -3815.488          48.000    21232220.391 8  88028640.778 8     -2967.605          48.000
R15  19858072.281 5 106115496.859 5       -99.629          35.000    19858071.844 5  82534290.626 5       -77.489          35.000
R18  22813018.680 5 121777457.015 5      2981.703          32.000    22813031.789 4  94715820.212 4      2319.090          29.000
R24  20601666.766 5 110166339.542 5     -2338.512          35.000
C05  39612768.242 5 206274078.340 5        -3.797          34.000
C12  21857079.578 8 113815679.445 8      -896.844          50.000    21857079.156 8  88009514.564 8      -693.448          51.000
C21  25192616.039 7 131184576.687 7      2811.117          47.000
C24  25255338.570 5 131511179.328 5     -3313.344          31.000
C25  23328594.336 6 121478159.349 6     -1261.141          41.000
E13  26018094.133 8 136726020.009 8      2231.258          49.000    26018096.305 7 104764114.089 7      1709.707          47.000
E15  23071537.945 8 121241831.280 8       246.004          51.000    23071541.195 8  92899602.861 8       188.532          51.000
E27  23646969.930 8 124265664.868 8      -205.262          51.000    23646972.695 8  95216554.662 8      -157.234          51.000
E30  24156139.758 8 126941357.637 8     -2741.699          49.000    24156143.945 8  97266757.054 8     -2100.786          51.000
> 2020 05 06 14 53  0.0000000  0 19        .000000000000
G10  23581750.211 6 123922971.850 6      3369.094          36.000    23581753.789 6  96563358.106 6      2625.271          37.000
G18  21212640.836 8 111473249.958 8     -2125.172          51.000    21212640.789 7  86862234.907 7     -1655.978          46.000
G20  21596791.344 8 113491931.289 8      1975.777          49.000    21596791.359 7  88435280.864 7      1539.570          45.000
G21  21582327.578 8 113415973.472 8     -1911.691          49.000    21582326.062 7  88376030.018 7     -1489.633          44.000
G26  20504730.383 8 107753086.115 8     -1193.652          51.000    20504733.289 8  83963442.736 8      -930.122          51.000
R14  21253700.539 8 113294193.744 8     -3821.398          50.000    21253704.953 8  88117714.197 8     -2972.199          48.000
R15  19858683.070 5 106118767.825 5      -119.801          35.000    19858686.195 5  82536834.567 5       -93.178          35.000
R18  22796255.227 5 121687967.260 5      2982.871          33.000    22796266.281 5  94646217.065 5      2320.011          32.000
R24  20614781.656 6 110236459.403 6     -2337.773          38.000
C05  39612760.641 5 206274038.754 5         4.074          35.000
C11  22990035.375 4 119715147.369 4      1623.566          28.000    22990037.398 5  92571343.146 5      1255.013          30.000
C12  21862238.086 8 113842541.093 8      -895.875          50.000    21862237.664 8  88030285.710 8      -692.747          51.000
C21  25176407.680 8 131100173.485 8      2813.758          48.000
C24  25274408.102 4 131610475.166 4     -3308.379          29.000
C25  23335875.773 6 121516075.949 6     -1268.910          41.000
E13  26005343.000 8 136659011.038 8      2234.039          50.000    26005343.328 7 104712769.599 7      1711.844          46.000
E15  23070129.312 8 121234428.613 8       245.500          51.000    23070132.391 8  92893930.696 8       188.137          51.000
E27  23648153.789 8 124271885.971 8      -211.535          51.000    23648156.570 8  95221321.467 8      -162.073          51.000
E30  24171784.805 8 127023572.218 8     -2741.199          49.000    24171789.102 8  97329752.615 8     -2100.447          51.000
> 2020 05 06 14 53 30.0000000  0 18        .000000000000
G10  23562523.148 6 123821938.320 6      3359.027          37.000    23562527.844 6  96484630.756 6      2617.424          36.000
G18  21224797.539 8 111537133.751 8     -2141.840          51.000    21224797.406 7  86912014.469 7     -1668.966          46.000
G20  21585547.484 8 113432844.455 8      1955.266          50.000    21585547.414 7  88389239.239 7      1523.587          46.000
G21  21593256.016 8 113473402.601 8     -1924.961          50.000    21593254.781 7  88420779.981 7     -1499.970          43.000
G26  20511585.578 8 107789108.665 8     -1216.035          51.000    20511588.047 8  83991512.236 8      -947.560          51.000
R14  21275237.945 8 113408999.070 8     -3840.449          50.000    21275242.086 7  88207007.170 7     -2987.019          47.000
R15  19859424.570 5 106122736.245 5      -152.805          34.000    19859427.406 5  82539921.167 5      -118.839          33.000
R24  20627909.875 6 110306660.032 6     -2350.492          38.000
C05  39612727.781 5 206273867.247 5         -.676          34.000
C11                                                                  22980716.539 5  92533776.789 5      1246.516          30.000
C12  21867410.820 8 113869477.499 8      -907.906          50.000    21867410.484 8  88051114.642 8      -701.972          51.000
C21  25160203.938 8 131015796.281 8      2803.332          48.000
C24  25293470.562 5 131709737.998 5     -3316.789          30.000
C25  23343220.156 6 121554323.289 6     -1289.012          40.000
E13  25992596.281 8 136592023.864 8      2223.719          50.000    25992594.742 7 104661441.798 7      1703.954          46.000
E15  23068742.883 8 121227142.407 8       232.195          51.000    23068745.898 8  92888347.770 8       177.931          51.000
E27  23649393.180 8 124278397.978 8      -230.613          51.000    23649395.859 8  95226311.163 8      -176.689          51.000
E30  24187446.664 8 127105873.753 8     -2753.574          50.000    24187451.156 8  97392814.806 8     -2109.864          51.000
> 2020 05 06 14 54  0.0000000  0 16        .000000000000
G10  23543353.859 6 123721203.845 6      3358.371          38.000    23543358.578 6  96406136.431 6      2616.913          38.000
G18  21237048.102 8 111601510.394 8     -2148.566          51.000    21237047.953 7  86962178.066 7     -1674.208          46.000
G20  21574420.227 8 113374370.064 8      1944.512          50.000    21574420.508 7  88343674.818 7      1515.204          46.000
G21  21604259.039 8 113531223.400 8     -1928.340          49.000    21604258.414 7  88465835.157 7     -1502.599          44.000
G26  20518567.094 8 107825796.502 8     -1228.461          51.000    20518569.531 8  84020100.133 8      -957.242          51.000
R14  21296881.023 8 113524366.125 8     -3849.309          50.000    21296884.266 8  88296737.043 8     -2993.907          48.000
R24  20641105.625 6 110377223.640 6     -2352.336          39.000    20641122.203 4  85849025.929 4     -1829.592          27.000
C11                                                                  22971439.422 5  92496424.390 5      1244.782          32.000
C12  21872651.109 8 113896764.858 8      -909.914          50.000    21872650.680 8  88072214.979 8      -703.688          51.000
C21  25144058.648 8 130931724.238 8      2802.883          49.000
C24  25312578.508 5 131809230.992 5     -3314.711          34.000
C25  23350680.594 6 121593176.800 6     -1299.770          41.000
E13  25979906.656 8 136525337.923 8      2223.293          49.000    25979904.945 7 104610344.836 7      1703.655          46.000
E15  23067431.570 8 121220251.297 8       228.676          51.000    23067434.555 8  92883067.569 8       175.186          51.000
E27  23650741.250 8 124285480.350 8      -240.133          51.000    23650743.672 8  95231737.909 8      -184.001          51.000
E30  24203178.133 8 127188540.075 8     -2756.160          51.000    24203182.508 8  97456156.515 8     -2111.881          51.000
> 2020 05 06 14 54 30.0000000  0 19        .000000000000
G10  23524195.922 6 123620525.133 6      3353.809          39.000    23524199.828 6  96327685.560 6      2613.360          39.000
G18  21249345.211 8 111666131.724 8     -2159.523          51.000    21249344.977 7  87012532.342 7     -1682.746          47.000
G20  21563363.070 8 113316264.326 8      1929.160          49.000    21563363.555 7  88298397.630 7      1503.245          47.000
G21  21615289.211 8 113589187.106 8     -1935.871          48.000    21615288.633 7  88511001.695 7     -1508.471          44.000
G26  20525627.938 8 107862902.985 8     -1245.320          51.000    20525630.578 8  84049014.242 8      -970.379          51.000
R14  21318582.000 8 113640040.947 8     -3862.453          50.000    21318584.891 8  88386706.298 8     -3004.130          48.000
R17  19698025.609 5 105408101.668 5       754.758          31.000    19698024.578 4  81984083.714 4       587.034          26.000
R18  22746174.820 5 121420583.454 5      2963.359          32.000    22746164.922 5  94438224.362 5      2304.835          32.000
R24  20654321.258 6 110447898.174 6     -2359.309          38.000    20654345.383 4  85903994.957 4     -1835.021          27.000
C05  39612698.523 5 206273714.775 5         4.309          34.000
C11  22962162.500 4 119570003.693 4      1604.512          29.000
C12  21877911.992 8 113924158.850 8      -916.383          51.000    21877911.320 8  88093397.737 8      -708.620          51.000
C21  25127925.680 8 130847716.219 8      2797.695          49.000
C24  25331682.492 5 131908708.113 5     -3317.332          34.000
C25  23358211.078 7 121632391.274 7     -1314.656          43.000
E13  25967227.031 8 136458707.358 8      2218.543          48.000    25967226.633 7 104559290.313 7      1699.893          47.000
E15  23066148.312 8 121213508.597 8       220.773          51.000    23066151.359 8  92877901.080 8       169.155          51.000
E27  23652150.727 8 124292887.243 8      -253.801          51.000    23652153.031 8  95237413.313 8      -194.480          51.000
E30  24218932.039 8 127271323.693 8     -2762.922          51.000    24218936.055 8  97519588.089 8     -2117.026          51.000
> 2020 05 06 14 55  0.0000000  0 18        .000000000000
G10  23505074.898 5 123520033.107 5      3347.684          35.000    23505076.352 6  96249380.238 6      2608.591          36.000
G18  21261712.797 8 111731123.706 8     -2171.809          51.000    21261712.367 7  87063175.439 7     -1692.318          46.000
G20  21552400.734 8 113258657.014 8      1912.605          50.000    21552401.477 7  88253508.837 7      1490.342          47.000
G21  21626370.578 8 113647420.206 8     -1944.844          48.000    21626369.445 7  88556378.139 7     -1515.466          43.000
G26  20532792.867 8 107900555.484 8     -1263.398          51.000    20532795.430 8  84078353.825 8      -984.466          51.000
R14  21340363.820 8 113756149.538 8     -3876.715          50.000    21340367.180 8  88477012.930 8     -3015.223          49.000
R15  19862635.875 6 106139901.945 6      -231.688          38.000    19862636.578 4  82553253.586 4      -180.201          27.000
R18  22729523.914 5 121331757.756 5      2955.992          35.000    22729539.469 5  94369172.058 5      2299.108          33.000
R24  20667582.109 6 110518812.390 6     -2366.938          40.000    20667606.977 4  85959150.418 4     -1840.948          29.000
C05  39612679.750 5 206273617.855 5         3.797          34.000
C12  21883217.602 8 113951785.937 8      -924.082          51.000    21883216.695 8  88114760.744 8      -714.625          51.000
C21  25111829.773 7 130763901.659 7      2791.273          47.000
C24  25350806.695 5 132008294.093 5     -3320.957          33.000
C25  23365835.789 7 121672092.261 7     -1330.699          44.000
E13  25954581.953 7 136392260.475 7      2212.492          47.000    25954583.828 8 104508376.494 8      1695.292          48.000
E15  23064917.562 8 121207041.827 8       211.664          51.000    23064920.820 8  92872946.021 8       162.145          51.000
E27  23653646.180 8 124300746.992 8      -268.883          51.000    23653648.602 8  95243435.707 8      -206.048          51.000
E30  24234732.344 8 127354351.311 8     -2770.953          51.000    24234735.906 8  97583206.624 8     -2123.189          51.000
> 2020 05 06 14 55 30.0000000  0 19        .000000000000
G10  23485984.344 5 123419691.559 5      3342.039          32.000    23485981.312 5  96171192.254 5      2604.192          32.000
G18  21274142.992 8 111796445.170 8     -2183.266          51.000    21274142.641 7  87114075.260 7     -1701.249          46.000
G20  21541526.336 8 113201511.636 8      1896.688          50.000    21541527.289 8  88208979.991 8      1477.938          48.000
G21  21637495.711 7 113705883.038 7     -1952.922          47.000    21637494.406 7  88601933.590 7     -1521.760          44.000
G26  20540054.383 8 107938714.249 8     -1280.801          51.000    20540056.781 8  84108087.918 8      -998.030          51.000
R14  21362218.242 8 113872648.159 8     -3890.152          49.000    21362222.445 8  88567622.925 8     -3025.674          48.000
R15  19864020.078 6 106147266.799 6      -259.375          41.000    19864020.938 5  82558992.614 5      -201.739          30.000
R18  22712924.516 6 121243180.649 6      2949.113          36.000    22712942.172 5  94300278.769 5      2293.758          33.000
R24  20680880.281 6 110589925.117 6     -2374.027          41.000    20680905.734 4  86014460.276 4     -1846.466          26.000
C05  39612658.688 5 206273508.182 5         3.184          34.000
C11  22943752.055 4 119474136.985 4      1592.414          27.000    22943755.031 5  92384994.582 5      1230.697          34.000
C12  21888560.523 8 113979606.868 8      -930.977          51.000    21888559.250 8  88136273.656 8      -719.911          51.000
C21  25095763.773 7 130680244.349 7      2785.645          46.000
C24  25369944.094 5 132107947.788 5     -3324.133          33.000
C25  23373545.984 7 121712239.733 7     -1346.164          42.000
E13  25941964.305 7 136325958.367 7      2207.180          47.000    25941968.609 8 104457573.609 8      1691.272          48.000
E15  23063731.930 8 121200811.282 8       203.418          51.000    23063735.344 8  92868171.971 8       155.848          51.000
E27  23655220.320 8 124309020.692 8      -283.020          51.000    23655223.203 8  95249775.275 8      -216.898          51.000
E30  24250571.109 8 127437582.392 8     -2778.156          51.000    24250574.250 8  97646981.030 8     -2128.603          50.000
> 2020 05 06 14 56  0.0000000  0 19        .000000000000
G10  23466924.461 6 123319534.249 6      3335.234          37.000    23466921.477 6  96093147.844 6      2598.893          37.000
G18  21286641.375 8 111862124.707 8     -2195.223          51.000    21286641.312 7  87165254.109 7     -1710.563          45.000
G20  21530746.047 8 113144860.747 8      1880.055          49.000    21530746.727 7  88164836.438 7      1464.978          47.000
G21  21648670.039 7 113764604.267 7     -1961.691          47.000    21648669.070 7  88647690.396 7     -1528.591          44.000
G26  20547417.828 8 107977409.364 8     -1298.746          51.000    20547420.406 8  84138239.927 8     -1012.013          51.000
R14  21384150.961 8 113989563.977 8     -3904.098          50.000    21384155.695 8  88658557.402 8     -3036.520          48.000
R15  19865556.102 6 106155484.731 6      -288.129          40.000    19865559.062 4  82565384.289 4      -224.097          28.000
R18  22696368.648 5 121154821.498 5      2941.621          32.000    22696384.008 5  94231555.078 5      2287.928          33.000
R24  20694221.453 6 110661265.849 6     -2381.562          38.000    20694221.312 4  86069905.856 4     -1852.326          25.000
C05  39612641.445 5 206273418.207 5         2.945          34.000
C11  22934602.742 4 119426501.119 4      1583.855          27.000    22934607.867 5  92348161.479 5      1225.037          34.000
C12  21893946.445 8 114007651.711 8      -938.473          51.000    21893944.805 8  88157959.710 8      -725.732          51.000
C21  25079734.586 7 130596777.485 7      2779.105          46.000
C24  25389098.898 5 132207697.476 5     -3326.086          30.000
C25  23381347.047 6 121752862.691 6     -1361.930          41.000
E13  25929380.641 7 136259832.008 7      2201.273          47.000    25929386.227 8 104406905.392 8      1686.699          48.000
E15  23062597.023 8 121194847.150 8       194.391          51.000    23062600.359 8  92863602.050 8       148.937          51.000
E27  23656879.078 8 124317739.355 8      -298.051          51.000    23656882.500 8  95256455.785 8      -228.365          51.000
E30  24266453.672 8 127521046.255 8     -2785.941          50.000    24266456.031 8  97710933.817 8     -2134.652          48.000
> 2020 05 06 14 56 30.0000000  0 19        .000000000000
G10  23447895.086 7 123219550.844 7      3329.996          44.000    23447895.102 7  96015238.834 7      2594.805          44.000
G18  21299204.984 8 111928146.977 8     -2206.297          51.000    21299205.062 7  87216700.011 7     -1719.192          45.000
G20  21520057.516 8 113088693.147 8      1864.426          49.000    21520057.766 7  88121069.493 7      1452.799          46.000
G21  21659890.664 7 113823568.877 7     -1969.406          47.000    21659889.508 7  88693636.851 7     -1534.602          44.000
G26  20554880.609 8 108016626.852 8     -1315.793          51.000    20554883.211 8  84168798.965 8     -1025.296          51.000
R14  21406159.195 8 114106879.498 8     -3917.023          51.000    21406163.750 8  88749802.739 8     -3046.577          48.000
R15  19867251.781 7 106164541.903 7      -315.734          42.000    19867252.188 5  82572428.800 5      -245.568          34.000
R18  22679853.375 5 121066667.140 5      2935.988          31.000    22679869.836 6  94162990.667 6      2283.553          36.000
R24  20707602.398 6 110732819.192 6     -2388.062          39.000
C05  39612625.750 5 206273337.174 5         2.934          34.000
C11                                                                  22925496.688 5  92311475.271 5      1220.572          33.000
C12  21899372.758 8 114035906.762 8      -945.156          51.000    21899370.875 8  88179808.304 8      -730.806          51.000
C21  25063740.008 7 130513490.343 7      2773.367          46.000
C24  25408270.047 5 132307527.605 5     -3329.191          32.000
C25  23389236.227 6 121793946.537 6     -1376.766          39.000
E13  25916828.164 7 136193868.263 7      2196.266          46.000    25916833.891 8 104356361.780 8      1682.883          48.000
E15  23061510.055 8 121189135.481 8       186.406          51.000    23061513.211 8  92859225.580 8       142.822          51.000
E27  23658620.375 8 124326889.788 8      -311.957          51.000    23658623.648 8  95263467.148 8      -239.041          51.000
E30  24282376.883 8 127604728.143 8     -2792.793          48.000    24282378.711 8  97775053.650 8     -2139.938          48.000
> 2020 05 06 14 57  0.0000000  0 18        .000000000000
G10  23428900.711 7 123119749.019 7      3323.953          47.000    23428903.508 7  95937471.261 7      2590.096          47.000
G18  21311834.344 8 111994514.606 8     -2217.781          51.000    21311834.234 7  87268415.018 7     -1728.141          45.000
G20  21509462.344 8 113033015.749 8      1847.949          49.000    21509462.148 7  88077684.547 7      1439.963          46.000
G21  21671158.062 7 113882779.104 7     -1977.617          47.000    21671156.273 7  88739774.666 7     -1541.003          44.000
G26  20562443.828 8 108056370.714 8     -1333.371          51.000    20562446.383 8  84199768.186 8     -1038.994          51.000
R08  23096475.664 4 123680577.319 4     -1073.176          28.000
R14  21428242.695 8 114224595.405 8     -3930.230          50.000    21428247.281 8  88841359.496 8     -3056.849          48.000
R15  19869104.211 6 106174443.246 6      -343.941          38.000    19869106.625 5  82580129.760 5      -267.510          35.000
R18  22663378.125 5 120978723.300 5      2928.023          34.000    22663397.906 6  94094589.923 6      2277.349          36.000
R24  20721023.883 6 110804588.496 6     -2395.746          40.000
C05  39612612.141 5 206273265.445 5         2.543          34.000
C12  21904840.148 8 114064376.252 8      -952.320          51.000    21904838.203 8  88201822.730 8      -736.458          51.000
C21  25047781.219 7 130430390.335 7      2767.051          46.000
C25  23397214.766 6 121835494.676 6     -1392.324          39.000
E13  25904307.859 7 136128072.183 7      2190.488          45.000    25904312.891 7 104305946.624 7      1678.450          46.000
E15  23060472.070 8 121183680.500 8       177.734          51.000    23060475.023 8  92855045.793 8       136.144          51.000
E27  23660444.742 8 124336477.023 8      -326.715          51.000    23660447.836 8  95270813.210 8      -250.373          51.000
E30  24298341.352 7 127688631.435 7     -2800.262          46.000    24298344.234 8  97839343.178 8     -2145.712          49.000
> 2020 05 06 14 57 30.0000000  0 18        .000000000000
G10  23409939.117 8 123020115.019 8      3317.965          49.000    23409943.641 8  95859834.468 8      2585.433          49.000
G18  21324525.914 8 112061208.860 8     -2228.758          51.000    21324525.820 7  87320384.563 7     -1736.694          46.000
G20  21498957.930 8 112977814.229 8      1831.910          50.000    21498956.781 7  88034670.395 7      1427.466          44.000
G21  21682468.695 7 113942216.273 7     -1985.176          47.000    21682466.812 7  88786089.333 7     -1546.890          44.000
G26  20570103.734 8 108096623.669 8     -1350.391          51.000    20570106.664 8  84231134.093 8     -1052.255          51.000
R08  23102589.609 5 123713226.642 5     -1098.312          34.000    23102592.539 4  96221442.589 4      -854.237          29.000
R14  21450396.422 7 114342690.803 7     -3943.074          47.000    21450401.953 8  88933211.424 8     -3066.839          48.000
R15  19871111.297 5 106185171.360 5      -371.422          35.000    19871113.867 6  82588473.907 6      -288.881          36.000
R18  22646939.820 5 120890973.278 5      2921.266          35.000    22646960.633 5  94026339.904 5      2272.095          35.000
R24  20734481.961 6 110876555.556 6     -2402.469          37.000
C05  39612597.516 5 206273189.657 5         2.379          34.000
C12  21910345.227 8 114093043.314 8      -959.098          51.000    21910343.422 8  88223989.924 8      -741.668          51.000
C21  25031855.320 7 130347463.534 7      2761.113          46.000
C25  23405279.828 7 121877489.295 7     -1407.344          43.000
E13  25891816.258 7 136062427.324 7      2185.434          44.000    25891820.164 7 104255647.320 7      1674.580          46.000
E15  23059479.766 8 121178465.008 8       169.707          51.000    23059482.703 8  92851049.505 8       130.011          51.000
E27  23662349.031 8 124346484.607 8      -340.738          51.000    23662352.117 8  95278481.339 8      -261.124          51.000
E30  24314345.492 7 127772738.175 7     -2807.043          47.000    24314349.852 8  97903788.596 8     -2150.947          51.000
> 2020 05 06 14 58  0.0000000  0 19        .000000000000
G10  23391000.484 8 122920596.405 8      3313.707          51.000    23391004.547 8  95782287.622 8      2582.115          50.000
G18  21337268.750 8 112128172.327 8     -2238.148          51.000    21337268.820 7  87372563.870 7     -1744.012          45.000
G20  21488534.023 8 112923034.918 8      1817.285          51.000    21488532.352 7  87991985.264 7      1416.066          44.000
G21  21693811.758 8 114001824.337 8     -1991.516          48.000    21693810.227 7  88832537.176 7     -1551.827          44.000
G26  20577849.727 8 108137329.569 8     -1366.035          51.000    20577852.680 8  84262852.954 8     -1064.443          51.000
R08  23108798.219 5 123746476.460 5     -1121.461          30.000    23108801.289 4  96247303.656 4      -872.244          25.000
R14  21472609.414 7 114461105.214 7     -3954.195          45.000    21472616.227 7  89025311.519 7     -3075.485          46.000
R15  19873257.328 5 106196659.924 5      -397.547          35.000    19873261.664 5  82597423.289 5      -309.203          35.000
R24  20747965.508 6 110948662.457 6     -2407.770          36.000
C05  39612571.344 5 206273052.814 5         4.258          34.000
C11  22898370.016 5 119237825.256 5      1561.359          32.000
C12  21915877.469 8 114121852.578 8      -964.277          51.000    21915875.953 8  88246267.066 8      -745.659          51.000
C21  25015952.320 7 130264657.622 7      2756.652          46.000
C24  25465868.156 5 132607448.763 5     -3334.746          31.000
C25  23413420.539 7 121919873.998 7     -1420.863          44.000
E13  25879342.711 7 135996878.575 7      2181.598          43.000    25879346.414 7 104205421.677 7      1671.766          46.000
E15  23058522.266 8 121173433.032 8       163.027          51.000    23058525.352 8  92847193.849 8       124.887          51.000
E27  23664322.891 8 124356857.349 8      -353.484          51.000    23664325.820 8  95286429.252 8      -270.867          51.000
E30  24330379.008 8 127856991.594 8     -2812.523          49.000    24330383.883 8  97968346.379 8     -2155.071          51.000
> 2020 05 06 14 58 30.0000000  0 17        .000000000000
G10  23372112.758 8 122821342.464 8      3305.266          51.000    23372114.703 8  95704947.046 8      2575.535          51.000
G18  21350090.219 8 112195549.313 8     -2251.531          50.000    21350090.219 7  87425065.408 7     -1754.437          45.000
G20  21478218.812 8 112868826.456 8      1798.656          51.000    21478216.906 7  87949744.950 7      1401.550          45.000
G21  21705214.938 8 114061747.997 8     -2001.559          50.000    21705213.320 7  88879230.919 7     -1559.659          44.000
G26  20585709.750 8 108178634.107 8     -1385.590          51.000    20585712.719 8  84295038.306 8     -1079.680          51.000
R14  21494911.086 7 114579983.407 7     -3969.152          47.000    21494917.383 7  89117772.296 7     -3087.122          45.000
R15  19875585.281 6 106209077.611 6      -427.863          38.000    19875584.680 5  82607081.513 5      -332.776          35.000
R24  20761503.844 6 111021056.316 6     -2416.473          38.000
C05  39612561.547 5 206273001.728 5         1.254          34.000
C11  22889403.695 4 119191133.992 4      1551.961          29.000    22889395.672 5  92166152.603 5      1200.591          32.000
C12  21921464.875 8 114150948.736 8      -973.469          51.000    21921463.648 8  88268766.053 8      -752.733          51.000
C21  25000101.484 7 130182120.389 7      2747.977          46.000
C25  23421663.164 7 121962792.481 7     -1438.289          43.000
E13  25866914.977 7 135931572.497 7      2174.012          42.000    25866919.266 7 104155382.012 7      1665.771          45.000
E15  23057627.422 8 121168730.437 8       152.465          51.000    23057630.430 8  92843590.558 8       116.833          51.000
E27  23666394.289 8 124367741.810 8      -370.211          51.000    23666396.922 8  95294769.277 8      -283.632          51.000
E30  24346468.586 8 127941536.686 8     -2821.852          51.000    24346473.508 8  98033127.648 8     -2162.219          51.000
> 2020 05 06 14 59  0.0000000  0 18        .000000000000
G10  23353255.672 8 122722247.262 8      3302.844          51.000    23353256.891 8  95627730.104 8      2573.648          51.000
G18  21362969.109 8 112263228.792 8     -2258.652          50.000    21362968.938 7  87477802.646 7     -1759.992          45.000
G20  21467991.844 8 112815082.128 8      1785.996          51.000    21467989.852 7  87907866.299 7      1391.688          45.000
G21  21716657.102 8 114121876.100 8     -2005.379          49.000    21716655.172 7  88926083.966 7     -1562.633          45.000
G26  20593662.898 8 108220427.584 8     -1398.980          51.000    20593665.977 8  84327604.642 8     -1090.115          51.000
G27  21941621.719 5 115304008.802 5      2324.043          32.000
R14  21517278.938 8 114699210.927 8     -3977.758          48.000    21517284.477 7  89210504.708 7     -3093.815          44.000
R15  19878060.953 5 106222303.172 5      -451.695          34.000    19878061.664 6  82617368.100 6      -351.319          36.000
R18  22597845.547 5 120628806.407 5      2904.336          34.000
C05  39612547.531 5 206272929.429 5         4.656          34.000
C11  22880480.461 4 119144637.646 4      1550.414          28.000    22880463.047 5  92130183.401 5      1198.386          34.000
C12  21927086.695 8 114180223.432 8      -976.508          51.000    21927085.711 8  88291403.115 8      -755.167          51.000
C21  24984282.469 7 130099746.410 7      2745.375          47.000
C25  23429986.016 7 122006135.372 7     -1449.508          43.000
E13  25854512.977 7 135866400.460 7      2172.445          43.000    25854517.586 7 104105445.001 7      1664.658          45.000
E15  23056774.406 8 121164247.715 8       148.074          51.000    23056777.211 8  92840155.749 8       113.436          51.000
E27  23668542.492 8 124379029.206 8      -380.727          51.000    23668544.703 8  95303418.058 8      -291.779          51.000
E30  24362592.516 8 128026263.094 8     -2824.895          51.000    24362597.438 8  98098047.837 8     -2164.589          51.000
> 2020 05 06 14 59 30.0000000  0 18        .000000000000
G10  23334431.008 8 122623322.127 8      3292.656          49.000    23334432.578 8  95550645.631 8      2565.706          49.000
G18  21375906.797 8 112331216.857 8     -2273.371          49.000    21375906.789 7  87530780.371 7     -1771.458          45.000
G20  21457854.930 8 112761812.111 8      1765.883          50.000    21457852.953 7  87866357.220 7      1376.013          46.000
G21  21728139.383 8 114182215.333 8     -2016.820          49.000    21728137.641 7  88973101.550 7     -1571.548          46.000
G26  20601710.344 8 108262717.441 8     -1419.879          51.000    20601713.422 8  84360557.751 8     -1106.399          51.000
R14  21539712.789 7 114818791.714 7     -3993.711          47.000    21539717.156 6  89303511.879 6     -3106.223          41.000
R15  19880686.852 6 106236344.750 6      -484.078          38.000    19880688.875 5  82628289.251 5      -376.505          34.000
R18  22581560.578 5 120541844.010 5      2893.453          35.000    22581602.219 4  93754917.611 4      2250.467          27.000
R24  20788681.984 6 111166458.410 6     -2429.980          36.000    20788687.180 4  86462782.254 4     -1889.988          28.000
C05  39612530.594 5 206272840.524 5         1.434          34.000
C11                                                                  22871562.031 5  92094344.982 5      1191.224          33.000
C12  21932744.281 8 114209684.289 8      -986.977          51.000    21932743.477 8  88314184.142 8      -763.262          51.000
C21  24968497.188 7 130017546.396 7      2735.145          47.000
C25  23438392.383 7 122049909.303 7     -1468.102          42.000
E13  25842138.594 7 135801370.839 7      2163.316          45.000    25842142.781 7 104055617.099 7      1657.630          44.000
E15  23055964.641 8 121159992.463 8       136.156          51.000    23055967.453 8  92836895.233 8       104.319          51.000
E27  23670768.781 8 124390727.866 8      -398.723          51.000    23670770.742 8  95312381.961 8      -305.497          51.000
E30  24378751.992 8 128111177.521 8     -2835.469          51.000    24378756.758 8  98163112.101 8     -2172.653          51.000
