     3.02           OBSERVATION DATA    M (MIXED)           RINEX VERSION / TYPE
SAVERINEX           SC600               20200515 065930 LCL PGM / RUN BY / DATE
       G = GPS       R = GLONASS       C = COMPASS          COMMENT
       S = SBAS      J = QZSS          E = GALILEO          COMMENT
BEAN                                                        MARKER NAME
1                                                           MARKER NUMBER
GEODETIC                                                    MARKER TYPE
Unige DICCA         GTER                                    OBSERVER / AGENCY
SC60291900056       SC600               2.12(191202)        REC # / TYPE / VERS
                    HEMA45          NONE                    ANT # / TYPE
  4509407.8091   693652.4678  4442337.6214                  APPROX POSITION XYZ
        0.0000        0.0000        0.0000                  ANTENNA: DELTA H/E/N
G    8 C1C L1C D1C S1C C2Y L2Y D2Y S2Y                      SYS / # / OBS TYPES
R    8 C1C L1C D1C S1C C2P L2P D2P S2P                      SYS / # / OBS TYPES
C    8 C1I L1I D1I S1I C7I L7I D7I S7I                      SYS / # / OBS TYPES
E    8 C1C L1C D1C S1C C7Q L7Q D7Q S7Q                      SYS / # / OBS TYPES
DBHZ                                                        COMMENT
     30.000                                                 INTERVAL
  2020    05    15    04    00    0.0000000     GPS         TIME OF FIRST OBS
  2020    05    15    04    59   30.0000000     GPS         TIME OF LAST OBS
     0                                                      RCV CLOCK OFFS APPL
G L1C  0.00000                                              SYS / PHASE SHIFT
G L2Y  0.00000                                              SYS / PHASE SHIFT
R L1C  0.00000                                              SYS / PHASE SHIFT
R L2P  0.25000                                              SYS / PHASE SHIFT
C L1I  0.00000                                              SYS / PHASE SHIFT
C L7I  0.00000                                              SYS / PHASE SHIFT
E L1C  0.50000                                              SYS / PHASE SHIFT
E L7Q -0.25000                                              SYS / PHASE SHIFT
 14 R01  1 R05  1 R06 -4 R07  5 R08  6 R09 -2 R10 -7 R11  0 GLONASS SLOT / FRQ #
    R12 -1 R16 -1 R19  3 R20  2 R21  4 R22 -3               GLONASS SLOT / FRQ #
 C1C   71.950 C2C   71.950 C2P   71.950                     GLONASS COD/PHS/BIS
    18                                                      LEAP SECONDS
*** Above antenna height is from mark to ANTENNA BOTTOM.    COMMENT
    17     4        0.0000        ANT MEASURE TYPE/HEIGT    COMMENT
    0.0000    0.0000    0.0458    0.0405    0.0000          COMMENT
                    BASE STATION                            COMMENT
                                                            END OF HEADER
> 2020 05 15 04 00  0.0000000  0 14        .000000000000
G05  21787645.898 8 114494834.337 8     -2675.223          51.000    21787643.977 8  89216761.793 8     -2084.589          51.000
G13  20387251.461 5 107135730.399 5      1032.129          34.000    20387248.633 5  83482366.857 5       804.268          33.000
G28  20911598.211 8 109891216.727 8       470.652          49.000    20911597.023 7  85629531.164 7       366.742          46.000
R07  23224658.602 6 124323399.549 6     -4111.152          40.000    23224666.906 5  96696012.268 5     -3197.566          32.000
R08  19661338.531 7 105285585.615 7     -1822.535          45.000    19661343.320 8  81888795.041 8     -1417.527          48.000
R10  19761651.336 6 105340705.989 6     -2092.363          40.000
R11  20044955.742 8 107114152.457 8      2219.195          51.000    20044958.555 7  83311017.395 7      1726.044          47.000
C05  39801101.789 6 207254780.472 6        16.254          36.000    39801100.180 6 160262525.413 6        12.263          40.000
C23  22078995.883 8 114971204.943 8     -1008.938          51.000
C25  25359364.242 5 132052863.423 5     -2912.805          30.000
E02  23878535.938 8 125482619.180 8     -1062.949          51.000    23878536.461 8  96149006.997 8      -814.483          48.000
E03  27624653.203 6 145168501.267 6     -2707.863          37.000    27624657.180 7 111233003.351 7     -2074.922          45.000
E08  21868865.516 8 114921648.880 8     -1201.371          51.000    21868864.398 8  88056868.747 8      -920.597          51.000
E30  22819832.352 8 119919003.138 8      1767.066          51.000    22819835.492 8  91886022.621 8      1354.001          51.000
> 2020 05 15 04 00 30.0000000  0 14        .000000000000
G05  21803016.719 8 114575605.526 8     -2699.113          51.000    21803013.406 8  89279700.323 8     -2103.205          51.000
G13  20381454.344 5 107105267.861 5      1009.785          32.000    20381451.289 4  83458635.812 4       786.849          28.000
G28  20909024.484 8 109877690.340 8       441.234          50.000    20909023.367 7  85618991.142 7       343.819          45.000
G30  21569909.492 5 113350657.076 5     -2134.957          31.000    21569908.953 4  88325176.745 4     -1663.600          29.000
R07  23247775.031 6 124447158.579 6     -4128.785          37.000    23247784.047 5  96792269.283 5     -3211.274          30.000
R08  19671669.805 8 105340906.906 8     -1854.875          48.000    19671674.211 8  81931822.712 8     -1442.681          49.000
R10  19773534.836 6 105404052.041 6     -2119.980          41.000
R11  20032608.312 8 107048172.781 8      2190.020          51.000    20032610.391 7  83259699.924 7      1703.352          47.000
C05  39801069.086 6 207254610.125 6         5.625          36.000    39801067.445 6 160262393.643 6         4.449          40.000
C23  22084900.531 8 115001952.335 8     -1030.512          51.000
E02  23884697.305 8 125514996.965 8     -1085.188          51.000    23884697.398 7  96173815.930 7      -831.501          47.000
E03  27640181.586 6 145250107.162 6     -2722.188          38.000    27640187.445 7 111295532.500 7     -2085.787          45.000
E08  21875812.023 8 114958152.696 8     -1221.777          51.000    21875810.484 8  88084839.188 8      -936.200          51.000
E30  22809835.984 8 119866472.584 8      1745.289          51.000    22809838.984 8  91845771.937 8      1337.338          51.000
> 2020 05 15 04 01  0.0000000  0 12        .000000000000
G05  21818433.430 8 114656618.533 8     -2704.934          51.000    21818429.414 8  89342827.276 8     -2107.744          51.000
G28  20906528.062 8 109864570.097 8       430.102          51.000    20906526.352 7  85608767.589 7       335.144          45.000
R07  23270897.805 5 124570968.144 5     -4127.777          30.000    23270907.617 5  96888565.729 5     -3210.487          30.000
R08  19682092.219 8 105396711.814 8     -1868.691          50.000    19682095.609 8  81975226.502 8     -1453.427          49.000
R10  19785482.461 6 105467740.797 6     -2129.148          39.000
R11  20020335.078 8 106982589.465 8      2178.887          51.000    20020336.852 7  83208690.690 7      1694.687          47.000
C05  39801006.469 6 207254285.195 6        12.941          36.000    39801004.906 6 160262141.623 6        10.013          40.000
C23  22090839.367 8 115032876.474 8     -1034.188          51.000
E02  23890895.180 8 125547566.353 8     -1089.262          51.000    23890894.922 7  96198771.695 7      -834.659          47.000
E03  27655700.609 6 145331662.670 6     -2717.922          40.000    27655707.055 7 111358023.084 7     -2082.692          44.000
E08  21882784.531 8 114994793.157 8     -1224.055          51.000    21882783.016 8  88112914.320 8      -937.945          51.000
E30  22799874.273 8 119814120.846 8      1741.605          51.000    22799876.586 8  91805658.263 8      1334.522          51.000
> 2020 05 15 04 01 30.0000000  0 14        .000000000000
G05  21833917.047 8 114737984.639 8     -2719.668          51.000    21833913.055 8  89406229.380 8     -2119.222          51.000
G13  20369994.438 5 107045032.574 5       992.418          34.000    20369990.391 5  83411703.867 5       773.313          30.000
G28  20904130.727 8 109851970.544 8       409.672          51.000    20904128.406 7  85598949.771 7       319.225          46.000
G30  21594309.578 5 113478859.596 5     -2145.219          33.000    21594308.555 5  88425079.293 5     -1671.599          34.000
R07  23294046.008 5 124694863.965 5     -4136.762          32.000    23294059.609 5  96984937.910 5     -3217.478          32.000
R08  19692626.328 8 105453115.676 8     -1891.812          50.000    19692628.633 8  82019096.163 8     -1471.413          49.000
R10  19797515.555 6 105531884.580 6     -2147.410          41.000
R11  20008158.008 8 106917519.115 8      2158.766          51.000    20008160.133 7  83158080.393 7      1679.037          47.000
C05  39800935.727 6 207253916.636 6        11.172          36.000    39800934.086 6 160261856.597 6         8.896          40.000
C23  22096833.344 8 115064089.008 8     -1046.863          51.000
E02  23897150.906 8 125580440.087 8     -1102.496          51.000    23897150.578 7  96223960.652 7      -844.728          46.000
E03  27671232.055 6 145413281.243 6     -2723.191          41.000    27671238.344 7 111420561.979 7     -2086.544          44.000
E08  21889804.531 8 115031684.252 8     -1235.512          51.000    21889803.117 8  88141181.482 8      -946.646          51.000
E30  22789968.609 8 119762062.455 8      1728.785          51.000    22789969.906 8  91765769.373 8      1324.624          51.000
> 2020 05 15 04 02  0.0000000  0 14        .000000000000
G05  21849480.859 8 114819773.836 8     -2732.180          50.000    21849477.508 8  89469961.182 8     -2128.971          50.000
G13  20364368.195 6 107015458.936 6       980.582          37.000    20364364.031 5  83388664.468 5       764.087          35.000
G28  20901846.258 8 109839964.425 8       391.441          51.000    20901844.023 7  85589594.382 7       305.019          47.000
G30  21606577.641 5 113543328.058 5     -2152.664          34.000    21606578.234 5  88475314.467 5     -1677.401          33.000
R07  23317252.984 6 124819073.751 6     -4143.484          38.000    23317263.727 5  97081545.523 5     -3222.710          34.000
R08  19703285.531 8 105510191.470 8     -1912.609          50.000    19703287.227 8  82063488.429 8     -1487.585          48.000
R10  19809647.562 7 105596553.863 7     -2163.418          42.000
R11  19996091.422 8 106853036.937 8      2140.699          51.000    19996093.453 8  83107927.560 8      1664.988          48.000
C05  39800870.641 6 207253577.556 6        12.215          36.000    39800868.984 6 160261594.393 6         9.198          40.000
C23  22102895.805 8 115095660.750 8     -1057.359          51.000
E02  23903478.148 8 125613689.746 8     -1113.453          51.000    23903477.781 7  96249437.655 7      -853.061          46.000
E03  27686789.102 6 145495034.925 6     -2726.309          41.000    27686794.953 7 111483204.370 7     -2088.876          44.000
E08  21896886.164 8 115068898.818 8     -1244.766          51.000    21896884.758 8  88169696.499 8      -953.752          51.000
E30  22780132.531 8 119710370.842 8      1718.043          51.000    22780133.055 8  91726161.525 8      1316.393          51.000
> 2020 05 15 04 02 30.0000000  0 14        .000000000000
G05  21865116.211 8 114901941.309 8     -2745.395          49.000    21865114.203 8  89533987.783 8     -2139.268          49.000
G13  20358805.859 6 106986227.377 6       968.301          39.000    20358799.523 5  83365886.614 5       754.520          35.000
G28  20899666.500 8 109828509.056 8       372.477          51.000    20899664.195 7  85580668.132 7       290.241          46.000
G30  21618886.617 5 113608014.325 5     -2159.793          34.000    21618888.766 5  88525719.352 5     -1682.956          35.000
R07  23340499.055 6 124943473.104 6     -4150.105          40.000    23340503.141 5  97178300.476 5     -3227.866          32.000
R08  19714061.266 8 105567894.324 8     -1934.066          48.000    19714062.961 7  82108368.414 7     -1504.274          47.000
R10  19821869.219 7 105661701.643 7     -2179.652          42.000
R11  19984126.633 8 106789100.158 8      2121.789          51.000    19984128.555 8  83058198.974 8      1650.283          48.000
C05  39800803.070 6 207253225.618 6        11.414          36.000    39800801.438 6 160261322.207 6         9.140          40.000
C23  22109019.516 8 115127548.003 8     -1068.469          51.000
E02  23909868.562 8 125647271.237 8     -1125.156          51.000    23909867.898 7  96275168.922 7      -862.112          45.000
E03  27702363.430 7 145576880.145 7     -2730.027          42.000    27702368.625 7 111545916.944 7     -2091.758          43.000
E08  21904021.477 8 115106394.011 8     -1254.762          51.000    21904020.141 8  88198426.547 8      -961.420          51.000
E30  22770357.945 8 119659003.774 8      1706.586          51.000    22770358.141 8  91686802.357 8      1307.647          51.000
> 2020 05 15 04 03  0.0000000  0 15        .000000000000
G05  21880816.641 8 114984452.040 8     -2754.066          50.000    21880816.422 8  89598281.889 8     -2146.026          49.000
G13  20353302.234 6 106957307.421 6       960.770          38.000    20353296.328 5  83343351.622 5       748.655          35.000
G28  20897585.414 8 109817572.426 8       357.840          51.000    20897583.094 7  85572146.093 7       278.836          47.000
G30  21631231.031 6 113672885.095 6     -2163.547          36.000    21631233.367 6  88576268.059 6     -1685.878          36.000
R07  23363771.180 6 125068026.841 6     -4152.285          40.000    23363768.969 4  97275175.560 4     -3229.555          28.000
R08  19724947.211 7 105626190.878 7     -1951.043          47.000    19724949.461 7  82153710.158 7     -1517.481          47.000
R09  22629413.867 5 120839741.558 5     -3842.387          33.000    22629415.930 6  93986441.465 6     -2988.526          36.000
R10  19834174.297 7 105727292.838 7     -2191.766          42.000
R11  19972257.703 8 106725677.485 8      2107.535          51.000    19972259.531 7  83008870.241 7      1639.191          47.000
C05  39800726.883 6 207252828.931 6        16.250          36.000    39800725.289 6 160261015.475 6        12.146          40.000
C23  22115197.367 8 115159717.812 8     -1075.078          51.000
E02  23916315.711 8 125681151.292 8     -1132.320          51.000    23916314.523 7  96301128.980 7      -867.640          45.000
E03  27717949.203 6 145658784.378 6     -2729.148          40.000    27717953.781 7 111608674.744 7     -2091.043          44.000
E08  21911204.180 8 115144137.883 8     -1260.336          51.000    21911202.820 8  88227347.160 8      -965.721          51.000
E30  22760638.852 8 119607929.843 8      1699.520          51.000    22760639.141 8  91647667.802 8      1302.238          50.000
> 2020 05 15 04 03 30.0000000  0 16        .000000000000
G05  21896596.352 8 115067376.759 8     -2771.926          51.000    21896597.273 8  89662898.571 8     -2159.939          51.000
G07  24219025.633 5 127271840.737 5     -2858.531          30.000    24219026.977 5  99172865.169 5     -2227.427          32.000
G13  20347871.953 6 106928773.156 6       943.613          39.000    20347867.266 5  83321117.137 5       735.280          35.000
G28  20895616.922 8 109807227.727 8       334.055          51.000    20895615.016 8  85564085.303 8       260.305          48.000
G30  21643624.656 5 113738011.947 5     -2175.508          32.000    21643626.469 5  88627016.328 5     -1695.195          30.000
R07  23387083.023 6 125192806.921 6     -4164.020          39.000    23387077.469 4  97372220.685 4     -3238.685          29.000
R08  19735957.664 8 105685154.022 8     -1977.406          48.000    19735960.695 7  82199570.330 7     -1537.983          46.000
R09  22651031.422 6 120955174.217 6     -3851.141          37.000    22651031.891 5  94076222.426 5     -2995.332          34.000
R10  19846575.719 7 105793398.281 7     -2212.898          42.000
R11  19960499.062 8 106662843.856 8      2083.672          51.000    19960500.414 7  82959999.636 7      1620.634          47.000
C05  39800656.031 6 207252460.034 6        10.953          36.000    39800654.469 6 160260730.175 6         8.500          40.000
C23  22121442.953 8 115192241.186 8     -1090.879          51.000
E02  23922833.312 8 125715401.678 8     -1148.688          51.000    23922832.242 7  96327372.780 7      -880.169          45.000
E03  27733559.836 6 145740819.824 6     -2737.496          40.000    27733564.227 7 111671533.072 7     -2097.601          44.000
E08  21918447.914 8 115182203.384 8     -1275.074          51.000    21918446.688 8  88256514.215 8      -977.002          51.000
E30  22750989.484 8 119557222.628 8      1683.285          51.000    22750990.031 8  91608814.247 8      1289.787          50.000
> 2020 05 15 04 04  0.0000000  0 15        .000000000000
G05  21912451.805 8 115150696.367 8     -2783.781          51.000    21912453.023 8  89727822.953 8     -2169.180          51.000
G13  20342512.359 6 106900608.976 6       932.762          40.000    20342507.930 5  83299171.048 5       726.830          33.000
G28  20893757.867 8 109797458.380 8       316.223          51.000    20893756.469 8  85556472.850 8       246.407          48.000
G30  21656063.516 5 113803377.327 5     -2182.570          35.000    21656064.297 5  88677950.351 5     -1700.707          33.000
R07  23410433.016 6 125317793.981 6     -4169.426          38.000    23410427.805 5  97469432.702 5     -3242.896          34.000
R08  19747089.688 8 105744766.100 8     -1997.691          49.000    19747092.703 7  82245935.237 7     -1553.760          46.000
R09  22672670.977 6 121070726.308 6     -3853.633          37.000    22672671.219 5  94166096.282 5     -2997.270          33.000
R10  19859070.109 7 105859997.196 7     -2227.961          42.000
R11  19948847.758 8 106600583.320 8      2066.012          51.000    19948849.672 8  82911574.811 8      1606.898          48.000
C05  39800587.312 6 207252102.449 6        11.656          36.000    39800585.812 6 160260453.658 6         9.101          40.000
C23  22127753.305 8 115225100.435 8     -1100.637          51.000
E02  23929417.969 8 125750004.601 8     -1159.098          51.000    23929417.617 7  96353886.700 7      -888.128          44.000
E03  27749192.453 6 145822969.319 6     -2740.117          38.000    27749196.984 7 111734478.783 7     -2099.534          44.000
E08  21925749.484 8 115220574.016 8     -1283.938          51.000    21925748.422 8  88285915.085 8      -983.826          51.000
E30  22741406.828 8 119506866.197 8      1672.805          51.000    22741407.672 8  91570229.467 8      1281.822          50.000
> 2020 05 15 04 04 30.0000000  0 15        .000000000000
G05  21928379.117 8 115234392.460 8     -2795.586          51.000    21928380.016 8  89793040.688 8     -2178.379          51.000
G13  20337220.461 6 106872800.395 6       921.668          40.000    20337216.648 6  83277502.019 6       718.183          39.000
G28  20892005.336 8 109788248.792 8       298.148          51.000    20892004.125 8  85549296.532 8       232.323          48.000
G30  21668544.406 6 113868963.962 6     -2189.387          38.000    21668544.398 6  88729056.811 6     -1706.013          38.000
R07  23433818.578 6 125442969.423 6     -4175.035          38.000    23433813.727 5  97566791.235 5     -3247.253          34.000
R08  19758339.695 8 105805010.262 8     -2018.141          49.000    19758342.469 7  82292791.759 7     -1569.668          46.000
R09  22694329.141 6 121186378.845 6     -3856.258          37.000    22694330.344 5  94256048.256 5     -2999.315          33.000
R10  19871652.883 6 105927071.532 6     -2243.035          40.000
R11  19937300.648 8 106538880.838 8      2047.891          51.000    19937303.680 8  82863584.014 8      1592.804          49.000
C05  39800517.805 6 207251740.618 6        12.184          36.000    39800516.281 6 160260173.824 6         9.581          40.000
C23  22134124.820 8 115258278.762 8     -1110.754          51.000
E02  23936066.508 8 125784943.092 8     -1169.703          50.000    23936066.367 7  96380657.762 7      -896.230          44.000
E03  27764843.594 6 145905216.454 6     -2742.613          39.000    27764848.680 7 111797499.270 7     -2101.552          45.000
E08  21933106.000 8 115259234.057 8     -1293.000          51.000    21933105.391 8  88315537.710 8      -990.719          51.000
E30  22731887.820 8 119456845.395 8      1662.301          51.000    22731889.023 8  91531901.847 8      1273.693          51.000
> 2020 05 15 04 05  0.0000000  0 15        .000000000000
G05  21944377.914 8 115318464.386 8     -2808.781          51.000    21944378.180 8  89858551.259 8     -2188.661          51.000
G13  20331997.211 7 106845351.390 7       908.816          42.000    20331994.172 6  83256113.141 6       708.169          39.000
G28  20890359.602 8 109779601.503 8       278.719          50.000    20890358.500 8  85542558.384 8       217.183          49.000
G30  21681067.438 6 113934773.215 6     -2197.453          39.000    21681067.258 6  88780336.719 6     -1712.301          39.000
R07  23457239.281 6 125568333.320 6     -4181.867          38.000    23457234.273 5  97664296.397 5     -3252.563          32.000
R08  19769708.438 7 105865887.549 7     -2039.953          47.000    19769710.617 7  82340140.719 7     -1586.630          46.000
R09  22716005.352 6 121302131.961 6     -3860.141          36.000    22716007.914 5  94346078.386 5     -3002.335          35.000
R10  19884325.562 6 105994620.475 6     -2259.574          40.000
R11  19925858.547 8 106477739.999 8      2028.469          51.000    19925862.391 8  82816030.049 8      1577.698          49.000
C05  39800447.992 6 207251376.112 6        12.023          36.000    39800446.508 6 160259892.734 6         9.536          40.000
C23  22140557.812 8 115291777.402 8     -1121.969          51.000
E02  23942779.242 8 125820218.480 8     -1181.512          50.000    23942779.047 7  96407686.941 7      -905.233          45.000
E03  27780514.344 6 145987563.078 6     -2746.328          39.000    27780519.445 7 111860596.042 7     -2104.461          45.000
E08  21940518.164 8 115298186.127 8     -1303.285          51.000    21940517.969 8  88345384.090 8      -998.591          51.000
E30  22722432.945 8 119407163.368 8      1650.398          49.000    22722434.641 8  91493833.815 8      1264.561          51.000
> 2020 05 15 04 05 30.0000000  0 15        .000000000000
G05  21960448.672 8 115402914.768 8     -2821.031          51.000    21960448.078 8  89924356.716 8     -2198.209          51.000
G13  20326843.461 7 106818267.127 7       897.012          42.000    20326840.461 6  83235008.521 6       698.970          37.000
G28  20888821.852 8 109771521.121 8       260.215          50.000    20888821.062 8  85536261.975 8       202.765          49.000
G30  21693633.172 5 114000807.963 5     -2204.848          35.000    21693632.945 5  88831792.428 5     -1718.060          35.000
R07  23480694.062 6 125693887.437 6     -4187.848          37.000    23480689.867 4  97761949.539 4     -3257.215          28.000
R08  19781196.305 7 105927401.319 7     -2060.777          47.000    19781197.531 7  82387984.766 7     -1602.827          46.000
R09  22737700.867 6 121417986.957 6     -3862.977          38.000    22737704.344 6  94436187.757 6     -3004.540          37.000
R10  19897086.570 6 106062644.889 6     -2275.145          40.000
R11  19914523.367 8 106417165.994 8      2010.008          51.000    19914526.805 8  82768916.938 8      1563.339          48.000
C05  39800378.734 6 207251016.277 6        12.309          36.000    39800377.234 6 160259613.688 6         9.463          40.000
C23  22147052.984 8 115325599.334 8     -1132.438          51.000
E02  23949556.625 8 125855833.785 8     -1192.602          50.000    23949556.656 7  96434976.590 7      -913.776          45.000
E03  27796204.719 6 146070012.827 6     -2749.879          40.000    27796209.578 7 111923771.758 7     -2106.927          44.000
E08  21947986.875 8 115337434.499 8     -1312.941          51.000    21947986.586 8  88375457.519 8     -1006.029          51.000
E30  22713043.633 8 119357824.962 8      1639.121          49.000    22713045.570 8  91456029.077 8      1255.944          51.000
> 2020 05 15 04 06  0.0000000  0 16        .000000000000
G05  21976587.867 8 115487724.896 8     -2836.094          51.000    21976586.188 8  89990442.485 8     -2209.943          51.000
G13  20321756.125 7 106791533.029 7       882.086          44.000    20321753.172 6  83214176.759 6       687.340          37.000
G15  21619548.312 5 113611492.655 5      2460.605          30.000
G28  20887388.734 8 109763990.802 8       238.734          50.000    20887388.039 8  85530394.182 8       186.027          48.000
G30  21706238.000 5 114067051.162 5     -2214.672          35.000    21706237.438 5  88883410.413 5     -1725.727          35.000
R07  23504179.859 6 125819612.926 6     -4196.625          36.000    23504180.945 4  97859781.711 4     -3264.042          24.000
R08  19792799.930 8 105989534.057 8     -2084.492          48.000    19792800.070 7  82436310.262 7     -1621.272          46.000
R09  22759412.555 5 121533925.148 5     -3869.469          34.000    22759416.336 6  94526361.860 6     -3009.584          37.000
R10  19909933.320 6 106131125.928 6     -2293.461          39.000
R11  19903291.680 8 106357143.502 8      1988.367          51.000    19903293.695 7  82722232.779 7      1546.508          47.000
C05  39800306.891 6 207250642.170 6         9.145          36.000    39800305.398 6 160259324.387 6         7.325          40.000
C23  22153607.078 8 115359727.411 8     -1145.750          51.000
E02  23956395.438 8 125891771.689 8     -1206.465          49.000    23956395.359 7  96462513.420 7      -924.428          46.000
E03  27811911.828 6 146152548.991 6     -2755.770          40.000    27811915.953 7 111987013.723 7     -2111.674          43.000
E08  21955508.977 8 115376963.115 8     -1325.344          51.000    21955508.555 8  88405745.681 8     -1015.559          51.000
E30  22703717.125 8 119308814.728 8      1624.996          49.000    22703719.039 8  91418475.754 8      1245.190          51.000
> 2020 05 15 04 06 30.0000000  0 15        .000000000000
G05  21992801.477 8 115572927.672 8     -2845.199          49.000    21992799.312 8  90056834.235 8     -2217.038          49.000
G13  20316742.469 7 106765185.757 7       873.293          44.000    20316739.664 6  83193646.413 6       680.485          37.000
G28  20886067.211 8 109757046.811 8       223.059          51.000    20886066.359 8  85524983.270 8       173.812          48.000
G30  21718889.586 5 114133537.008 5     -2218.758          34.000    21718889.281 5  88935217.589 5     -1728.896          35.000
R07  23527703.312 5 125945543.526 5     -4199.707          35.000    23527706.742 5  97957731.199 5     -3266.439          30.000
R08  19804525.133 8 106052320.936 8     -2102.398          49.000    19804524.586 7  82485144.477 7     -1635.199          46.000
R09  22781145.977 5 121649979.986 5     -3869.004          34.000    22781149.852 6  94616626.655 6     -3009.228          37.000
R10  19922871.453 6 106200095.669 6     -2305.695          38.000
R11  19892170.133 8 106297709.466 8      1972.754          51.000    19892170.969 8  82676006.317 8      1534.364          48.000
C05  39800239.328 6 207250290.261 6        13.371          36.000    39800237.852 6 160259052.286 6         9.799          40.000
C23  22160226.508 8 115394195.753 8     -1153.160          51.000
E02  23963302.156 8 125928066.695 8     -1214.262          48.000    23963302.023 7  96490323.877 7      -930.492          46.000
E03  27827641.922 6 146235206.643 6     -2755.832          41.000    27827644.852 6 112050348.744 6     -2111.647          41.000
E08  21963091.133 8 115416807.735 8     -1331.969          51.000    21963090.797 8  88436275.975 8     -1020.605          51.000
E30  22694460.117 8 119260168.929 8      1616.957          50.000    22694462.133 8  91381201.662 8      1238.940          51.000
> 2020 05 15 04 07  0.0000000  0 15        .000000000000
G05  22009082.047 7 115658485.326 7     -2858.367          47.000    22009080.352 8  90123502.527 8     -2227.299          48.000
G13  20311795.617 7 106739190.911 7       860.254          43.000    20311793.141 6  83173390.690 6       670.328          38.000
G28  20884850.656 8 109750653.311 8       203.426          50.000    20884849.625 8  85520001.320 8       158.514          49.000
G30  21731580.547 6 114200228.743 6     -2226.777          38.000    21731580.430 6  88987185.184 6     -1735.148          37.000
R07  23551258.211 5 126071640.251 5     -4206.680          33.000    23551261.273 5  98055806.432 5     -3271.862          32.000
R08  19816365.266 8 106115724.328 8     -2124.172          50.000    19816364.570 7  82534458.179 7     -1652.134          46.000
R09  22802894.141 5 121766112.678 5     -3873.332          31.000    22802898.039 5  94706952.019 5     -3012.595          35.000
R10  19935894.539 6 106269515.629 6     -2321.879          40.000
R11  19881151.922 8 106238828.633 8      1952.930          51.000    19881152.289 8  82630210.113 8      1518.945          48.000
C05  39800169.234 6 207249924.394 6        11.750          36.000    39800167.797 6 160258770.099 6         9.255          40.000
C23  22166904.219 8 115428967.838 8     -1164.645          51.000
E02  23970269.641 8 125964681.961 8     -1226.145          49.000    23970269.852 7  96518379.722 7      -939.564          46.000
E03  27843388.086 6 146317949.532 6     -2759.871          41.000    27843388.188 6 112113749.088 6     -2114.808          37.000
E08  21970726.430 8 115456932.779 8     -1342.574          51.000    21970726.516 8  88467021.127 8     -1028.729          51.000
E30  22685266.000 8 119211852.539 8      1604.602          51.000    22685268.203 8  91344179.978 8      1229.524          51.000
> 2020 05 15 04 07 30.0000000  0 14        .000000000000
G05  22025434.820 7 115744425.085 7     -2869.559          46.000    22025434.375 7  90190468.585 7     -2236.020          46.000
G13  20306921.719 7 106713580.121 7       848.914          43.000    20306919.820 6  83153434.238 6       661.495          39.000
G28  20883744.477 8 109744840.157 8       185.664          50.000    20883743.492 8  85515471.595 8       144.673          49.000
G30  21744316.344 6 114267155.458 6     -2233.227          39.000    21744316.289 6  89039335.861 6     -1740.173          38.000
R08  19828325.969 8 106179774.043 8     -2144.156          49.000    19828325.453 7  82584274.598 7     -1667.677          47.000
R09  22824662.344 5 121882422.386 5     -3874.730          30.000    22824666.219 5  94797359.874 5     -3013.679          33.000
R10  19949007.164 6 106339413.062 6     -2336.180          39.000
R11  19870242.797 8 106180532.259 8      1934.898          51.000    19870243.141 8  82584868.469 8      1504.921          49.000
C05  39800102.375 6 207249577.466 6        13.164          36.000    39800100.953 6 160258501.059 6         9.968          40.000
C23  22173645.859 8 115464072.338 8     -1174.227          51.000
E02  23977303.680 8 126001646.491 8     -1236.465          49.000    23977304.016 7  96546703.174 7      -947.316          47.000
E03  27859155.477 7 146400807.210 7     -2762.336          42.000    27859150.445 5 112177237.276 5     -2116.329          33.000
E08  21978421.039 8 115497368.458 8     -1351.477          51.000    21978421.148 8  88498004.299 8     -1035.523          51.000
E30  22676140.594 8 119163896.289 8      1594.043          51.000    22676142.969 8  91307434.264 8      1221.430          51.000
> 2020 05 15 04 08  0.0000000  0 13        .000000000000
G05  22041866.102 7 115830776.585 7     -2881.910          47.000    22041866.891 7  90257755.482 7     -2245.644          47.000
G13  20302127.320 7 106688386.595 7       836.223          44.000    20302126.312 6  83133802.916 6       651.602          38.000
G28  20882754.930 8 109739639.724 8       166.371          50.000    20882753.867 8  85511419.302 8       129.640          49.000
G30  21757102.898 6 114334347.979 6     -2240.930          39.000    21757103.211 6  89091693.658 6     -1746.179          38.000
R08  19840413.469 8 106244501.280 8     -2165.535          50.000    19840413.188 8  82634617.988 8     -1684.305          48.000
R10  19962214.117 6 106409817.362 6     -2351.707          37.000
R11  19859448.664 8 106122854.282 8      1915.742          51.000    19859449.922 8  82540007.816 8      1490.022          49.000
C05                                                                  39800043.547 6 160258269.825 6         9.590          40.000
C23  22180457.188 8 115499539.832 8     -1184.992          51.000
E02  23984410.172 8 126038991.121 8     -1247.914          48.000    23984410.453 7  96575317.878 7      -956.098          47.000
E03  27874950.289 7 146483811.004 7     -2765.891          43.000    27874941.820 5 112240837.418 5     -2119.424          33.000
E08  21986181.188 8 115538146.863 8     -1361.742          51.000    21986180.914 8  88529250.094 8     -1043.392          51.000
E30  22667090.055 8 119116332.881 8      1582.102          51.000    22667092.391 8  91270989.576 8      1212.299          51.000
> 2020 05 15 04 08 30.0000000  0 15        .000000000000
G05  22058348.117 8 115917391.357 8     -2896.500          48.000    22058349.352 8  90325247.527 8     -2257.013          48.000
G13  20297384.836 7 106663465.685 7       821.254          43.000    20297384.477 6  83114384.021 6       639.938          40.000
G15  21549931.953 5 113245656.143 5      2412.395          32.000
G28  20881853.898 8 109734906.167 8       144.965          48.000    20881853.164 8  85507730.827 8       112.963          48.000
G30  21769912.312 6 114401659.112 6     -2250.457          38.000    21769913.383 6  89144143.859 6     -1753.603          38.000
R08  19852599.742 8 106309756.213 8     -2189.043          49.000    19852599.633 8  82685371.833 8     -1702.589          49.000
R09  22868235.547 4 122115100.962 4     -3884.109          29.000    22868232.055 4  94978396.986 4     -3020.974          26.000
R10  19975488.516 6 106480577.675 6     -2369.570          37.000
R11  19848741.953 8 106065646.675 8      1893.906          50.000    19848744.391 8  82495512.995 8      1473.038          48.000
C05  39799969.195 6 207248883.855 6         9.496          36.000    39799967.758 6 160257964.656 6         7.642          40.000
C23  22187310.148 8 115535224.499 8     -1198.031          51.000
E02  23991560.930 7 126076568.689 7     -1261.367          47.000    23991561.188 7  96604111.092 7      -966.544          47.000
E03  27890745.180 7 146566814.491 7     -2771.727          43.000    27890739.305 6 112304437.401 6     -2123.901          37.000
E08  21993978.820 8 115579122.148 8     -1374.125          51.000    21993978.328 8  88560646.737 8     -1052.871          51.000
E30  22658086.438 8 119069016.983 8      1568.043          51.000    22658088.625 8  91234734.567 8      1201.478          51.000
> 2020 05 15 04 09  0.0000000  0 14        .000000000000
G05  22074891.445 8 116004325.935 8     -2902.344          49.000    22074892.531 8  90392988.762 8     -2261.567          49.000
G13  20292705.828 7 106638877.782 7       814.930          44.000    20292705.203 6  83095224.634 6       635.013          39.000
G28  20881052.953 8 109730698.589 8       132.297          48.000    20881052.438 8  85504452.180 8       103.088          48.000
G30  21782755.367 5 114469146.959 5     -2251.660          35.000    21782756.523 5  89196731.740 5     -1754.543          34.000
R08  19864895.391 8 106375597.375 8     -2203.598          50.000    19864895.562 8  82736581.623 8     -1713.909          49.000
R09  22890042.828 5 122231517.203 5     -3880.180          33.000    22890044.711 4  95068966.622 4     -3017.914          29.000
R10  19988840.438 6 106551750.489 6     -2378.430          40.000
R11  19838135.227 8 106008970.691 8      1881.141          51.000    19838137.695 7  82451431.704 7      1463.112          47.000
C05  39799886.367 5 207248452.351 5        15.758          35.000    39799884.945 6 160257630.986 6        12.158          40.000
C23  22194215.703 8 115571183.761 8     -1202.316          51.000
E02  23998767.039 7 126114437.190 7     -1266.324          47.000    23998767.297 7  96633127.214 7      -970.315          47.000
E03  27906551.469 7 146649876.144 7     -2768.832          43.000    27906550.609 6 112368081.933 6     -2121.632          41.000
E08  22001824.859 8 115620353.523 8     -1377.820          51.000    22001824.422 8  88592239.591 8     -1055.750          51.000
E30  22649141.172 8 119022008.314 8      1562.656          51.000    22649143.055 8  91198714.974 8      1197.363          51.000
> 2020 05 15 04 09 30.0000000  0 14        .000000000000
G05  22091507.469 8 116091641.446 8     -2916.695          50.000    22091507.969 8  90461026.823 8     -2272.750          50.000
G13  20288102.477 7 106614687.504 7       799.656          45.000    20288101.289 7  83076375.045 7       623.109          42.000
G28  20880364.234 8 109727079.948 8       111.051          48.000    20880363.672 7  85501632.434 7        86.533          47.000
G30  21795643.641 6 114536873.731 6     -2261.027          36.000    21795645.414 6  89249505.822 6     -1761.839          36.000
R08  19877312.398 8 106442088.748 8     -2227.086          51.000    19877312.461 8  82788297.138 8     -1732.178          48.000
R09  22911862.820 5 122348024.158 5     -3885.055          34.000    22911863.414 4  95159583.169 4     -3021.706          29.000
R10  20002281.516 6 106623397.549 6     -2396.324          38.000
R11  19827640.398 8 105952891.445 8      1859.430          50.000    19827643.000 8  82407814.558 8      1446.226          48.000
C05  39799808.539 6 207248046.968 6        13.289          36.000    39799807.062 6 160257317.508 6        10.324          40.000
C23  22201185.922 8 115607479.257 8     -1215.281          51.000
E02  24006040.391 8 126152658.844 8     -1279.816          48.000    24006040.969 8  96662413.922 8      -980.645          48.000
E03  27922380.750 6 146733058.888 6     -2774.859          41.000    27922384.000 7 112431819.278 7     -2126.002          43.000
E08  22009731.742 8 115661904.421 8     -1390.227          51.000    22009731.109 8  88624077.273 8     -1065.277          51.000
E30  22640266.477 8 118975370.937 8      1548.445          51.000    22640268.156 8  91162979.858 8      1186.504          51.000
> 2020 05 15 04 10  0.0000000  0 13        .000000000000
G05  22108189.961 8 116179305.946 8     -2928.863          50.000    22108189.609 8  90529336.806 8     -2282.231          50.000
G13  20283569.547 7 106590866.865 7       787.039          45.000    20283568.203 7  83057813.496 7       613.277          42.000
G28  20879782.172 8 109724021.035 8        91.664          48.000    20879781.625 8  85499248.839 8        71.427          48.000
G30  21808571.211 6 114604808.907 6     -2268.910          38.000    21808573.594 6  89302442.333 6     -1767.982          36.000
R08  19889844.938 8 106509199.120 8     -2248.297          51.000    19889844.992 8  82840494.074 8     -1748.675          48.000
R09  22933696.773 5 122464603.249 5     -3888.652          34.000    22933696.172 5  95250255.827 5     -3024.507          30.000
R10  20015804.898 6 106695485.313 6     -2411.609          39.000
R11  19817251.961 8 105897379.714 8      1840.027          50.000    19817255.492 8  82364638.756 8      1431.132          50.000
C05  39799730.156 6 207247638.704 6        12.586          36.000    39799728.703 6 160257001.810 6         9.868          40.000
C23  22208214.969 8 115644080.728 8     -1226.043          51.000
E02  24013375.094 7 126191203.048 7     -1291.082          46.000    24013376.094 8  96691947.801 8      -989.271          48.000
E08  22017693.875 8 115703745.548 8     -1400.484          51.000    22017693.023 8  88656137.325 8     -1073.068          51.000
E30  22631456.805 8 118929076.006 8      1536.527          51.000    22631458.367 8  91127507.119 8      1177.342          51.000
> 2020 05 15 04 10 30.0000000  0 13        .000000000000
G05  22124943.117 8 116267341.492 8     -2939.926          50.000    22124941.719 8  90597935.905 8     -2290.851          51.000
G13  20279112.023 7 106567441.769 7       774.922          46.000    20279110.523 6  83039560.170 6       603.832          41.000
G28  20879311.617 8 109721546.039 8        73.559          49.000    20879310.367 8  85497320.243 8        57.318          49.000
G30  21821543.031 5 114672976.109 5     -2275.973          35.000    21821545.812 5  89355559.611 5     -1773.491          35.000
R08  19902496.898 8 106576952.003 8     -2268.309          50.000    19902497.648 8  82893190.706 8     -1764.243          48.000
R09  22955547.078 5 122581277.372 5     -3890.355          34.000    22955546.086 5  95341002.371 5     -3025.835          32.000
R10  20029415.445 6 106768036.119 6     -2425.355          41.000
R11  19806974.977 8 105842461.639 8      1821.477          51.000    19806978.742 8  82321924.690 8      1416.704          49.000
C05  39799655.820 6 207247252.138 6        13.285          36.000    39799654.438 6 160256702.876 6        10.270          40.000
C23  22215307.133 8 115681011.419 8     -1235.746          51.000
E02  24020775.578 7 126230093.303 7     -1301.215          46.000    24020776.648 8  96721746.841 8      -997.071          48.000
E08  22025715.828 8 115745901.609 8     -1409.605          51.000    22025714.711 8  88688438.674 8     -1080.123          51.000
E30  22622717.375 8 118883148.852 8      1525.539          51.000    22622718.570 8  91092316.172 8      1168.943          51.000
> 2020 05 15 04 11  0.0000000  0 13        .000000000000
G05  22141763.281 8 116355729.438 8     -2951.676          51.000    22141761.086 8  90666809.610 8     -2300.007          51.000
G13  20274726.828 7 106544397.251 7       762.164          46.000    20274725.250 7  83021603.395 7       593.891          43.000
G28  20878949.148 8 109719639.444 8        54.551          50.000    20878947.508 8  85495834.584 8        42.510          48.000
G30  21834555.516 5 114741358.066 5     -2282.773          35.000    21834558.953 5  89408844.299 5     -1778.775          35.000
R08  19915265.680 8 106645329.936 8     -2289.223          48.000    19915266.594 7  82946373.498 7     -1780.510          47.000
R09  22977409.977 5 122698027.583 5     -3892.906          32.000    22977410.258 5  95431808.102 5     -3027.816          31.000
R10  20043108.648 6 106841030.641 6     -2439.934          40.000
R11  19796806.305 8 105788121.753 8      1802.098          51.000    19796809.531 8  82279660.320 8      1401.632          48.000
C05  39799582.773 6 207246871.629 6        12.730          36.000    39799581.336 6 160256408.605 6        10.043          40.000
C23  22222459.273 8 115718254.215 8     -1246.207          51.000
E02  24028238.961 7 126269312.459 7     -1312.340          47.000    24028239.523 8  96751797.855 8     -1005.595          48.000
E08  22033794.539 8 115788356.645 8     -1419.727          51.000    22033793.234 8  88720969.105 8     -1087.896          51.000
E30  22614045.172 8 118837574.007 8      1513.699          51.000    22614045.930 8  91057395.170 8      1159.871          51.000
> 2020 05 15 04 11 30.0000000  0 12        .000000000000
G05  22158641.414 8 116444422.713 8     -2959.859          51.000    22158639.008 8  90735921.232 8     -2306.384          51.000
G13  20270405.914 7 106521690.119 7       752.930          45.000    20270404.398 7  83003909.530 7       586.698          44.000
G28  20878686.164 8 109718256.128 8        39.035          50.000    20878684.508 8  85494756.678 8        30.417          48.000
R08  19928142.125 7 106714285.754 7     -2306.531          44.000    19928143.453 7  83000005.797 7     -1793.969          47.000
R09  22999278.750 5 122814806.117 5     -3891.863          33.000    22999278.891 5  95522635.789 5     -3027.008          30.000
R10  20056876.625 6 106914420.649 6     -2451.152          41.000
R11  19786737.227 8 105734314.969 8      1786.305          51.000    19786739.469 8  82237810.605 8      1389.348          48.000
C05  39799502.414 6 207246452.976 6        16.277          36.000    39799500.938 6 160256084.901 6        12.273          40.000
C23  22229662.617 8 115755763.815 8     -1253.105          51.000
E02  24035756.148 7 126308814.607 7     -1319.773          45.000    24035756.719 8  96782065.732 8     -1011.291          48.000
E08  22041921.484 8 115831066.035 8     -1426.199          51.000    22041920.539 8  88753694.436 8     -1092.733          51.000
E30  22605431.609 8 118792307.422 8      1505.422          51.000    22605432.141 8  91022710.366 8      1153.508          51.000
> 2020 05 15 04 12  0.0000000  0 12        .000000000000
G05  22175589.719 8 116533486.453 8     -2974.324          51.000    22175587.805 8  90805321.545 8     -2317.655          50.000
G13  20266162.141 7 106499389.347 7       737.270          45.000    20266160.844 7  82986532.289 7       574.496          43.000
G28  20878535.539 8 109717463.577 8        17.312          50.000    20878533.617 8  85494139.114 8        13.490          48.000
R08  19941138.375 7 106783887.493 7     -2330.105          44.000    19941141.000 7  83054140.543 7     -1812.304          47.000
R09  23021165.547 5 122931679.510 5     -3896.793          32.000    23021164.344 4  95613537.258 4     -3030.839          26.000
R10  20070730.594 6 106988271.738 6     -2468.219          38.000
R11  19776780.883 8 105681111.268 8      1764.148          51.000    19776783.016 8  82196429.964 8      1372.118          49.000
C05  39799427.609 5 207246063.591 5        12.859          35.000    39799426.195 6 160255783.760 6        10.188          40.000
C23  22236929.867 8 115793606.160 8     -1266.145          51.000
E02  24043339.688 7 126348666.350 7     -1333.441          46.000    24043340.867 8  96812601.490 8     -1021.686          49.000
E08  22050109.414 8 115874097.614 8     -1438.945          49.000    22050109.414 8  88786666.689 8     -1102.598          51.000
E30  22596889.555 8 118747417.418 8      1490.836          51.000    22596890.133 8  90988314.120 8      1142.314          51.000
> 2020 05 15 04 12 30.0000000  0 11        .000000000000
G05  22192629.578 8 116623034.374 8     -2988.750          49.000    22192628.695 8  90875099.148 8     -2328.896          49.000
G13  20262017.969 7 106477612.519 7       721.320          45.000    20262016.836 7  82969563.328 7       562.068          44.000
G28  20878519.258 8 109717378.050 8        -4.707          51.000    20878517.047 7  85494072.479 7        -3.668          47.000
R08  19954278.359 8 106854252.274 8     -2353.836          48.000    19954280.984 7  83108868.724 7     -1830.761          46.000
R10  20084693.039 6 107062698.978 6     -2486.301          41.000
R11  19766959.797 8 105628629.622 8      1741.688          51.000    19766962.242 8  82155610.901 8      1354.646          50.000
C05  39799380.648 6 207245818.844 6         9.648          36.000    39799379.188 6 160255594.499 6         7.500          40.000
C23  22244282.625 8 115831895.349 8     -1279.562          51.000
E02  24051011.633 7 126388982.895 7     -1347.426          46.000    24051013.148 8  96843493.380 8     -1032.482          48.000
E08  22058380.773 8 115917567.778 8     -1452.023          50.000    22058382.008 8  88819975.010 8     -1112.634          51.000
E30  22588441.188 8 118703020.923 8      1475.918          51.000    22588441.953 8  90954296.018 8      1130.862          51.000
> 2020 05 15 04 13  0.0000000  0 12        .000000000000
G05  22209699.641 8 116712741.422 8     -2996.316          50.000    22209699.320 8  90945000.776 8     -2334.792          50.000
G13  20257912.562 7 106456038.633 7       712.426          46.000    20257911.430 7  82952752.496 7       555.137          44.000
G28  20878576.250 8 109717677.027 8       -19.809          51.000    20878573.516 7  85494305.440 7       -15.435          46.000
R01  19336336.750 6 103363800.187 6      1054.754          36.000    19336338.492 5  80394077.405 5       820.364          32.000
R08  19967499.555 8 106925049.974 8     -2370.605          49.000    19967501.758 7  83163933.556 7     -1843.804          43.000
R10  20098701.867 6 107137372.033 6     -2496.641          39.000
R11  19757212.078 8 105576542.759 8      1726.297          51.000    19757215.703 8  82115098.893 8      1342.675          50.000
C05  39799300.094 5 207245399.655 5        13.453          35.000    39799298.648 6 160255270.341 6        10.367          40.000
C23  22251659.656 8 115870310.898 8     -1286.016          51.000
E02  24058710.516 7 126429440.769 7     -1354.293          44.000    24058711.609 8  96874493.544 8     -1037.690          49.000
E08  22066675.047 8 115961154.377 8     -1458.227          51.000    22066677.055 8  88853372.522 8     -1117.321          51.000
E30  22580025.430 8 118658796.254 8      1467.934          51.000    22580026.383 8  90920409.573 8      1124.774          51.000
> 2020 05 15 04 13 30.0000000  0 13        .000000000000
G05  22226814.148 8 116802678.801 8     -3007.336          51.000    22226813.258 8  91015081.834 8     -2343.379          51.000
G13  20253860.070 7 106434742.255 7       699.477          47.000    20253859.008 7  82936157.904 7       545.047          44.000
G28  20878720.219 8 109718433.314 8       -38.652          50.000    20878717.289 7  85494894.768 7       -30.119          47.000
R01  19330457.938 6 103332379.224 6      1032.020          36.000    19330462.523 5  80369638.887 5       802.679          33.000
R08  19980815.586 8 106996353.631 8     -2390.965          50.000    19980816.516 6  83219391.858 6     -1859.642          41.000
R09  23086886.453 5 123282662.914 5     -3902.621          33.000    23086887.273 4  95886536.969 4     -3035.378          26.000
R10  20112769.719 6 107212362.231 6     -2510.715          37.000
R11  19747552.547 8 105524925.716 8      1706.930          51.000    19747556.672 8  82074952.300 8      1327.612          50.000
C05  39799200.000 6 207244877.568 6        13.398          36.000    39799198.617 6 160254867.372 6        10.472          40.000
C23  22259075.000 8 115908923.994 8     -1296.102          51.000
E02  24066449.945 7 126470111.739 7     -1364.941          43.000    24066450.641 8  96905657.006 8     -1045.768          49.000
E08  22075006.070 8 116004930.364 8     -1467.938          51.000    22075008.000 8  88886915.152 8     -1124.819          51.000
E30  22571656.242 8 118614816.936 8      1456.277          51.000    22571657.531 8  90886711.126 8      1115.846          51.000
> 2020 05 15 04 14  0.0000000  0 13        .000000000000
G05  22244021.914 8 116893104.367 8     -3020.086          51.000    22244019.523 8  91085543.268 8     -2353.314          51.000
G13  20249910.281 7 106413985.258 7       685.117          46.000    20249909.195 7  82919983.608 7       533.858          45.000
G28  20879000.742 8 109719907.431 8       -58.828          50.000    20878997.719 7  85496043.437 7       -45.837          47.000
R01  19324738.484 6 103301808.771 6      1007.191          39.000    19324743.531 5  80345861.864 5       783.374          33.000
R08  19994275.875 8 107068427.858 8     -2412.934          49.000    19994275.836 7  83275449.480 7     -1876.729          43.000
R09  23108821.227 4 123399795.425 4     -3905.508          29.000    23108821.336 4  95977633.967 4     -3037.620          26.000
R10  20126946.438 6 107287930.735 6     -2526.801          39.000
R11  19738031.422 8 105474044.442 8      1686.031          51.000    19738035.242 8  82035377.991 8      1311.358          51.000
C05  39799130.039 6 207244512.940 6        11.809          36.000    39799128.656 6 160254585.415 6         9.189          40.000
C23  22266577.625 8 115947991.804 8     -1307.645          51.000
E02  24074279.133 7 126511255.382 7     -1376.949          44.000    24074280.148 8  96937182.643 8     -1055.062          49.000
E08  22083422.961 8 116049156.514 8     -1479.383          51.000    22083424.195 8  88920802.708 8     -1133.538          51.000
E30  22563383.211 8 118571344.250 8      1442.930          51.000    22563385.180 8  90853400.870 8      1105.645          51.000
> 2020 05 15 04 14 30.0000000  0 13        .000000000000
G05  22261282.977 8 116983809.918 8     -3028.910          51.000    22261279.570 8  91156222.876 8     -2360.193          51.000
G13  20246024.172 7 106393563.235 7       674.250          47.000    20246023.008 7  82904070.334 7       525.390          45.000
G28  20879378.547 8 109721893.436 8       -75.469          49.000    20879375.602 7  85497590.978 7       -58.810          47.000
R01  19319139.961 6 103271882.024 6       985.996          39.000    19319145.078 5  80322585.499 5       766.886          34.000
R08  20007840.188 8 107141060.962 8     -2431.270          48.000    20007840.219 7  83331941.872 7     -1890.987          46.000
R09  23130758.594 5 123516950.969 5     -3905.332          31.000    23130757.883 4  96068740.107 4     -3037.487          26.000
R10  20141191.648 5 107363865.978 5     -2538.059          34.000
R11  19728608.875 8 105423690.197 8      1668.859          51.000    19728612.586 8  81996213.597 8      1298.002          50.000
C05  39799050.969 6 207244102.322 6        13.961          36.000    39799049.648 6 160254267.112 6        10.753          40.000
C23  22274128.094 8 115987309.396 8     -1315.480          51.000
E02  24082158.945 7 126552664.895 7     -1385.316          43.000    24082160.203 8  96968911.973 8     -1061.467          49.000
E08  22091886.180 8 116093627.234 8     -1487.086          51.000    22091886.773 8  88954877.663 8     -1139.438          51.000
E30  22555167.516 8 118528173.097 8      1433.465          51.000    22555170.156 8  90820321.673 8      1098.324          51.000
> 2020 05 15 04 15  0.0000000  0 13        .000000000000
G05  22278635.703 8 117074997.759 8     -3038.074          51.000    22278632.219 8  91227278.321 8     -2367.331          51.000
G13  20242240.938 7 106373682.056 7       663.219          47.000    20242239.719 7  82888578.487 7       516.794          45.000
G28  20879892.492 8 109724595.777 8       -92.484          48.000    20879890.070 7  85499696.723 7       -72.066          47.000
R01  19313701.266 6 103242809.629 6       964.527          40.000    19313706.664 5  80299973.623 5       750.188          35.000
R08  20021547.125 7 107214460.414 7     -2449.664          47.000    20021547.438 8  83389030.373 8     -1905.294          48.000
R10  20155543.812 6 107440373.014 6     -2550.398          36.000
R11  19719324.031 8 105374071.812 8      1651.340          51.000    19719326.992 8  81957621.522 8      1284.375          49.000
R12  23249746.273 6 124195965.574 6      3830.246          36.000    23249749.195 5  96596874.226 5      2979.077          34.000
C05  39799001.906 6 207243845.744 6        15.777          36.000    39799000.539 6 160254069.459 6        11.907          40.000
C23  22281765.281 8 116027078.462 8     -1323.738          51.000
E02  24090128.102 7 126594543.769 7     -1394.262          43.000    24090129.250 8  97001000.952 8     -1068.336          49.000
E08  22100434.453 8 116138547.244 8     -1495.297          51.000    22100434.883 8  88989296.866 8     -1145.738          51.000
E30  22547048.492 8 118485508.744 8      1423.203          51.000    22547051.336 8  90787630.803 8      1090.521          51.000
> 2020 05 15 04 15 30.0000000  0 13        .000000000000
G05  22296012.812 8 117166314.662 8     -3050.992          51.000    22296009.828 8  91298434.345 8     -2377.397          51.000
G13  20238494.234 8 106353992.515 8       648.125          48.000    20238492.664 7  82873235.973 7       505.032          45.000
G28  20880476.164 8 109727663.889 8      -113.234          49.000    20880473.781 7  85502087.454 7       -88.238          47.000
R01  19308356.305 6 103214237.621 6       939.051          40.000    19308361.305 5  80277750.915 5       730.373          35.000
R08  20035330.102 8 107288267.604 8     -2472.031          49.000    20035330.797 8  83446435.980 8     -1922.691          49.000
R10  20169936.219 5 107517092.888 5     -2566.324          34.000
R11  19710110.266 8 105324833.575 8      1629.852          51.000    19710112.078 8  81919325.118 8      1267.662          49.000
R12  23228257.211 6 124081185.415 6      3820.387          37.000    23228262.180 6  96507600.694 6      2971.409          37.000
C05  39798916.172 6 207243400.140 6        13.160          36.000    39798914.789 6 160253724.121 6        10.065          40.000
C23  22289422.312 8 116066950.704 8     -1335.625          51.000
E02  24098119.727 7 126636540.444 7     -1406.672          43.000    24098120.820 8  97033180.202 8     -1077.917          50.000
E08  22109001.141 8 116183566.222 8     -1507.172          51.000    22109001.695 8  89023791.903 8     -1154.840          51.000
E30  22538959.516 8 118443001.370 8      1409.410          51.000    22538962.383 8  90755060.212 8      1079.941          51.000
> 2020 05 15 04 16  0.0000000  0 13        .000000000000
G05  22313461.188 8 117258007.269 8     -3060.902          50.000    22313458.922 8  91369883.136 8     -2385.119          50.000
G13  20234831.648 8 106334745.396 8       635.852          48.000    20234829.938 7  82858238.227 7       495.469          46.000
G28  20881177.008 8 109731346.668 8      -131.312          49.000    20881174.398 7  85504957.120 7      -102.321          47.000
R01  19303152.781 6 103186421.835 6       916.281          40.000    19303157.094 5  80256116.408 5       712.660          35.000
R08  20049236.938 8 107362735.391 8     -2491.480          51.000    20049237.312 8  83504355.382 8     -1937.815          48.000
R10  20184415.414 6 107594275.176 6     -2578.949          37.000
R11  19701014.750 8 105276229.634 8      1611.359          51.000    19701015.766 8  81881522.083 8      1253.283          49.000
R12  23206819.531 5 123966686.615 5      3813.730          32.000    23206828.500 6  96418546.019 6      2966.232          38.000
C05  39798841.211 6 207243009.699 6        13.703          36.000    39798839.836 6 160253422.166 6        10.587          40.000
C23  22297146.414 8 116107171.851 8     -1344.762          51.000
E02  24106180.953 7 126678902.935 7     -1416.441          43.000    24106182.266 8  97065639.745 8     -1085.391          50.000
E08  22117633.742 8 116228933.343 8     -1516.301          51.000    22117634.461 8  89058553.710 8     -1161.901          51.000
E30  22530948.062 8 118400900.659 8      1398.230          51.000    22530950.844 8  90722801.225 8      1071.353          51.000
> 2020 05 15 04 16 30.0000000  0 13        .000000000000
G05  22330968.820 8 117350011.560 8     -3071.504          49.000    22330967.281 8  91441574.781 8     -2393.380          49.000
G13  20231241.609 8 106315880.122 8       622.918          48.000    20231240.031 7  82843537.997 7       485.388          46.000
G28  20881982.945 8 109735581.844 8      -149.980          49.000    20881980.477 8  85508257.267 8      -116.865          48.000
R01  19298079.438 6 103159302.091 6       892.840          41.000    19298083.180 5  80235023.265 5       694.428          35.000
R08  20063254.703 8 107437798.585 8     -2511.469          51.000    20063254.617 7  83562737.846 7     -1953.365          47.000
R10  20198969.469 6 107671854.954 6     -2591.902          36.000
R11  19692025.789 8 105228197.471 8      1592.047          51.000    19692026.766 8  81844163.739 8      1238.259          49.000
R12  23185421.539 5 123852366.830 5      3805.719          32.000    23185434.633 6  96329663.299 6      2960.007          38.000
C05  39798765.266 5 207242614.402 5        13.910          35.000    39798763.938 6 160253116.492 6        10.717          40.000
C23  22304925.523 8 116147679.656 8     -1354.582          51.000
E02  24114299.805 7 126721568.327 7     -1426.801          42.000    24114301.570 8  97098331.397 8     -1093.314          51.000
E08  22126320.859 8 116274586.939 8     -1526.203          50.000    22126321.430 8  89093535.036 8     -1169.425          51.000
E30  22523002.484 8 118359145.430 8      1386.527          51.000    22523004.742 8  90690806.959 8      1062.371          51.000
> 2020 05 15 04 17  0.0000000  0 13        .000000000000
G05  22348532.109 8 117442308.285 8     -3081.594          50.000    22348530.930 8  91513494.276 8     -2401.245          50.000
G13  20227721.305 8 106297381.319 8       610.309          49.000    20227719.641 7  82829123.338 7       475.565          46.000
G28  20882890.875 8 109740352.654 8      -168.133          51.000    20882888.297 8  85511974.762 8      -131.013          48.000
R01  19293133.297 6 103132863.392 6       869.875          41.000    19293137.062 6  80214459.841 6       676.569          36.000
R08  20077379.672 8 107513439.063 8     -2531.121          51.000    20077379.477 7  83621569.263 7     -1968.650          45.000
R10  20213594.078 6 107749812.019 6     -2605.230          36.000
R11  19683141.203 8 105180720.997 8      1573.078          51.000    19683141.664 8  81807237.563 8      1223.505          48.000
R12  23164065.820 5 123738294.898 5      3798.375          34.000    23164078.500 6  96240940.580 6      2954.289          38.000
C05  39798685.352 6 207242198.101 6        13.844          36.000    39798684.039 6 160252794.548 6        10.820          40.000
C23  22312756.156 8 116188456.462 8     -1363.910          51.000
E02  24122472.852 7 126764518.822 7     -1436.766          43.000    24122475.188 8  97131241.507 8     -1100.794          51.000
E08  22135059.445 8 116320510.406 8     -1535.402          50.000    22135059.961 8  89128723.138 8     -1176.504          51.000
E30  22515119.891 8 118317719.616 8      1375.195          51.000    22515121.172 8  90659065.090 8      1053.736          51.000
> 2020 05 15 04 17 30.0000000  0 14        .000000000000
G05  22366153.781 8 117534910.447 8     -3089.566          51.000    22366152.172 8  91585651.754 8     -2407.457          51.000
G13  20224273.977 8 106279266.137 8       599.578          48.000    20224272.031 7  82815007.610 7       467.204          46.000
G15  21311495.992 5 111992660.581 5      2225.645          30.000
G28  20883903.664 8 109745674.419 8      -184.477          51.000    20883901.172 8  85516121.588 8      -143.748          49.000
R01  19288317.938 7 103107124.625 7       848.402          42.000    19288322.180 6  80194440.788 6       659.868          37.000
R08  20091615.008 8 107589671.051 8     -2548.691          50.000    20091615.148 7  83680860.739 7     -1982.319          46.000
R10  20228291.672 6 107828159.440 6     -2615.609          37.000
R11  19674363.203 8 105133816.654 8      1556.168          51.000    19674363.414 7  81770756.446 7      1210.353          47.000
R12  23142753.672 5 123624447.158 5      3793.758          35.000    23142763.914 6  96152392.340 6      2950.701          37.000
C05  39798604.398 5 207241776.509 5        16.414          35.000    39798603.078 6 160252468.536 6        12.593          40.000
C23  22320641.305 8 116229516.817 8     -1371.246          51.000
E02  24130703.055 7 126807769.044 7     -1444.574          44.000    24130705.406 8  97164381.270 8     -1106.858          51.000
E08  22143852.672 8 116366719.616 8     -1543.000          51.000    22143853.109 8  89164130.150 8     -1182.248          51.000
E30  22507303.180 8 118276639.531 8      1365.648          51.000    22507303.492 8  90627588.137 8      1046.409          51.000
> 2020 05 15 04 18  0.0000000  0 13        .000000000000
G05  22383835.148 8 117627825.071 8     -3102.266          51.000    22383832.453 8  91658052.687 8     -2417.353          51.000
G13  20220901.711 8 106261545.187 8       584.152          48.000    20220899.633 7  82801199.056 7       455.184          47.000
G28  20885023.008 8 109751556.118 8      -205.340          51.000    20885020.859 8  85520704.723 8      -160.005          50.000
R01  19283636.398 7 103082097.396 7       822.402          43.000    19283640.594 6  80174975.131 6       639.646          37.000
R08  20105962.938 8 107666502.881 8     -2570.957          49.000    20105963.109 7  83740618.814 7     -1999.633          47.000
R10  20243063.891 6 107906903.429 6     -2631.164          37.000
R11  19665694.477 8 105087494.680 8      1534.418          51.000    19665695.031 8  81734728.242 8      1193.436          48.000
R12  23121486.766 6 123510835.390 6      3783.301          37.000    23121493.703 6  96064027.639 6      2942.570          37.000
C05  39798524.188 6 207241359.404 6        13.898          36.000    39798522.930 6 160252146.002 6        10.681          40.000
C23  22328582.539 8 116270869.066 8     -1383.172          51.000
E02  24138991.836 7 126851327.361 7     -1456.953          45.000    24138994.055 8  97197757.105 8     -1116.439          51.000
E08  22152702.516 8 116413224.060 8     -1555.047          51.000    22152702.617 8  89199763.399 8     -1191.535          51.000
E30  22499553.844 8 118235915.197 8      1351.602          51.000    22499553.648 8  90596383.788 8      1035.643          51.000
> 2020 05 15 04 18 30.0000000  0 13        .000000000000
G05  22401572.938 8 117721036.555 8     -3111.512          51.000    22401569.312 8  91730684.933 8     -2424.555          51.000
G13  20217602.305 8 106244206.632 8       572.074          49.000    20217600.070 7  82787688.491 7       445.775          47.000
G28  20886246.359 8 109757984.507 8      -222.902          51.000    20886244.391 8  85525713.840 8      -173.690          51.000
R01  19279085.773 7 103057770.491 7       799.633          44.000    19279089.500 6  80156054.193 6       621.937          37.000
R08  20120419.820 8 107743919.043 8     -2589.855          48.000    20120420.148 8  83800831.381 8     -2014.332          48.000
R10  20257907.000 5 107986028.204 5     -2643.535          34.000
R11  19657132.789 8 105041742.037 8      1516.125          51.000    19657134.125 8  81699142.842 8      1179.208          49.000
R12  23100261.273 5 123397447.930 5      3776.148          33.000    23100266.367 6  95975837.458 6      2937.007          37.000
C05  39798442.492 6 207240933.692 6        14.891          36.000    39798441.133 6 160251816.797 6        11.375          40.000
C23  22336577.000 8 116312498.774 8     -1391.812          51.000
E02  24147336.609 7 126895179.159 7     -1466.160          44.000    24147338.891 8  97231357.846 8     -1123.442          51.000
E08  22161606.234 8 116460010.414 8     -1563.812          51.000    22161606.023 8  89235612.659 8     -1198.285          51.000
E30  22491869.367 8 118195533.727 8      1340.707          51.000    22491869.289 8  90565442.163 8      1027.349          51.000
> 2020 05 15 04 19  0.0000000  0 12        .000000000000
G05  22419368.523 8 117814552.946 8     -3121.520          50.000    22419364.906 8  91803554.788 8     -2432.356          49.000
G13  20214377.930 8 106227262.532 8       558.953          49.000    20214375.656 8  82774485.290 8       435.548          48.000
G28  20887575.656 8 109764969.765 8      -241.387          51.000    20887573.734 8  85531156.890 8      -188.094          51.000
R01  19274668.625 7 103034157.239 7       775.887          45.000    19274671.781 6  80137688.338 6       603.467          37.000
R08  20134986.828 7 107821929.266 7     -2609.453          46.000    20134988.227 8  83861506.017 8     -2029.575          49.000
R10  20272824.367 6 108065541.506 6     -2655.918          38.000
R11  19648679.453 8 104996569.897 8      1496.863          51.000    19648681.734 8  81664008.942 8      1164.224          50.000
C05  39798361.375 5 207240510.378 5        14.902          35.000    39798359.891 6 160251489.432 6        11.472          40.000
C23  22344626.539 8 116354415.536 8     -1401.277          51.000
E02  24155739.320 7 126939334.154 7     -1476.199          46.000    24155741.406 8  97265190.887 8     -1131.114          51.000
E08  22170565.602 8 116507089.463 8     -1573.477          51.000    22170565.188 8  89271686.191 8     -1205.612          51.000
E30  22484251.953 8 118155506.468 8      1329.082          51.000    22484252.586 8  90534771.943 8      1018.400          51.000
> 2020 05 15 04 19 30.0000000  0 13        .000000000000
G05  22437218.375 7 117908357.788 7     -3132.895          46.000    22437216.094 7  91876649.438 7     -2441.220          46.000
G13  20211226.258 8 106210700.420 8       544.414          50.000    20211224.258 8  82761579.732 8       424.219          48.000
G28  20889008.211 8 109772497.660 8      -261.219          51.000    20889006.375 8  85537022.770 8      -203.547          50.000
G30  22061556.336 5 115934244.921 5     -2393.930          32.000    22061557.406 5  90338390.206 5     -1865.394          32.000
R01  19270382.625 7 103011245.925 7       750.738          45.000    19270385.672 6  80119868.417 6       583.908          38.000
R08  20149661.516 7 107900517.453 7     -2630.527          45.000    20149664.422 8  83922630.207 8     -2045.963          49.000
R10  20287810.000 6 108145426.144 6     -2670.047          36.000
R11  19640332.234 8 104951965.058 8      1476.082          51.000    19640335.008 8  81629316.269 8      1148.064          50.000
C05  39798277.961 6 207240076.075 6        13.113          36.000    39798276.570 6 160251153.561 6        10.644          39.000
C23  22352728.562 8 116396604.702 8     -1412.152          51.000
E02  24164196.688 8 126983777.431 8     -1487.512          48.000    24164198.414 8  97299244.793 8     -1139.722          51.000
E08  22179577.969 8 116554447.535 8     -1584.531          51.000    22179577.633 8  89307973.523 8     -1214.103          51.000
E30  22476699.203 8 118115820.232 8      1315.906          51.000    22476700.844 8  90504363.017 8      1008.277          51.000
> 2020 05 15 04 20  0.0000000  0 13        .000000000000
G05  22455128.117 7 118002484.038 7     -3142.738          42.000    22455128.516 7  91949994.610 7     -2448.887          43.000
G13  20208154.297 8 106194556.766 8       531.125          50.000    20208152.469 8  82749000.262 8       413.864          49.000
G28  20890550.539 8 109780602.954 8      -279.812          51.000    20890548.781 8  85543338.588 8      -218.036          50.000
R01  19266235.109 7 102989074.330 7       726.676          46.000    19266238.102 6  80102623.841 6       565.189          39.000
R08  20164451.820 8 107979718.201 8     -2650.191          48.000    20164454.492 8  83984230.791 8     -2061.260          48.000
R10  20302872.578 6 108225715.184 6     -2683.008          39.000
R11  19632097.891 8 104907963.553 8      1456.633          51.000    19632100.859 8  81595092.898 8      1132.937          50.000
R12  23036983.750 5 123059423.645 5      3750.801          35.000
C05  39798199.086 6 207239665.884 6        13.195          36.000    39798197.758 6 160250836.396 6        10.197          40.000
C23  22360889.414 8 116439100.006 8     -1421.641          51.000
E02  24172715.281 7 127028543.040 7     -1497.582          47.000    24172716.938 8  97333545.705 8     -1147.480          51.000
E08  22188650.039 8 116602119.882 8     -1594.387          51.000    22188650.055 8  89344501.660 8     -1221.607          51.000
E30  22469218.102 8 118076510.714 8      1303.980          51.000    22469220.570 8  90474242.735 8       999.220          51.000
> 2020 05 15 04 20 30.0000000  0 13        .000000000000
G05  22473092.359 7 118096893.290 7     -3151.836          43.000    22473094.539 7  92023560.341 7     -2455.973          43.000
G13  20205155.453 8 106178797.544 8       518.766          50.000    20205153.664 8  82736720.336 8       404.230          49.000
G28  20892196.023 8 109789250.079 8      -297.387          51.000    20892194.320 8  85550076.591 8      -231.730          50.000
R01  19262219.664 7 102967608.732 7       703.641          46.000    19262222.938 6  80085928.362 6       547.273          39.000
R08  20179350.219 8 108059493.530 8     -2668.789          49.000    20179351.641 7  84046278.269 7     -2075.725          47.000
R10  20318003.422 6 108306370.255 6     -2694.496          37.000
R11  19623969.797 8 104864530.037 8      1438.203          51.000    19623972.891 8  81561311.295 8      1118.602          50.000
R12  23015850.578 6 122946541.424 6      3743.758          36.000    23015836.922 5  95625031.137 5      2911.812          32.000
C05  39798118.195 6 207239245.034 6        14.020          36.000    39798117.008 6 160250510.968 6        10.877          39.000
C23  22369102.031 8 116481865.351 8     -1430.109          51.000
E02  24181288.289 8 127073594.475 8     -1506.535          49.000    24181290.234 8  97368065.636 8     -1154.376          50.000
E08  22197774.883 8 116650071.167 8     -1603.141          51.000    22197775.234 8  89381243.528 8     -1228.333          51.000
E30  22461802.469 8 118037543.069 8      1293.129          51.000    22461805.133 8  90444384.429 8       990.803          51.000
> 2020 05 15 04 21  0.0000000  0 13        .000000000000
G05  22491113.414 7 118191592.635 7     -3160.445          47.000    22491115.367 7  92097352.050 7     -2462.685          47.000
G13  20202231.656 8 106163432.687 8       506.480          51.000    20202229.906 8  82724747.711 8       394.660          49.000
G28  20893946.078 8 109798447.171 8      -314.863          51.000    20893944.477 8  85557243.163 8      -245.348          49.000
R01  19258337.938 7 102946860.493 7       680.551          46.000    19258341.430 6  80069790.841 6       529.317          39.000
R08  20194356.727 8 108139850.784 8     -2687.383          49.000    20194357.680 7  84108778.343 7     -2090.190          46.000
R10  20333203.234 6 108387396.505 6     -2706.059          36.000
R11  19615949.414 8 104821673.892 8      1419.816          51.000    19615952.695 8  81527978.717 8      1104.302          50.000
R12  22994800.914 6 122834115.010 6      3736.477          41.000    22994803.180 6  95537663.905 6      2906.151          36.000
C05                                                                  39798035.820 6 160250184.180 6        11.759          40.000
C23  22377368.109 8 116524908.295 8     -1438.441          51.000
E02  24189917.328 8 127118939.324 8     -1515.426          50.000    24189919.258 8  97402810.369 8     -1161.137          50.000
E08  22206954.219 8 116698310.096 8     -1611.805          51.000    22206954.852 8  89418205.791 8     -1235.040          51.000
E30  22454454.195 8 117998926.510 8      1282.328          51.000    22454456.711 8  90414795.120 8       982.545          51.000
> 2020 05 15 04 21 30.0000000  0 14        .000000000000
G05  22509182.820 8 118286543.300 8     -3169.598          50.000    22509183.523 8  92171339.567 8     -2469.816          50.000
G13  20199376.406 8 106148427.921 8       493.660          51.000    20199374.680 8  82713055.681 8       384.670          49.000
G28  20895793.891 8 109808157.876 8      -332.688          51.000    20895792.281 8  85564809.934 8      -259.237          49.000
G30  22116483.664 5 116222896.968 5     -2416.852          32.000    22116487.328 5  90563294.459 5     -1883.258          30.000
R01  19254584.094 7 102926795.381 7       657.016          47.000    19254587.672 6  80054184.630 6       511.012          40.000
R08  20209463.930 7 108220751.634 7     -2706.180          47.000    20209465.852 7  84171701.180 7     -2104.809          46.000
R10  20348466.477 5 108468754.911 5     -2717.773          35.000
R11  19608030.352 8 104779358.986 8      1400.953          51.000    19608033.594 8  81495067.128 8      1089.630          50.000
R12  22973839.820 7 122722131.628 7      3728.824          43.000    22973838.633 6  95450565.745 6      2900.197          36.000
C05  39797948.836 6 207238363.125 6        15.727          36.000    39797947.609 6 160249829.003 6        11.874          39.000
C23  22385680.594 8 116568192.385 8     -1447.219          51.000
E02  24198595.203 8 127164540.718 8     -1524.738          50.000    24198596.672 8  97437751.685 8     -1168.324          50.000
E08  22216181.477 8 116746801.005 8     -1620.949          51.000    22216182.312 8  89455361.134 8     -1242.014          51.000
E30  22447166.367 8 117960625.859 8      1271.004          51.000    22447168.688 8  90385447.862 8       973.898          51.000
> 2020 05 15 04 22  0.0000000  0 13        .000000000000
G05  22527313.188 8 118381813.277 8     -3180.949          51.000    22527312.031 8  92245575.873 8     -2478.662          51.000
G13  20196603.297 8 106133854.887 8       478.562          51.000    20196601.641 8  82701700.058 8       372.906          50.000
G28  20897752.727 8 109818452.491 8      -352.855          51.000    20897751.125 8  85572831.721 8      -274.952          48.000
R01  19250972.117 7 102907486.894 7       630.977          47.000    19250975.820 6  80039166.924 6       490.757          40.000
R08  20224685.578 7 108302266.201 7     -2727.355          45.000    20224688.281 7  84235101.379 7     -2121.276          45.000
R10  20363804.109 5 108550514.182 5     -2732.172          34.000
R11  19600226.555 8 104737657.366 8      1379.785          51.000    19600229.195 8  81462632.573 8      1073.166          50.000
R12  22952929.852 7 122610428.553 7      3718.961          43.000    22952928.359 6  95363685.616 6      2892.525          37.000
C05  39797866.984 6 207237936.130 6        14.070          36.000    39797865.750 6 160249499.552 6        10.777          40.000
C23  22394052.453 8 116611786.418 8     -1458.262          51.000
E02  24207334.977 8 127210468.024 8     -1536.316          50.000    24207335.945 8  97472942.712 8     -1177.091          50.000
E08  22225469.898 8 116795614.442 8     -1632.398          51.000    22225470.836 8  89492763.612 8     -1250.781          51.000
E30  22439952.070 8 117922712.089 8      1257.430          51.000    22439954.266 8  90356397.053 8       963.488          51.000
> 2020 05 15 04 22 30.0000000  0 14        .000000000000
G05  22545493.281 8 118477344.315 8     -3189.414          51.000    22545490.141 8  92320015.597 8     -2485.261          51.000
G13  20193902.094 8 106119659.594 8       466.176          51.000    20193900.445 8  82690638.785 8       363.254          50.000
G28  20899812.016 8 109829274.746 8      -370.250          51.000    20899810.352 7  85581264.664 7      -288.506          47.000
G30  22144183.664 5 116368438.390 5     -2429.270          35.000
R01  19247491.227 7 102888880.794 7       607.812          47.000    19247495.547 6  80024695.495 6       472.743          41.000
R08  20240010.820 7 108384336.502 7     -2745.488          45.000    20240014.336 7  84298933.829 7     -2135.383          45.000
R10  20379205.914 5 108632615.238 5     -2742.785          32.000
R11  19592527.102 8 104696512.985 8      1361.555          51.000    19592529.430 8  81430631.372 8      1058.984          50.000
R12  22932061.680 7 122498951.392 7      3711.477          43.000    22932061.398 6  95276981.188 6      2886.707          39.000
C05  39797781.078 6 207237489.569 6        15.082          36.000    39797779.836 6 160249153.476 6        11.170          39.000
C23  22402472.992 8 116655634.202 8     -1466.523          51.000
E02  24216125.977 8 127256664.520 8     -1545.086          51.000    24216126.656 8  97508340.001 8     -1183.861          50.000
E08  22234809.172 8 116844694.790 8     -1641.184          51.000    22234810.078 8  89530370.622 8     -1257.497          51.000
E30  22432800.711 8 117885130.115 8      1246.496          51.000    22432803.016 8  90327600.480 8       955.092          51.000
> 2020 05 15 04 23  0.0000000  0 13        .000000000000
G05  22563727.992 8 118573163.270 8     -3198.734          51.000    22563723.234 8  92394679.666 8     -2492.523          51.000
G13  20191278.516 8 106105872.198 8       452.801          51.000    20191276.797 8  82679895.353 8       352.829          50.000
G28  20901977.383 8 109840653.497 8      -388.566          51.000    20901975.578 7  85590131.221 7      -302.776          47.000
R01  19244147.930 8 102871008.836 8       583.590          48.000    19244152.445 6  80010795.077 6       453.903          41.000
R08  20255445.305 7 108466989.939 7     -2764.773          47.000    20255448.570 7  84363219.802 7     -2150.382          44.000
R10  20394677.109 6 108715084.634 6     -2755.141          36.000
R11  19584937.562 8 104655955.991 8      1342.086          51.000    19584939.648 8  81399087.002 8      1043.842          50.000
R12  22911241.211 7 122387731.788 7      3703.078          43.000    22911242.258 6  95190477.079 6      2880.175          40.000
C05  39797696.727 6 207237049.761 6        14.312          36.000    39797695.391 6 160248813.349 6        11.273          40.000
C23  22410947.758 8 116699763.666 8     -1475.645          51.000
E02  24224973.461 8 127303158.262 8     -1554.785          51.000    24224974.109 8  97543965.060 8     -1191.350          50.000
E08  22244204.859 8 116894071.317 8     -1650.863          50.000    22244205.953 8  89568204.573 8     -1264.965          51.000
E30  22425718.164 8 117847909.656 8      1234.621          51.000    22425720.422 8  90299080.903 8       945.987          51.000
> 2020 05 15 04 23 30.0000000  0 13        .000000000000
G05  22582015.297 8 118669260.474 8     -3207.934          51.000    22582009.969 8  92469560.556 8     -2499.689          51.000
G13  20188731.383 8 106092486.842 8       439.453          51.000    20188729.594 8  82669465.186 8       342.431          51.000
G28  20904247.102 8 109852580.765 8      -406.848          51.000    20904245.359 8  85599425.207 8      -317.024          48.000
R01  19240940.844 8 102853865.732 8       559.188          48.000    19240945.586 7  79997461.544 7       434.924          42.000
R08  20270987.633 8 108550217.663 8     -2783.758          48.000    20270990.328 7  84427952.403 7     -2165.148          44.000
R10  20410215.008 5 108797912.516 5     -2766.582          32.000
R11  19577456.641 8 104615979.156 8      1322.746          51.000    19577458.227 8  81367993.913 8      1028.803          49.000
R12  22890467.594 7 122276764.409 7      3694.676          44.000    22890469.227 6  95104169.139 6      2873.637          39.000
C05                                                                  39797611.102 6 160248473.874 6        11.406          40.000
C23  22419474.883 8 116744166.527 8     -1484.742          51.000
E02  24233875.859 8 127349940.822 8     -1564.352          51.000    24233876.328 8  97579811.426 8     -1198.635          50.000
E08  22253655.305 8 116943736.664 8     -1660.340          49.000    22253656.719 8  89606259.864 8     -1272.328          51.000
E30  22418703.008 8 117811043.873 8      1222.809          51.000    22418704.984 8  90270833.086 8       936.951          51.000
> 2020 05 15 04 24  0.0000000  0 13        .000000000000
G05  22600353.602 8 118765629.334 8     -3216.719          50.000    22600348.977 8  92544653.138 8     -2506.534          50.000
G13  20186260.227 8 106079500.772 8       426.156          51.000    20186258.305 8  82659346.158 8       332.070          50.000
G28  20906620.391 8 109865052.093 8      -424.742          51.000    20906618.602 8  85609143.127 8      -330.965          48.000
R01  19237869.617 8 102837449.174 8       535.082          48.000    19237874.500 7  79984693.090 7       416.172          42.000
R08  20286636.781 8 108634013.326 8     -2802.648          48.000    20286638.492 7  84493126.751 7     -2179.841          44.000
R10  20425819.336 5 108881091.244 5     -2778.258          35.000
R11  19570083.586 8 104576578.550 8      1303.734          51.000    19570084.133 8  81337348.989 8      1014.016          49.000
R12  22869740.930 7 122166047.236 7      3686.422          45.000    22869742.102 6  95018055.821 6      2867.217          37.000
C05  39797527.523 6 207236168.745 6        14.910          36.000    39797526.203 6 160248132.066 6        11.566          40.000
C23  22428053.188 8 116788837.551 8     -1493.430          51.000
E02  24242832.219 8 127397006.896 8     -1573.547          51.000    24242832.461 8  97615875.015 8     -1205.771          50.000
E08  22263160.133 8 116993686.739 8     -1669.660          50.000    22263161.508 8  89644533.295 8     -1279.383          51.000
E30  22411754.195 8 117774529.072 8      1211.293          51.000    22411756.156 8  90242854.201 8       928.128          51.000
> 2020 05 15 04 24 30.0000000  0 13        .000000000000
G05  22618742.914 8 118862270.193 8     -3225.316          48.000    22618739.852 8  92619957.678 8     -2513.234          48.000
G13  20183865.953 8 106066918.642 8       413.125          51.000    20183863.852 8  82649541.905 8       321.916          51.000
G28  20909097.570 8 109878070.217 8      -442.676          51.000    20909095.703 8  85619287.128 8      -344.942          48.000
R01  19234935.641 8 102821764.595 8       511.145          48.000    19234940.336 7  79972493.960 7       397.557          42.000
R08  20302392.680 8 108718378.802 8     -2821.129          48.000    20302392.781 7  84558744.336 7     -2194.211          44.000
R10  20441489.469 5 108964621.557 5     -2789.578          31.000
R11  19562818.836 8 104537757.960 8      1284.902          51.000    19562819.523 8  81307155.203 8       999.368          50.000
R12  22849062.273 7 122055585.759 7      3678.242          45.000    22849063.016 6  94932141.380 6      2860.858          37.000
C05  39797442.742 5 207235727.345 5        15.320          35.000    39797441.492 6 160247790.732 6        11.789          40.000
C23  22436683.570 8 116833779.036 8     -1502.086          51.000
E02  24251842.906 8 127444358.712 8     -1582.637          51.000    24251843.305 8  97652157.552 8     -1212.703          51.000
E08  22272720.328 8 117043924.929 8     -1679.012          51.000    22272721.062 8  89683027.485 8     -1286.456          51.000
E30  22404872.742 8 117738369.091 8      1199.848          51.000    22404874.750 8  90215147.186 8       919.358          51.000
> 2020 05 15 04 25  0.0000000  0 14        .000000000000
G05  22637180.906 7 118959169.208 7     -3235.105          46.000    22637179.617 7  92695463.402 7     -2520.861          46.000
G13  20181546.508 8 106054729.926 8       398.688          51.000    20181544.250 8  82640044.180 8       310.666          51.000
G28  20911676.562 8 109891623.020 8      -461.688          51.000    20911674.492 8  85629847.742 8      -359.756          49.000
G30  22213908.578 4 116734876.737 4     -2458.598          28.000
R01  19232136.844 8 102806802.341 8       485.758          49.000    19232141.172 7  79960856.641 7       377.812          42.000
R08  20318251.609 7 108803300.324 7     -2840.973          46.000    20318251.203 7  84624794.398 7     -2209.645          44.000
R10  20457222.891 6 109048488.953 6     -2802.051          36.000
R11  19555660.391 8 104499505.892 8      1264.512          51.000    19555661.812 8  81277403.592 8       983.509          50.000
R12  22828429.125 6 121945370.246 6      3668.633          41.000    22828431.180 6  94846418.191 6      2853.378          38.000
C05  39797355.930 5 207235275.536 5        13.957          35.000    39797354.750 6 160247441.347 6        10.950          40.000
C23  22445363.836 8 116878978.620 8     -1511.953          51.000
E02  24260905.586 8 127491983.687 8     -1593.090          51.000    24260906.492 8  97688649.393 8     -1220.616          51.000
E08  22282333.586 8 117094439.784 8     -1689.453          51.000    22282333.750 8  89721733.653 8     -1294.519          51.000
E30  22398056.828 8 117702552.917 8      1187.148          51.000    22398058.719 8  90187703.622 8       909.600          51.000
> 2020 05 15 04 25 30.0000000  0 12        .000000000000
G05  22655673.867 7 119056356.093 7     -3242.547          46.000    22655673.789 7  92771193.450 7     -2526.660          46.000
G13  20179308.414 8 106042968.777 8       386.789          51.000    20179306.055 8  82630879.644 8       301.394          51.000
G28  20914363.383 8 109905742.376 8      -478.266          51.000    20914361.352 8  85640849.826 8      -372.675          49.000
R01  19229479.742 8 102792597.501 8       462.738          49.000    19229483.922 7  79949808.424 7       359.908          43.000
R08  20334219.234 7 108888809.347 7     -2858.215          45.000    20334219.273 7  84691301.400 7     -2223.056          44.000
R11  19548614.547 8 104461855.872 8      1246.930          51.000    19548616.430 8  81248120.225 8       969.831          49.000
R12  22807846.148 6 121835436.034 6      3661.582          36.000    22807852.766 6  94760913.696 6      2847.888          41.000
C05  39797273.445 5 207234845.767 5        15.699          35.000    39797272.234 6 160247109.018 6        12.067          40.000
C23  22454099.641 8 116924467.439 8     -1519.273          51.000
E02  24270026.320 8 127539913.169 8     -1600.879          51.000    24270027.562 8  97725374.567 8     -1226.653          51.000
E08  22292005.859 8 117145263.785 8     -1697.500          51.000    22292005.758 8  89760676.679 8     -1300.706          51.000
E30  22391312.812 8 117667113.540 8      1176.836          51.000    22391314.312 8  90160548.775 8       901.684          51.000
> 2020 05 15 04 26  0.0000000  0 12        .000000000000
G05  22674211.625 7 119153774.246 7     -3252.145          46.000    22674211.906 7  92847103.707 7     -2534.139          46.000
G13  20177141.531 8 106031581.946 8       372.332          51.000    20177139.070 8  82622006.779 8       290.129          51.000
G28  20917147.617 8 109920373.283 8      -497.227          51.000    20917145.750 8  85652250.526 8      -387.449          50.000
R01  19226954.305 8 102779096.457 8       437.332          49.000    19226958.258 7  79939307.598 7       340.147          43.000
R08  20350286.133 7 108974848.331 7     -2877.840          47.000    20350286.461 7  84758220.561 7     -2238.320          44.000
R11  19541670.562 8 104424752.560 8      1226.664          51.000    19541673.094 8  81219262.120 8       954.072          49.000
R12  22787308.320 6 121725729.655 6      3651.832          38.000    22787316.727 7  94675586.407 7      2840.311          43.000
C05  39797184.773 6 207234384.324 6        14.883          36.000    39797183.641 6 160246752.168 6        11.674          40.000
C23  22462880.242 8 116970190.457 8     -1528.992          51.000
E02  24279194.430 8 127588091.565 8     -1611.066          51.000    24279195.523 8  97762290.463 8     -1234.453          51.000
E08  22301726.539 8 117196342.445 8     -1707.859          51.000    22301726.227 8  89799814.838 8     -1308.563          51.000
E30  22384630.523 8 117631996.902 8      1164.137          51.000    22384631.570 8  90133641.217 8       892.013          51.000
> 2020 05 15 04 26 30.0000000  0 13        .000000000000
G05  22692801.422 7 119251462.607 7     -3260.445          47.000    22692801.594 7  92923224.488 7     -2540.607          47.000
G13  20175054.023 8 106020611.795 8       359.012          51.000    20175051.500 8  82613458.602 8       279.749          51.000
G24  24049050.508 6 126378645.950 6      3156.586          36.000
G28  20920036.930 8 109935556.232 8      -514.898          51.000    20920034.984 8  85664081.398 8      -401.220          49.000
R01  19224568.711 8 102766343.126 8       412.984          50.000    19224572.297 7  79929388.330 7       321.210          43.000
R08  20366460.023 8 109061457.489 8     -2896.105          49.000    20366460.711 7  84825583.178 7     -2252.530          46.000
R11  19534837.312 8 104388238.404 8      1207.562          51.000    19534840.109 8  81190862.233 8       939.215          49.000
R12  22766823.961 7 121616294.919 7      3643.605          42.000    22766830.781 7  94590470.491 7      2833.915          43.000
C05  39797098.078 6 207233932.536 6        15.184          36.000    39797096.922 6 160246402.817 6        11.659          39.000
C23  22471713.422 8 117016187.600 8     -1537.527          51.000
E02  24288417.445 8 127636559.037 8     -1620.102          51.000    24288418.156 8  97799427.868 8     -1241.418          51.000
E08  22311503.398 8 117247717.047 8     -1717.152          51.000    22311502.984 8  89839179.775 8     -1315.773          51.000
E30  22378017.664 8 117597244.795 8      1152.582          51.000    22378018.562 8  90107012.974 8       883.114          51.000
> 2020 05 15 04 27  0.0000000  0 13        .000000000000
G05  22711419.422 7 119349298.731 7     -3262.062          47.000    22711419.141 7  92999460.404 7     -2541.867          47.000
G13  20173023.383 8 106009940.073 8       352.406          51.000    20173020.805 8  82605142.968 8       274.602          51.000
G24  24031025.188 5 126283903.026 5      3159.332          32.000
G28  20923008.352 8 109951170.901 8      -526.113          51.000    20923006.406 8  85676248.660 8      -409.958          49.000
R01  19222300.352 8 102754217.369 8       395.293          49.000    19222303.859 7  79919957.186 7       307.450          43.000
R08  20382717.734 8 109148512.395 8     -2907.605          51.000    20382718.727 7  84893292.494 7     -2261.471          47.000
R11  19528091.641 8 104352191.404 8      1195.398          51.000    19528094.508 8  81162825.697 8       929.754          49.000
R12  22746367.742 7 121507012.270 7      3641.945          43.000    22746372.414 7  94505472.885 7      2832.627          43.000
C05  39796990.445 6 207233371.936 6        21.836          36.000    39796989.312 6 160245969.310 6        17.096          39.000
C23  22480576.281 8 117062339.089 8     -1539.301          51.000
E02  24297672.422 8 127685194.662 8     -1622.285          51.000    24297673.156 8  97836694.113 8     -1243.083          51.000
E08  22321313.586 8 117299267.752 8     -1719.645          51.000    22321312.672 8  89878679.654 8     -1317.608          51.000
E30  22371451.312 8 117562737.782 8      1147.816          51.000    22371452.430 8  90080572.541 8       879.514          51.000
> 2020 05 15 04 27 30.0000000  0 13        .000000000000
G05  22730112.445 7 119447529.918 7     -3281.141          46.000    22730111.180 7  93076004.145 7     -2556.733          46.000
G13  20171097.336 8 105999818.130 8       327.938          51.000    20171094.641 8  82597255.736 8       255.536          51.000
G24  24013044.945 5 126189400.594 5      3144.074          30.000
G28  20926109.398 8 109967466.650 8      -554.820          51.000    20926107.391 8  85688946.643 8      -432.328          50.000
R01  19220197.266 8 102742975.668 8       359.680          49.000    19220200.992 7  79911213.629 7       279.751          44.000
R08  20399106.219 8 109236266.695 8     -2937.016          50.000    20399107.141 8  84961545.802 8     -2284.349          48.000
R11  19521481.102 8 104316866.267 8      1165.234          51.000    19521483.578 8  81135350.608 8       906.293          48.000
R12  22725986.641 7 121398138.050 7      3622.094          42.000    22725989.820 7  94420792.956 7      2817.184          42.000
C05  39796909.625 6 207232951.635 6        11.543          36.000    39796908.281 6 160245643.503 6         8.977          39.000
C23  22489516.242 8 117108891.671 8     -1558.684          51.000
E02  24307006.867 8 127734247.363 8     -1642.227          51.000    24307008.062 8  97874279.934 8     -1258.317          51.000
E08  22331204.609 8 117351244.658 8     -1739.910          51.000    22331203.844 8  89918506.093 8     -1333.139          51.000
E30  22364979.227 8 117528726.366 8      1125.262          51.000    22364980.703 8  90054511.856 8       862.199          51.000
> 2020 05 15 04 28  0.0000000  0 13        .000000000000
G05  22748862.688 7 119546063.067 7     -3284.723          46.000    22748860.133 7  93152783.186 7     -2559.527          46.000
G13  20169258.852 8 105990156.563 8       319.078          51.000    20169256.180 8  82589727.240 8       248.632          51.000
G28  20929322.695 8 109984352.308 8      -567.980          51.000    20929320.625 8  85702104.284 8      -442.582          50.000
R01  19218242.586 8 102732527.440 8       339.855          49.000    19218246.469 7  79903087.223 7       264.332          44.000
R08  20415607.312 8 109324625.331 8     -2950.504          49.000    20415607.711 8  85030269.162 8     -2294.836          48.000
R10  20552966.820 4 109558877.944 4     -2867.234          29.000
R11  19514988.828 8 104282171.147 8      1150.824          51.000    19514990.555 8  81108365.530 8       895.089          49.000
R12  22705663.094 6 121289582.288 6      3618.031          40.000    22705667.016 7  94336360.650 7      2814.021          42.000
C05  39796838.312 5 207232580.343 5        16.477          35.000    39796836.938 6 160245356.412 6        12.490          39.000
C23  22498515.867 8 117155754.651 8     -1562.555          51.000
E02  24316403.312 8 127783625.500 8     -1646.605          51.000    24316404.688 8  97912115.131 8     -1261.697          51.000
E08  22341159.258 8 117403557.197 8     -1744.586          51.000    22341158.852 8  89958589.707 8     -1336.764          51.000
E30  22358584.516 8 117495120.525 8      1118.219          51.000    22358586.156 8  90028761.919 8       856.826          51.000
> 2020 05 15 04 28 30.0000000  0 12        .000000000000
G05  22767640.828 7 119644741.477 7     -3292.691          47.000    22767637.406 7  93229675.427 7     -2565.734          47.000
G13  20167478.820 8 105980802.600 8       305.570          51.000    20167476.469 8  82582438.430 8       238.104          51.000
G28  20932618.734 8 110001673.041 8      -585.695          51.000    20932616.789 8  85715600.959 8      -456.386          51.000
R01  19216407.445 8 102722717.554 8       315.293          49.000    19216411.336 7  79895457.299 7       245.228          44.000
R08  20432190.938 7 109413429.984 7     -2968.613          46.000    20432191.062 8  85099339.457 8     -2308.921          49.000
R11  19508584.914 8 104247949.178 8      1131.688          51.000    19508586.523 8  81081748.452 8       880.201          49.000
R12  22685371.789 7 121181190.169 7      3609.141          45.000    22685375.758 7  94252055.631 7      2807.106          42.000
C05                                                                  39796745.945 6 160244990.008 6        12.777          39.000
C23  22507545.406 8 117202774.189 8     -1570.910          51.000
E02  24325832.055 8 127833173.726 8     -1655.500          51.000    24325833.062 8  97950080.645 8     -1268.434          51.000
E08  22351148.258 8 117456051.117 8     -1753.805          51.000    22351148.055 8  89998812.305 8     -1343.821          51.000
E30  22352237.555 8 117461766.406 8      1106.551          51.000    22352239.484 8  90003204.856 8       847.927          51.000
> 2020 05 15 04 29  0.0000000  0 12        .000000000000
G05  22786466.141 7 119743665.990 7     -3301.410          47.000    22786462.602 7  93306759.422 7     -2572.527          47.000
G13  20165777.180 8 105971860.182 8       291.344          51.000    20165774.945 8  82575470.300 8       227.021          51.000
G28  20936017.055 8 110019531.004 8      -604.035          51.000    20936015.188 8  85729516.245 8      -470.677          50.000
R01  19214711.547 8 102713652.483 8       289.996          48.000    19214715.461 7  79888406.696 7       225.553          44.000
R08  20448876.195 7 109502783.130 7     -2987.227          45.000    20448876.891 8  85168836.379 8     -2323.395          48.000
R11  19502289.086 8 104214305.268 8      1112.051          51.000    19502290.789 8  81055580.940 8       864.928          50.000
R12  22665132.266 8 121073068.149 8      3599.727          48.000    22665135.469 7  94167960.724 7      2799.787          43.000
C05  39796656.328 5 207231632.484 5        16.023          35.000    39796654.914 6 160244623.424 6        12.405          40.000
C23  22516624.273 8 117250051.255 8     -1579.965          51.000
E02  24335312.508 8 127882993.828 8     -1664.914          51.000    24335313.258 8  97988254.479 8     -1275.728          51.000
E08  22361191.344 8 117508829.306 8     -1763.801          51.000    22361191.633 8  90039252.714 8     -1351.460          51.000
E30  22345957.914 8 117428767.329 8      1094.285          51.000    22345960.195 8  89977919.854 8       838.457          51.000
> 2020 05 15 04 29 30.0000000  0 16        .000000000000
G05  22805335.359 7 119842820.773 7     -3309.035          47.000    22805332.055 7  93384022.849 7     -2578.469          47.000
G13  20164151.758 8 105963318.106 8       278.129          51.000    20164149.414 8  82568814.135 8       216.724          51.000
G17  24574852.758 5 129141740.097 5      2822.688          32.000    24574853.492 5 100629917.811 5      2199.497          32.000
G28  20939514.961 8 110037912.805 8      -621.309          51.000    20939513.250 8  85743839.726 8      -484.137          50.000
G30  22341516.180 5 117405475.665 5     -2507.461          33.000    22341519.305 5  91484783.221 5     -1953.860          33.000
R01  19213152.844 8 102705321.336 8       265.523          48.000    19213156.984 7  79881926.900 7       206.518          44.000
R08  20465661.062 7 109592669.639 7     -3004.973          46.000    20465662.656 8  85238748.159 8     -2337.201          48.000
R10  20601655.445 5 109818395.760 5     -2898.785          35.000
R11  19496098.930 8 104181226.749 8      1093.234          51.000    19496100.789 8  81029853.189 8       850.293          50.000
R12  22644941.156 8 120965205.512 8      3591.281          50.000    22644943.758 7  94084067.572 7      2793.219          42.000
C05  39796562.883 5 207231145.915 5        16.543          35.000    39796561.500 6 160244247.146 6        12.856          39.000
C23  22525750.148 8 117297572.223 8     -1587.973          51.000
E02  24344842.070 8 127933071.978 8     -1673.477          51.000    24344843.078 8  98026626.037 8     -1282.295          51.000
E07  23711522.328 7 124604891.125 7       885.043          42.000    23711519.656 6  95476465.333 6       678.165          38.000
E08  22371285.922 8 117561879.045 8     -1772.730          51.000    22371286.266 8  90079901.196 8     -1358.272          51.000
E30  22339743.477 8 117396110.999 8      1082.957          51.000    22339745.844 8  89952897.468 8       829.768          51.000
> 2020 05 15 04 30  0.0000000  0 16        .000000000000
G05  22824253.648 7 119942234.149 7     -3317.258          46.000    22824250.641 7  93461487.787 7     -2584.876          45.000
G13  20162608.500 8 105955207.637 8       263.957          51.000    20162606.078 8  82562494.283 8       205.681          51.000
G17  24558753.055 5 129057136.128 5      2819.535          34.000    24558752.281 5 100563992.700 5      2197.037          33.000
G28  20943118.242 8 110056848.124 8      -639.535          51.000    20943116.438 8  85758594.507 8      -498.339          48.000
G30  22355851.188 6 117480809.044 6     -2512.898          38.000    22355849.969 6  91543484.481 6     -1958.103          36.000
R01  19211737.539 8 102697756.596 8       240.215          48.000    19211741.648 7  79876043.197 7       186.834          44.000
R08  20482551.297 8 109683119.146 8     -3023.469          48.000    20482553.508 7  85309097.776 7     -2351.587          47.000
R10  20618006.359 5 109905552.483 5     -2909.738          35.000
R11  19490020.125 8 104148744.692 8      1073.711          51.000    19490022.367 8  81004589.368 8       835.109          50.000
R12  22624803.953 8 120857635.235 8      3581.785          50.000    22624806.219 7  94000401.823 7      2785.833          42.000
C05  39796472.961 5 207230677.437 5        16.215          35.000    39796471.516 6 160243884.881 6        12.611          40.000
C23  22534928.586 8 117345366.369 8     -1596.812          51.000
E02  24354426.391 8 127983437.588 8     -1682.770          51.000    24354427.688 8  98065217.866 8     -1289.437          51.000
E07  23706504.156 7 124578521.409 7       874.492          43.000    23706500.898 6  95456259.999 6       669.811          39.000
E08  22381437.758 8 117615230.806 8     -1782.531          51.000    22381438.750 8  90120781.087 8     -1365.836          51.000
E30  22333600.328 8 117363828.377 8      1070.742          51.000    22333602.438 8  89928161.425 8       820.436          51.000
> 2020 05 15 04 30 30.0000000  0 15        .000000000000
G05  22843217.016 7 120041886.300 7     -3325.496          43.000    22843214.422 7  93539138.796 7     -2591.296          42.000
G13  20161144.375 8 105947513.310 8       249.707          51.000    20161141.859 8  82556498.708 8       194.577          51.000
G17  24542671.781 5 128972628.237 5      2815.895          34.000    24542669.922 5 100498142.358 5      2194.204          34.000
G28  20946823.367 8 110076319.065 8      -657.711          50.000    20946821.445 8  85773766.652 8      -512.502          48.000
G30  22370217.414 5 117556306.611 5     -2519.773          34.000    22370215.812 4  91602313.877 4     -1963.454          29.000
R01  19210462.844 8 102690942.050 8       214.941          48.000    19210466.852 7  79870743.000 7       167.177          44.000
R08  20499543.438 8 109774111.440 8     -3041.887          49.000    20499545.406 7  85379869.539 7     -2365.912          45.000
R11  19484049.609 8 104116841.324 8      1054.047          51.000    19484051.945 8  80979775.617 8       819.814          50.000
R12  22604717.688 8 120750341.601 8      3572.039          49.000    22604719.922 6  93916951.237 6      2778.253          40.000
C05  39796383.273 5 207230211.219 5        15.828          35.000    39796381.875 6 160243523.572 6        12.384          40.000
C23  22544155.883 8 117393415.465 8     -1605.652          51.000
E02  24364061.844 8 128034072.167 8     -1692.039          51.000    24364063.203 8  98104015.784 8     -1296.462          51.000
E07  23701543.211 7 124552455.434 7       864.082          42.000    23701540.805 6  95436287.356 6       662.149          39.000
E08  22391643.891 8 117668867.152 8     -1792.359          51.000    22391645.031 8  90161879.058 8     -1373.345          51.000
E30  22327525.078 8 117331902.423 8      1058.473          51.000    22327526.812 8  89903698.679 8       811.058          51.000
> 2020 05 15 04 31  0.0000000  0 13        .000000000000
G05  22862224.742 6 120141774.347 6     -3332.707          40.000    22862222.602 6  93616973.622 6     -2596.915          40.000
G13  20159759.625 8 105940236.146 8       236.363          51.000    20159757.062 8  82550828.178 8       184.179          51.000
G28  20950630.234 8 110096324.533 8      -674.914          50.000    20950628.359 7  85789355.317 7      -525.907          47.000
R01  19209328.664 7 102684879.382 7       190.285          46.000    19209332.734 7  79866027.588 7       148.000          44.000
R08  20516637.086 8 109865644.418 8     -3059.227          50.000    20516638.117 7  85451061.817 7     -2379.398          44.000
R11  19478187.719 8 104085516.696 8      1035.301          51.000    19478189.961 8  80955412.012 8       805.234          50.000
R12  22584683.461 8 120643326.636 8      3563.309          49.000    22584685.656 6  93833717.364 6      2771.462          41.000
C05  39796293.727 6 207229744.419 6        16.305          36.000    39796292.422 6 160243163.393 6        12.714          40.000
C23  22553431.930 8 117441718.370 8     -1613.555          51.000
E02  24373748.133 8 128084974.475 8     -1700.434          51.000    24373749.469 8  98143018.847 8     -1302.978          51.000
E07  23696640.352 7 124526694.509 7       854.129          42.000    23696639.008 6  95416548.467 6       654.678          40.000
E08  22401904.328 8 117722787.918 8     -1801.395          51.000    22401904.766 8  90203194.969 8     -1380.304          51.000
E30  22321517.773 8 117300333.423 8      1047.043          51.000    22321519.219 8  89879509.451 8       802.253          51.000
> 2020 05 15 04 31 30.0000000  0 14        .000000000000
G05  22881273.445 6 120241880.851 6     -3340.879          37.000    22881271.633 6  93694978.678 6     -2603.282          36.000
G13  20158451.609 8 105933362.267 8       222.094          51.000    20158449.086 8  82545471.907 8       173.060          51.000
G28  20954535.781 8 110116848.790 8      -693.098          49.000    20954533.883 7  85805348.246 7      -540.073          47.000
R01  19208332.344 7 102679554.591 7       164.762          46.000    19208336.438 7  79861886.075 7       128.148          43.000
R08  20533828.000 8 109957700.462 8     -3077.547          48.000    20533828.555 7  85522660.908 7     -2393.651          44.000
R10  20667408.344 5 110168910.769 5     -2941.410          31.000
R11  19472431.219 8 104054755.653 8      1015.645          51.000    19472433.680 8  80931486.762 8       789.946          50.000
R12  22564699.523 8 120536577.031 8      3553.605          50.000    22564701.898 7  93750689.889 7      2763.915          42.000
C05  39796201.805 6 207229265.501 6        16.074          36.000    39796200.430 6 160242793.046 6        12.357          40.000
C23  22562753.852 8 117490259.221 8     -1622.262          51.000
E02  24383482.359 8 128136128.371 8     -1709.617          51.000    24383483.453 8  98182214.672 8     -1309.933          51.000
E07  23691792.719 6 124501224.976 6       843.906          40.000    23691793.289 6  95397032.863 6       646.519          41.000
E08  22412216.062 8 117776978.080 8     -1811.141          51.000    22412216.148 8  90244717.257 8     -1387.730          50.000
E30  22315575.688 8 117269106.737 8      1034.875          51.000    22315576.945 8  89855582.512 8       792.974          51.000
> 2020 05 15 04 32  0.0000000  0 13        .000000000000
G05  22900366.805 5 120342221.828 5     -3348.391          34.000    22900365.430 5  93773166.344 5     -2609.136          33.000
G13  20157224.078 8 105926911.249 8       208.105          51.000    20157221.477 8  82540445.125 8       162.160          51.000
G28  20958543.312 8 110137909.533 8      -710.863          50.000    20958541.430 7  85821759.229 7      -553.919          45.000
R01  19207478.406 7 102674988.574 7       139.715          47.000    19207482.133 7  79858334.731 7       108.667          43.000
R08  20551119.336 7 110050296.502 7     -3095.375          46.000    20551119.656 7  85594679.990 7     -2407.517          42.000
R11  19466783.469 8 104024576.708 8       996.461          51.000    19466785.766 8  80908014.245 8       775.025          48.000
R12  22544769.164 8 120430113.424 8      3544.195          49.000    22544771.938 7  93667884.888 7      2756.596          42.000
C05  39796110.883 6 207228792.040 6        15.871          36.000    39796109.508 6 160242426.902 6        12.285          40.000
C23  22572124.711 8 117539055.222 8     -1630.551          51.000
E02  24393267.859 8 128187551.084 8     -1718.383          51.000    24393268.625 8  98221616.477 8     -1316.671          51.000
E07  23687004.062 6 124476066.669 6       833.605          39.000    23687006.953 7  95377755.686 7       638.716          42.000
E08  22422582.727 8 117831455.914 8     -1820.527          51.000    22422581.969 8  90286459.976 8     -1394.991          51.000
E30  22309702.203 8 117238241.115 8      1023.043          51.000    22309703.234 8  89831932.234 8       783.845          51.000
> 2020 05 15 04 32 30.0000000  0 14        .000000000000
G05  22919502.828 4 120442784.213 4     -3356.137          29.000    22919502.234 5  93851526.620 5     -2615.168          32.000
G13  20156075.211 8 105920873.883 8       194.035          51.000    20156072.617 8  82535740.682 8       151.196          50.000
G28  20962650.992 8 110159495.576 8      -728.551          50.000    20962649.109 7  85838579.512 7      -567.699          45.000
G30  22427993.891 5 117859902.655 5     -2541.012          30.000
R01  19206764.672 7 102671171.871 7       114.398          46.000    19206768.102 7  79855366.190 7        88.977          43.000
R08  20568508.461 7 110143419.910 7     -3113.160          44.000    20568509.148 7  85667109.249 7     -2421.350          42.000
R11  19461242.977 8 103994969.653 8       977.156          51.000    19461244.672 8  80884986.544 8       760.010          49.000
R12  22524890.211 7 120323927.354 7      3534.574          47.000    22524893.828 7  93585295.783 7      2749.116          43.000
C05  39796019.164 6 207228314.255 6        15.660          36.000    39796017.812 6 160242057.431 6        12.270          40.000
C23  22581542.391 8 117588095.264 8     -1638.996          51.000
E02  24403102.305 8 128239231.330 8     -1727.145          51.000    24403103.031 8  98261215.625 8     -1323.441          51.000
E07  23682273.133 6 124451210.774 6       823.309          39.000    23682277.781 7  95358710.255 7       630.667          43.000
E08  22433002.336 8 117886211.162 8     -1830.059          51.000    22433002.500 8  90328415.242 8     -1402.163          51.000
E30  22303895.609 8 117207726.730 8      1011.090          51.000    22303896.227 8  89808551.072 8       774.731          51.000
> 2020 05 15 04 33  0.0000000  0 13        .000000000000
G13  20155004.750 8 105915248.750 8       185.453          50.000    20155002.234 8  82531357.456 8       144.506          50.000
G28  20966857.953 8 110181603.192 8      -740.715          49.000    20966856.258 7  85855806.246 7      -577.180          46.000
G30  22442526.914 5 117936268.123 5     -2540.227          33.000
R01  19206191.156 7 102668103.183 7        94.867          47.000    19206194.023 7  79852979.417 7        73.786          43.000
R08  20585994.797 7 110237065.826 7     -3125.273          43.000    20585996.359 7  85739944.952 7     -2430.768          42.000
R11  19455809.109 8 103965931.293 8       963.465          51.000    19455810.688 8  80862401.152 8       749.362          50.000
R12  22505062.453 7 120218017.781 7      3530.734          46.000    22505067.836 7  93502921.677 7      2746.124          43.000
C05  39795926.070 6 207227829.505 6        21.199          36.000    39795924.766 6 160241682.583 6        16.314          39.000
C23  22591006.164 8 117637375.387 8     -1641.809          51.000
E02  24412984.930 8 128291164.970 8     -1730.328          51.000    24412985.766 8  98301008.914 8     -1325.827          51.000
E07  23677600.266 6 124426655.679 6       818.703          41.000    23677605.578 7  95339895.261 7       627.231          43.000
E08  22443474.109 8 117941240.710 8     -1833.867          51.000    22443475.344 8  90370580.723 8     -1405.126          51.000
E30  22298155.430 8 117177560.910 8      1004.758          51.000    22298155.836 8  89785436.994 8       769.882          51.000
> 2020 05 15 04 33 30.0000000  0 13        .000000000000
G05  22957907.297 5 120644629.282 5     -3366.906          33.000    22957901.102 5  94008773.182 5     -2623.563          33.000
G13  20154012.203 8 105910033.466 8       170.043          50.000    20154009.727 8  82527293.600 8       132.501          50.000
G28  20971163.273 8 110204227.690 8      -759.812          51.000    20971161.695 7  85873435.739 7      -592.062          46.000
R01  19205757.281 7 102665780.054 7        68.027          47.000    19205759.773 7  79851172.539 7        52.910          43.000
R08  20603577.758 7 110331227.512 7     -3144.355          43.000    20603580.328 7  85813181.847 7     -2445.610          42.000
R11  19450480.688 8 103937457.814 8       942.703          51.000    19450482.172 8  80840255.099 8       733.211          50.000
R12  22485287.156 7 120112382.908 7      3519.609          47.000    22485293.648 7  93420761.177 7      2737.471          43.000
C05  39795831.023 6 207227334.492 6        19.242          36.000    39795829.641 6 160241299.758 6        15.088          40.000
C23  22600515.203 8 117686890.945 8     -1651.445          51.000
E02  24422915.008 8 128343347.190 8     -1740.586          51.000    24422915.602 8  98340992.675 8     -1333.672          51.000
E07  23672984.461 7 124402399.059 7       806.363          42.000    23672989.844 7  95321309.006 7       617.997          43.000
E08  22453997.250 8 117996540.837 8     -1844.855          51.000    22454000.000 8  90412953.517 8     -1413.612          51.000
E30  22292480.641 8 117147740.269 8       991.195          51.000    22292481.406 8  89762587.408 8       759.481          51.000
> 2020 05 15 04 34  0.0000000  0 13        .000000000000
G05  22977163.789 6 120745852.947 6     -3379.465          37.000    22977161.578 6  94087648.678 6     -2633.349          37.000
G13  20153103.039 8 105905256.880 8       150.660          49.000    20153100.875 8  82523571.581 8       117.398          49.000
G28  20975572.148 8 110227396.187 8      -782.660          51.000    20975570.430 7  85891489.111 7      -609.865          46.000
R01  19205467.883 7 102664232.276 7        37.445          46.000    19205470.375 7  79849968.711 7        29.121          42.000
R08  20621263.203 7 110425932.005 7     -3167.121          46.000    20621265.125 6  85886840.913 6     -2463.319          41.000
R11  19445263.086 8 103909577.697 8       918.254          51.000    19445264.766 8  80818570.559 8       714.197          50.000
R12  22465570.109 8 120007053.082 8      3504.598          49.000    22465576.195 7  93338837.926 7      2725.795          45.000
C05  39795739.398 6 207226857.231 6        14.074          36.000    39795737.992 6 160240930.697 6        11.146          40.000
C23  22610074.586 8 117736668.667 8     -1664.887          51.000
E02  24432897.602 8 128395804.812 8     -1754.500          51.000    24432897.773 8  98381187.472 8     -1344.306          51.000
E07  23668431.312 7 124378470.324 7       790.809          43.000    23668436.039 7  95302973.974 7       605.902          44.000
E08  22464577.086 8 118052139.394 8     -1859.574          51.000    22464580.531 8  90455554.996 8     -1424.866          51.000
E30  22286876.898 8 117118293.137 8       973.992          51.000    22286878.086 8  89740024.011 8       746.330          51.000
> 2020 05 15 04 34 30.0000000  0 15        .000000000000
G05  22996464.312 6 120847301.533 6     -3385.109          38.000    22996464.039 6  94166699.393 6     -2637.748          38.000
G13  20152276.156 8 105900912.661 8       137.875          50.000    20152274.383 8  82520186.450 8       107.435          49.000
G15  20919267.031 5 109931489.666 5      1805.422          31.000
G17  24414721.938 5 128300238.594 5      2786.031          34.000    24414730.398 5  99974207.233 5      2170.946          33.000
G28  20980082.898 8 110251100.131 8      -798.727          51.000    20980081.195 7  85909959.724 7      -622.384          47.000
R01  19205322.312 7 102663453.654 7        13.520          47.000    19205324.945 7  79849363.110 7        10.515          42.000
R08  20639048.734 7 110521169.043 7     -3183.059          47.000    20639049.312 6  85960914.082 6     -2475.715          41.000
R11  19440155.242 8 103882283.215 8       900.293          51.000    19440156.922 8  80797341.504 8       700.228          50.000
R12  22445909.156 8 119902022.220 8      3496.266          49.000    22445914.195 7  93257147.227 7      2719.318          46.000
C05  39795649.734 6 207226390.515 6        15.648          36.000    39795648.398 6 160240569.798 6        12.106          39.000
C23  22619682.539 8 117786699.917 8     -1671.605          51.000
E02  24442930.633 8 128448529.021 8     -1761.609          51.000    24442930.875 8  98421586.544 8     -1349.790          51.000
E07  23663939.469 7 124354863.117 7       781.844          44.000    23663943.375 7  95284885.314 7       599.138          44.000
E08  22475212.367 8 118108028.580 8     -1867.410          50.000    22475215.953 8  90498379.183 8     -1430.957          51.000
E30  22281342.992 8 117089212.171 8       963.574          51.000    22281344.453 8  89717741.169 8       738.350          51.000
> 2020 05 15 04 35  0.0000000  0 15        .000000000000
G05  23015802.438 6 120948931.653 6     -3391.367          36.000    23015805.258 6  94245891.637 6     -2642.624          36.000
G13  20151524.078 8 105896960.877 8       124.562          50.000    20151522.453 8  82517107.125 8        97.062          50.000
G17  24398825.148 6 128216689.283 6      2783.180          37.000    24398829.016 6  99909104.070 6      2168.724          37.000
G28  20984687.562 8 110275297.267 8      -815.434          51.000    20984685.688 8  85928814.636 8      -635.403          48.000
G30  22500862.727 5 118242821.238 5     -2565.715          30.000
R01  19205312.867 7 102663403.500 7       -11.113          47.000    19205315.594 6  79849324.102 6        -8.644          41.000
R08  20656925.836 7 110616894.573 7     -3199.617          47.000    20656925.742 7  86035367.163 7     -2488.597          43.000
R11  19435149.062 8 103855532.145 8       881.934          51.000    19435151.070 8  80776535.142 8       685.948          50.000
R12  22426295.922 8 119797250.718 8      3487.430          48.000    22426300.547 7  93175658.263 7      2712.445          45.000
C05  39795554.508 6 207225894.910 6        16.016          36.000    39795552.984 6 160240185.761 6        12.729          40.000
C23  22629331.188 8 117836943.040 8     -1678.875          51.000
E02  24453006.258 8 128501477.684 8     -1769.285          51.000    24453006.836 8  98462157.587 8     -1355.704          51.000
E07  23659501.445 7 124331537.787 7       772.039          45.000    23659504.531 7  95267012.653 7       591.658          44.000
E08  22485895.477 8 118164167.279 8     -1875.988          51.000    22485898.773 8  90541394.540 8     -1437.452          51.000
E30  22275870.828 8 117060456.565 8       952.473          51.000    22275872.750 8  89695707.648 8       729.859          51.000
> 2020 05 15 04 35 30.0000000  0 15        .000000000000
G05  23035180.062 6 121050764.595 6     -3398.586          39.000    23035187.109 6  94325241.959 6     -2648.249          40.000
G13  20150851.547 8 105893426.378 8       109.852          51.000    20150849.789 8  82514352.964 8        85.599          49.000
G17  24382949.578 5 128133259.175 5      2778.004          35.000    24382948.867 5  99844093.642 5      2164.678          35.000
G28  20989390.461 8 110300010.847 8      -833.410          51.000    20989388.633 7  85948071.975 7      -649.411          47.000
R01  19205444.477 8 102664107.190 8       -36.922          48.000    19205447.016 6  79849871.402 6       -28.717          41.000
R08  20674899.023 8 110713130.726 8     -3217.414          48.000    20674898.688 7  86110217.458 7     -2502.433          46.000
R10  20801618.539 5 110884251.193 5     -3019.133          33.000
R11  19430249.281 8 103829348.803 8       862.328          51.000    19430251.430 8  80756170.305 8       670.700          50.000
R12  22406735.648 7 119692764.800 7      3477.133          47.000    22406739.844 7  93094391.414 7      2704.434          44.000
C05  39795458.023 6 207225392.440 6        15.828          36.000    39795456.500 6 160239797.205 6        12.212          39.000
C23  22639024.922 8 117887420.678 8     -1687.496          51.000
E02  24463129.000 8 128554673.453 8     -1778.277          51.000    24463129.773 8  98502917.984 8     -1362.543          51.000
E07  23655121.711 7 124308519.544 7       761.062          45.000    23655124.023 7  95249375.292 7       583.140          44.000
E08  22496630.867 8 118220579.205 8     -1885.969          51.000    22496633.125 8  90584619.261 8     -1445.117          51.000
E30  22270465.047 8 117032050.461 8       940.023          51.000    22270467.461 8  89673941.935 8       720.296          51.000
> 2020 05 15 04 36  0.0000000  0 13        .000000000000
G05  23054600.742 7 121152822.688 7     -3404.902          42.000    23054610.797 6  94404767.752 6     -2653.168          41.000
G13  20150263.438 8 105890335.871 8        96.285          51.000    20150261.594 8  82511944.773 8        75.027          49.000
G28  20994196.312 8 110325265.144 8      -850.102          51.000    20994194.477 8  85967750.634 8      -662.417          48.000
R01  19205722.164 8 102665591.889 8       -61.816          48.000    19205724.492 6  79851026.139 6       -48.079          40.000
R08  20692971.430 7 110809900.552 7     -3233.895          47.000    20692971.141 7  86185482.895 7     -2515.248          47.000
R11  19425460.367 8 103803758.384 8       843.855          51.000    19425462.828 8  80736266.656 8       656.332          50.000
R12  22387234.648 8 119588591.775 8      3467.949          48.000    22387237.125 7  93013367.934 7      2697.294          44.000
C05  39795365.258 6 207224909.250 6        16.699          36.000    39795363.773 6 160239423.580 6        12.650          39.000
C23  22648768.250 8 117938156.658 8     -1694.730          50.000
E02  24473303.266 8 128608140.270 8     -1786.082          51.000    24473304.125 8  98543886.068 8     -1368.526          50.000
E07  23650805.297 7 124285834.826 7       751.250          44.000    23650806.422 7  95231993.486 7       575.636          44.000
E08  22507423.078 8 118277289.277 8     -1894.605          51.000    22507424.641 8  90628072.411 8     -1451.729          51.000
E30  22265130.812 8 117004019.244 8       928.859          51.000    22265133.445 8  89652463.467 8       711.717          51.000
> 2020 05 15 04 36 30.0000000  0 13        .000000000000
G05  23074064.195 7 121255103.845 7     -3411.383          42.000    23074075.250 6  94484467.371 6     -2658.220          40.000
G13  20149759.977 8 105887690.533 8        82.430          50.000    20149758.047 8  82509883.464 8        64.231          49.000
G28  20999104.844 8 110351059.324 8      -867.012          50.000    20999102.938 8  85987850.005 8      -675.594          49.000
R01  19206146.297 8 102667858.720 8       -86.867          49.000    19206148.391 6  79852789.205 6       -67.563          41.000
R08  20711142.508 8 110907202.177 8     -3250.496          48.000    20711142.156 7  86261162.003 7     -2528.161          46.000
R11  19420782.734 8 103778760.977 8       825.105          51.000    19420785.078 8  80716824.224 8       641.749          49.000
R12  22367792.789 8 119484733.720 8      3458.539          49.000    22367793.641 7  92932589.477 7      2689.975          44.000
C05  39795276.391 6 207224447.027 6        16.848          36.000    39795274.930 6 160239065.345 6        12.898          39.000
C23  22658560.930 8 117989150.291 8     -1702.320          50.000
E02  24483528.984 8 128661877.324 8     -1793.988          51.000    24483529.930 8  98585061.207 8     -1374.608          50.000
E07  23646552.258 7 124263485.301 7       741.254          44.000    23646552.523 7  95214868.529 7       567.800          44.000
E08  22518271.938 8 118334297.690 8     -1903.594          51.000    22518272.297 8  90671754.168 8     -1458.592          51.000
E30  22259868.023 8 116976363.486 8       917.273          51.000    22259870.680 8  89631272.691 8       702.867          51.000
> 2020 05 15 04 37  0.0000000  0 14        .000000000000
G05  23093554.023 6 121357519.690 6     -3415.832          40.000    23093564.758 6  94564271.920 6     -2661.684          39.000
G13  20149325.180 8 105885405.937 8        70.176          51.000    20149323.250 8  82508103.242 8        54.679          49.000
G24  23675941.703 5 124417912.971 5      3068.156          32.000
G28  21004099.523 8 110377306.661 8      -882.301          50.000    21004097.773 8  86008302.473 8      -687.507          48.000
R01  19206700.586 8 102670822.172 8      -110.324          49.000    19206702.781 6  79855094.090 6       -85.811          41.000
R08  20729395.867 8 111004945.980 8     -3265.426          49.000    20729395.289 7  86337185.006 7     -2539.776          45.000
R11  19416199.492 8 103754269.448 8       807.914          51.000    19416201.844 8  80697775.249 8       628.378          49.000
R12  22348393.656 8 119381105.307 8      3450.430          49.000    22348394.195 7  92851989.621 7      2683.668          46.000
C05  39795175.102 6 207223919.031 6        18.875          36.000    39795173.539 6 160238657.066 6        14.472          40.000
C23  22668386.438 8 118040315.613 8     -1708.277          49.000
E02  24493789.695 8 128715797.690 8     -1800.336          50.000    24493790.852 8  98626376.803 8     -1379.481          50.000
E07  23642346.664 7 124241386.566 7       732.520          44.000    23642346.953 7  95197935.726 7       561.141          44.000
E08  22529161.180 8 118391518.488 8     -1910.914          51.000    22529160.359 8  90715598.647 8     -1464.183          51.000
E30  22254660.367 8 116948997.658 8       907.414          51.000    22254662.883 8  89610304.073 8       695.258          51.000
> 2020 05 15 04 37 30.0000000  0 16        .000000000000
G05  23113083.812 6 121460142.643 6     -3425.945          36.000    23113092.414 5  94644237.827 5     -2669.568          35.000
G13  20148973.586 8 105883558.502 8        53.055          51.000    20148971.656 8  82506663.668 8        41.341          49.000
G17  24319692.945 5 127800851.519 5      2760.082          31.000    24319691.820 5  99585072.000 5      2150.719          32.000
G28  21009194.492 8 110404081.185 8      -902.422          48.000    21009192.930 8  86029165.737 8      -703.186          48.000
G30  22574442.867 5 118629497.763 5     -2590.535          31.000
R01  19207399.461 8 102674559.466 8      -138.738          49.000    19207401.945 7  79858000.881 7      -107.908          42.000
R08  20747745.281 8 111103206.361 8     -3285.180          48.000    20747744.594 7  86413609.755 7     -2555.140          43.000
R10  20869979.391 5 111248707.547 5     -3055.809          30.000
R11  19411724.922 8 103730359.958 8       786.098          51.000    19411727.570 8  80679178.973 8       611.409          50.000
R12  22329051.984 8 119277785.075 8      3437.582          50.000    22329053.078 7  92771629.426 7      2673.675          46.000
C05  39795075.656 6 207223401.272 6        15.938          36.000    39795074.133 6 160238256.651 6        12.550          40.000
C23  22678259.297 8 118091726.256 8     -1718.957          50.000
E02  24504099.461 8 128769975.505 8     -1811.391          49.000    24504100.938 8  98667889.674 8     -1387.916          50.000
E07  23638203.648 7 124219615.252 7       718.914          45.000    23638204.148 7  95181253.786 7       550.958          45.000
E08  22540104.984 8 118449026.849 8     -1922.922          51.000    22540103.094 8  90759663.457 8     -1473.426          51.000
E30  22249522.336 8 116921997.311 8       892.738          51.000    22249524.578 8  89589615.498 8       684.028          51.000
> 2020 05 15 04 38  0.0000000  0 15        .000000000000
G05  23132656.531 5 121562913.793 5     -3430.699          32.000    23132644.766 5  94724338.221 5     -2673.278          30.000
G13  20148696.930 8 105882104.810 8        40.203          51.000    20148694.992 8  82505530.907 8        31.327          48.000
G17  24303934.727 4 127718038.922 4      2757.117          29.000    24303935.961 5  99520544.329 5      2148.403          30.000
G28  21014381.266 8 110431337.879 8      -918.191          48.000    21014379.844 7  86050404.719 7      -715.474          47.000
R01  19208234.852 8 102679027.065 8      -162.730          49.000    19208237.852 7  79861475.660 7      -126.568          42.000
R08  20766181.445 7 111201935.724 7     -3300.488          47.000    20766179.953 6  86490399.134 6     -2567.053          38.000
R10  20887181.859 5 111340430.318 5     -3062.676          31.000
R11  19407351.047 8 103706987.229 8       768.422          51.000    19407353.508 8  80661000.165 8       597.661          49.000
R12  22309759.820 8 119174729.761 8      3429.125          50.000    22309761.633 7  92691475.276 7      2667.097          46.000
C05  39794969.867 6 207222850.223 6        17.602          36.000    39794968.328 6 160237830.550 6        13.303          40.000
C23  22688170.961 8 118143337.400 8     -1725.320          50.000
E02  24514449.539 8 128824365.417 8     -1818.160          50.000    24514451.195 8  98709565.067 8     -1393.154          50.000
E07  23634114.883 7 124198128.407 7       709.883          45.000    23634115.773 7  95164789.860 7       543.822          46.000
E08  22551094.773 8 118506778.400 8     -1930.746          51.000    22551091.859 8  90803914.600 8     -1479.391          50.000
E30  22244445.531 8 116895318.469 8       882.211          51.000    22244447.547 8  89569173.272 8       676.076          51.000
> 2020 05 15 04 38 30.0000000  0 15        .000000000000
G05  23152255.328 5 121665912.925 5     -3436.777          34.000    23152241.664 5  94804597.093 5     -2678.011          34.000
G13  20148506.367 8 105881103.133 8        25.562          51.000    20148504.391 8  82504750.362 8        19.919          48.000
G28  21019670.320 7 110459132.267 7      -935.715          47.000    21019668.945 7  86072062.674 7      -729.128          46.000
G30  22604061.758 5 118785145.317 5     -2599.836          33.000
R01  19209217.758 8 102684283.507 8      -188.574          49.000    19209221.375 7  79865563.994 7      -146.669          43.000
R08  20784715.211 7 111301189.680 7     -3317.363          46.000    20784712.414 6  86567596.526 6     -2580.174          40.000
R10  20904438.562 4 111432422.010 4     -3072.570          28.000
R11  19403088.250 8 103684208.836 8       749.207          51.000    19403090.672 8  80643283.648 8       582.717          48.000
R12  22290528.242 8 119071998.892 8      3418.742          50.000    22290530.531 7  92611573.479 7      2659.022          45.000
C05  39794868.453 6 207222322.471 6        16.945          36.000    39794866.992 6 160237422.428 6        13.218          39.000
C23  22698131.766 8 118195204.256 8     -1733.359          50.000
E02  24524850.570 8 128879023.023 8     -1826.555          50.000    24524852.023 8  98751445.549 8     -1399.526          49.000
E07  23630091.234 7 124176984.187 7       698.945          45.000    23630092.625 7  95148588.411 7       535.621          46.000
E08  22562141.578 8 118564829.666 8     -1940.227          51.000    22562138.898 8  90848395.397 8     -1486.649          51.000
E30  22239440.758 8 116869018.104 8       870.207          51.000    22239442.555 8  89549021.051 8       666.770          51.000
> 2020 05 15 04 39  0.0000000  0 15        .000000000000
G05  23171907.094 6 121769188.872 6     -3441.281          37.000    23171894.414 5  94885071.751 5     -2681.524          34.000
G13  20148414.242 8 105880618.577 8        13.676          51.000    20148412.141 8  82504372.775 8        10.656          48.000
G17  24272525.531 5 127553014.547 5      2749.008          34.000    24272527.727 5  99391937.612 5      2142.087          34.000
G28  21025073.586 7 110487527.756 7      -950.473          45.000    21025072.422 7  86094189.017 7      -740.631          45.000
R01  19210360.594 8 102690395.243 8      -211.770          48.000    19210365.047 7  79870317.558 7      -164.710          43.000
R08  20803359.336 7 111401031.490 7     -3331.742          47.000    20803358.727 7  86645251.266 7     -2591.358          44.000
R10  20921775.305 5 111524790.266 5     -3078.332          34.000
R11  19398948.930 8 103662089.647 8       732.578          51.000    19398951.078 8  80626079.832 8       569.783          48.000
R12  22271369.742 8 118969659.750 8      3411.027          48.000    22271372.430 7  92531976.375 7      2653.021          44.000
C05  39794783.859 6 207221881.964 6        19.180          36.000    39794782.359 6 160237081.800 6        14.520          39.000
C23  22708153.375 8 118247389.517 8     -1738.719          51.000
E02  24535314.570 8 128934011.414 8     -1832.309          49.000    24535315.664 8  98793579.507 8     -1403.965          49.000
E07  23626145.328 7 124156248.158 7       690.535          46.000    23626146.914 7  95132699.746 7       529.081          46.000
E08  22573257.750 8 118623244.728 8     -1947.176          51.000    22573255.812 8  90893154.968 8     -1491.962          51.000
E30  22234520.164 8 116843160.689 8       860.637          51.000    22234521.766 8  89529208.218 8       659.419          51.000
> 2020 05 15 04 39 30.0000000  0 16        .000000000000
G05  23191575.742 5 121872554.629 5     -3450.270          35.000    23191569.477 5  94965616.395 5     -2688.525          35.000
G13  20148385.633 8 105880468.169 8        -3.684          51.000    20148383.539 8  82504255.575 8        -2.873          49.000
G15  20820005.758 5 109409868.115 5      1669.992          30.000
G17  24256854.258 6 127470657.247 6      2740.914          36.000    24256854.367 6  99327763.068 6      2135.780          36.000
G28  21030555.969 7 110516339.286 7      -970.336          44.000    21030555.188 7  86116639.544 7      -756.109          44.000
R01  19211628.492 8 102697176.244 8      -240.395          48.000    19211633.820 7  79875591.653 7      -186.977          44.000
R08  20822078.648 8 111501270.833 8     -3350.973          49.000    20822079.328 7  86723215.183 7     -2606.312          46.000
R10  20939135.609 5 111617316.339 5     -3090.379          30.000
R11  19394897.898 8 103640442.514 8       710.648          51.000    19394900.164 8  80609243.179 8       552.727          48.000
R12  22252249.555 7 118867526.909 7      3397.898          47.000    22252252.508 7  92452539.737 7      2642.810          45.000
C05  39794681.055 6 207221346.707 6        16.070          36.000    39794679.531 6 160236667.834 6        12.874          39.000
C23  22718200.656 8 118299709.863 8     -1749.336          50.000
E02  24545806.258 8 128989145.440 8     -1843.258          49.000    24545807.234 8  98835825.067 8     -1412.405          48.000
E07  23622242.758 7 124135737.593 7       676.883          47.000    23622244.102 7  95116983.864 7       518.665          47.000
E08  22584407.914 8 118681839.448 8     -1959.195          51.000    22584407.617 8  90938052.190 8     -1501.166          51.000
E30  22229648.859 8 116817562.455 8       845.934          51.000    22229650.305 8  89509593.983 8       648.165          51.000
> 2020 05 15 04 40  0.0000000  0 14        .000000000000
G05  23211293.141 5 121976174.057 5     -3455.078          34.000    23211291.398 5  95046358.790 5     -2692.269          35.000
G13  20148452.438 8 105880819.512 8       -17.055          51.000    20148450.523 8  82504529.329 8       -13.289          50.000
G17  24241224.656 5 127388522.828 5      2737.172          34.000    24241217.266 5  99263762.178 5      2132.852          34.000
G28  21036148.891 7 110545731.846 7      -986.344          44.000    21036148.180 7  86139542.801 7      -768.583          44.000
R01  19213053.695 8 102704796.460 8      -264.824          48.000    19213059.766 7  79881518.470 7      -205.977          44.000
R08  20840903.844 8 111602075.304 8     -3366.430          49.000    20840904.805 7  86801618.630 7     -2618.334          46.000
R11  19390966.805 8 103619436.061 8       692.676          51.000    19390969.289 8  80592904.823 8       538.751          48.000
R12  22233200.016 7 118765771.397 7      3388.656          46.000    22233202.992 7  92373396.591 7      2635.625          44.000
C05  39794591.672 6 207220881.796 6        17.465          36.000    39794590.328 6 160236308.361 6        13.399          40.000
C23  22728305.508 8 118352329.133 8     -1755.906          51.000
E02  24556357.016 8 129044590.295 8     -1850.230          49.000    24556358.094 8  98878308.775 8     -1417.754          48.000
E07  23618414.852 7 124115620.170 7       667.016          46.000    23618416.062 7  95101569.204 7       511.096          47.000
E08  22595623.188 8 118740779.939 8     -1967.355          50.000    22595625.078 8  90983214.359 8     -1507.481          51.000
E30  22224858.859 8 116792389.888 8       835.074          51.000    22224859.891 8  89490305.908 8       639.850          51.000
> 2020 05 15 04 40 30.0000000  0 14        .000000000000
G05  23231037.055 4 122079921.159 4     -3460.488          29.000    23231035.141 5  95127200.696 5     -2696.484          32.000
G13  20148591.586 8 105881550.917 8       -30.961          51.000    20148589.742 8  82505099.238 8       -24.125          49.000
G17  24225615.477 5 127306491.560 5      2732.785          31.000    24225603.273 5  99199841.860 5      2129.452          31.000
G28  21041828.945 7 110575581.425 7     -1002.777          44.000    21041828.125 7  86162802.194 7      -781.385          44.000
R01  19214613.016 8 102713131.910 8      -289.906          48.000    19214619.430 7  79888001.574 7      -225.483          44.000
R08  20859810.391 7 111703316.983 7     -3382.168          46.000    20859811.141 7  86880362.121 7     -2630.578          45.000
R11  19387132.086 8 103598945.076 8       674.227          51.000    19387134.641 8  80576967.374 8       524.398          48.000
R12  22214197.797 7 118664270.216 7      3378.953          44.000    22214201.625 7  92294451.271 7      2628.078          43.000
C05  39794492.641 6 207220364.914 6        17.895          36.000    39794491.312 6 160235909.415 6        13.828          40.000
C23  22738444.305 8 118405124.676 8     -1763.082          51.000
E02  24566943.375 8 129100222.038 8     -1857.672          49.000    24566944.406 8  98920935.654 8     -1423.348          48.000
E07  23614638.375 7 124095774.385 7       656.777          47.000    23614639.109 7  95086362.680 7       503.311          47.000
E08  22606880.453 8 118799943.142 8     -1975.910          48.000    22606884.922 8  91028547.193 8     -1514.039          51.000
E30  22220126.742 8 116767520.397 8       823.777          51.000    22220127.133 8  89471250.050 8       631.200          51.000
> 2020 05 15 04 41  0.0000000  0 14        .000000000000
G13  20148817.234 8 105882736.369 8       -42.141          51.000    20148815.203 8  82506022.957 8       -32.837          50.000
G17  24210040.055 6 127224639.877 6      2730.473          37.000    24210028.578 6  99136061.419 6      2127.647          36.000
G28  21047610.016 7 110605960.208 7     -1016.375          44.000    21047608.680 7  86186473.934 7      -791.981          44.000
G30  22678635.312 5 119177000.297 5     -2619.223          35.000
R01  19216320.367 8 102722257.524 8      -312.172          48.000    19216326.594 7  79895099.259 7      -242.800          44.000
R08  20878810.992 7 111805067.918 7     -3395.082          43.000    20878812.156 7  86959501.701 7     -2640.619          44.000
R11  19383407.734 8 103579043.511 8       658.578          51.000    19383410.312 7  80561488.368 7       512.227          47.000
R12  22195257.391 7 118563099.151 7      3371.875          43.000    22195262.992 7  92215762.683 7      2622.569          44.000
C05  39794397.727 6 207219871.712 6        20.945          36.000    39794396.406 6 160235527.235 6        16.399          40.000
C23  22748630.648 8 118458167.812 8     -1767.266          51.000
E02  24577579.000 8 129156112.501 8     -1862.367          49.000    24577579.930 7  98963760.792 7     -1426.907          47.000
E07  23610927.648 8 124076274.539 8       649.176          48.000    23610927.312 7  95071421.251 7       497.435          47.000
E08  22618194.031 8 118859401.860 8     -1981.824          48.000    22618200.195 8  91074106.503 8     -1518.598          51.000
E30  22215466.180 8 116743027.159 8       815.160          51.000    22215466.117 8  89452482.498 8       624.561          51.000
> 2020 05 15 04 41 30.0000000  0 15        .000000000000
G13  20149112.484 8 105884287.387 8       -60.191          51.000    20149110.266 8  82507231.542 8       -46.902          49.000
G15  20782517.500 4 109212865.932 4      1613.246          29.000
G17  24194482.617 6 127142881.935 6      2721.281          40.000    24194475.461 6  99072353.912 6      2120.473          39.000
G28  21053474.445 7 110636777.278 7     -1036.988          46.000    21053472.789 7  86210487.252 7      -808.043          44.000
G30  22693619.070 6 119255724.377 6     -2627.801          37.000    22693637.578 5  92926641.446 5     -2047.637          35.000
R01  19218158.883 8 102732083.337 8      -341.625          48.000    19218164.734 7  79902741.540 7      -265.708          44.000
R08  20897888.227 7 111907234.367 7     -3414.777          43.000    20897890.508 7  87038964.505 7     -2655.938          43.000
R11  19379776.836 8 103559639.765 8       636.098          51.000    19379779.023 7  80546396.564 7       494.743          47.000
R12  22176362.898 7 118462168.981 7      3357.902          46.000    22176370.141 7  92137261.428 7      2611.702          46.000
C05  39794290.195 6 207219310.802 6        17.090          36.000    39794288.648 6 160235093.488 6        13.490          39.000
C23  22758847.398 8 118511368.800 8     -1778.363          51.000
E02  24588246.562 8 129212170.933 8     -1873.703          48.000    24588247.578 7  99006714.640 7     -1435.769          46.000
E07  23607265.883 7 124057032.334 7       634.676          47.000    23607265.062 7  95056677.228 7       486.343          47.000
E08  22629547.172 8 118919066.352 8     -1994.586          49.000    22629553.867 8  91119823.446 8     -1528.298          51.000
E30  22210860.109 8 116718820.726 8       799.746          51.000    22210859.875 8  89433934.698 8       612.822          51.000
> 2020 05 15 04 42  0.0000000  0 15        .000000000000
G05  23290465.578 5 122392226.018 5     -3475.004          33.000    23290465.805 5  95370558.422 5     -2707.798          32.000
G13  20149503.602 8 105886342.290 8       -71.434          51.000    20149501.352 8  82508832.766 8       -55.663          50.000
G17  24178969.680 6 127061357.894 6      2719.270          39.000    24178963.094 6  99008828.635 6      2118.911          39.000
G28  21059448.367 7 110668169.184 7     -1050.430          47.000    21059446.367 7  86234948.450 7      -818.517          42.000
G30  22708656.719 5 119334756.965 5     -2629.062          33.000    22708658.289 5  92988123.050 5     -2048.626          33.000
R01  19220154.422 7 102742749.724 7      -364.012          47.000    19220160.227 7  79911037.608 7      -283.120          45.000
R08  20917070.023 7 112009953.679 7     -3427.590          46.000    20917072.508 7  87118857.272 7     -2665.906          44.000
R11  19376265.094 8 103540873.171 8       620.500          51.000    19376267.367 7  80531800.322 7       482.611          47.000
R12  22157540.445 7 118361621.172 7      3350.867          46.000    22157548.828 7  92059057.570 7      2606.230          46.000
C05  39794195.906 6 207218820.478 6        20.477          36.000    39794194.312 6 160234713.542 6        16.151          39.000
C23  22769120.359 8 118564862.714 8     -1782.547          51.000
E02  24598972.023 8 129268533.480 8     -1878.270          48.000    24598973.031 7  99049901.515 7     -1439.191          46.000
E07  23603679.461 7 124038186.371 7       627.094          47.000    23603678.953 8  95042236.798 8       480.590          48.000
E08  22640966.047 8 118979073.669 8     -2000.465          49.000    22640972.008 8  91165803.061 8     -1532.773          51.000
E30  22206334.844 8 116695038.580 8       791.219          51.000    22206334.352 8  89415712.010 8       606.268          51.000
> 2020 05 15 04 42 30.0000000  0 16        .000000000000
G05  23310334.266 6 122496632.211 6     -3483.934          36.000    23310327.070 6  95451913.765 6     -2714.760          36.000
G13  20149966.508 8 105888774.484 8       -89.000          51.000    20149964.227 8  82510727.982 8       -69.351          50.000
G15  20764251.383 5 109116877.505 5      1585.344          30.000
G17  24163477.086 6 126979943.497 6      2710.398          38.000    24163471.211 6  98945388.858 6      2111.999          37.000
G28  21065506.984 7 110700006.504 7     -1070.242          46.000    21065504.383 7  86259756.752 7      -833.955          43.000
R01  19222282.742 7 102754127.471 7      -392.848          46.000    19222288.844 7  79919886.944 7      -305.548          44.000
R08  20936331.305 7 112113093.483 7     -3446.629          46.000    20936333.469 7  87199077.069 7     -2680.714          46.000
R11  19372848.305 8 103522613.392 8       598.551          51.000    19372850.336 7  80517598.257 7       465.539          47.000
R12  22138765.516 7 118261327.404 7      3337.270          46.000    22138774.312 7  91981051.280 7      2595.651          44.000
C05  39794090.695 6 207218272.482 6        17.562          36.000    39794089.094 6 160234289.795 6        13.683          39.000
C20  22681976.570 5 118110998.017 5       591.520          32.000
C23  22779425.016 8 118618521.964 8     -1792.977          50.000
E02  24609730.938 8 129325071.244 8     -1889.039          48.000    24609731.422 7  99093222.637 7     -1447.398          46.000
E07  23600144.273 7 124019610.180 7       613.129          47.000    23600144.242 8  95028003.082 8       469.914          48.000
E08  22652426.219 8 119039295.829 8     -2012.500          51.000    22652430.758 8  91211947.272 8     -1541.980          51.000
E30  22201865.930 8 116671553.126 8       776.457          51.000    22201865.375 8  89397716.658 8       594.942          51.000
> 2020 05 15 04 43  0.0000000  0 16        .000000000000
G05  23330236.281 6 122601219.941 6     -3487.059          38.000    23330229.227 6  95533410.530 6     -2717.195          38.000
G13  20150515.125 8 105891657.577 8      -101.371          51.000    20150512.992 8  82512974.547 8       -78.990          50.000
G17  24148019.102 6 126898714.839 6      2706.809          38.000    24148013.648 6  98882093.797 6      2109.205          38.000
G28  21071663.891 8 110732360.851 8     -1084.801          48.000    21071661.039 6  86284967.938 6      -845.299          40.000
R01  19224558.344 7 102766291.249 7      -416.301          47.000    19224564.031 7  79929347.669 7      -323.789          44.000
R08  20955683.703 7 112216725.155 7     -3460.137          43.000    20955686.117 7  87279679.469 7     -2691.217          46.000
R10  21061978.812 5 112272118.259 5     -3143.801          35.000
R11  19369539.812 8 103504933.969 8       581.859          50.000    19369541.531 7  80503847.615 7       452.557          46.000
R12  22120052.484 7 118161363.567 7      3329.047          46.000    22120060.180 7  91903301.615 7      2589.259          42.000
C05  39793988.492 6 207217740.220 6        19.906          36.000    39793986.906 6 160233878.207 6        15.196          39.000
C20  22678610.844 5 118093496.128 5       577.062          30.000
C23  22789775.195 8 118672417.720 8     -1798.328          51.000
E02  24620536.898 8 129381855.841 8     -1894.543          48.000    24620536.664 7  99136732.891 7     -1451.747          45.000
E07  23596674.477 7 124001377.811 7       604.242          47.000    23596675.039 8  95014032.813 8       463.102          49.000
E08  22663941.625 8 119099805.319 8     -2019.508          51.000    22663943.906 8  91258311.657 8     -1547.427          51.000
E30  22197467.055 8 116648437.252 8       766.629          51.000    22197467.008 8  89380004.502 8       587.420          51.000
> 2020 05 15 04 43 30.0000000  0 16        .000000000000
G05  23350169.953 6 122705971.906 6     -3496.281          40.000    23350165.156 6  95615035.334 6     -2724.375          38.000
G13  20151146.969 8 105894978.069 8      -119.836          51.000    20151144.875 8  82515561.944 8       -93.379          50.000
G17  24132594.375 6 126817660.722 6      2697.410          38.000    24132588.562 6  98818934.715 6      2101.878          38.000
G28  21077916.203 8 110765216.560 8     -1105.348          48.000    21077913.352 6  86310569.801 6      -861.310          40.000
G30  22753813.438 4 119572096.390 4     -2647.656          28.000
R01  19226978.367 7 102779227.270 7      -446.016          46.000    19226983.719 7  79939409.021 7      -346.901          44.000
R08  20975123.797 6 112320831.329 6     -3479.934          41.000    20975127.148 7  87360650.974 7     -2706.612          45.000
R11  19366336.742 8 103487819.507 8       559.250          49.000    19366338.875 7  80490536.367 7       434.972          46.000
R12  22101399.422 7 118061716.554 7      3314.414          47.000    22101403.664 7  91825798.431 7      2577.881          42.000
C05  39793886.664 6 207217209.644 6        16.223          36.000    39793884.992 6 160233467.931 6        12.191          40.000
C20  22675341.039 5 118076460.333 5       557.445          33.000
C23  22800167.789 8 118726534.581 8     -1809.293          51.000
E02  24631386.719 7 129438871.583 7     -1906.086          47.000    24631386.414 7  99180420.260 7     -1460.543          46.000
E07  23593267.594 7 123983475.968 7       589.469          47.000    23593269.125 8  95000315.815 8       451.596          50.000
E08  22675509.055 8 119160587.356 8     -2032.426          51.000    22675508.820 8  91304884.875 8     -1557.319          50.000
E30  22193135.695 8 116625676.556 8       750.969          51.000    22193136.328 8  89362564.496 8       575.382          51.000
> 2020 05 15 04 44  0.0000000  0 16        .000000000000
G05  23370134.945 6 122810890.291 6     -3498.969          40.000    23370130.953 6  95696789.809 6     -2726.472          39.000
G13  20151863.172 8 105898741.949 8      -131.836          50.000    20151861.055 8  82518494.846 8      -102.729          50.000
G17  24117204.625 6 126736789.434 6      2693.680          39.000    24117199.391 6  98755918.161 6      2098.974          39.000
G28  21084264.578 8 110798577.352 8     -1119.480          49.000    21084261.734 6  86336565.229 6      -872.319          39.000
R01  19229543.922 7 102792940.638 7      -468.949          47.000    19229548.945 7  79950074.951 7      -364.738          43.000
R08  20994653.578 7 112425414.531 7     -3492.938          44.000    20994656.789 7  87441993.460 7     -2716.729          43.000
R11  19363239.938 8 103471274.349 8       543.082          48.000    19363242.836 7  80477667.925 7       422.397          46.000
R12  22082806.883 7 117962392.613 7      3306.406          46.000    22082809.023 7  91748546.562 7      2571.652          43.000
C05  39793786.000 6 207216685.815 6        18.391          36.000    39793784.391 6 160233062.833 6        14.284          40.000
C20  22672168.930 5 118059950.323 5       544.316          31.000
C23  22810603.562 8 118780876.255 8     -1814.145          51.000
E02  24642281.039 8 129496122.038 8     -1911.215          48.000    24642281.445 7  99224287.466 7     -1464.446          46.000
E07  23589924.875 8 123965910.663 8       580.938          48.000    23589927.414 8  94986856.669 8       445.143          50.000
E08  22687129.109 8 119221646.409 8     -2038.918          51.000    22687126.805 8  91351670.359 8     -1562.330          49.000
E27  26427919.781 7 138879652.491 7      2747.328          43.000
E30  22188872.828 8 116603275.872 8       741.699          51.000    22188874.133 8  89345400.334 8       568.360          51.000
> 2020 05 15 04 44 30.0000000  0 16        .000000000000
G05  23390123.406 6 122915931.414 6     -3505.121          40.000    23390116.930 6  95778639.977 6     -2731.263          37.000
G13  20152656.125 8 105902909.621 8      -147.227          49.000    20152654.188 8  82521742.384 8      -114.722          49.000
G17  24101842.914 6 126656062.906 6      2686.766          41.000    24101839.195 6  98693014.419 6      2093.584          41.000
G28  21090701.141 8 110832401.208 8     -1136.812          48.000    21090698.812 6  86362921.493 6      -885.825          39.000
R01  19232247.453 7 102807390.868 7      -495.738          47.000    19232251.984 7  79961314.017 7      -385.574          43.000
R08  21014265.375 7 112530430.637 7     -3509.422          47.000    21014266.859 6  87523672.636 6     -2729.550          41.000
R11  19360242.414 8 103455256.973 8       523.469          50.000    19360245.227 7  80465209.968 7       407.142          46.000
R12  22064266.961 7 117863352.421 7      3294.746          44.000    22064269.172 7  91671515.348 7      2562.577          44.000
C05  39793679.016 6 207216128.735 6        17.605          36.000    39793677.383 6 160232632.059 6        13.511          39.000
C20  22669084.820 4 118043873.691 4       526.000          29.000
C23  22821074.656 8 118835401.553 8     -1822.234          51.000
E02  24653212.000 7 129553565.439 7     -1919.586          47.000    24653213.359 7  99268302.526 7     -1470.768          46.000
E07  23586638.789 7 123948642.570 7       569.062          47.000    23586641.852 8  94973625.266 8       436.092          50.000
E08  22698793.500 8 119282941.671 8     -2048.668          51.000    22698790.492 8  91398636.821 8     -1569.791          50.000
E27  26412250.805 7 138797311.047 7      2740.887          44.000
E30  22184670.617 8 116581194.736 8       729.090          51.000    22184672.562 8  89328481.032 8       558.686          51.000
> 2020 05 15 04 45  0.0000000  0 16        .000000000000
G05  23410145.711 6 123021148.424 6     -3508.707          41.000    23410135.211 6  95860627.166 6     -2734.060          39.000
G13  20153536.484 8 105907536.713 8      -160.535          50.000    20153534.781 8  82525347.915 8      -125.092          50.000
G17  24086520.125 7 126575539.849 7      2682.305          42.000    24086518.055 7  98630269.209 7      2090.108          43.000
G28  21097235.781 8 110866741.410 8     -1151.852          48.000    21097233.883 6  86389680.116 6      -897.547          38.000
R01  19235099.133 7 102822634.065 7      -519.660          47.000    19235103.445 7  79973169.831 7      -404.183          43.000
R08  21033967.844 8 112635932.483 8     -3523.262          48.000    21033968.281 6  87605729.576 6     -2740.318          41.000
R10  21133150.781 5 112651507.997 5     -3175.738          31.000
R11  19357354.031 8 103439822.226 8       506.363          50.000    19357356.812 7  80453205.171 7       393.838          46.000
R12  22045788.188 7 117764653.345 7      3285.836          43.000    22045793.453 7  91594749.295 7      2555.644          44.000
C05  39793576.133 6 207215592.934 6        18.531          36.000    39793574.523 6 160232217.698 6        14.873          39.000
C23  22831591.234 8 118890163.693 8     -1827.875          51.000
E02  24664189.867 7 129611255.347 7     -1925.625          47.000    24664191.648 7  99312506.466 7     -1475.383          45.000
E07  23583420.109 8 123931727.633 8       559.410          48.000    23583423.070 8  94960664.459 8       428.726          50.000
E08  22710512.719 8 119344527.525 8     -2056.133          51.000    22710510.414 8  91445825.949 8     -1575.547          50.000
E27  26396616.656 7 138715153.110 7      2737.129          44.000
E30  22180539.469 8 116559487.922 8       718.832          51.000    22180542.094 8  89311848.550 8       550.799          51.000
> 2020 05 15 04 45 30.0000000  0 16        .000000000000
G05  23430194.281 7 123126502.102 7     -3517.402          42.000    23430182.312 6  95942720.883 6     -2740.833          40.000
G13  20154497.555 8 105912587.859 8      -178.848          49.000    20154496.055 8  82529283.883 8      -139.362          49.000
G17  24071229.773 7 126495186.944 7      2672.090          43.000    24071228.438 7  98567656.542 7      2082.148          43.000
G28  21103861.547 8 110901560.397 8     -1171.930          48.000    21103859.672 6  86416811.800 6      -913.192          39.000
R01  19238092.594 8 102838633.540 8      -549.305          49.000    19238096.648 7  79985613.861 7      -427.237          42.000
R08  21053753.664 8 112741880.840 8     -3542.457          48.000    21053754.195 7  87688133.801 7     -2755.244          43.000
R10  21151045.352 5 112746904.403 5     -3186.395          34.000
R11  19354567.688 8 103424932.373 8       483.918          49.000    19354570.406 7  80441624.192 7       376.381          46.000
R12  22027369.062 8 117666259.857 8      3271.227          48.000    22027374.570 7  91518220.980 7      2544.287          44.000
C05  39793470.398 6 207215042.573 6        14.957          36.000    39793468.844 6 160231792.123 6        11.765          39.000
C23  22842146.141 8 118945125.625 8     -1838.691          51.000
E02  24675207.469 7 129669154.142 7     -1936.785          46.000    24675208.938 7  99356870.454 7     -1483.952          44.000
E07  23580261.969 8 123915130.629 8       544.531          48.000    23580264.812 8  94947947.279 8       417.283          50.000
E08  22722280.234 8 119406367.241 8     -2068.906          51.000    22722279.258 8  91493209.590 8     -1585.221          51.000
E27  26381010.469 6 138633143.480 6      2727.797          41.000
E30  22176472.789 8 116538119.090 8       703.312          51.000    22176475.859 8  89295475.047 8       538.920          51.000
> 2020 05 15 04 46  0.0000000  0 17        .000000000000
G05  23450276.352 7 123232031.273 7     -3519.715          43.000    23450265.070 6  96024951.326 6     -2742.638          41.000
G13  20155547.469 8 105918105.811 8      -191.074          50.000    20155546.219 8  82533583.573 8      -148.889          50.000
G15  20702922.984 5 108794593.819 5      1482.578          31.000
G17  24055980.133 7 126415049.534 7      2668.309          42.000    24055978.617 7  98505211.787 7      2079.202          42.000
G28  21110586.164 7 110936898.912 7     -1185.750          47.000    21110584.125 6  86444348.309 6      -923.961          37.000
R01  19241235.547 8 102855432.815 8      -572.543          48.000    19241239.234 7  79998679.941 7      -445.314          42.000
R08  21073630.727 8 112848315.926 8     -3555.145          49.000    21073631.297 7  87770916.592 7     -2765.112          44.000
R10  21168988.367 5 112842551.570 5     -3191.551          34.000
R11  19351891.195 8 103410630.020 8       467.832          49.000    19351893.750 7  80430500.140 7       363.869          46.000
R12  22009016.906 8 117568216.459 8      3263.023          50.000    22009020.617 7  91441965.034 7      2537.907          44.000
C05  39793370.008 6 207214519.800 6        17.516          36.000    39793368.531 6 160231387.860 6        13.756          39.000
C23  22852747.180 8 119000328.099 8     -1843.316          51.000
E02  24686272.789 7 129727302.782 7     -1941.672          45.000    24686273.648 7  99401425.900 7     -1487.834          45.000
E07  23577172.438 8 123898894.918 8       536.000          48.000    23577175.375 8  94935506.938 8       410.564          50.000
E08  22734104.211 8 119468502.631 8     -2075.312          51.000    22734104.727 8  91540819.791 8     -1590.163          51.000
E27  26365440.445 6 138551325.365 6      2724.703          38.000
E30  22172478.711 8 116517130.447 8       694.055          51.000    22172481.766 8  89279392.846 8       531.844          51.000
> 2020 05 15 04 46 30.0000000  0 17        .000000000000
G05  23470380.195 7 123337675.987 7     -3523.836          43.000    23470369.891 7  96107271.836 7     -2745.849          42.000
G13  20156675.430 8 105924033.132 8      -204.781          50.000    20156674.086 8  82538202.255 8      -159.573          50.000
G15  20694495.391 5 108750287.450 5      1469.938          32.000    20694484.477 5  84740474.422 5      1145.403          31.000
G17  24040760.414 6 126335072.412 6      2662.930          38.000    24040759.320 6  98442891.992 6      2075.013          39.000
G28  21117398.414 7 110972697.407 7     -1201.312          47.000    21117396.641 6  86472243.256 6      -936.088          37.000
R01  19244516.938 8 102872972.601 8      -597.453          49.000    19244520.211 6  80012321.985 6      -464.686          41.000
R08  21093586.648 8 112955175.420 8     -3569.414          49.000    21093586.938 7  87854029.481 7     -2776.211          42.000
R10  21186965.625 5 112938386.608 5     -3198.125          34.000
R11  19349313.250 8 103396854.867 8       449.938          49.000    19349315.953 7  80419786.131 7       349.951          46.000
R12  21990719.273 8 117470465.416 8      3253.062          49.000    21990721.031 7  91365936.443 7      2530.160          44.000
C05  39793263.711 6 207213966.819 6        18.090          36.000    39793262.344 6 160230960.255 6        14.169          39.000
C23  22863383.141 8 119055712.143 8     -1849.547          51.000
E02  24697374.398 7 129785641.587 7     -1948.348          45.000    24697375.195 7  99446127.046 7     -1492.866          45.000
E07  23574140.625 8 123882963.213 8       525.484          48.000    23574143.523 8  94923299.522 8       402.656          51.000
E08  22745973.352 8 119530874.906 8     -2083.504          51.000    22745975.258 8  91588611.506 8     -1596.448          51.000
E27  26349896.055 5 138469641.401 5      2720.184          35.000
E30  22168545.875 8 116496463.522 8       683.066          51.000    22168548.773 8  89263557.156 8       523.380          51.000
> 2020 05 15 04 47  0.0000000  0 19        .000000000000
G05  23490512.688 6 123443473.422 6     -3529.785          41.000    23490504.180 6  96189711.350 6     -2750.485          41.000
G13  20157889.234 8 105930411.015 8      -220.625          51.000    20157887.672 8  82543172.022 8      -171.916          51.000
G15  20686152.281 5 108706435.672 5      1453.594          35.000    20686142.570 5  84706304.251 5      1132.673          34.000
G17  24025579.117 6 126255299.106 6      2655.172          38.000    24025578.711 6  98380730.992 6      2068.965          36.000
G24  23331293.461 5 122606773.921 5      2968.715          33.000
G28  21124305.586 7 111008994.445 7     -1218.879          46.000    21124304.086 6  86500526.665 6      -949.776          37.000
G30  22860168.320 5 120130995.177 5     -2676.902          31.000
R01  19247944.383 7 102891294.396 7      -624.422          47.000    19247947.391 6  80026572.258 6      -485.664          41.000
R08  21113628.539 7 113062497.577 7     -3585.609          47.000    21113628.086 7  87937502.191 7     -2788.807          42.000
R10  21204985.359 5 113034448.298 5     -3206.574          32.000
R11  19346841.727 8 103383647.185 8       430.180          48.000    19346844.219 7  80409513.464 7       334.584          46.000
R12  21972482.227 7 117373048.926 7      3241.141          46.000    21972483.664 7  91290168.056 7      2520.884          44.000
C05  39793159.484 6 207213423.656 6        17.348          36.000    39793158.055 6 160230540.228 6        13.647          39.000
C23  22874061.359 8 119111316.484 8     -1857.605          50.000
E02  24708519.461 7 129844209.414 7     -1956.586          44.000    24708520.922 7  99491003.689 7     -1499.178          45.000
E07  23571174.547 8 123867376.708 8       513.336          48.000    23571177.211 8  94911356.628 8       393.234          51.000
E08  22757895.070 8 119593523.764 8     -2093.367          51.000    22757897.648 8  91636615.143 8     -1604.027          51.000
E27  26334385.664 5 138388132.866 5      2714.016          33.000
E30  22164681.914 8 116476158.396 8       670.293          51.000    22164684.617 8  89247998.677 8       513.646          51.000
> 2020 05 15 04 47 30.0000000  0 17        .000000000000
G05  23510675.531 6 123549433.781 6     -3532.996          40.000    23510669.336 6  96272277.822 6     -2752.984          40.000
G13  20159191.477 8 105937253.613 8      -234.332          51.000    20159189.633 8  82548503.894 8      -182.596          50.000
G15  20677891.875 5 108663054.980 5      1439.895          32.000
G17  24010439.609 5 126175745.975 5      2650.184          35.000    24010440.297 5  98318741.563 5      2065.081          35.000
G28  21131309.773 7 111045801.627 7     -1233.855          46.000    21131307.945 6  86529207.612 6      -961.446          36.000
G30  22875471.453 5 120211406.192 5     -2680.008          34.000    22875463.977 5  93671206.516 5     -2088.315          33.000
R01  19251520.172 7 102910411.661 7      -648.922          46.000    19251523.477 6  80041441.223 6      -504.717          41.000
R08  21133757.961 7 113170292.962 7     -3599.344          45.000    21133757.945 7  88021342.985 7     -2799.490          43.000
R10  21223049.484 5 113130747.980 5     -3212.199          30.000
R11  19344478.828 8 103371019.711 8       412.941          49.000    19344481.188 7  80399692.096 7       321.177          46.000
R12  21954309.555 7 117275982.069 7      3231.426          46.000    21954311.977 7  91214671.638 7      2513.331          44.000
C05  39793059.625 6 207212903.830 6        18.539          36.000    39793058.281 6 160230138.240 6        14.459          40.000
C23  22884784.047 8 119167153.303 8     -1863.602          49.000
E02  24719710.523 7 129903018.426 7     -1962.629          44.000    24719712.391 7  99536065.138 7     -1503.943          45.000
E07  23568276.898 8 123852149.986 8       503.160          48.000    23568279.602 8  94899689.386 8       385.598          51.000
E08  22769871.984 8 119656462.202 8     -2101.109          51.000    22769874.328 8  91684840.674 8     -1609.953          51.000
E30  22160889.539 8 116456228.433 8       659.770          51.000    22160891.961 8  89232727.662 8       505.508          51.000
> 2020 05 15 04 48  0.0000000  0 15        .000000000000
G05  23530866.055 6 123655543.398 6     -3539.570          36.000    23530862.695 5  96354960.558 5     -2758.113          35.000
G13  20160580.172 8 105944550.712 8      -250.621          51.000    20160578.070 8  82554189.940 8      -195.292          50.000
G17  23995341.062 5 126096405.326 5      2641.836          34.000    23995343.078 5  98256917.675 5      2058.573          34.000
G28  21138408.953 7 111083107.024 7     -1251.562          45.000    21138406.430 6  86558276.726 6      -975.244          37.000
R01  19255242.680 7 102930313.836 7      -676.191          46.000    19255246.039 6  80056920.694 6      -525.927          41.000
R08  21153972.602 7 113278548.028 7     -3615.801          45.000    21153974.555 7  88105541.376 7     -2812.289          46.000
R10  21241156.742 5 113227271.217 5     -3221.254          35.000
R11  19342222.398 8 103358960.639 8       392.676          50.000    19342224.109 7  80390312.807 7       305.414          46.000
R12  21936201.789 7 117179255.284 7      3218.672          47.000    21936204.500 7  91139439.730 7      2503.411          46.000
C05  39792962.258 6 207212396.664 6        16.750          36.000    39792960.945 6 160229746.055 6        13.007          39.000
C23  22895549.094 8 119223210.716 8     -1872.000          49.000
E02  24730945.156 7 129962056.438 7     -1971.488          45.000    24730946.844 7  99581302.026 7     -1510.564          45.000
E07  23565445.688 8 123837273.158 8       490.336          48.000    23565448.688 8  94888290.250 8       375.664          51.000
E08  22781902.016 8 119719678.814 8     -2111.629          51.000    22781903.359 8  91733279.370 8     -1617.977          51.000
E30  22157166.570 8 116436662.627 8       646.344          51.000    22157168.648 8  89217735.675 8       495.283          51.000
> 2020 05 15 04 48 30.0000000  0 16        .000000000000
G05  23551069.430 5 123761725.580 5     -3541.375          33.000    23551068.820 5  96437699.825 5     -2759.516          33.000
G13  20162041.320 8 105952228.668 8      -263.066          51.000    20162039.172 8  82560172.740 8      -204.987          49.000
G17  23980270.031 6 126017205.694 6      2637.047          37.000    23980272.547 6  98195203.668 6      2054.842          37.000
G28  21145588.258 7 111120834.440 7     -1265.469          42.000    21145585.828 6  86587674.745 6      -986.077          39.000
R01  19259097.789 7 102950925.094 7      -699.566          46.000    19259101.539 6  80072951.683 6      -544.107          41.000
R08  21174259.039 7 113387183.547 7     -3628.273          46.000    21174262.211 7  88190035.693 7     -2821.990          47.000
R10  21259292.102 4 113323940.280 4     -3225.137          29.000
R11  19340058.047 8 103347393.177 8       376.621          50.000    19340059.727 7  80381315.894 7       292.928          47.000
R12  21918144.250 7 117082794.103 7      3210.172          47.000    21918147.641 7  91064414.377 7      2496.800          47.000
C05  39792853.148 6 207211828.408 6        18.852          36.000    39792851.805 6 160229306.585 6        15.088          39.000
C23  22906342.328 8 119279413.685 8     -1876.551          50.000
E02  24742209.047 7 130021247.494 7     -1976.262          44.000    24742210.172 7  99626656.189 7     -1514.287          45.000
E07  23562667.078 8 123822672.709 8       481.293          49.000    23562670.250 8  94877102.869 8       368.873          51.000
E08  22793970.508 8 119783098.534 8     -2118.086          51.000    22793970.984 8  91781873.696 8     -1622.958          51.000
E27  26288049.383 5 138144622.892 5      2698.895          35.000
E30  22153498.578 8 116417386.213 8       637.035          51.000    22153500.281 8  89202965.437 8       488.112          51.000
> 2020 05 15 04 49  0.0000000  0 14        .000000000000
G13  20163600.273 8 105960421.032 8      -281.484          51.000    20163598.305 8  82566556.383 8      -219.338          49.000
G17  23965252.055 6 125938283.298 6      2626.270          37.000    23965253.898 6  98133705.681 6      2046.444          36.000
G28  21152872.586 7 111159114.876 7     -1285.148          44.000    21152870.141 6  86617503.680 6     -1001.414          37.000
R01  19263110.984 7 102972380.531 7      -729.125          45.000    19263115.344 7  80089639.203 7      -567.097          42.000
R08  21194642.125 8 113496332.340 8     -3646.738          48.000    21194645.391 7  88274929.202 7     -2836.352          47.000
R11  19338010.562 8 103336451.712 8       354.418          50.000    19338012.391 7  80372805.868 7       275.658          45.000
R12  21900160.969 7 116986735.303 7      3195.480          45.000    21900166.117 7  90989701.925 7      2485.371          47.000
C05  39792757.789 6 207211330.731 6        15.770          36.000    39792756.242 6 160228921.777 6        11.901          39.000
C23  22917188.711 8 119335892.727 8     -1887.133          50.000
E02  24753527.148 7 130080723.060 7     -1987.074          44.000    24753527.961 7  99672228.397 7     -1522.641          44.000
E07  23559966.570 8 123808482.407 8       466.289          50.000    23559969.922 8  94866229.798 8       357.277          51.000
E08  22806102.562 8 119846853.672 8     -2130.625          51.000    22806102.680 8  91830725.035 8     -1632.578          51.000
E27  26272676.586 6 138063830.832 6      2689.289          36.000    26272668.461 5 105789157.491 5      2060.618          34.000
E30  22149910.844 8 116398531.910 8       621.559          51.000    22149912.164 8  89188518.622 8       476.310          51.000
> 2020 05 15 04 49 30.0000000  0 14        .000000000000
G13  20165235.188 8 105969012.761 8      -293.477          51.000    20165233.312 8  82573251.212 8      -228.683          49.000
G17  23950265.336 5 125859525.652 5      2621.766          35.000    23950265.875 5  98072336.119 5      2042.937          35.000
G28  21160240.055 7 111197831.563 7     -1298.406          42.000    21160237.102 6  86647672.493 6     -1011.745          37.000
R01  19267260.383 7 102994562.879 7      -751.984          46.000    19267264.688 6  80106892.124 6      -584.874          41.000
R08  21215099.086 8 113605873.924 8     -3658.422          49.000    21215101.133 7  88360128.212 7     -2845.439          46.000
R11  19336058.102 8 103326017.651 8       338.801          49.000    19336059.297 7  80364690.475 7       263.512          45.000
R12  21882231.680 7 116890945.569 7      3187.133          46.000    21882236.141 7  90915199.994 7      2478.881          47.000
C05  39792653.898 6 207210790.559 6        18.340          36.000    39792652.312 6 160228503.271 6        14.037          40.000
C23  22928065.891 8 119392532.316 8     -1891.125          50.000
E02  24764876.867 7 130140366.452 7     -1991.348          45.000    24764877.992 7  99717929.170 7     -1525.964          45.000
E07  23557322.266 8 123794587.911 8       457.660          49.000    23557325.992 8  94855583.358 8       350.690          51.000
E08  22818275.945 8 119910828.291 8     -2136.695          50.000    22818276.742 8  91879744.551 8     -1637.178          51.000
E27  26257327.805 5 137983185.477 5      2685.957          34.000    26257318.633 5 105727348.246 5      2058.388          35.000
E30  22146381.328 8 116379984.116 8       612.617          51.000    22146382.414 8  89174306.672 8       469.393          51.000
> 2020 05 15 04 50  0.0000000  0 14        .000000000000
G13  20166952.094 8 105978035.167 8      -308.262          51.000    20166950.156 8  82580281.639 8      -240.204          48.000
G17  23935315.797 5 125780966.062 5      2613.844          31.000    23935315.125 5  98011120.946 5      2036.764          31.000
G28  21167696.023 7 111237013.428 7     -1313.934          43.000    21167693.133 6  86678203.835 6     -1023.847          37.000
R01  19271551.898 7 103017503.103 7      -777.688          46.000    19271556.203 7  80124734.522 7      -604.868          43.000
R08  21235634.352 7 113715836.138 7     -3672.793          47.000    21235635.406 7  88445654.356 7     -2856.617          45.000
R11  19334206.086 8 103316121.503 8       320.586          49.000    19334207.359 7  80356993.485 7       249.345          46.000
R12  21864363.672 8 116795504.538 8      3176.121          49.000    21864365.641 7  90840955.989 7      2470.319          46.000
C05  39792547.445 6 207210236.090 6        18.383          36.000    39792545.812 6 160228074.495 6        14.160          39.000
C23  22938979.391 8 119449361.578 8     -1897.816          50.000
E02  24776264.047 7 130200206.855 7     -1998.363          44.000    24776265.438 7  99763780.862 7     -1531.219          44.000
E07  23554740.578 8 123781020.731 8       446.273          49.000    23554744.289 8  94845187.709 8       342.034          51.000
E08  22830496.133 7 119975052.394 7     -2145.297          47.000    22830498.766 8  91928955.197 8     -1643.799          51.000
E27  26242008.656 6 137902683.245 6      2680.910          36.000    26241999.477 6 105665659.464 6      2053.917          37.000
E30  22142915.797 8 116361773.145 8       601.031          51.000    22142916.859 8  89160352.809 8       460.602          51.000
> 2020 05 15 04 50 30.0000000  0 14        .000000000000
G13  20168751.266 8 105987489.830 8      -321.359          51.000    20168749.039 8  82587648.893 8      -250.410          49.000
G17  23920401.602 5 125702558.531 5      2608.938          30.000
G28  21175240.414 6 111276659.510 6     -1328.465          41.000    21175237.766 6  86709096.841 6     -1035.167          39.000
R01  19275985.367 8 103041201.811 8      -801.660          48.000    19275990.281 7  80143166.792 7      -623.516          44.000
R08  21256247.586 7 113826217.174 7     -3685.344          45.000    21256247.930 7  88531506.251 7     -2866.378          43.000
R11  19332454.680 8 103306763.054 8       303.898          50.000    19332456.242 7  80349714.684 7       236.365          46.000
R12  21846554.062 8 116700366.988 8      3166.789          49.000    21846557.047 7  90766961.769 7      2463.058          47.000
C05  39792438.562 6 207209669.233 6        19.684          36.000    39792436.938 6 160227636.134 6        15.514          39.000
C23  22949929.070 8 119506380.016 8     -1902.797          49.000
E02  24787688.781 6 130260243.482 6     -2003.547          40.000    24787689.867 7  99809782.928 7     -1535.116          43.000
E07  23552221.406 8 123767782.460 8       436.719          49.000    23552225.148 8  94835044.097 8       334.647          51.000
E08  22842764.125 7 120039526.055 7     -2152.363          47.000    22842768.375 8  91978357.070 8     -1649.175          51.000
E27  26226719.023 6 137822332.906 6      2676.742          38.000    26226710.047 6 105604092.386 6      2050.938          38.000
E30  22139514.539 8 116343899.489 8       591.137          51.000    22139515.641 8  89146657.420 8       452.955          51.000
> 2020 05 15 04 51  0.0000000  0 15        .000000000000
G05  23652474.375 5 124294586.790 5     -3557.227          33.000    23652478.781 5  96852945.767 5     -2771.859          32.000
G13  20170624.453 8 105997333.561 8      -332.238          51.000    20170621.984 8  82595319.322 8      -258.887          49.000
G28  21182864.219 6 111316724.167 6     -1340.438          39.000    21182862.117 6  86740316.071 6     -1044.497          37.000
G30  22983167.508 5 120777317.544 5     -2703.547          35.000    22983169.562 6  94112222.087 6     -2106.651          37.000
R01  19280552.938 8 103065614.117 8      -823.168          49.000    19280557.375 7  80162154.139 7      -640.242          44.000
R08  21276929.516 7 113936969.067 7     -3695.488          44.000    21276929.375 7  88617646.547 7     -2874.272          42.000
R11  19330795.492 8 103297896.389 8       289.812          50.000    19330797.180 7  80342818.367 7       225.410          46.000
R12  21828796.695 8 116605514.833 8      3159.719          50.000    21828800.648 7  90693186.269 7      2457.559          47.000
C05  39792319.047 6 207209046.464 6        23.879          36.000    39792317.492 6 160227154.542 6        18.794          39.000
C23  22960906.656 8 119563542.953 8     -1905.508          49.000
E02  24799141.812 6 130320431.023 6     -2006.250          38.000    24799142.883 7  99855900.709 7     -1537.221          43.000
E07  23549756.492 8 123754830.170 8       429.406          50.000    23549760.609 8  94825119.604 8       329.041          51.000
E08  22855071.859 8 120104204.741 8     -2156.977          49.000    22855076.836 8  92027916.069 8     -1652.691          51.000
E27  26211447.844 6 137742085.405 6      2675.074          39.000    26211440.031 6 105542616.038 6      2049.759          40.000
E30  22136169.055 8 116326318.991 8       583.676          51.000    22136170.234 8  89133186.639 8       447.205          51.000
> 2020 05 15 04 51 30.0000000  0 15        .000000000000
G05  23672830.258 5 124401556.978 5     -3573.914          34.000    23672833.461 5  96936299.113 5     -2784.865          34.000
G13  20172601.477 8 106007722.740 8      -360.297          51.000    20172599.070 8  82603414.779 8      -280.751          49.000
G24  23179882.055 5 121811102.155 5      2915.484          32.000
G28  21190597.031 6 111357361.836 6     -1368.812          41.000    21190595.711 6  86771981.747 6     -1066.610          40.000
R01  19285283.633 8 103090898.644 8      -862.352          49.000    19285287.562 7  80181819.890 7      -670.718          44.000
R08  21297710.000 7 114048247.886 7     -3723.000          43.000    21297709.570 7  88704196.648 7     -2895.670          43.000
R11  19329257.656 8 103289679.326 8       258.051          49.000    19329259.695 7  80336427.323 7       200.706          46.000
R12  21811121.203 8 116511095.732 8      3135.051          51.000    21811125.750 8  90619749.185 8      2438.373          48.000
C05  39792218.469 6 207208522.488 6        10.859          36.000    39792216.898 6 160226749.355 6         8.696          39.000
C23  22971941.664 8 119621003.810 8     -1925.180          49.000
E02  24810652.586 6 130380924.168 6     -2026.297          40.000    24810654.148 7  99902252.621 7     -1552.695          43.000
E07  23547376.055 8 123742320.738 8       404.844          50.000    23547380.430 8  94815534.442 8       310.193          51.000
E08  22867448.648 8 120169243.883 8     -2178.730          51.000    22867453.984 8  92077751.252 8     -1669.426          51.000
E27  26196230.461 6 137662118.611 6      2655.816          38.000    26196223.555 6 105481341.616 6      2035.153          40.000
E30  22132908.867 8 116309187.396 8       558.809          51.000    22132910.227 8  89120059.817 8       428.190          51.000
> 2020 05 15 04 52  0.0000000  0 15        .000000000000
G05  23693207.062 5 124508640.801 5     -3568.465          34.000    23693209.938 5  97019740.977 5     -2780.622          34.000
G13  20174663.492 8 106018558.421 8      -365.516          51.000    20174661.258 8  82611858.154 8      -284.817          50.000
G17  23875940.586 5 125468903.712 5      2588.770          32.000
G28  21198419.555 6 111398470.755 6     -1375.219          39.000    21198418.734 6  86804014.640 6     -1071.596          38.000
R01  19290158.148 8 103116953.664 8      -878.191          49.000    19290162.148 7  80202084.880 7      -683.038          44.000
R08  21318569.102 7 114159948.923 7     -3727.328          42.000    21318569.312 7  88791075.176 7     -2899.033          44.000
R11  19327822.117 8 103282009.354 8       249.805          49.000    19327824.617 7  80330461.794 7       194.296          46.000
R12  21793509.406 8 116417013.787 8      3133.656          51.000    21793513.320 8  90546574.345 8      2437.288          48.000
C05  39792117.898 6 207207999.484 6        20.934          36.000    39792116.273 6 160226344.158 6        15.927          39.000
C23  22983014.719 8 119678662.520 8     -1922.188          49.000
E02  24822202.711 6 130441621.758 6     -2023.613          40.000    24822204.234 7  99948761.126 7     -1550.471          43.000
E07  23545061.258 8 123730155.308 8       402.879          51.000    23545065.508 8  94806212.869 8       308.705          51.000
E08  22879875.414 8 120234543.038 8     -2177.820          51.000    22879880.242 8  92127785.665 8     -1668.728          51.000
E27  26181048.172 6 137582327.477 6      2660.109          37.000    26181039.547 6 105420199.284 6      2037.993          40.000
E30  22129714.953 8 116292404.611 8       556.730          51.000    22129716.633 8  89107200.269 8       426.583          51.000
> 2020 05 15 04 52 30.0000000  0 16        .000000000000
G05  23713593.594 5 124615773.778 5     -3575.328          32.000    23713597.336 5  97103220.956 5     -2785.994          32.000
G13  20176798.766 8 106029778.722 8      -383.816          51.000    20176796.547 8  82620601.240 8      -299.078          50.000
G17  23861194.117 5 125391415.568 5      2576.414          33.000    23861189.172 5  97707582.539 5      2007.592          35.000
G28  21206319.609 6 111439987.290 6     -1394.078          39.000    21206318.852 6  86836365.169 6     -1086.298          39.000
R01  19295164.719 8 103143715.754 8      -907.262          48.000    19295168.305 7  80222899.867 7      -705.648          43.000
R08  21339493.664 7 114272005.346 7     -3744.488          42.000    21339495.930 7  88878230.206 7     -2912.380          45.000
R11  19326477.000 8 103274822.045 8       228.238          50.000    19326479.703 7  80324871.671 7       177.519          46.000
R12  21775948.453 8 116323210.816 8      3118.855          51.000    21775950.414 7  90473611.397 7      2425.776          46.000
C05  39792005.508 6 207207413.812 6        17.340          36.000    39792003.742 6 160225891.252 6        13.432          39.000
C20  22632802.469 6 117854939.797 6       259.086          37.000
C23  22994113.492 8 119736456.285 8     -1932.078          49.000
E02  24833779.695 6 130502460.112 6     -2033.605          38.000    24833780.930 7  99995377.527 7     -1558.226          42.000
E07  23542800.234 8 123718272.544 8       388.180          51.000    23542804.070 8  94797107.886 8       297.415          51.000
E08  22892339.711 8 120300039.394 8     -2189.746          51.000    22892343.578 8  92177971.157 8     -1677.821          51.000
E27  26165889.258 6 137502668.804 6      2650.824          38.000    26165877.328 6 105359148.069 6      2031.196          40.000
E30  22126575.672 8 116275908.169 8       541.867          51.000    22126577.570 8  89094560.136 8       415.188          51.000
> 2020 05 15 04 53  0.0000000  0 16        .000000000000
G05  23734002.789 5 124723024.002 5     -3575.836          32.000    23734009.469 4  97186792.352 4     -2786.378          28.000
G13  20179020.945 8 106041455.916 8      -395.879          51.000    20179018.609 8  82629700.345 8      -308.477          50.000
G17  23846495.555 5 125314166.152 5      2572.488          31.000    23846488.445 5  97647388.210 5      2004.536          32.000
G28  21214310.805 6 111481981.338 6     -1406.871          41.000    21214310.094 6  86869087.808 6     -1096.266          39.000
R01  19300316.844 7 103171257.353 7      -929.953          47.000    19300320.477 7  80244321.114 7      -723.297          42.000
R08  21360498.656 7 114384487.593 7     -3755.387          46.000    21360501.758 7  88965716.403 7     -2920.856          44.000
R11  19325235.820 8 103268189.231 8       212.941          49.000    19325238.625 7  80319712.826 7       165.621          46.000
R12  21758451.742 8 116229752.899 8      3110.527          50.000    21758454.188 7  90400921.904 7      2419.299          45.000
C05  39791894.758 6 207206837.535 6        19.848          36.000    39791892.992 6 160225445.601 6        15.610          39.000
C20  22631347.289 6 117847359.744 6       245.125          38.000
C23  23005251.320 7 119794454.817 7     -1935.574          47.000
E02  24845396.812 6 130563509.429 6     -2037.469          37.000    24845397.758 6 100042155.599 6     -1561.228          41.000
E07  23540606.891 8 123706744.949 8       379.410          51.000    23540610.281 8  94788275.050 8       290.765          51.000
E08  22904854.820 8 120365803.922 8     -2195.547          51.000    22904857.492 8  92228362.116 8     -1682.251          51.000
E27  26150765.109 6 137423191.963 6      2647.664          38.000    26150752.148 6 105298265.503 6      2028.658          40.000
E30  22123504.523 8 116259769.350 8       533.105          51.000    22123506.523 8  89082194.016 8       408.489          51.000
> 2020 05 15 04 53 30.0000000  0 17        .000000000000
G05  23754431.391 4 124830378.477 4     -3581.652          28.000
G13  20181327.430 8 106053576.286 8      -412.523          51.000    20181324.852 8  82639144.785 8      -321.447          50.000
G15  20585478.914 5 108177450.179 5      1256.578          34.000    20585478.070 5  84294082.485 5       979.155          33.000
G17  23831837.914 5 125237157.081 5      2562.133          35.000    23831830.648 5  97587371.021 5      1996.467          34.000
G28  21222389.742 7 111524436.480 7     -1423.961          42.000    21222389.242 6  86902169.723 6     -1109.580          38.000
R01  19305611.812 7 103199563.282 7      -957.383          46.000    19305615.445 6  80266336.825 6      -744.631          41.000
R08  21381580.672 8 114497377.383 8     -3770.855          49.000    21381583.297 7  89053519.513 7     -2932.891          43.000
R11  19324095.203 8 103262095.129 8       193.109          49.000    19324098.219 7  80314972.970 7       150.196          44.000
R12  21741019.453 8 116136630.562 8      3097.434          51.000    21741021.141 7  90328493.419 7      2409.115          44.000
C05  39791783.203 6 207206256.249 6        18.496          36.000    39791781.406 6 160224996.125 6        14.139          39.000
C20  22629989.148 6 117840279.619 6       226.461          37.000
C23  23016425.555 7 119852642.606 7     -1943.809          46.000
E02  24857051.422 6 130624753.829 6     -2045.715          38.000    24857052.266 6 100089083.140 6     -1567.550          41.000
E07  23538478.484 8 123695558.882 8       366.109          51.000    23538481.695 8  94779703.904 8       280.591          51.000
E08  22917417.516 8 120431821.396 8     -2205.918          51.000    22917419.250 8  92278946.910 8     -1690.216          51.000
E27  26135669.328 6 137343867.336 6      2639.934          39.000    26135659.062 6 105237496.096 6      2022.890          39.000
E30  22120498.609 8 116243973.324 8       519.766          51.000    22120500.648 8  89070090.568 8       398.277          51.000
> 2020 05 15 04 54  0.0000000  0 18        .000000000000
G05  23774891.555 5 124937898.335 5     -3583.270          30.000
G13  20183726.562 8 106066183.717 8      -426.879          51.000    20183723.977 8  82648968.750 8      -332.633          51.000
G15  20578351.570 5 108139992.148 5      1241.426          31.000    20578349.227 4  84264894.354 4       967.336          28.000
G17  23817232.445 5 125160409.000 5      2555.734          34.000    23817228.258 5  97527567.355 5      1991.481          35.000
G28  21230564.633 6 111567394.555 6     -1438.820          40.000    21230563.117 6  86935643.538 6     -1121.156          40.000
G30  23076395.938 5 121267260.759 5     -2732.941          32.000    23076379.062 5  94493911.319 5     -2129.565          30.000
R01  19311057.750 7 103228677.254 7      -982.367          46.000    19311061.227 6  80288981.040 6      -764.063          40.000
R08  21402746.750 8 114610716.623 8     -3783.914          49.000    21402748.234 7  89141672.186 7     -2943.044          42.000
R11  19323063.758 8 103256582.826 8       175.656          49.000    19323066.477 7  80310685.587 7       136.622          44.000
R12  21723660.734 8 116043895.288 8      3086.551          51.000    21723660.445 7  90256363.320 7      2400.654          45.000
C05  39791678.883 6 207205713.328 6        19.156          36.000    39791677.109 6 160224576.259 6        14.804          39.000
C20  22628732.828 6 117833743.075 6       210.188          36.000
C23  23027644.258 7 119911061.698 7     -1949.699          46.000
E02  24868751.273 6 130686235.535 6     -2051.789          39.000    24868752.672 6 100136192.493 6     -1572.105          41.000
E07  23536423.281 8 123684758.827 8       355.102          51.000    23536426.547 8  94771428.523 8       272.100          51.000
E08  22930035.883 8 120498134.786 8     -2213.922          50.000    22930037.328 8  92329758.439 8     -1696.295          51.000
E27  26120613.664 6 137264759.402 6      2634.816          38.000    26120600.094 6 105176880.989 6      2018.867          38.000
E30  22117566.102 8 116228563.400 8       508.762          51.000    22117568.258 8  89058282.961 8       389.860          51.000
> 2020 05 15 04 54 30.0000000  0 16        .000000000000
G13  20186207.031 8 106079218.455 8      -442.457          51.000    20186204.516 8  82659125.683 8      -344.772          51.000
G15  20571308.984 5 108102980.892 5      1225.543          34.000    20571306.453 5  84236054.427 5       954.969          33.000
G17  23802667.609 5 125083877.704 5      2547.121          35.000    23802666.727 5  97467932.521 5      1984.770          31.000
G28  21238823.414 6 111610793.240 6     -1455.039          41.000    21238821.531 6  86969460.724 6     -1133.794          39.000
R01  19316643.391 7 103258538.020 7     -1008.508          45.000    19316647.031 6  80312206.079 6      -784.395          41.000
R08  21423984.266 8 114724440.610 8     -3797.977          48.000    21423985.039 7  89230124.127 7     -2953.982          43.000
R11  19322129.516 8 103251590.026 8       157.035          48.000    19322132.156 7  80306802.304 7       122.138          44.000
R12  21706358.641 8 115951475.040 8      3074.453          51.000    21706359.297 7  90184480.917 7      2391.238          45.000
C05  39791570.555 6 207205148.981 6        18.270          36.000    39791568.742 6 160224139.864 6        14.185          39.000
C20  22627569.336 6 117827691.034 6       192.914          37.000
C23  23038895.570 7 119969651.145 7     -1956.508          44.000
E02  24880484.781 6 130747892.856 6     -2058.871          40.000    24880486.641 7 100183436.405 7     -1577.675          42.000
E07  23534430.188 8 123674285.351 8       342.848          51.000    23534433.398 8  94763403.375 8       262.722          51.000
E08  22942699.273 8 120564683.105 8     -2222.961          51.000    22942700.375 8  92380749.985 8     -1703.350          50.000
E27  26105585.945 6 137185811.680 6      2627.887          36.000    26105572.078 5 105116388.574 5      2013.671          35.000
E30  22114695.453 8 116213478.936 8       496.602          51.000    22114697.820 8  89046724.742 8       380.486          51.000
> 2020 05 15 04 55  0.0000000  0 17        .000000000000
G05  23815851.719 5 125153116.150 5     -3587.293          33.000    23815844.633 5  97521906.169 5     -2795.293          30.000
G13  20188774.953 8 106092712.822 8      -453.844          51.000    20188772.445 8  82669640.770 8      -353.644          51.000
G15  20564358.211 6 108066450.285 6      1213.254          36.000    20564355.734 6  84207589.060 6       945.393          36.000
G17  23788146.570 5 125007538.314 5      2541.594          33.000    23788152.883 5  97408483.080 5      1980.466          33.000
G28  21247171.836 7 111654663.087 7     -1466.418          43.000    21247169.836 6  87003644.963 6     -1142.663          38.000
R01  19322374.688 7 103289177.091 7     -1030.570          47.000    19322378.477 6  80336036.417 6      -801.558          41.000
R08  21445298.977 7 114838578.457 7     -3807.770          47.000    21445299.648 7  89318898.014 7     -2961.599          44.000
R11  19321298.422 8 103247147.901 8       142.551          49.000    19321300.391 7  80303347.314 7       110.873          43.000
R12  21689121.867 8 115859409.249 8      3066.586          50.000    21689123.883 7  90112874.193 7      2385.122          45.000
C05  39791464.281 6 207204594.870 6        22.047          36.000    39791462.406 6 160223711.377 6        16.858          39.000
C20  22626506.219 6 117822155.320 6       179.555          39.000
C23  23050185.164 7 120028441.288 7     -1959.352          43.000
E02  24892257.391 6 130809756.173 6     -2061.859          39.000    24892259.414 7 100230838.128 7     -1579.941          42.000
E07  23532505.656 8 123664171.094 8       334.762          51.000    23532508.500 8  94755653.487 8       256.458          51.000
E08  22955414.109 8 120631497.494 8     -2227.949          51.000    22955413.852 8  92431945.381 8     -1707.118          49.000
E27  26090592.508 5 137107007.699 5      2625.660          34.000    26090581.984 5 105056040.805 5      2011.576          34.000
E30  22111892.883 8 116198751.411 8       488.562          51.000    22111895.250 8  89035440.017 8       374.374          51.000
> 2020 05 15 04 55 30.0000000  0 16        .000000000000
G13  20191425.625 8 106106642.527 8      -472.523          51.000    20191423.219 8  82680495.074 8      -368.200          51.000
G15  20557494.398 5 108030376.547 5      1193.859          35.000    20557491.773 5  84179479.632 5       930.274          35.000
G17  23773673.219 5 124931497.343 5      2529.625          33.000    23773682.492 5  97349256.318 5      1971.142          32.000
G28  21255604.820 6 111698977.225 6     -1485.430          40.000    21255602.539 6  87038175.438 6     -1157.475          37.000
R01  19328247.477 8 103320568.661 8     -1059.910          48.000    19328251.133 7  80360452.079 7      -824.375          42.000
R08  21466685.547 7 114953101.911 7     -3824.848          45.000    21466686.367 7  89407971.856 7     -2974.882          43.000
R11  19320565.555 8 103243229.737 8       120.914          48.000    19320566.938 7  80300299.857 7        94.044          43.000
R12  21671948.031 8 115767673.941 8      3051.293          50.000    21671950.602 7  90041524.497 7      2373.228          45.000
C05  39791355.250 6 207204028.267 6        18.176          36.000    39791353.227 6 160223271.673 6        14.009          39.000
C20  22625537.562 6 117817111.840 6       159.020          40.000
C23  23061508.781 7 120087406.275 7     -1969.191          44.000
E02  24904064.211 6 130871799.059 6     -2071.855          37.000    24904066.039 6 100278377.502 6     -1587.639          41.000
E07  23530644.875 8 123654391.958 8       319.422          51.000    23530647.391 8  94748160.377 8       244.731          51.000
E08  22968175.086 8 120698552.368 8     -2240.184          51.000    22968173.688 8  92483325.024 8     -1716.456          49.000
E27                                                                  26075625.516 5 104995819.208 5      2004.596          34.000
E30  22109153.445 8 116184355.521 8       473.375          51.000    22109155.672 8  89024409.402 8       362.722          51.000
> 2020 05 15 04 56  0.0000000  0 15        .000000000000
G13  20194161.734 8 106121021.395 8      -487.008          51.000    20194159.359 8  82691699.379 8      -379.487          51.000
G15  20550719.414 5 107994774.883 5      1178.645          35.000    20550717.062 5  84151738.064 5       918.424          35.000
G28  21264124.406 7 111743746.920 7     -1500.164          42.000    21264122.492 6  87073060.937 6     -1168.959          39.000
R01  19334263.438 8 103352725.976 8     -1084.883          48.000    19334267.492 7  80385463.294 7      -843.801          43.000
R08  21488146.008 7 115068021.179 7     -3837.391          46.000    21488146.742 6  89497353.571 6     -2984.634          41.000
R11  19319932.766 7 103239848.341 7       103.621          47.000    19319934.297 7  80297669.866 7        80.591          44.000
R12  21654839.758 8 115676283.577 8      3040.406          51.000    21654842.984 7  89970443.129 7      2364.760          47.000
C05  39791245.750 6 207203458.540 6        18.699          36.000    39791243.859 6 160222831.098 6        14.635          39.000
C20  22624666.367 7 117812574.237 7       142.855          42.000
C23  23072868.719 7 120146558.229 7     -1975.195          44.000
E02  24915906.922 6 130934033.617 6     -2077.824          38.000    24915909.039 6 100326063.720 6     -1592.120          40.000
E07  23528850.633 8 123644962.187 8       308.277          51.000    23528852.867 8  94740934.958 8       236.218          51.000
E08  22980984.484 8 120765860.379 8     -2247.973          51.000    22980982.336 8  92534898.655 8     -1722.491          50.000
E27                                                                  26060704.875 5 104935734.672 5      2000.388          35.000
E30  22106479.469 8 116170304.306 8       462.441          51.000    22106481.711 8  89013642.904 8       354.326          51.000
> 2020 05 15 04 56 30.0000000  0 16        .000000000000
G13  20196980.273 8 106135833.539 8      -499.961          51.000    20196977.922 8  82703241.311 8      -389.580          51.000
G15  20544031.500 6 107959630.340 6      1164.809          36.000    20544029.055 6  84124352.740 6       907.646          36.000
G17  23744871.578 5 124780135.350 5      2516.590          30.000
G28  21272727.172 7 111788954.289 7     -1513.293          43.000    21272725.195 6  87108287.420 6     -1179.192          38.000
R01  19340419.445 8 103385631.513 8     -1108.352          49.000    19340423.820 7  80411056.473 7      -862.051          44.000
R08  21509676.148 7 115183316.497 7     -3848.539          46.000    21509676.023 5  89587027.670 5     -2993.311          35.000
R11  19319396.547 7 103236985.593 7        87.793          47.000    19319398.844 7  80295443.285 7        68.283          43.000
R12  21637793.516 8 115585222.854 8      3030.832          51.000    21637797.625 7  89899618.150 7      2357.314          47.000
C05  39791132.984 6 207202871.373 6        20.570          36.000    39791131.102 6 160222377.067 6        16.018          39.000
C20  22623889.258 6 117808526.658 6       127.633          40.000
C23  23084261.242 7 120205879.606 7     -1979.207          43.000
E02  24927782.547 6 130996441.949 6     -2082.238          41.000    24927784.773 6 100373883.056 6     -1595.469          40.000
E07  23527119.961 8 123635866.085 8       298.598          51.000    23527121.875 8  94733965.214 8       228.784          51.000
E08  22993838.820 8 120833404.320 8     -2254.410          51.000    22993836.203 8  92586653.074 8     -1727.393          51.000
E27  26045826.258 6 136871726.049 6      2606.738          36.000    26045816.289 6 104875775.228 6      1997.224          37.000
E30  22103868.031 8 116156580.914 8       452.926          51.000    22103870.203 8  89003127.574 8       347.047          51.000
> 2020 05 15 04 57  0.0000000  0 17        .000000000000
G13  20199875.688 8 106151049.566 8      -520.633          51.000    20199873.328 8  82715097.949 8      -405.688          50.000
G15  20537425.250 5 107924914.759 5      1142.547          32.000    20537422.859 5  84097301.638 5       890.296          32.000
G24  22998126.008 5 120855967.276 5      2861.035          33.000
G28  21281407.031 7 111834567.571 7     -1534.105          43.000    21281405.016 6  87143830.239 6     -1195.407          37.000
G30  23170373.555 5 121761085.617 5     -2758.582          34.000    23170366.516 5  94878802.920 5     -2149.535          33.000
R01  19346709.656 8 103419254.374 8     -1139.566          50.000    19346714.188 7  80437207.581 7      -886.329          44.000
R08  21531270.477 7 115298954.266 7     -3867.137          47.000    21531265.141 6  89676967.931 6     -3007.776          36.000
R11  19318952.219 7 103234610.046 7        64.176          47.000    19318953.875 7  80293595.621 7        49.914          42.000
R12  21620803.242 8 115494462.444 8      3013.402          51.000    21620808.219 7  89829026.741 7      2343.757          47.000
C05  39791011.219 6 207202237.330 6        15.352          36.000    39791009.297 6 160221886.781 6        11.650          39.000
C20  22623199.414 6 117804940.143 6       105.266          38.000
C23  23095680.102 7 120265339.826 7     -1990.980          42.000
E02  24939685.719 6 131058992.934 6     -2094.086          41.000    24939686.852 6 100421811.663 6     -1604.625          39.000
E07  23525447.109 8 123627074.757 8       281.172          51.000    23525448.750 8  94727229.001 8       215.419          51.000
E08  23006732.016 8 120901153.756 8     -2268.535          51.000    23006729.219 8  92638564.984 8     -1738.243          51.000
E27  26030964.820 6 136793608.087 6      2594.855          39.000    26030953.023 6 104815918.627 6      1988.383          39.000
E30  22101313.203 8 116143155.235 8       435.723          51.000    22101315.367 8  88992840.373 8       333.898          51.000
> 2020 05 15 04 57 30.0000000  0 16        .000000000000
G13  20202879.656 8 106166836.041 8      -531.980          51.000    20202877.352 8  82727399.095 8      -414.530          50.000
G15  20530931.602 5 107890795.569 5      1130.812          34.000    20530929.758 5  84070715.238 5       881.156          32.000
G17  23716251.789 5 124629744.223 5      2497.367          33.000
G28  21290195.367 7 111880750.883 7     -1545.188          43.000    21290193.398 6  87179817.232 6     -1204.042          36.000
R01  19353165.320 8 103453762.954 8     -1161.117          49.000    19353170.086 7  80464047.571 7      -903.091          45.000
R08  21552959.812 7 115415101.008 7     -3876.066          46.000    21552956.570 7  89767304.248 7     -3014.721          43.000
R11  19318630.180 7 103232889.394 7        50.242          46.000    19318631.648 7  80292257.350 7        39.077          42.000
R12  21603900.656 8 115404159.370 8      3005.691          50.000    21603905.055 7  89758804.116 7      2337.760          45.000
C05  39790911.969 6 207201719.937 6        19.133          36.000    39790910.141 6 160221487.455 6        14.635          39.000
C20  22622630.688 6 117801979.494 6        92.043          38.000
C23  23107156.742 7 120325102.163 7     -1993.129          42.000
E02  24951647.555 6 131121851.123 6     -2096.484          38.000    24951646.914 6 100469975.677 6     -1606.400          39.000
E07  23523863.852 8 123618755.045 8       273.340          51.000    23523865.359 8  94720854.148 8       209.445          51.000
E08  23019695.359 8 120969273.954 8     -2273.000          51.000    23019692.836 8  92690761.006 8     -1741.640          51.000
E27  26016159.609 6 136715791.229 6      2592.707          41.000    26016146.266 6 104756292.747 6      1986.709          39.000
E30  22098846.555 8 116130192.895 8       428.211          51.000    22098848.695 8  88982908.200 8       328.119          51.000
> 2020 05 15 04 58  0.0000000  0 15        .000000000000
G13  20205956.523 8 106183005.298 8      -546.137          51.000    20205954.195 8  82739998.504 8      -425.561          50.000
G17  23702024.648 5 124554958.235 5      2488.766          35.000    23702023.875 6  97055825.540 6      1939.298          36.000
G28  21299056.141 7 111927314.344 7     -1559.289          42.000    21299053.781 6  87216100.450 6     -1215.027          37.000
R01  19359750.531 8 103488965.356 8     -1185.898          48.000    19359755.523 7  80491427.205 7      -922.365          44.000
R08  21574707.945 7 115531561.690 7     -3888.102          47.000    21574707.812 7  89857884.741 7     -3024.082          46.000
R11  19318394.750 7 103231631.060 7        33.336          46.000    19318396.195 7  80291278.652 7        25.928          42.000
R12  21587049.930 8 115314141.799 8      2994.789          49.000    21587052.016 7  89688787.179 7      2329.283          42.000
C05  39790799.719 6 207201135.125 6        19.164          36.000    39790797.711 6 160221035.196 6        15.199          39.000
C20  22622146.461 6 117799458.943 6        76.156          37.000
C23  23118655.156 6 120384979.337 6     -1998.504          38.000
E02  24963629.008 5 131184755.180 5     -2102.527          31.000    24963629.992 6 100518230.057 6     -1610.806          38.000
E07  23522334.742 8 123610719.816 8       262.219          51.000    23522336.359 8  94714697.280 8       200.891          51.000
E08  23032692.859 8 121037576.334 8     -2280.727          51.000    23032690.883 8  92743096.586 8     -1747.540          51.000
E27  26001376.359 6 136638088.391 6      2587.266          41.000    26001360.492 6 104696754.238 6      1982.474          40.000
E30  22096432.414 8 116117505.617 8       417.398          51.000    22096434.500 8  88973186.776 8       319.828          51.000
> 2020 05 15 04 58 30.0000000  0 16        .000000000000
G13  20209119.836 8 106199628.882 8      -562.656          51.000    20209117.391 8  82752951.930 8      -438.433          49.000
G17  23687840.320 6 124480420.170 6      2479.227          36.000    23687839.125 6  96997743.907 6      1931.865          36.000
G28  21308002.258 7 111974327.143 7     -1575.398          44.000    21307999.672 5  87252733.830 5     -1227.580          33.000
G30  23217669.031 5 122009681.962 5     -2766.578          33.000    23217664.688 5  95072455.108 5     -2155.775          30.000
R01  19366478.852 7 103524932.888 7     -1212.641          47.000    19366483.781 7  80519401.952 7      -943.165          43.000
R08  21596527.758 7 115648405.236 7     -3902.145          46.000    21596529.219 8  89948763.053 8     -3035.001          48.000
R11  19318259.164 7 103230905.961 7        14.227          45.000    19318260.383 6  80290714.670 6        11.065          41.000
R12  21570265.227 8 115224485.724 8      2981.637          49.000    21570264.406 6  89619039.182 6      2319.051          39.000
C05  39790687.773 6 207200551.980 6        18.590          37.000    39790685.719 6 160220584.271 6        14.592          39.000
C20  22621760.383 6 117797449.186 6        57.789          37.000
C23  23130188.297 4 120445040.405 4     -2007.180          29.000
E02  24975650.609 6 131247928.461 6     -2109.344          38.000    24975649.758 6 100566627.996 6     -1616.391          38.000
E07  23520873.484 8 123603040.690 8       249.086          51.000    23520875.312 8  94708813.265 8       190.819          51.000
E08  23045737.828 8 121106131.002 8     -2290.387          51.000    23045736.773 8  92795625.467 8     -1754.969          51.000
E27  25986630.305 5 136560659.049 5      2580.293          32.000    25986609.883 6 104637310.958 6      1976.710          41.000
E30  22094083.898 8 116105163.792 8       404.648          51.000    22094086.094 8  88963730.066 8       310.064          51.000
> 2020 05 15 04 59  0.0000000  0 14        .000000000000
G05  23980330.141 5 126017484.603 5     -3609.617          31.000
G13  20212367.695 8 106216696.090 8      -574.453          51.000    20212365.039 8  82766251.029 8      -447.626          49.000
G17  23673704.367 6 124406137.434 6      2473.824          38.000    23673702.711 6  96939861.251 6      1927.652          38.000
G28  21317031.461 7 112021776.485 7     -1587.332          44.000    21317028.805 5  87289707.325 5     -1236.882          33.000
R01  19373348.031 7 103561653.632 7     -1234.777          46.000    19373352.867 7  80547962.535 7      -960.382          42.000
R08  21618415.828 7 115765617.149 7     -3911.223          42.000    21618418.555 8  90039927.878 8     -3042.062          48.000
R11  19318220.492 7 103230701.672 7          .180          43.000    19318222.070 6  80290555.788 6          .143          41.000
R12  21553546.180 8 115135172.165 8      2973.426          49.000    21553548.414 6  89549584.915 6      2312.668          41.000
C05  39790574.031 6 207199959.822 6        21.727          36.000    39790572.047 6 160220126.388 6        16.906          39.000
C20  22621470.742 6 117795939.619 6        43.965          37.000
E02  24987702.844 6 131311266.949 6     -2112.383          41.000    24987703.844 6 100615160.030 6     -1618.678          37.000
E07  23519478.109 8 123595707.483 8       240.562          51.000    23519479.984 8  94703194.306 8       184.315          51.000
E08  23058827.914 8 121174926.190 8     -2295.258          51.000    23058828.234 8  92848338.624 8     -1758.698          51.000
E30  22091799.211 8 116093156.059 8       396.559          51.000    22091801.250 8  88954529.334 8       303.851          51.000
> 2020 05 15 04 59 30.0000000  0 15        .000000000000
G13  20215698.688 8 106234199.699 8      -589.754          51.000    20215695.852 8  82779890.187 8      -459.548          49.000
G15  20505815.148 5 107758777.847 5      1068.977          33.000    20505817.562 5  83967878.180 5       832.972          34.000
G17  23659616.945 6 124332105.439 6      2464.480          38.000    23659614.398 6  96882174.050 6      1920.377          38.000
G28  21326141.875 7 112069652.473 7     -1602.051          43.000    21326139.547 5  87327013.316 5     -1248.348          33.000
R01  19380356.398 7 103599118.436 7     -1260.316          46.000    19380360.727 6  80577101.819 6      -980.246          40.000
R08  21640369.469 7 115883186.526 7     -3923.781          42.000    21640374.234 8  90131370.815 8     -3051.827          48.000
R11  19318277.828 7 103231009.057 7       -17.617          44.000    19318280.086 6  80290794.849 6       -13.702          41.000
R12  21536889.727 8 115046196.166 8      2961.207          49.000    21536892.547 7  89480381.397 7      2303.161          42.000
C05  39790457.195 6 207199350.841 6        21.375          36.000    39790455.203 6 160219655.451 6        16.595          39.000
C20  22621275.852 6 117794922.810 6        26.441          39.000
C23  23153355.367 4 120565584.327 4     -2015.047          29.000
E02  24999786.883 6 131374771.174 6     -2118.625          41.000    24999789.656 6 100663819.044 6     -1623.236          36.000
E07  23518147.141 8 123588713.103 8       228.430          51.000    23518149.000 8  94697834.968 8       175.016          51.000
E08  23071962.008 8 121243953.352 8     -2303.832          51.000    23071963.367 8  92901229.499 8     -1765.259          51.000
E30  22089576.492 8 116081474.123 8       384.910          51.000    22089578.320 8  88945578.234 8       294.928          51.000
