     3.04           OBSERVATION DATA    M (MIXED)           RINEX VERSION / TYPE
Convert 2.6.2       NovAtel             20200518 121320 UTC PGM / RUN BY / DATE 
Rinex Version 3.04 Observation File                         COMMENT             
                                                            MARKER NAME         
                                                            MARKER NUMBER       
                                                            MARKER TYPE         
                                                            OBSERVER / AGENCY   
                    NovAtel GPSCard                         REC # / TYPE / VERS 
                                                            ANT # / TYPE        
        0.0000        0.0000        0.0000                  APPROX POSITION XYZ 
        0.0000        0.0000        0.0000                  ANTENNA: DELTA H/E/N
G    8 C1C L1C D1C S1C C2W L2W D2W S2W                      SYS / # / OBS TYPES 
R    8 C1C L1C D1C S1C C2P L2P D2P S2P                      SYS / # / OBS TYPES 
E    8 C1C L1C D1C S1C C7Q L7Q D7Q S7Q                      SYS / # / OBS TYPES 
C    8 C2I L2I D2I S2I C7I L7I D7I S7I                      SYS / # / OBS TYPES 
DBHZ                                                        SIGNAL STRENGTH UNIT
    30.000                                                  INTERVAL            
  2020    05    16    17    00    0.0000000     GPS         TIME OF FIRST OBS   
  2020    05    16    17    59   30.0000000     GPS         TIME OF LAST OBS    
G L1C  0.00000  11 G32 G08 G22 G10 G16 G14 G27 G01 G20 G11  SYS / PHASE SHIFT   
                   G03                                      SYS / PHASE SHIFT   
G L2W  0.00000  10 G32 G08 G10 G14 G27 G22 G20 G01 G11 G03  SYS / PHASE SHIFT   
R L1C  0.00000  05 R05 R10 R04 R20 R06                      SYS / PHASE SHIFT   
R L2P  0.25000  03 R05 R20 R04                              SYS / PHASE SHIFT   
E L1C  0.50000  05 E15 E08 E21 E13 E07                      SYS / PHASE SHIFT   
E L7Q -0.25000  05 E15 E08 E21 E13 E07                      SYS / PHASE SHIFT   
C L2I  0.00000  06 C29 C20 C19 C05 C30 C22                  SYS / PHASE SHIFT   
C L7I  0.00000  01 C05                                      SYS / PHASE SHIFT   
  5 R05  1 R10 -7 R04  6 R20  2 R06 -4                      GLONASS SLOT / FRQ #
 C1C  -71.950 C2C  -71.950 C2P  -71.950                     GLONASS COD/PHS/BIS 
     0     0     0     0GPS                                 LEAP SECONDS        
                                                            END OF HEADER       
> 2020 05 16 17 00  0.0000000  0 17      -0.000000000000
G32  23336088.492 6 122632023.791 6      2571.180          41.000    23336093.016 6  95557416.298 6      2003.520          41.000  
G08  20432762.953 8 107374893.555 8       766.129          48.000    20432764.227 8  83668752.249 8       596.984          49.000  
G22  23783573.570 6 124983502.141 6      3418.867          39.000                                                                  
G10  21438121.992 6 112658086.119 6     -1734.336          41.000    21438123.453 6  87785550.985 6     -1351.431          41.000  
G16  24019260.867 5 126221959.624 5     -3707.539          32.000                                                                  
G14  24497721.961 7 128736410.703 7      2976.043          44.000    24497724.531 7 100314085.632 7      2318.995          42.000  
G27  20709949.219 8 108831512.185 8     -1501.336          51.000    20709951.625 8  84803780.689 8     -1169.873          51.000  
R05  19997130.266 8 106895734.596 8      1963.449          51.000    19997132.805 7  83141231.617 7      1527.127          47.000  
R10  23328199.375 7 124352081.906 7     -3714.152          45.000                                                                  
E15  24583355.789 5 129186420.269 5     -1567.395          35.000    24583357.117 6  98986993.449 6     -1201.051          39.000  
E08  23606767.656 8 124054444.453 8      2405.871          50.000    23606770.070 8  95054732.833 8      1843.392          50.000  
E21  25984266.852 6 136548256.839 6     -1973.238          41.000    25984269.617 7 104627885.840 7     -1511.816          43.000  
E13  23406187.945 7 123000346.931 7       523.535          42.000    23406191.250 6  94247045.443 6       401.001          40.000  
C29  21982017.945 8 114466117.130 8     -1157.801          51.000                                                                  
C20  22763318.109 7 118534619.603 7      -550.637          47.000                                                                  
C19  22809658.359 8 118775898.687 8      2456.504          50.000                                                                  
C05  39639124.852 6 206411324.185 6       -20.828          36.000                                                                  
> 2020 05 16 17 00 30.0000000  0 17      -0.000000000000
G32  23321436.414 7 122555024.161 7      2561.926          42.000    23321441.367 6  95497416.657 6      1996.312          41.000  
G08  20428431.227 8 107352130.186 8       751.402          48.000    20428432.953 8  83651014.555 8       585.505          48.000  
G22  23764070.617 6 124881019.130 6      3413.574          36.000                                                                  
G10  21448065.312 7 112710339.544 7     -1749.121          43.000    21448067.156 7  87826267.915 7     -1362.952          43.000  
G16  24040438.773 5 126333248.694 5     -3710.652          30.000                                                                  
G14  24480737.070 7 128647152.021 7      2974.223          42.000    24480739.586 6 100244533.517 6      2317.583          41.000  
G27  20718562.750 8 108876775.769 8     -1516.102          51.000    20718565.227 8  84839050.968 8     -1181.378          51.000  
R05  19986180.672 8 106837203.058 8      1938.746          51.000    19986183.703 8  83095707.098 8      1507.914          48.000  
R10  23349122.508 7 124463611.305 7     -3720.801          44.000                                                                  
E15  24592315.781 6 129233504.997 6     -1571.480          36.000    24592316.711 6  99023071.300 6     -1204.035          39.000  
E08  23593056.953 8 123982393.839 8      2397.594          50.000    23593059.219 8  94999525.277 8      1837.058          51.000  
E21  25995561.266 7 136607610.161 7     -1983.633          42.000    25995564.055 7 104673364.263 7     -1519.855          43.000  
E13  23403214.406 6 122984720.426 6       518.461          41.000    23403217.289 6  94235071.909 6       397.257          41.000  
C29  21988716.398 8 114500997.812 8     -1167.555          51.000                                                                  
C20  22766538.102 7 118551386.037 7      -567.078          47.000                                                                  
C19  22795539.516 8 118702376.893 8      2445.000          51.000                                                                  
C05  39639245.492 6 206411951.934 6       -20.836          36.000    39639245.594 6 159610814.729 6       -16.169          37.000  
> 2020 05 16 17 01  0.0000000  0 17      -0.000000000000
G32  23306837.172 7 122478301.998 7      2552.840          42.000    23306842.438 7  95437633.272 7      1989.229          42.000  
G08  20424183.719 8 107329809.930 8       736.781          48.000    20424185.883 8  83633622.134 8       574.115          48.000  
G22  23744602.430 6 124778719.434 6      3406.684          36.000    23744605.406 5  97230188.322 5      2654.560          31.000  
G10  21458090.883 7 112763025.434 7     -1763.438          42.000    21458092.688 7  87867321.835 7     -1374.108          42.000  
G14  24463761.320 6 128557942.478 6      2972.980          41.000    24463763.797 6 100175019.665 6      2316.612          41.000  
G27  20727259.242 8 108922475.091 8     -1530.375          51.000    20727261.609 8  84874660.790 8     -1192.500          51.000  
R05  19975370.109 8 106779412.172 8      1914.195          51.000    19975372.961 8  83050758.661 8      1488.819          48.000  
R10  23370081.867 7 124575336.635 7     -3727.168          42.000                                                                  
R04  21060801.672 5 112779205.926 5     -2264.980          34.000                                                                  
E15  24601296.320 6 129280699.034 6     -1574.539          37.000    24601298.008 6  99059232.933 6     -1206.514          39.000  
E08  23579393.781 8 123910590.566 8      2389.430          49.000    23579396.047 8  94944507.244 8      1830.923          51.000  
E21  26006915.016 7 136667272.485 7     -1993.672          43.000    26006917.656 7 104719079.466 7     -1527.590          43.000  
E13  23400268.594 7 122969238.838 7       514.020          42.000    23400271.227 6  94223209.391 6       393.752          41.000  
C29  21995470.430 8 114536168.458 8     -1177.082          51.000                                                                  
C20  22769851.844 7 118568642.157 7      -583.246          46.000                                                                  
C19  22781487.211 8 118629199.380 8      2433.738          51.000                                                                  
C05  39639364.836 6 206412574.156 6       -20.492          36.000    39639365.023 6 159611295.096 6       -15.801          36.000  
> 2020 05 16 17 01 30.0000000  0 17      -0.000000000000
G32  23292293.883 7 122401873.234 7      2542.844          42.000    23292298.859 7  95378078.471 7      1981.440          42.000  
G08  20420023.172 8 107307946.830 8       721.348          49.000    20420025.484 8  83616585.940 8       562.089          49.000  
G22  23725173.125 6 124676617.592 6      3399.652          37.000    23725179.609 5  97150646.544 5      2649.081          32.000  
G10  21468200.906 7 112816154.630 7     -1778.191          43.000    21468202.766 7  87908721.209 7     -1385.604          44.000  
G14  24446798.133 6 128468797.675 6      2970.629          41.000    24446800.367 6 100105556.302 6      2314.782          39.000  
G27  20736040.922 8 108968622.534 8     -1545.453          51.000    20736043.344 8  84910619.818 8     -1204.253          51.000  
R05  19964700.867 8 106722377.219 8      1888.742          51.000    19964703.664 8  83006398.187 8      1469.022          48.000  
R10  23391079.281 6 124687266.893 6     -3734.316          40.000                                                                  
R04  21073559.195 5 112847526.113 5     -2288.348          31.000                                                                  
E15  24610300.297 5 129328015.419 5     -1578.875          35.000    24610302.703 6  99095488.274 6     -1209.686          39.000  
E08  23565780.102 7 123839049.250 7      2380.516          47.000    23565782.266 8  94889689.894 8      1824.036          51.000  
E21  26018329.719 7 136727254.848 7     -2004.559          43.000    26018332.383 7 104765039.920 7     -1536.045          44.000  
E13  23397353.016 7 122953915.249 7       508.164          43.000    23397355.195 6  94211467.928 6       389.456          41.000  
C29  22002282.461 8 114571641.939 8     -1187.371          51.000                                                                  
C20  22773261.875 7 118586399.911 7      -600.164          46.000                                                                  
C19  22767503.695 8 118556380.648 8      2421.496          51.000                                                                  
C05  39639485.453 6 206413201.588 6       -20.867          36.000    39639485.562 6 159611780.272 6       -16.266          36.000  
> 2020 05 16 17 02  0.0000000  0 18      -0.000000000000
G32  23277805.594 6 122325740.669 6      2531.867          38.000    23277810.938 6  95318754.432 6      1972.881          39.000  
G08  20415949.828 8 107286542.044 8       705.215          48.000    20415952.250 8  83599906.876 8       549.518          49.000  
G22  23705782.578 6 124574715.331 6      3392.645          40.000    23705790.836 5  97071242.259 5      2643.620          31.000  
G10  21478395.008 7 112869725.190 7     -1793.859          44.000    21478397.641 7  87950464.433 7     -1397.816          43.000  
G14  24429847.375 6 128379720.434 6      2967.457          40.000    24429849.711 6 100036145.631 6      2312.314          40.000  
G27  20744907.516 8 109015217.543 8     -1561.363          51.000    20744910.453 8  84946927.596 8     -1216.647          51.000  
G01  23090881.703 5 121343401.37325      2828.520          32.000                                                                  
R05  19954173.242 8 106666100.678 8      1862.477          51.000    19954176.344 8  82962627.607 8      1448.596          48.000  
R10  23412114.164 6 124799397.222 6     -3741.703          39.000                                                                  
E15  24619327.664 6 129375454.018 6     -1584.160          36.000    24619329.492 6  99131837.305 6     -1213.787          38.000  
E08  23552214.727 7 123767771.630 7      2370.664          46.000    23552218.555 8  94835074.537 8      1816.511          51.000  
E21  26029804.406 7 136787555.454 7     -2016.211          42.000    26029807.172 7 104811244.216 7     -1544.791          44.000  
E13  23394467.539 7 122938749.792 7       502.113          43.000    23394468.875 6  94199847.631 6       384.605          41.000  
C30  25923469.375 4 134990313.340 4     -2832.914          29.000                                                                  
C29  22009152.773 8 114607418.298 8     -1198.336          51.000                                                                  
C20  22776768.188 7 118604658.409 7      -617.762          44.000                                                                  
C19  22753589.141 8 118483922.319 8      2408.527          51.000                                                                  
C05  39639607.211 6 206413835.186 6       -21.941          36.000    39639607.188 6 159612270.175 6       -16.782          36.000  
> 2020 05 16 17 02 30.0000000  0 17      -0.000000000000
G32  23263372.008 6 122249903.726 6      2523.273          37.000    23263379.438 6  95259660.718 6      1966.188          37.000  
G08  20411963.320 8 107265593.666 8       691.234          49.000    20411965.805 8  83583583.457 8       538.624          49.000  
G22  23686430.484 6 124473011.263 6      3387.293          40.000    23686436.602 6  96991992.436 6      2639.456          36.000  
G10  21488671.930 7 112923731.493 7     -1807.059          43.000    21488675.031 7  87992547.246 7     -1408.098          42.000  
G16  24125290.039 5 126779219.38425     -3719.441          32.000                                                                  
G14  24412909.266 7 128290710.386 7      2966.289          42.000    24412911.867 6  99966787.316 6      2311.401          39.000  
G27  20753858.438 8 109062256.166 8     -1574.617          51.000    20753861.820 8  84983581.052 8     -1226.975          51.000  
R05  19943787.406 8 106610581.370 8      1838.590          51.000    19943790.547 8  82919445.953 8      1430.015          48.000  
R10  23433185.844 6 124911719.989 6     -3746.840          39.000                                                                  
E15                                                                  24628379.320 6  99168277.370 6     -1215.690          37.000  
E08  23538700.219 8 123696755.922 8      2363.457          50.000    23538704.766 8  94780659.900 8      1810.953          51.000  
E21  26041337.648 6 136848168.996 6     -2025.004          40.000    26041340.297 7 104857688.396 7     -1551.496          43.000  
E13  23391611.289 7 122923739.255 7       498.262          42.000    23391612.047 7  94188346.043 7       381.857          42.000  
C29  22016080.656 8 114643494.212 8     -1206.863          51.000                                                                  
C20  22780369.414 6 118623413.346 6      -632.934          41.000                                                                  
C19  22739742.938 8 118411822.690 8      2397.883          50.000                                                                  
C05  39639729.344 6 206414472.493 6       -20.395          36.000    39639729.336 6 159612763.215 6       -16.033          36.000  
> 2020 05 16 17 03  0.0000000  0 17      -0.000000000000
G32  23248994.953 6 122174353.040 6      2513.176          40.000    23249001.797 6  95200790.066 6      1958.325          41.000  
G08  20408061.836 8 107245090.653 8       675.836          50.000    20408064.227 8  83567607.051 8       526.626          50.000  
G22  23667114.492 6 124371494.367 6      3380.613          41.000    23667116.664 5  96912888.478 5      2634.248          30.000  
G10  21499029.109 7 112978159.234 7     -1821.340          45.000    21499031.406 7  88034958.395 7     -1419.229          45.000  
G16  24146526.867 5 126890849.354 5     -3721.809          34.000                                                                  
G14  24395982.195 7 128201758.098 7      2964.129          44.000    24395985.141 6  99897473.959 6      2309.715          39.000  
G27  20762891.617 8 109109725.623 8     -1589.555          51.000    20762894.742 8  85020570.233 8     -1238.614          51.000  
R05  19933540.883 8 106555809.412 8      1813.039          50.000    19933544.359 8  82876845.558 8      1410.145          48.000  
R10  23454290.469 6 125024218.085 6     -3752.883          38.000                                                                  
E15                                                                  24637448.664 6  99204799.068 6     -1219.019          37.000  
E08  23525234.781 8 123625991.583 8      2354.391          51.000    23525238.398 8  94726437.882 8      1804.045          51.000  
E21  26052927.969 6 136909081.510 6     -2035.543          40.000    26052930.852 7 104904361.586 7     -1559.679          44.000  
E13  23388781.984 7 122908871.518 7       493.070          42.000    23388782.672 7  94176953.869 7       377.837          43.000  
C29  22023063.984 8 114679857.565 8     -1217.086          51.000                                                                  
C20  22784063.836 6 118642651.747 6      -649.645          39.000                                                                  
C19  22725962.938 8 118340071.229 8      2385.688          49.000                                                                  
C05  39639849.664 6 206415099.264 6       -20.559          36.000    39639849.703 6 159613247.870 6       -16.178          36.000  
> 2020 05 16 17 03 30.0000000  0 18      -0.000000000000
G32  23234676.133 6 122099102.546 6      2502.512          39.000    23234680.883 6  95142153.420 6      1950.013          40.000  
G08  20404247.523 8 107225045.158 8       659.703          51.000    20404249.734 8  83551987.193 8       514.055          51.000  
G22  23647836.781 6 124270177.910 6      3372.637          40.000    23647835.977 4  96833940.786 4      2628.035          28.000  
G10  21509468.164 7 113033017.684 7     -1836.707          42.000    21509470.031 7  88077705.143 7     -1431.204          42.000  
G16  24167779.531 5 127002542.000 5     -3725.008          35.000                                                                  
G14  24379068.703 7 128112877.407 7      2960.566          45.000    24379072.250 6  99828216.381 6      2306.939          41.000  
G20  23553604.344 5 123775013.007 5     -3263.852          31.000                                                                  
G27  20772009.047 8 109157636.597 8     -1605.254          51.000    20772011.664 8  85057903.452 8     -1250.848          51.000  
R05  19923436.766 8 106501798.360 8      1786.762          51.000    19923440.609 8  82834836.970 8      1389.704          49.000  
R10  23475428.906 6 125136898.058 6     -3760.070          38.000                                                                  
E15                                                                  24646541.523 6  99241410.968 6     -1222.679          37.000  
E08  23511819.836 8 123555491.601 8      2344.727          51.000    23511822.758 8  94672418.458 8      1796.634          51.000  
E21  26064577.891 6 136970302.414 6     -2046.539          36.000    26064580.656 7 104951271.029 7     -1568.242          44.000  
E13  23385981.930 6 122894158.068 6       487.129          41.000    23385983.406 7  94165679.922 7       373.240          43.000  
C29  22030104.672 8 114716519.607 8     -1227.898          51.000                                                                  
C20  22787851.547 4 118662383.816 4      -666.289          29.000                                                                  
C19  22712252.156 8 118268680.806 8      2372.703          48.000                                                                  
C05  39639970.344 6 206415727.703 6       -21.438          36.000    39639970.422 6 159613733.815 6       -17.009          36.000  
> 2020 05 16 17 04  0.0000000  0 18      -0.000000000000
G32  23220415.078 5 122024158.748 5      2493.465          35.000    23220419.047 5  95083755.825 5      1942.966          35.000  
G08  20400521.125 8 107205461.928 8       645.930          51.000    20400523.258 8  83536727.527 8       503.322          51.000  
G22  23628598.523 6 124169067.037 6      3367.602          39.000    23628593.797 4  96755153.188 4      2624.106          25.000  
G10  21519989.336 7 113088308.157 7     -1849.305          43.000    21519991.281 7  88120788.637 7     -1441.017          43.000  
G16  24189044.617 5 127114297.437 5     -3725.215          35.000                                                                  
G14  24362170.078 7 128024074.693 7      2959.602          46.000    24362173.828 6  99759019.525 6      2306.187          40.000  
G20  23572243.641 5 123872967.273 5     -3266.711          33.000                                                                  
G27  20781211.266 8 109205992.179 8     -1618.340          51.000    20781213.445 8  85095583.112 8     -1261.044          51.000  
G11  21212326.570 5 111471557.17025      2401.891          32.000                                                                  
R05  19913476.500 8 106448553.910 8      1762.922          51.000    19913480.148 8  82793424.611 8      1371.162          49.000  
R10  23496601.461 6 125249759.243 6     -3763.984          37.000                                                                  
E15                                                                  24655659.789 6  99278115.862 6     -1224.499          36.000  
E08  23498455.859 8 123485261.390 8      2337.297          51.000    23498458.250 8  94618605.748 8      1790.914          51.000  
E21  26076287.242 6 137031833.501 6     -2055.645          38.000    26076289.859 7 104998418.114 7     -1574.809          45.000  
E13  23383212.078 6 122879602.746 6       483.469          41.000    23383214.555 7  94154527.145 7       370.361          43.000  
C29  22037203.320 8 114753484.005 8     -1236.391          51.000                                                                  
C19  22698612.125 8 118197656.675 8      2362.277          49.000                                                                  
C05  39640092.133 6 206416361.298 6       -20.309          36.000    39640092.328 6 159614223.719 6       -15.991          36.000  
> 2020 05 16 17 04 30.0000000  0 19      -0.000000000000
G32  23206211.969 6 121949516.917 6      2483.453          38.000    23206215.758 6  95025593.401 6      1935.162          38.000  
G08  20396881.320 8 107186334.709 8       630.180          50.000    20396883.547 8  83521823.193 8       491.049          50.000  
G22  23609398.336 6 124068155.941 6      3360.664          39.000    23609390.125 5  96676521.330 5      2618.709          31.000  
G10  21530591.203 7 113144021.006 7     -1863.855          46.000    21530592.945 7  88164201.167 7     -1452.355          46.000  
G16  24210320.500 5 127226105.793 5     -3727.246          35.000                                                                  
G14  24345285.391 7 127935345.146 7      2956.664          46.000    24345288.789 6  99689879.658 6      2303.895          37.000  
G20  23590914.703 5 123971080.338 5     -3272.555          35.000                                                                  
G27  20790496.445 8 109254783.959 8     -1633.426          51.000    20790498.219 8  85133602.633 8     -1272.803          51.000  
R05  19903658.406 8 106396070.551 8      1736.988          51.000    19903661.961 8  82752604.266 8      1350.991          49.000  
R10  23517805.375 5 125362789.346 5     -3770.074          32.000                                                                  
E15                                                                  24664798.102 5  99314907.793 5     -1227.600          34.000  
E08  23485141.617 8 123415294.811 8      2328.086          51.000    23485143.969 8  94564995.038 8      1783.904          51.000  
E21  26088053.789 6 137093664.890 6     -2065.879          39.000    26088056.789 7 105045795.386 7     -1582.836          45.000  
E13  23380470.883 6 122865197.901 6       477.910          40.000    23380473.883 7  94143489.672 7       366.125          43.000  
C30  26005299.633 4 135416408.782 4     -2848.645          29.000                                                                  
C29  22044358.703 8 114790743.018 8     -1246.660          51.000                                                                  
C20  22795714.578 5 118703269.507 5      -698.324          32.000                                                                  
C19  22685042.133 8 118126992.736 8      2349.664          50.000                                                                  
C05  39640213.211 6 206416992.211 6       -20.309          36.000    39640213.492 6 159614712.598 6       -16.115          36.000  
> 2020 05 16 17 05  0.0000000  0 18      -0.000000000000
G32  23192062.477 6 121875152.864 6      2474.875          40.000    23192065.969 6  94967647.468 6      1928.478          40.000  
G08  20393323.336 8 107167637.789 8       616.758          51.000    20393325.695 8  83507254.148 8       480.591          51.000  
G22  23590230.125 6 123967419.112 6      3355.852          39.000    23590219.531 4  96598025.270 4      2614.953          29.000  
G10  21541268.008 7 113200127.203 7     -1876.184          43.000    21541269.758 7  88207920.255 7     -1461.962          43.000  
G16  24231601.000 6 127337936.189 6     -3726.922          36.000                                                                  
G14  24328410.148 7 127846664.798 7      2955.805          47.000    24328413.219 6  99620778.144 6      2303.225          39.000  
G20  23609610.438 5 124069323.467 5     -3276.031          35.000                                                                  
G27  20799859.289 8 109303984.560 8     -1646.113          51.000    20799860.367 8  85171940.715 8     -1282.686          51.000  
G01  22994543.430 5 120837131.148 5      2798.125          35.000                                                                  
R05  19893978.133 8 106344323.333 8      1713.363          51.000    19893981.344 8  82712356.464 8      1332.616          49.000  
E15                                                                  24673951.250 5  99351776.277 5     -1229.372          33.000  
E08  23471872.680 8 123345566.802 8      2321.020          51.000    23471875.414 8  94511567.150 8      1778.495          51.000  
E21  26099871.234 6 137155767.991 6     -2073.762          38.000    26099875.734 7 105093380.920 7     -1589.056          46.000  
E13  23377753.328 6 122850916.998 6       474.758          41.000    23377756.172 7  94132547.161 7       363.644          44.000  
C29  22051565.352 8 114828270.189 8     -1254.684          51.000                                                                  
C20  22799783.805 6 118724445.556 6      -712.766          39.000                                                                  
C19  22671536.883 8 118056664.027 8      2339.438          51.000                                                                  
C05  39640328.828 6 206417593.975 6       -18.961          36.000    39640329.086 6 159615177.881 6       -14.692          37.000  
> 2020 05 16 17 05 30.0000000  0 19      -0.000000000000
G32  23177976.820 7 121801124.931 7      2462.027          42.000    23177980.148 7  94909963.412 7      1918.466          42.000  
G08  20389858.094 8 107149427.844 8       599.242          51.000    20389860.570 8  83493064.568 8       466.942          51.000  
G22  23571105.219 6 123866914.191 6      3346.621          40.000    23571093.555 5  96519709.911 5      2607.779          31.000  
G10  21552029.859 7 113256680.058 7     -1892.023          46.000    21552031.539 7  88251987.413 7     -1474.304          46.000  
G16  24252896.586 5 127449841.946 5     -3730.602          35.000                                                                  
G14  24311555.398 8 127758091.647 8      2951.109          48.000    24311558.188 6  99551760.193 6      2299.570          37.000  
G20  23628341.023 6 124167749.730 6     -3283.359          36.000                                                                  
G27  20809310.258 8 109353648.796 8     -1662.812          51.000    20809310.625 8  85210640.082 8     -1295.698          51.000  
G01  22978599.172 6 120753333.934 6      2790.324          36.000                                                                  
R05  19884446.320 8 106293370.570 8      1685.578          51.000    19884449.430 8  82672726.586 8      1311.009          49.000  
R04  21180120.539 5 113418197.57325     -2466.543          32.000                                                                  
E15                                                                  24683133.164 5  99388744.654 5     -1233.957          32.000  
E08  23458659.953 8 123276134.469 8      2309.891          51.000    23458662.508 8  94458365.825 8      1769.911          51.000  
E21  26111750.164 6 137218196.552 6     -2086.207          40.000    26111756.680 7 105141215.739 7     -1598.317          46.000  
E13  23375070.242 7 122836815.616 7       467.520          42.000    23375072.523 7  94121742.209 7       358.235          44.000  
C29  22058834.094 8 114866120.455 8     -1266.672          51.000                                                                  
C20  22803949.430 7 118746135.622 7      -731.266          43.000                                                                  
C19  22658106.750 8 117986727.091 8      2324.996          51.000                                                                  
C05  39640449.336 6 206418221.351 6       -21.305          36.000    39640449.602 6 159615662.982 6       -16.145          36.000  
> 2020 05 16 17 06  0.0000000  0 20      -0.000000000000
G32  23163954.234 6 121727429.332 6      2446.777          40.000    23163957.328 6  94852538.342 6      1906.580          39.000  
G08  20386484.523 8 107131699.504 8       578.676          51.000    20386486.992 8  83479250.268 8       450.916          51.000  
G22  23552022.500 6 123766635.792 6      3334.746          37.000    23552010.094 4  96441570.993 4      2598.507          28.000  
G10  21562875.047 7 113313670.974 7     -1911.113          47.000    21562877.195 7  88296395.879 7     -1489.180          47.000  
G16  24274205.523 5 127561813.445 5     -3737.406          34.000                                                                  
G14  24294720.234 7 127669622.099 7      2942.973          47.000    24294722.359 6  99482823.000 6      2293.229          38.000  
G20  23647104.625 6 124266350.432 6     -3294.039          36.000                                                                  
G27  20818847.852 8 109403769.423 8     -1682.449          51.000    20818847.992 8  85249695.084 8     -1311.000          51.000  
G01  22962691.234 4 120669756.55924      2779.066          29.000                                                                  
R05  19875062.203 8 106243207.676 8      1654.664          51.000    19875065.508 8  82633711.028 8      1286.961          49.000  
R10  23581604.188 5 125702882.408 5     -3791.875          30.000                                                                  
R04  21194008.195 5 113492565.26625     -2493.867          30.000                                                                  
E15  24692335.391 5 129759100.548 5     -1618.734          35.000                                                                  
E08  23445502.766 8 123206992.928 8      2295.594          51.000    23445505.406 8  94405387.320 8      1758.986          51.000  
E21  26123689.523 6 137280941.951 6     -2100.887          40.000    26123697.992 7 105189293.358 7     -1609.858          46.000  
E13  23372419.602 7 122822887.419 7       457.082          42.000    23372422.086 7  94111069.941 7       350.340          44.000  
C29  22066163.617 8 114904287.301 8     -1281.656          51.000                                                                  
C20  22808211.922 7 118768332.224 7      -752.578          46.000                                                                  
C19  22644750.477 8 117917176.994 8      2307.691          51.000                                                                  
C05  39640573.578 6 206418867.792 6       -26.043          36.000    39640573.773 6 159616162.872 6       -20.274          36.000  
> 2020 05 16 17 06 30.0000000  0 17      -0.000000000000
G32  23149998.836 5 121654090.142 5      2440.277          31.000    23150001.602 4  94795391.057 4      1901.525          29.000  
G08  20383206.734 8 107114474.991 8       567.719          51.000    20383209.023 8  83465828.557 8       442.378          51.000  
G22  23532987.680 5 123666684.425 5      3331.645          32.000    23532974.359 4  96363596.013 4      2596.106          27.000  
G10  21573807.125 7 113371118.988 7     -1920.387          46.000    21573809.734 7  88341160.573 7     -1496.406          46.000  
G14  24277909.352 7 127581280.095 7      2944.688          47.000    24277910.953 6  99413985.198 6      2294.568          38.000  
G20  23665905.086 6 124365144.635 6     -3294.090          36.000                                                                  
G27  20828476.023 8 109454367.165 8     -1692.461          51.000    20828476.695 8  85289121.854 8     -1318.801          51.000  
R05  19865829.977 8 106193858.420 8      1633.418          49.000    19865833.828 8  82595328.300 8      1270.439          49.000  
R10  23602940.000 5 125816610.538 5     -3792.539          30.000                                                                  
E15  24701571.016 6 129807638.468 6     -1618.539          36.000                                                                  
E08  23432405.617 8 123138165.140 8      2291.113          51.000    23432408.086 8  94352649.233 8      1755.529          51.000  
E21  26135692.641 6 137344023.630 6     -2105.922          36.000    26135703.156 7 105237628.635 7     -1613.869          45.000  
E13  23369805.516 6 122809153.917 6       456.676          41.000    23369808.438 7  94100546.831 7       349.876          44.000  
C29  22073558.125 8 114942791.833 8     -1287.047          51.000                                                                  
C20  22812574.992 7 118791055.385 7      -764.160          45.000                                                                  
C19  22631472.758 8 117848036.441 8      2299.852          51.000                                                                  
C05  39640705.453 6 206419554.380 6       -21.707          36.000    39640705.383 6 159616693.756 6       -16.661          36.000  
> 2020 05 16 17 07  0.0000000  0 15      -0.000000000000
G32  23136106.711 4 121581048.012 4      2430.770          29.000    23136105.680 4  94738486.608 4      1894.110          29.000  
G08  20380015.602 8 107097705.655 8       553.262          51.000    20380017.562 8  83452761.540 8       431.113          51.000  
G10  21584816.094 7 113428971.882 7     -1933.328          47.000    21584818.383 7  88386240.732 7     -1506.490          47.000  
G14  24261113.945 7 127493018.416 7      2942.582          45.000    24261115.414 6  99345210.023 6      2292.925          41.000  
G20  23684732.109 6 124464080.328 6     -3297.719          37.000    23684733.094 5  96985026.338 5     -2569.652          35.000  
G27  20838185.383 8 109505391.184 8     -1706.113          51.000    20838186.562 8  85328880.798 8     -1329.439          51.000  
R05  19856740.422 8 106145273.840 8      1608.609          48.000    19856745.227 8  82557540.279 8      1251.141          49.000  
R10  23624303.078 4 125930477.899 4     -3796.445          29.000                                                                  
E08  23419359.242 8 123069602.661 8      2282.828          51.000    23419360.625 8  94300114.400 8      1749.175          51.000  
E21  26147750.375 6 137407389.653 6     -2115.121          37.000    26147761.141 7 105286181.759 7     -1620.720          44.000  
E13  23367218.664 6 122795565.135 6       452.281          41.000    23367222.016 7  94090134.621 7       346.619          43.000  
C29  22081008.000 8 114981584.392 8     -1296.070          51.000                                                                  
C20  22817029.938 7 118814254.403 7      -779.340          46.000                                                                  
C19  22618264.414 8 117779257.269 8      2288.465          51.000                                                                  
C05  39640835.383 6 206420231.238 6       -20.422          36.000    39640835.242 6 159617217.167 6       -16.042          36.000  
> 2020 05 16 17 07 30.0000000  0 15      -0.000000000000
G32  23122256.891 5 121508293.103 5      2416.570          34.000    23122249.602 5  94681744.460 5      1883.052          32.000  
G08  20376899.445 8 107081330.646 8       534.223          51.000    20376901.492 8  83440001.781 8       416.278          51.000  
G10  21595889.945 7 113487165.778 7     -1950.270          46.000    21595892.008 7  88431586.595 7     -1519.691          46.000  
G14  24244322.859 7 127404778.367 7      2935.984          43.000    24244323.656 6  99276451.707 6      2287.784          39.000  
G20  23703573.586 6 124563093.191 6     -3306.570          36.000    23703573.000 5  97062179.239 5     -2576.546          31.000  
G27  20847964.000 8 109556779.103 8     -1724.051          51.000    20847965.516 8  85368923.302 8     -1343.417          51.000  
R05  19847782.883 8 106097393.083 8      1579.156          50.000    19847788.281 8  82520299.686 8      1228.230          48.000  
E15  24720092.414 6 129904944.030 6     -1628.652          39.000                                                                  
E08  23406351.805 8 123001245.504 8      2270.133          51.000    23406352.062 8  94247736.844 8      1739.480          51.000  
E21  26159850.594 6 137470976.203 6     -2128.191          37.000    26159860.758 7 105334903.897 7     -1630.630          45.000  
E13  23364648.039 6 122782059.542 6       444.172          40.000    23364651.328 7  94079786.176 7       340.109          43.000  
C29  22088501.375 8 115020603.836 8     -1309.395          51.000                                                                  
C20  22821564.445 8 118837867.075 8      -799.062          48.000                                                                  
C19  22605114.367 8 117710779.961 8      2272.457          51.000                                                                  
C05  39640951.789 6 206420837.319 6       -23.895          36.000    39640951.703 6 159617684.780 6       -18.552          36.000  
> 2020 05 16 17 08  0.0000000  0 16      -0.000000000000
G32  23108486.914 6 121435934.431 6      2407.445          39.000    23108483.102 6  94625361.163 6      1875.932          39.000  
G08  20373890.664 8 107065519.650 8       520.219          51.000    20373892.922 8  83427681.511 8       405.365          51.000  
G22  23476093.844 5 123367705.20725      3310.488          31.000                                                                  
G10  21607060.180 7 113545866.646 7     -1962.531          46.000    21607062.383 7  88477327.541 7     -1529.243          46.000  
G14  24227568.445 7 127316730.928 7      2934.078          43.000    24227567.805 6  99207843.421 6      2286.298          37.000  
G20  23722460.711 5 124662348.954 5     -3309.020          33.000    23722460.859 5  97139521.395 5     -2578.451          32.000  
G27  20857843.703 8 109608698.338 8     -1736.918          51.000    20857845.570 8  85409379.819 8     -1353.443          51.000  
R05  19838989.711 8 106050388.994 8      1554.809          51.000    19838994.953 7  82483740.981 7      1209.296          47.000  
E15  24729400.492 6 129953846.769 6     -1631.199          40.000                                                                  
E08  23393414.586 8 122933263.399 8      2262.426          49.000    23393415.078 8  94195646.634 8      1733.530          51.000  
E21  26172024.508 6 137534949.589 6     -2136.301          39.000    26172033.266 7 105383922.448 7     -1636.904          44.000  
E13  23362125.906 7 122768805.537 7       440.191          42.000    23362128.648 7  94069630.490 7       337.290          43.000  
C29  22096070.258 8 115060016.738 8     -1317.793          51.000                                                                  
C20  22826210.523 8 118862058.961 8      -813.414          48.000                                                                  
C19  22592054.664 8 117642772.638 8      2261.602          51.000                                                                  
C05  39641086.570 6 206421539.005 6       -22.727          36.000    39641086.359 6 159618227.351 6       -17.296          36.000  
> 2020 05 16 17 08 30.0000000  0 17      -0.000000000000
G32  23094766.250 6 121363838.809 6      2398.535          39.000    23094763.875 6  94569182.898 6      1868.992          39.000  
G08  20370958.766 8 107050112.436 8       506.402          51.000    20370961.047 8  83415675.875 8       394.599          51.000  
G22  23457215.859 5 123268481.885 5      3304.938          32.000    23457215.117 4  96053351.495 4      2575.289          25.000  
G10  21618296.055 7 113604911.603 7     -1974.191          47.000    21618298.078 7  88523336.583 7     -1538.334          47.000  
G14  24210819.211 6 127228717.998 6      2932.664          40.000    24210818.883 6  99139262.007 6      2285.197          38.000  
G20  23741362.617 5 124761685.280 5     -3312.578          32.000    23741363.867 5  97216926.354 5     -2581.215          30.000  
G27  20867793.828 8 109660987.483 8     -1749.473          50.000    20867795.859 8  85450124.593 8     -1363.226          51.000  
R05  19830330.523 8 106004099.969 8      1530.602          51.000    19830335.734 7  82447738.493 7      1190.471          46.000  
R04  21265264.742 4 113874064.662 4     -2594.934          29.000                                                                  
E15  24738715.727 6 130002801.861 6     -1633.027          38.000    24738716.461 5  99612544.473 5     -1251.329          35.000  
E08  23380517.867 8 122865497.251 8      2254.980          50.000    23380519.383 8  94143721.907 8      1727.783          51.000  
E21  26184241.328 7 137599147.124 7     -2144.113          42.000    26184248.383 7 105433112.753 7     -1642.770          44.000  
E13  23359621.281 7 122755642.564 7       436.715          43.000    23359623.812 7  94059544.554 7       334.764          44.000  
C29  22103683.984 8 115099663.825 8     -1325.852          51.000                                                                  
C20  22830936.141 7 118886669.622 7      -827.777          46.000                                                                  
C19  22579054.594 8 117575077.555 8      2250.898          51.000                                                                  
C05  39641209.156 6 206422177.030 6       -20.492          36.000    39641208.906 6 159618720.718 6       -15.659          36.000  
> 2020 05 16 17 09  0.0000000  0 15      -0.000000000000
G32  23081114.523 6 121292101.019 6      2386.922          37.000    23081109.336 5  94513283.347 5      1859.940          35.000  
G08  20368121.461 8 107035202.194 8       490.383          51.000    20368123.438 8  83404057.496 8       382.117          51.000  
G22  23438383.234 5 123169504.034 5      3296.852          32.000    23438380.805 5  95976225.960 5      2568.979          31.000  
G10  21629614.555 7 113664390.317 7     -1988.199          46.000    21629616.773 7  88569683.628 7     -1549.247          46.000  
G14  24194093.680 7 127140834.178 7      2929.059          42.000    24194094.922 6  99070781.200 6      2282.390          41.000  
G27  20877831.547 8 109713737.596 8     -1764.402          49.000    20877833.945 8  85491228.581 8     -1374.859          49.000  
R05  19821823.289 8 105958621.480 8      1504.004          51.000    19821827.531 7  82412366.374 7      1169.784          46.000  
E15  24748058.938 6 130051901.146 6     -1637.246          38.000    24748063.008 6  99650165.954 6     -1254.861          38.000  
E08  23367681.047 8 122798040.469 8      2245.004          51.000    23367682.852 8  94092034.265 8      1720.139          51.000  
E21  26196518.156 7 137663658.748 7     -2154.121          44.000    26196524.219 7 105482543.702 7     -1650.459          45.000  
E13  23357151.539 7 122742662.677 7       431.277          43.000    23357154.398 7  94049598.907 7       330.385          44.000  
C29  22111359.844 8 115139636.093 8     -1336.137          50.000                                                                  
C20  22835760.453 8 118911789.003 8      -844.180          48.000                                                                  
C19  22566131.898 8 117507787.225 8      2237.871          51.000                                                                  
C05  39641336.930 6 206422843.361 6       -21.012          36.000    39641336.711 6 159619235.196 6       -16.272          36.000  
> 2020 05 16 17 09 30.0000000  0 16      -0.000000000000
G32  23067519.094 5 121220667.276 5      2374.426          34.000                                                                  
G08  20365368.219 8 107020733.821 8       472.777          51.000    20365370.062 8  83392783.442 8       368.398          51.000  
G22  23419587.922 5 123070717.170 5      3287.223          34.000    23419583.266 5  95899249.359 5      2561.482          31.000  
G10  21641004.516 7 113724244.309 7     -2003.285          46.000    21641006.664 7  88616323.114 7     -1561.002          46.000  
G14  24177383.648 7 127053026.135 7      2923.508          45.000    24177385.617 6  99002359.439 6      2278.062          40.000  
G27  20887946.062 8 109766891.787 8     -1780.633          50.000    20887948.703 8  85532647.439 8     -1387.506          49.000  
G01  22852244.117 5 120089353.46225      2742.160          33.000                                                                  
R05  19813457.211 8 105913898.067 8      1476.082          51.000    19813460.922 8  82377581.541 8      1148.067          48.000  
E15  24757418.109 5 130101109.377 5     -1643.082          33.000    24757422.625 6  99687854.791 6     -1258.938          38.000  
E08  23354893.148 8 122730838.501 8      2233.719          51.000    23354895.023 8  94040541.899 8      1711.552          51.000  
E21  26208844.000 7 137728426.252 7     -2165.355          44.000    26208848.914 7 105532170.729 7     -1659.077          46.000  
E13  23354705.969 7 122729809.859 7       424.195          43.000    23354709.125 7  94039750.628 7       324.973          45.000  
C29  22119087.453 8 115179877.789 8     -1347.922          50.000                                                                  
C20  22840671.305 7 118937360.280 7      -861.953          47.000                                                                  
C19  22553276.391 8 117440847.412 8      2223.457          51.000                                                                  
C05  39641459.297 6 206423480.157 6       -22.766          36.000    39641459.086 6 159619727.620 6       -17.942          37.000  
> 2020 05 16 17 10  0.0000000  0 15      -0.000000000000
G32  23053992.477 5 121149592.781 5      2362.988          30.000    23054001.477 4  94402285.881 4      1841.308          28.000  
G08  20362709.078 8 107006759.899 8       457.758          51.000    20362711.055 8  83381894.659 8       356.695          51.000  
G22  23400838.875 6 122972174.768 6      3280.453          36.000    23400830.039 5  95822463.174 5      2556.201          34.000  
G10  21652475.508 7 113784523.427 7     -2016.227          47.000    21652476.969 7  88663293.818 7     -1571.089          47.000  
G14  24160698.789 7 126965348.622 7      2920.555          44.000    24160701.273 6  98934039.375 6      2275.761          41.000  
G27  20898147.734 8 109820501.377 8     -1794.320          51.000    20898149.852 8  85574421.136 8     -1398.172          51.000  
R05  19805242.812 8 105869984.351 8      1450.445          51.000    19805246.086 8  82343426.459 8      1128.124          48.000  
E15  24766804.828 5 130150434.572 5     -1646.090          34.000    24766809.250 6  99725650.884 6     -1261.563          39.000  
E08  23342163.875 8 122663945.030 8      2224.863          51.000    23342166.148 8  93989285.933 8      1704.754          51.000  
E21  26221228.094 7 137793499.792 7     -2173.977          44.000    26221231.906 7 105582032.214 7     -1665.751          47.000  
E13  23352294.656 7 122717136.345 7       419.824          44.000    23352297.547 7  94030039.761 7       321.591          45.000  
C29  22126876.789 8 115220440.452 8     -1357.250          50.000                                                                  
C20  22845678.555 7 118963433.846 7      -877.242          46.000                                                                  
C19  22540498.664 8 117374311.260 8      2211.277          51.000                                                                  
C05  39641586.047 6 206424139.962 6       -22.340          36.000    39641585.891 6 159620237.804 6       -17.069          37.000  
> 2020 05 16 17 10 30.0000000  0 15      -0.000000000000
G08  20360139.641 8 106993257.409 8       442.031          51.000    20360141.734 8  83371373.236 8       344.440          51.000  
G22  23382130.766 6 122873853.385 6      3273.227          37.000    23382120.250 5  95745849.236 5      2550.570          35.000  
G10  21664022.188 7 113845200.692 7     -2029.453          44.000    21664023.508 7  88710574.797 7     -1581.390          44.000  
G14  24144034.445 7 126877779.752 7      2916.961          42.000    24144037.758 6  98865803.982 6      2272.960          41.000  
G27  20908431.531 8 109874540.662 8     -1808.684          51.000    20908432.719 8  85616529.636 8     -1409.367          51.000  
R05  19797174.961 8 105826856.784 8      1424.242          51.000    19797178.133 8  82309882.820 8      1107.744          49.000  
R20  19755782.117 5 105642664.949 5       -98.062          34.000    19755783.633 7  82166520.095 7       -76.271          42.000  
E15  24776214.953 5 130199887.586 5     -1650.066          32.000    24776216.289 6  99763535.082 6     -1264.457          37.000  
E08  23329488.711 8 122597336.716 8      2215.312          51.000    23329491.195 8  93938248.453 8      1697.505          51.000  
E21  26233665.188 7 137858852.429 7     -2183.188          45.000    26233668.281 7 105632107.534 7     -1672.746          47.000  
E13  23349912.758 7 122704617.393 7       414.633          43.000    23349915.234 7  94020447.336 7       317.694          45.000  
C29  22134723.352 8 115261299.272 8     -1367.062          50.000                                                                  
C20  22850776.945 7 118989983.829 7      -893.098          44.000                                                                  
C19  22527794.375 8 117308155.450 8      2198.645          51.000                                                                  
C05  39641712.508 6 206424797.938 6       -21.719          36.000    39641712.320 6 159620746.599 6       -17.118          37.000  
> 2020 05 16 17 11  0.0000000  0 16      -0.000000000000
G08  20357661.398 8 106980234.271 8       426.008          51.000    20357663.555 8  83361225.323 8       331.951          51.000  
G22  23363465.555 6 122775762.480 6      3265.840          37.000    23363453.867 5  95669414.824 5      2544.817          34.000  
G10  21675645.508 7 113906281.493 7     -2042.723          46.000    21675646.961 7  88758170.245 7     -1591.732          46.000  
G14  24127392.469 6 126790329.865 6      2912.969          41.000    24127395.984 6  98797661.245 6      2269.846          39.000  
G27  20918798.484 8 109929016.528 8     -1823.090          51.000    20918798.852 8  85658978.327 8     -1420.593          51.000  
G01  22805415.938 5 119843269.57625      2725.531          33.000                                                                  
R05  19789256.141 8 105784524.859 8      1397.699          51.000    19789259.125 8  82276957.992 8      1087.100          49.000  
R20  19756365.016 5 105645786.860 5      -110.316          34.000    19756368.297 7  82168948.284 7       -85.802          43.000  
E15                                                                  24785646.109 6  99801513.281 6     -1267.369          39.000  
E08  23316869.438 8 122531022.908 8      2205.469          51.000    23316872.398 8  93887436.624 8      1689.909          51.000  
E21  26246156.117 7 137924489.901 7     -2192.730          46.000    26246158.656 7 105682401.109 7     -1680.112          47.000  
E13  23347561.852 7 122692260.960 7       409.012          45.000    23347563.750 7  94010979.427 7       313.492          45.000  
C29  22142628.305 8 115302461.901 8     -1377.180          50.000                                                                  
C20  22855968.688 7 119017016.694 7      -909.176          45.000                                                                  
C19  22515164.953 8 117242389.188 8      2185.707          51.000                                                                  
C05  39641840.078 6 206425462.711 6       -22.410          36.000    39641839.875 6 159621259.818 6       -17.130          37.000  
> 2020 05 16 17 11 30.0000000  0 17      -0.000000000000
G32  23013807.547 5 120938344.496 5      2330.105          34.000    23013811.766 5  94237708.499 5      1815.667          34.000  
G08  20355273.016 8 106967683.099 8       411.379          51.000    20355275.031 8  83351445.187 8       320.555          51.000  
G22  23344842.961 6 122677894.508 6      3259.582          37.000    23344829.906 4  95593154.187 4      2539.944          28.000  
G10  21687343.555 8 113967754.603 8     -2054.586          48.000    21687344.977 8  88806071.346 8     -1600.977          48.000  
G14  24110772.383 7 126702992.746 7      2910.242          42.000    24110776.367 6  98729606.387 6      2267.722          36.000  
G27  20929246.547 8 109983919.119 8     -1836.289          51.000    20929246.477 8  85701759.525 8     -1430.875          51.000  
G11  21012460.125 5 110421230.01525      2265.422          34.000                                                                  
R05  19781484.367 8 105742980.824 8      1372.539          51.000    19781487.375 8  82244646.005 8      1067.534          49.000  
R20  19757017.547 5 105649280.888 5      -121.895          34.000    19757022.531 7  82171665.851 7       -94.807          43.000  
E15                                                                  24795101.305 6  99839578.403 6     -1269.626          41.000  
E08  23304304.703 8 122464996.053 8      2196.992          51.000    23304308.383 8  93836844.677 8      1683.422          51.000  
E21  26258698.906 7 137990401.106 7     -2200.652          47.000    26258700.961 7 105732904.437 7     -1686.260          47.000  
E13  23345240.133 7 122680058.190 7       405.172          45.000    23345241.211 7  94001629.235 7       310.364          45.000  
C29  22150589.883 8 115343919.274 8     -1385.949          51.000                                                                  
C20  22861251.430 6 119044522.306 6      -923.762          41.000                                                                  
C19  22502608.453 8 117177004.889 8      2174.047          51.000                                                                  
C05  39641966.938 6 206426123.082 6       -20.988          36.000    39641966.719 6 159621770.475 6       -16.202          37.000  
> 2020 05 16 17 12  0.0000000  0 16      -0.000000000000
G32  23000546.023 6 120868639.633 6      2317.863          36.000    23000554.445 5  94183392.801 5      1806.116          35.000  
G08  20352974.812 8 106955605.549 8       394.730          51.000    20352976.727 8  83342034.101 8       307.579          51.000  
G22  23326264.500 5 122580252.139 5      3250.418          35.000    23326249.133 5  95517069.308 5      2532.806          34.000  
G10  21699116.031 7 114029618.715 7     -2068.488          46.000    21699117.438 7  88854277.109 7     -1611.813          46.000  
G14  24094175.031 6 126615772.038 6      2905.504          41.000    24094178.508 6  98661642.291 6      2264.030          36.000  
G27  20939775.648 8 110039248.561 8     -1851.285          51.000    20939775.383 8  85744873.354 8     -1442.560          51.000  
R05  19773860.758 8 105702227.610 8      1345.301          51.000    19773863.383 8  82212949.075 8      1046.345          49.000  
R20  19757740.648 5 105653148.809 5      -135.391          34.000    19757745.672 7  82174674.230 7      -105.304          43.000  
E15  24804574.320 5 130348926.884 5     -1661.309          35.000    24804578.484 6  99877731.234 6     -1273.164          40.000  
E08  23291795.328 8 122399258.736 8      2186.492          51.000    23291799.375 8  93786474.570 8      1675.404          51.000  
E21  26271293.234 7 138056585.029 7     -2210.500          47.000    26271295.742 7 105783616.733 7     -1693.842          47.000  
E13  23342947.773 7 122668010.223 7       399.023          46.000    23342947.883 7  93992397.645 7       305.931          45.000  
C29  22158608.664 8 115385672.245 8     -1396.645          51.000                                                                  
C20  22866623.891 6 119072500.207 6      -940.305          36.000                                                                  
C19  22490125.469 8 117112004.897 8      2160.312          49.000                                                                  
C05  39642093.312 6 206426782.009 6       -22.008          36.000    39642093.117 6 159622279.220 6       -16.698          37.000  
> 2020 05 16 17 12 30.0000000  0 15      -0.000000000000
G08  20350767.078 8 106944003.393 8       373.789          51.000    20350768.938 8  83332993.462 8       291.264          51.000  
G22  23307728.789 5 122482837.350 5      3238.227          31.000                                                                  
G10  21710962.469 7 114091872.398 7     -2086.730          42.000    21710963.852 7  88902786.481 7     -1626.021          42.000  
G14  24077600.570 6 126528671.581 6      2896.242          41.000    24077602.156 5  98593771.902 5      2256.816          31.000  
G27  20950385.938 8 110095004.886 8     -1870.598          51.000    20950385.617 8  85788319.826 8     -1457.609          51.000  
R05  19766385.445 8 105662267.326 8      1313.672          51.000    19766388.211 8  82181868.891 8      1021.748          49.000  
R20  19758534.211 5 105657392.350 5      -152.414          35.000    19758538.945 7  82177974.762 7      -118.541          43.000  
E15  24814067.141 5 130398821.909 5     -1670.020          33.000    24814075.008 6  99915972.445 6     -1279.878          38.000  
E08  23279341.484 8 122333813.402 8      2171.645          51.000    23279345.836 8  93736328.183 8      1663.988          51.000  
E21  26283938.688 7 138123040.539 7     -2224.602          46.000    26283942.711 7 105834537.117 7     -1704.569          47.000  
E13  23340684.992 7 122656118.096 7       388.758          46.000    23340684.211 7  93983285.501 7       297.886          44.000  
C29  22166684.328 8 115427721.614 8     -1411.477          51.000                                                                  
C20  22872087.539 5 119100950.286 5      -961.602          31.000                                                                  
C19  22477716.383 8 117047391.517 8      2142.391          49.000                                                                  
C05  39642219.414 6 206427438.257 6       -26.445          36.000    39642219.094 6 159622786.686 6       -20.781          37.000  
> 2020 05 16 17 13  0.0000000  0 14      -0.000000000000
G08  20348668.164 8 106932972.992 8       363.789          51.000    20348669.734 8  83324398.344 8       283.472          51.000  
G22  23289252.367 6 122385747.652 6      3236.449          38.000                                                                  
G10  21722900.422 7 114154608.759 7     -2093.430          42.000    21722902.430 7  88951671.990 7     -1631.244          43.000  
G14  24061067.961 7 126441789.638 7      2897.832          42.000    24061069.219 6  98526071.877 6      2258.055          39.000  
G27  20961095.344 8 110151282.659 8     -1879.012          51.000    20961095.375 8  85832172.598 8     -1464.168          51.000  
R05  19759077.078 8 105623198.642 8      1293.195          51.000    19759079.539 8  82151482.138 8      1005.819          49.000  
R20  19759416.422 6 105662109.581 6      -159.238          36.000    19759421.391 7  82181643.701 7      -123.852          44.000  
E15  24823603.000 6 130448913.630 6     -1668.398          36.000    24823612.938 6  99954375.060 6     -1278.357          39.000  
E08  23266961.625 8 122268756.971 8      2167.691          50.000    23266966.156 8  93686479.774 8      1660.914          51.000  
E21  26296653.531 7 138189860.994 7     -2227.773          46.000    26296658.977 7 105885737.182 7     -1707.071          47.000  
E13  23338469.922 7 122644477.397 7       389.449          46.000    23338468.500 7  93974366.022 7       298.415          44.000  
C29  22174834.867 8 115470161.744 8     -1415.562          51.000                                                                  
C19  22465400.070 8 116983260.562 8      2135.285          50.000                                                                  
C05  39642363.281 6 206428187.202 6       -21.016          36.000    39642363.008 6 159623365.813 6       -16.438          37.000  
> 2020 05 16 17 13 30.0000000  0 17      -0.000000000000
G32  22961149.141 5 120661653.05925      2279.844          30.000                                                                  
G08  20346630.500 8 106922264.643 8       344.801          51.000    20346631.969 8  83316054.176 8       268.676          51.000  
G22  23270790.562 6 122288733.388 6      3225.719          39.000                                                                  
G10  21734882.164 7 114217574.530 7     -2109.383          46.000    21734884.656 7  89000736.227 7     -1643.675          45.000  
G14  24044529.578 7 126354877.692 7      2890.898          44.000    24044530.750 6  98458348.459 6      2252.652          37.000  
G20  23931860.031 5 125762777.463 5     -3360.840          32.000                                                                  
G27  20971855.922 8 110207829.886 8     -1896.105          51.000    20971856.633 8  85876235.311 8     -1477.485          51.000  
R05  19751887.609 8 105584767.278 8      1263.461          50.000    19751890.312 8  82121591.096 8       982.695          49.000  
R20  19760339.539 6 105667045.830 6      -175.105          36.000    19760344.797 7  82185483.002 7      -136.193          44.000  
E15  24833133.469 6 130498991.778 6     -1675.098          36.000    24833142.922 6  99992746.598 6     -1283.365          38.000  
E08  23254607.906 8 122203839.863 8      2154.898          50.000    23254612.445 8  93636738.098 8      1651.184          51.000  
E21  26309390.180 7 138256793.280 7     -2239.609          47.000    26309396.711 7 105937022.891 7     -1716.044          47.000  
E13  23336254.812 7 122632837.247 7       381.316          46.000    23336253.336 7  93965446.974 7       292.184          44.000  
C29  22183012.555 8 115512743.720 8     -1428.453          51.000                                                                  
C20  22883291.141 5 119159304.900 5      -989.723          34.000                                                                  
C19  22453129.828 8 116919364.734 8      2119.250          51.000                                                                  
C05  39642477.195 6 206428779.889 6       -23.926          36.000    39642476.836 6 159623824.100 6       -18.504          37.000  
> 2020 05 16 17 14  0.0000000  0 17      -0.000000000000
G32  22948166.969 5 120593439.629 5      2269.832          34.000    22948167.438 5  93968914.589 5      1768.701          35.000  
G08  20344702.164 8 106912131.203 8       330.457          51.000    20344703.805 8  83308157.983 8       257.496          51.000  
G22  23252391.789 6 122192048.551 6      3219.629          39.000    23252375.008 5  95214583.870 5      2508.815          31.000  
G10  21746955.461 7 114281020.105 7     -2120.512          46.000    21746957.367 7  89050174.294 7     -1652.350          46.000  
G14  24028033.992 7 126268191.294 7      2888.020          42.000    24028035.633 6  98390800.674 6      2250.412          40.000  
G20  23951051.375 5 125863613.862 5     -3362.785          32.000                                                                  
G27  20982715.633 8 110264898.358 8     -1908.688          51.000    20982716.664 8  85920704.192 8     -1487.289          51.000  
R05  19744865.391 8 105547231.977 8      1238.590          50.000    19744868.555 8  82092396.979 8       963.348          49.000  
R20  19761351.820 6 105672458.663 6      -185.895          37.000    19761356.617 7  82189692.961 7      -144.585          44.000  
E15  24842703.977 6 130549282.065 6     -1677.414          37.000    24842713.453 6 100031280.647 6     -1285.307          39.000  
E08  23242329.078 8 122139316.234 8      2146.551          51.000    23242333.094 8  93587297.940 8      1644.764          51.000  
E21  26322196.383 8 138324087.983 8     -2246.898          48.000    26322202.594 7 105988586.291 7     -1721.612          46.000  
E13  23334087.820 7 122621450.501 7       377.715          45.000    23334086.852 7  93956722.082 7       289.394          45.000  
C29  22191265.375 8 115555717.797 8     -1436.734          51.000                                                                  
C20  22889031.977 6 119189199.542 6     -1003.664          37.000                                                                  
C19  22440953.500 8 116855955.686 8      2107.844          51.000                                                                  
C05  39642609.172 6 206429467.619 6       -22.094          36.000    39642608.719 6 159624355.102 6       -16.985          37.000  
> 2020 05 16 17 14 30.0000000  0 18      -0.000000000000
G32  22935242.859 5 120525504.57625      2257.523          31.000    22935244.945 5  93915983.38825      1759.110          31.000  
G08  20342862.734 8 106902464.755 8       314.023          51.000    20342864.398 8  83300625.684 8       244.694          51.000  
G22  23234035.695 6 122095585.858 6      3211.266          37.000    23234021.398 6  95139418.217 6      2502.289          36.000  
G10  21759098.938 7 114344833.956 7     -2133.828          45.000    21759100.406 7  89099899.353 7     -1662.724          45.000  
G14  24011560.250 6 126181623.971 6      2883.051          41.000    24011563.711 6  98323345.733 6      2246.540          41.000  
G20  23970260.414 5 125964555.663 5     -3366.484          31.000                                                                  
G27  20993653.305 8 110322377.979 8     -1923.176          51.000    20993654.625 8  85965493.469 8     -1498.579          51.000  
G11  20935900.109 5 110018920.370 5      2206.117          33.000                                                                  
R05  19737990.359 8 105510482.986 8      1211.375          49.000    19737993.555 7  82063814.419 7       942.181          47.000  
R20  19762432.680 6 105678238.240 6      -199.320          37.000    19762436.859 7  82194188.175 7      -155.027          44.000  
E15  24852293.945 6 130599675.138 6     -1682.016          39.000    24852303.758 6 100069893.472 6     -1288.605          36.000  
E08  23230105.117 8 122075078.434 8      2136.148          51.000    23230107.695 8  93538076.800 8      1636.781          50.000  
E21  26335050.539 8 138391633.882 8     -2256.137          48.000    26335054.570 7 106040342.168 7     -1728.573          45.000  
E13  23331948.312 7 122610208.200 7       371.801          45.000    23331948.109 7  93948107.855 7       285.024          45.000  
C29  22199572.164 8 115598975.665 8     -1447.016          51.000                                                                  
C20  22894861.836 7 119219549.209 7     -1019.727          43.000                                                                  
C19  22428850.148 8 116792926.607 8      2094.297          51.000                                                                  
C05  39642738.352 6 206430140.058 6       -22.598          36.000    39642737.867 6 159624875.075 6       -17.519          37.000  
> 2020 05 16 17 15  0.0000000  0 17      -0.000000000000
G32  22922388.141 5 120457957.731 5      2244.367          31.000    22922391.734 5  93863346.301 5      1748.861          30.000  
G08  20341115.000 8 106893280.079 8       297.348          51.000    20341116.797 8  83293468.798 8       231.700          51.000  
G22  23215725.367 5 121999360.549 5      3202.348          32.000    23215712.156 5  95064437.645 5      2495.343          33.000  
G10  21771314.609 7 114409027.914 7     -2146.832          45.000    21771316.445 7  89149920.587 7     -1672.857          45.000  
G14  23995112.117 6 126095192.473 6      2877.984          39.000    23995117.109 6  98255996.572 6      2242.589          39.000  
G20  23989491.273 5 126065614.331 5     -3372.277          31.000                                                                  
G27  21004671.523 8 110380281.896 8     -1938.066          49.000    21004673.320 8  86010613.373 8     -1510.185          49.000  
R05  19731265.141 8 105474535.917 8      1184.082          51.000    19731268.711 7  82035855.606 7       920.953          47.000  
R20  19763584.484 6 105684399.244 6      -212.531          36.000    19763588.766 7  82198980.047 7      -165.302          44.000  
E15  24861906.445 6 130650185.086 6     -1686.414          37.000                                                                  
E08  23217938.844 8 122011142.062 8      2125.352          51.000    23217940.156 8  93489086.636 8      1628.499          50.000  
E21  26347954.664 8 138459443.004 8     -2265.480          48.000    26347956.719 7 106092299.749 7     -1735.954          46.000  
E13  23329838.961 7 122599124.581 7       365.992          45.000    23329839.523 7  93939615.218 7       280.436          46.000  
C29  22207936.375 8 115642531.174 8     -1457.570          51.000                                                                  
C20  22900779.891 6 119250366.223 6     -1035.820          40.000                                                                  
C19  22416822.445 8 116730292.758 8      2080.387          51.000                                                                  
C05  39642867.430 6 206430813.096 6       -23.168          37.000    39642866.859 6 159625394.734 6       -18.003          37.000  
> 2020 05 16 17 15 30.0000000  0 19      -0.000000000000
G32  22909606.719 5 120390795.57025      2230.406          30.000                                                                  
G08  20339465.219 8 106884610.867 8       280.695          51.000    20339467.328 8  83286713.565 8       218.724          51.000  
G22  23197465.688 5 121903406.660 5      3194.598          32.000    23197453.461 5  94989668.541 5      2489.298          31.000  
G10  21783608.281 7 114473632.258 7     -2159.977          43.000    21783610.438 7  89200261.606 7     -1683.099          43.000  
G14  23978696.422 6 126008932.443 6      2872.922          38.000    23978702.953 6  98188781.043 6      2238.641          38.000  
G20  24008750.141 5 126166820.310 5     -3375.684          30.000                                                                  
G27  21015776.484 8 110438641.693 8     -1952.695          49.000    21015778.625 8  86056088.545 8     -1521.581          49.000  
G11  20910833.102 5 109887154.839 5      2184.738          32.000                                                                  
G01  22666761.703 6 119114666.868 6      2670.289          37.000                                                                  
R05  19724696.805 8 105439425.126 8      1156.684          51.000    19724700.117 7  82008547.241 7       899.643          46.000  
R20  19764814.414 6 105690975.998 6      -226.211          38.000    19764818.531 7  82204095.274 7      -175.942          45.000  
E15  24871547.883 6 130700844.472 6     -1690.789          38.000                                                                  
E08  23205836.320 8 121947541.173 8      2114.727          51.000    23205837.016 8  93440353.547 8      1620.355          50.000  
E21  26360914.141 7 138527545.862 7     -2274.609          47.000    26360916.008 7 106144482.387 7     -1742.946          47.000  
E13  23327766.070 7 122588232.421 7       360.230          45.000    23327767.383 7  93931269.268 7       275.958          46.000  
C29  22216363.969 8 115686416.397 8     -1468.039          51.000                                                                  
C20  22906792.008 7 119281681.400 7     -1051.980          42.000                                                                  
C19  22404876.836 8 116668087.741 8      2066.664          51.000                                                                  
C05  39643002.719 6 206431516.906 6       -24.047          36.000    39643002.102 6 159625938.929 6       -18.181          37.000  
> 2020 05 16 17 16  0.0000000  0 19      -0.000000000000
G08  20337903.438 8 106876404.428 8       266.301          51.000    20337905.805 8  83280318.930 8       207.507          51.000  
G22  23179246.453 5 121807672.310 5      3188.301          33.000    23179235.930 4  94915070.558 4      2484.397          28.000  
G10  21795969.352 7 114538591.155 7     -2170.500          44.000    21795971.555 7  89250878.934 7     -1691.299          44.000  
G16  24701498.711 4 129807264.19224     -3745.027          28.000                                                                  
G14  23962304.898 7 125922792.998 7      2869.887          42.000    23962311.422 7  98121659.505 7      2236.276          42.000  
G27  21026958.188 8 110497403.043 8     -1964.863          51.000    21026960.258 8  86101876.600 8     -1531.063          51.000  
G11  20898382.164 5 109821736.847 5      2176.160          35.000                                                                  
G01  22651528.844 5 119034587.12925      2666.117          32.000                                                                  
R05  19718274.938 8 105405097.273 8      1131.684          51.000    19718278.250 7  81981847.858 7       880.202          46.000  
R20  19766112.281 6 105697914.687 6      -236.797          40.000    19766116.688 7  82209492.017 7      -184.175          46.000  
R04  21496373.617 5 115111718.57025     -2898.934          30.000                                                                  
E15  24881207.344 6 130751599.663 6     -1692.965          37.000                                                                  
E08  23193787.320 8 121884223.792 8      2106.391          51.000    23193788.023 8  93391837.661 8      1613.977          51.000  
E21  26373918.750 8 138595886.942 8     -2281.406          48.000    26373921.430 8 106196847.589 8     -1748.121          48.000  
E13  23325719.680 7 122577478.453 7       356.637          45.000    23325721.516 7  93923029.220 7       273.312          47.000  
C29  22224844.578 8 115730578.229 8     -1476.121          51.000                                                                  
C20  22912891.273 7 119313440.704 7     -1065.566          44.000                                                                  
C19  22393003.250 8 116606259.863 8      2055.113          51.000                                                                  
C05  39643133.750 6 206432199.245 6       -22.250          36.000    39643133.109 6 159626466.567 6       -16.831          37.000  
> 2020 05 16 17 16 30.0000000  0 15      -0.000000000000
G32  22884253.672 5 120257574.273 5      2208.672          35.000    22884255.383 5  93707193.864 5      1721.056          34.000  
G08  20336431.539 8 106868669.783 8       249.375          51.000    20336434.016 8  83274291.930 8       194.321          51.000  
G22  23161070.430 6 121712167.526 6      3179.102          39.000    23161061.594 5  94840651.354 5      2477.220          34.000  
G10  21808399.297 7 114603910.630 7     -2183.809          45.000    21808401.461 7  89301777.189 7     -1701.670          45.000  
G14  23945939.070 7 125836784.969 7      2864.164          45.000    23945944.492 7  98054640.327 7      2231.817          44.000  
G27  21038218.125 8 110556573.208 8     -1979.676          51.000    21038219.578 8  86147983.172 8     -1542.605          51.000  
R05  19712001.453 8 105371562.062 8      1103.980          51.000    19712004.672 7  81955764.972 7       858.652          47.000  
R20  19767479.539 6 105705224.407 6      -250.449          40.000    19767483.961 7  82215177.350 7      -194.791          47.000  
E08  23181793.742 8 121821199.582 8      2095.383          51.000    23181795.234 8  93343546.418 8      1605.569          51.000  
E21  26386970.141 8 138664472.303 8     -2290.840          49.000    26386973.883 8 106249399.965 8     -1755.248          50.000  
E13  23323701.234 7 122566871.033 7       350.605          45.000    23323703.352 7  93914901.459 7       268.661          47.000  
C29  22233379.867 8 115775024.606 8     -1486.840          51.000                                                                  
C20  22919076.281 6 119345650.674 6     -1081.559          41.000                                                                  
C19  22381203.953 8 116544818.593 8      2041.012          51.000                                                                  
C05  39643262.227 6 206432869.185 6       -22.836          36.000    39643261.688 6 159626986.834 6       -17.510          37.000  
> 2020 05 16 17 17  0.0000000  0 16      -0.000000000000
G32  22871686.211 6 120191524.191 6      2196.207          36.000    22871684.867 5  93655726.438 5      1711.340          33.000  
G08  20335056.438 8 106861443.579 8       233.305          51.000    20335058.828 8  83268661.115 8       181.796          51.000  
G22  23142945.000 7 121616929.302 7      3171.051          43.000    23142936.867 4  94766439.831 4      2470.952          29.000  
G10  21820904.258 7 114669623.925 7     -2196.043          45.000    21820906.367 7  89352982.307 7     -1711.203          45.000  
G14  23929605.781 7 125750947.113 7      2859.254          46.000    23929610.000 7  97987753.762 7      2227.994          44.000  
G27  21049562.609 8 110616186.807 8     -1993.578          51.000    21049563.586 8  86194435.283 8     -1553.438          51.000  
R05  19705883.383 8 105338856.948 8      1077.262          51.000    19705886.289 8  81930327.699 8       837.870          48.000  
R20  19768923.250 6 105712942.513 6      -263.117          40.000    19768927.117 7  82221180.313 7      -204.647          47.000  
E15  24900593.992 5 130853510.750 5     -1701.547          34.000    24900602.867 5 100264385.483 5     -1303.637          33.000  
E08  23169863.242 8 121758505.644 8      2085.152          51.000    23169865.422 8  93295508.249 8      1597.742          51.000  
E21  26400074.656 8 138733335.530 8     -2299.199          50.000    26400079.398 8 106302165.252 8     -1761.716          50.000  
E13  23321717.500 7 122556446.041 7       345.297          45.000    23321719.617 7  93906913.484 7       264.605          47.000  
C29  22241976.734 8 115819790.678 8     -1496.633          51.000                                                                  
C20  22925355.344 7 119378345.282 7     -1097.066          43.000                                                                  
C19  22369486.000 8 116483800.456 8      2027.773          51.000                                                                  
C05  39643394.859 5 206433558.961 5       -22.719          35.000    39643394.305 6 159627520.999 6       -17.761          37.000  
> 2020 05 16 17 17 30.0000000  0 17      -0.000000000000
G32  22859186.516 6 120125833.515 6      2182.617          39.000    22859185.922 6  93604539.080 6      1700.744          36.000  
G08  20333770.727 8 106854686.942 8       216.707          51.000    20333773.062 8  83263396.200 8       168.863          51.000  
G22  23124862.844 7 121521919.790 7      3162.707          44.000    23124853.336 3  94692406.653 3      2464.457          22.000  
G10  21833476.234 7 114735689.250 7     -2208.930          44.000    21833478.203 7  89404461.782 7     -1721.244          44.000  
G14  23913297.289 7 125665242.529 7      2853.949          45.000    23913299.938 6  97920971.058 6      2223.860          41.000  
G27  21060983.633 8 110676203.415 8     -2007.980          51.000    21060984.523 8  86241201.421 8     -1564.664          51.000  
R05  19699913.164 8 105306942.867 8      1049.887          51.000    19699916.141 8  81905505.666 8       816.579          48.000  
R20  19770435.461 6 105721029.465 6      -276.250          40.000    19770439.250 7  82227470.156 7      -214.861          47.000  
R04  21545610.297 5 115375362.263 5     -2956.738          30.000                                                                  
E15                                                                  24910320.406 5 100303549.167 5     -1306.899          32.000  
E08  23157988.883 8 121696103.992 8      2074.453          51.000    23157990.836 8  93247694.028 8      1589.529          51.000  
E21  26413224.344 8 138802435.051 8     -2307.922          50.000    26413229.344 8 106355111.597 8     -1768.391          50.000  
E13  23319760.836 7 122546164.189 7       339.645          45.000    23319762.797 7  93899035.182 7       260.271          46.000  
C29  22250627.242 8 115864837.177 8     -1506.957          51.000                                                                  
C20  22931719.781 7 119411484.056 7     -1113.195          43.000                                                                  
C19  22357841.969 8 116423167.640 8      2013.965          51.000                                                                  
C05  39643524.148 6 206434232.259 6       -22.535          36.000    39643523.641 6 159628041.626 6       -17.549          37.000  
> 2020 05 16 17 18  0.0000000  0 17      -0.000000000000
G32  22846761.477 5 120060548.752 5      2169.781          35.000    22846761.414 6  93553667.920 6      1690.742          36.000  
G08  20332582.797 8 106848444.599 8       199.828          51.000    20332585.164 8  83258532.036 8       155.710          51.000  
G22  23106832.523 7 121427183.935 7      3153.457          42.000    23106821.422 5  94618586.684 5      2457.240          31.000  
G10  21846123.188 7 114802148.278 7     -2221.500          46.000    21846125.125 7  89456247.999 7     -1731.039          45.000  
G14  23897022.375 7 125579718.099 7      2848.184          43.000    23897024.695 6  97854328.735 6      2219.368          41.000  
G27  21072489.039 8 110736665.901 8     -2022.301          51.000    21072490.336 8  86288315.010 8     -1575.819          50.000  
R05  19694099.922 8 105275865.370 8      1022.293          51.000    19694102.617 8  81881334.292 8       795.117          50.000  
R20  19772025.281 6 105729530.855 6      -289.988          40.000    19772029.234 8  82234082.340 8      -225.550          48.000  
R04  21562232.445 5 115464378.583 5     -2976.934          31.000                                                                  
E15  24920075.750 6 130955891.586 6     -1709.965          36.000    24920064.031 6 100342813.097 6     -1310.605          36.000  
E08  23146179.008 8 121634040.001 8      2063.543          51.000    23146180.422 8  93200138.541 8      1581.154          51.000  
E21  26426426.734 8 138871812.717 8     -2316.816          50.000    26426431.805 8 106408271.042 8     -1775.197          50.000  
E13  23317839.703 7 122536069.633 7       333.828          44.000    23317841.289 7  93891300.394 7       255.776          46.000  
C29  22259340.039 8 115910207.422 8     -1517.371          51.000                                                                  
C20  22938177.109 7 119445109.035 7     -1128.371          44.000                                                                  
C19  22346280.375 8 116362964.925 8      1999.922          51.000                                                                  
C05  39643658.508 6 206434931.591 6       -23.254          36.000    39643657.891 6 159628582.394 6       -17.918          37.000  
> 2020 05 16 17 18 30.0000000  0 18      -0.000000000000
G32  22834408.945 6 119995647.322 6      2156.613          40.000    22834410.500 6  93503095.499 6      1680.478          40.000  
G08  20331488.102 8 106842692.188 8       183.824          50.000    20331490.453 8  83254049.620 8       143.240          50.000  
G22  23088849.539 6 121332697.877 6      3146.152          38.000    23088839.094 4  94544935.319 4      2451.554          29.000  
G10  21858839.773 7 114868973.367 7     -2233.258          45.000    21858841.406 7  89508319.479 7     -1740.201          45.000  
G14  23880776.750 7 125494351.010 7      2843.391          42.000    23880779.508 6  97787809.089 6      2215.636          39.000  
G27  21084073.945 8 110797548.011 8     -2036.164          48.000    21084076.258 8  86335755.614 8     -1586.622          48.000  
G11  20837009.617 5 109499211.97525      2124.211          31.000                                                                  
R05  19688438.508 8 105245599.821 8       995.570          51.000    19688441.078 8  81857794.437 8       774.333          50.000  
R20  19773687.766 6 105738421.671 6      -302.691          41.000    19773692.031 8  82240997.395 8      -235.430          49.000  
R04  21578961.820 5 115553958.376 5     -2995.254          33.000                                                                  
E15                                                                  24929836.352 6 100382167.823 6     -1313.116          36.000  
E08  23134428.688 8 121572289.837 8      2053.297          51.000    23134430.047 8  93152823.534 8      1573.297          51.000  
E21  26439676.477 8 138941441.175 8     -2324.902          49.000    26439681.516 8 106461622.639 8     -1781.390          50.000  
E13  23315949.336 7 122526137.337 7       328.441          44.000    23315950.711 7  93883689.917 7       251.816          46.000  
C29  22268110.406 8 115955876.227 8     -1527.047          51.000                                                                  
C20  22944723.336 7 119479193.837 7     -1143.590          43.000                                                                  
C19  22334796.977 8 116303168.530 8      1986.676          51.000                                                                  
C05  39643792.977 6 206435631.729 6       -22.918          36.000    39643792.508 6 159629123.791 6       -17.845          37.000  
> 2020 05 16 17 19  0.0000000  0 16      -0.000000000000
G32  22822128.148 6 119931115.138 6      2141.742          39.000    22822130.469 6  93452810.740 6      1668.894          39.000  
G08  20330483.711 8 106837413.928 8       165.129          51.000    20330485.742 8  83249936.694 8       128.675          51.000  
G10  21871622.328 7 114936145.639 7     -2247.707          45.000    21871623.125 7  89560661.476 7     -1751.461          45.000  
G14  23864558.875 7 125409127.719 7      2835.367          42.000    23864562.148 6  97721401.372 6      2209.381          41.000  
G27  21095735.758 8 110858832.158 8     -2052.438          50.000    21095738.805 8  86383509.491 8     -1599.302          50.000  
R05  19682925.742 8 105216130.504 8       966.031          51.000    19682928.289 8  81834873.875 8       751.358          50.000  
R20  19775420.328 7 105747685.769 7      -318.102          42.000    19775424.438 8  82248202.794 8      -247.415          49.000  
R04  21595792.602 5 115644080.946 5     -3016.676          32.000                                                                  
E15  24939635.664 6 131058669.411 6     -1720.316          37.000    24939630.656 6 100421600.710 6     -1317.803          36.000  
E08  23122734.914 8 121510838.419 8      2040.418          50.000    23122736.445 8  93105737.424 8      1563.474          51.000  
E21  26452970.062 8 139011301.696 8     -2335.492          49.000    26452975.102 8 106515152.072 8     -1789.543          49.000  
E13  23314086.734 7 122516350.805 7       320.906          45.000    23314088.219 7  93876191.194 7       245.773          47.000  
C29  22276934.906 8 116001826.984 8     -1539.363          51.000                                                                  
C20  22951353.859 7 119513720.578 7     -1161.355          42.000                                                                  
C19  22323388.750 8 116243763.277 8      1970.742          51.000                                                                  
C05  39643924.312 6 206436316.151 6       -25.758          36.000    39643924.078 6 159629653.010 6       -19.555          37.000  
> 2020 05 16 17 19 30.0000000  0 18      -0.000000000000
G32  22809923.617 6 119866981.645 6      2131.180          39.000    22809924.711 6  93402836.612 6      1660.660          37.000  
G08  20329574.891 8 106832637.263 8       150.438          51.000    20329576.672 8  83246214.625 8       117.224          51.000  
G22  23053029.148 7 121144535.938 7      3128.094          43.000    23053020.039 4  94398263.312 4      2437.482          28.000  
G10  21884475.648 7 115003689.806 7     -2257.965          44.000    21884475.938 7  89613293.272 7     -1759.454          44.000  
G14  23848374.336 7 125324077.947 7      2831.738          44.000    23848378.594 7  97655128.926 7      2206.553          43.000  
G27  21107479.617 8 110920544.354 8     -2064.469          51.000    21107482.484 8  86431596.898 8     -1608.677          51.000  
G11  20812868.844 5 109372368.352 5      2103.121          33.000                                                                  
R05  19677567.078 8 105187485.869 8       940.699          50.000    19677569.984 8  81812594.731 8       731.655          50.000  
R20  19777227.961 7 105757351.519 7      -329.316          43.000    19777232.109 8  82255720.586 8      -256.138          49.000  
R04  21612729.289 5 115734769.681 5     -3032.871          31.000                                                                  
E15  24949454.477 6 131110261.620 6     -1722.160          37.000    24949449.828 6 100461132.395 6     -1319.449          36.000  
E08  23111102.289 7 121449714.218 7      2031.625          46.000    23111104.867 8  93058901.981 8      1556.802          51.000  
E21  26466312.469 8 139081419.201 8     -2341.816          49.000    26466317.734 8 106568878.409 8     -1794.404          50.000  
E13  23312257.266 7 122506737.393 7       317.379          46.000    23312259.039 7  93868825.082 7       243.091          47.000  
C29  22285818.773 8 116048086.226 8     -1547.453          51.000                                                                  
C20  22958073.688 7 119548714.500 7     -1174.496          42.000                                                                  
C19  22312061.078 8 116184777.129 8      1958.898          51.000                                                                  
C05  39644057.859 6 206437011.442 6       -23.652          36.000    39644057.695 6 159630190.685 6       -18.407          37.000  
> 2020 05 16 17 20  0.0000000  0 18      -0.000000000000
G32  22797796.242 6 119803255.975 6      2117.527          40.000    22797798.406 6  93353180.274 6      1650.028          40.000  
G08  20328762.859 8 106828369.861 8       133.801          51.000    20328764.703 8  83242889.373 8       104.260          51.000  
G22  23035192.391 8 121050819.955 8      3119.488          48.000    23035187.633 5  94325237.956 5      2430.768          31.000  
G10  21897400.367 7 115071610.146 7     -2270.090          44.000    21897400.984 7  89666218.190 7     -1768.905          45.000  
G14  23832225.203 7 125239211.015 7      2826.207          44.000    23832229.016 6  97588998.909 6      2202.243          41.000  
G27  21119306.188 8 110982690.149 8     -2078.574          51.000    21119308.625 8  86480022.157 8     -1619.669          51.000  
G11  20800890.648 5 109309417.69925      2093.059          32.000                                                                  
R05  19672363.406 8 105159673.153 8       913.406          49.000    19672366.891 8  81790962.618 8       710.427          50.000  
R20  19779112.172 7 105767426.529 7      -342.504          43.000    19779116.102 8  82263556.698 8      -266.392          49.000  
R04  21629771.625 4 115826027.133 4     -3051.203          28.000                                                                  
E15  24959295.234 6 131161993.377 6     -1726.332          36.000    24959294.789 5 100500767.861 5     -1322.586          34.000  
E08  23099532.383 7 121388925.243 7      2020.953          46.000    23099537.273 8  93012323.380 8      1548.508          51.000  
E21  26479705.086 8 139151798.218 8     -2350.145          50.000    26479710.328 8 106622805.113 8     -1800.680          49.000  
E13  23310462.070 7 122497303.919 7       311.637          46.000    23310464.367 8  93861596.838 8       238.781          48.000  
C29  22294762.914 8 116094660.330 8     -1557.574          51.000                                                                  
C20  22964884.992 6 119584180.806 6     -1189.996          40.000                                                                  
C19  22300815.125 8 116126217.800 8      1944.941          51.000                                                                  
C05  39644194.773 6 206437724.108 6       -23.902          36.000    39644194.656 6 159630741.753 6       -18.613          37.000  
> 2020 05 16 17 20 30.0000000  0 16      -0.000000000000
G32  22785745.992 6 119739937.694 6      2104.660          38.000    22785750.219 6  93303841.419 6      1639.995          38.000  
G08  20328047.133 8 106824609.462 8       118.328          51.000    20328049.125 8  83239959.184 8        92.201          51.000  
G22  23017408.930 8 120957374.263 8      3111.781          48.000    23017407.289 5  94252423.217 5      2424.768          31.000  
G10  21910395.617 7 115139901.339 7     -2280.938          42.000    21910396.633 7  89719432.091 7     -1777.354          42.000  
G14  23816110.711 7 125154526.762 7      2821.230          46.000    23816113.828 7  97523011.292 7      2198.365          42.000  
G27  21131214.461 8 111045265.493 8     -2091.469          51.000    21131216.523 8  86528782.129 8     -1629.716          51.000  
R05  19667315.195 8 105132690.535 8       887.172          49.000    19667319.250 8  81769976.109 8       690.023          50.000  
R20  19781072.281 7 105777908.407 7      -354.816          42.000    19781076.352 8  82271709.246 8      -275.968          50.000  
E15  24969161.984 5 131213853.641 5     -1729.348          35.000    24969163.789 5 100540504.897 5     -1325.624          32.000  
E08  23088027.977 8 121328469.816 8      2011.039          50.000    23088032.984 8  92966000.417 8      1540.951          51.000  
E21  26493146.766 8 139222433.667 8     -2357.266          49.000    26493151.773 8 106676928.314 8     -1806.241          49.000  
E13  23308700.539 7 122488047.639 7       307.027          47.000    23308703.453 8  93854504.338 8       235.303          49.000  
C29  22303766.844 8 116141546.134 8     -1566.555          51.000                                                                  
C20  22971784.602 6 119620114.855 6     -1203.859          36.000                                                                  
C19  22289650.789 8 116068083.551 8      1932.277          51.000                                                                  
C05  39644334.328 6 206438451.057 6       -23.043          36.000    39644334.148 6 159631303.878 6       -17.873          37.000  
> 2020 05 16 17 21  0.0000000  0 16      -0.000000000000
G32  22773766.234 6 119676989.389 6      2091.656          37.000    22773772.016 6  93254790.832 6      1629.863          36.000  
G08  20327420.523 8 106821317.113 8       101.238          51.000    20327422.414 8  83237393.705 8        78.887          50.000  
G22  22999669.547 7 120864160.046 7      3102.652          44.000    22999671.219 6  94179788.838 6      2417.658          36.000  
G10  21923453.336 6 115208521.289 6     -2293.320          39.000    21923454.555 6  89772902.178 6     -1787.003          39.000  
G14  23800023.758 7 125069988.232 7      2814.691          46.000    23800024.797 6  97457137.232 6      2193.270          38.000  
G27  21143196.555 8 111108229.552 8     -2105.953          51.000    21143198.422 8  86577844.996 8     -1641.003          51.000  
R05  19662415.125 8 105106498.205 8       859.121          48.000    19662419.555 8  81749604.289 8       668.205          49.000  
R20  19783101.016 7 105788757.301 7      -368.383          42.000    19783105.188 8  82280147.236 8      -286.523          50.000  
E15  24979047.945 6 131265806.431 6     -1734.078          39.000    24979048.883 5 100580276.885 5     -1328.503          34.000  
E08  23076580.773 8 121268309.667 8      1999.645          51.000    23076584.977 8  92919903.742 8      1532.184          51.000  
E21  26506629.289 8 139293283.661 8     -2365.941          49.000    26506634.086 8 106731215.886 8     -1812.847          50.000  
E13  23306965.383 7 122478928.979 7       301.031          46.000    23306968.570 8  93847517.292 8       230.648          49.000  
C29  22312823.141 8 116188703.998 8     -1577.113          51.000                                                                  
C20  22978767.805 6 119656476.108 6     -1219.488          39.000                                                                  
C19  22278561.008 8 116010336.239 8      1917.812          51.000                                                                  
C05  39644469.125 6 206439152.756 6       -23.684          36.000    39644468.891 6 159631846.480 6       -18.289          37.000  
> 2020 05 16 17 21 30.0000000  0 16      -0.000000000000
G32  22761863.297 5 119614399.01225      2079.344          32.000    22761870.203 4  93206056.58524      1620.262          29.000  
G08  20326889.523 8 106818526.451 8        85.414          51.000    20326891.320 8  83235219.149 8        66.556          51.000  
G22  22981981.227 7 120771211.857 7      3094.922          42.000    22981983.688 5  94107361.797 5      2411.634          35.000  
G10  21936579.289 6 115277500.404 6     -2304.336          40.000    21936580.719 6  89826652.131 6     -1795.587          39.000  
G14  23783971.484 8 124985631.028 8      2809.629          48.000    23783971.602 6  97391404.382 6      2189.328          36.000  
G27  21155258.453 8 111171613.994 8     -2119.035          51.000    21155260.219 8  86627235.422 8     -1651.197          51.000  
R05  19657669.555 8 105081130.237 8       832.641          51.000    19657673.781 8  81729873.646 8       647.609          49.000  
R20  19785205.039 7 105800007.496 7      -380.875          43.000    19785209.023 8  82288897.373 8      -296.236          50.000  
E15                                                                  24988962.312 6 100620180.783 6     -1330.946          36.000  
E08  23065196.352 8 121208478.912 8      1989.637          51.000    23065198.914 8  92874059.457 8      1524.582          51.000  
E21  26520158.234 7 139364378.743 7     -2373.090          47.000    26520163.086 8 106785691.266 8     -1818.295          49.000  
E13  23305262.781 7 122469980.865 7       296.277          47.000    23305265.898 8  93840660.954 8       226.979          49.000  
C29  22321937.734 8 116236166.183 8     -1586.391          51.000                                                                  
C20  22985837.883 5 119693295.090 5     -1234.051          31.000                                                                  
C19  22267552.023 8 115953009.372 8      1904.652          51.000                                                                  
C05  39644605.383 6 206439862.497 6       -23.246          36.000    39644605.109 6 159632394.493 6       -17.673          38.000  
> 2020 05 16 17 22  0.0000000  0 15      -0.000000000000
G08  20326450.023 8 106816216.052 8        69.312          51.000    20326451.695 8  83233418.830 8        54.010          51.000  
G22  22964340.477 7 120678509.483 7      3086.168          43.000    22964339.242 5  94035126.222 5      2404.810          34.000  
G10  21949769.117 6 115346814.758 6     -2315.871          39.000    21949770.680 6  89880663.318 6     -1804.572          38.000  
G14  23767949.930 7 124901436.192 7      2803.953          47.000    23767948.875 5  97325798.098 5      2184.899          34.000  
G27  21167395.859 8 111235396.099 8     -2132.246          51.000    21167397.594 8  86676935.720 8     -1661.491          51.000  
R05  19653074.664 8 105056565.329 8       805.742          51.000    19653078.516 8  81710767.637 8       626.692          48.000  
R20  19787380.141 7 105811637.789 7      -393.770          43.000    19787383.523 8  82297943.152 8      -306.265          50.000  
E15  24998892.062 6 131370069.429 6     -1740.891          37.000    24998896.023 5 100660164.092 5     -1333.996          32.000  
E08  23053870.422 8 121148957.317 8      1979.246          51.000    23053871.773 8  92828452.069 8      1516.578          51.000  
E21  26533728.430 7 139435695.186 7     -2380.484          45.000    26533734.047 8 106840336.274 8     -1823.985          49.000  
E13  23303588.461 7 122461181.960 7       291.109          47.000    23303591.352 8  93833918.940 8       223.088          49.000  
C29  22331106.578 8 116283911.036 8     -1595.945          51.000                                                                  
C20  22992995.625 6 119730549.266 6     -1248.895          39.000                                                                  
C19  22256620.219 8 115896082.723 8      1891.199          51.000                                                                  
C05  39644738.719 5 206440556.805 5       -22.996          35.000    39644738.531 6 159632931.397 6       -17.537          38.000  
> 2020 05 16 17 22 30.0000000  0 17      -0.000000000000
G32  22738284.164 5 119490479.80825      2051.324          32.000                                                                  
G08  20326105.078 8 106814403.203 8        51.328          51.000    20326106.562 8  83232006.209 8        39.996          51.000  
G22  22946750.383 7 120586070.240 7      3076.008          47.000    22946746.188 5  93963095.725 5      2396.893          35.000  
G10  21963025.906 6 115416478.526 6     -2328.668          38.000    21963027.141 6  89934946.766 6     -1814.547          38.000  
G14  23751962.438 7 124817423.083 7      2796.445          44.000    23751961.641 6  97260333.446 6      2179.052          37.000  
G27  21179611.812 8 111299591.327 8     -2147.586          51.000    21179613.617 8  86726957.928 8     -1673.444          51.000  
G11  20741899.430 5 108999441.88625      2039.672          33.000                                                                  
R05  19648633.219 8 105032821.132 8       776.914          51.000    19648636.562 7  81692299.958 7       604.267          47.000  
R20  19789629.461 7 105823665.808 7      -408.398          42.000    19789632.891 8  82307298.262 8      -317.643          50.000  
E15  25008845.477 5 131422371.365 5     -1746.316          33.000                                                                  
E08  23042606.367 8 121089762.840 8      1966.887          51.000    23042606.844 8  92783095.323 8      1507.099          51.000  
E21  26547343.625 7 139507247.436 7     -2389.633          46.000    26547349.914 8 106895161.959 8     -1831.102          49.000  
E13  23301945.773 7 122452549.038 7       284.270          47.000    23301948.102 8  93827304.103 8       217.841          49.000  
C29  22340333.234 8 116331954.676 8     -1607.262          51.000                                                                  
C20  23000237.555 5 119768253.345 5     -1265.363          33.000                                                                  
C19  22245768.609 8 115839573.844 8      1875.906          51.000                                                                  
C05  39644872.375 5 206441252.895 5       -24.090          35.000    39644872.305 6 159633469.664 6       -18.552          38.000  
> 2020 05 16 17 23  0.0000000  0 16      -0.000000000000
G32  22726615.547 6 119429148.807 6      2037.070          36.000    22726630.648 5  93061656.474 5      1587.343          35.000  
G08  20325857.445 8 106813102.004 8        34.934          51.000    20325858.727 8  83230992.274 8        27.221          51.000  
G22  22929213.508 8 120493909.330 8      3067.371          49.000    22929209.203 6  93891282.129 6      2390.163          37.000  
G10  21976351.336 6 115486502.427 6     -2340.109          36.000    21976352.602 6  89989510.893 6     -1823.462          36.000  
G14  23736011.953 7 124733607.754 7      2790.555          44.000    23736011.430 6  97195022.970 6      2174.462          38.000  
G27  21191908.734 8 111364211.621 8     -2161.113          51.000    21191910.453 8  86777311.360 8     -1683.985          51.000  
R05  19644347.914 8 105009911.436 8       749.773          51.000    19644350.531 7  81674481.352 7       583.160          46.000  
R20  19791955.633 7 105836105.738 7      -421.531          42.000    19791959.336 8  82316973.737 8      -327.858          50.000  
E15  25018818.648 5 131474777.489 5     -1749.984          32.000    25018830.469 5 100740447.151 5     -1340.796          33.000  
E08  23031407.102 8 121030909.963 8      1956.070          51.000    23031407.398 8  92738000.297 8      1498.775          51.000  
E21  26561006.531 7 139579046.445 7     -2397.352          47.000    26561012.734 8 106950176.716 8     -1836.999          49.000  
E13  23300337.172 8 122444095.417 8       278.730          48.000    23300339.000 8  93820826.664 8       213.591          49.000  
C29  22349619.430 8 116380309.889 8     -1616.977          51.000                                                                  
C20  23007564.945 6 119806418.492 6     -1279.551          39.000                                                                  
C19  22234999.742 8 115783496.817 8      1862.074          51.000                                                                  
C05  39645008.984 6 206441963.615 6       -23.777          36.000    39645008.820 6 159634019.250 6       -18.640          38.000  
> 2020 05 16 17 23 30.0000000  0 16      -0.000000000000
G32  22715021.266 6 119368219.958 6      2023.305          36.000    22715029.547 5  93014179.953 5      1576.605          33.000  
G08  20325703.320 8 106812291.849 8        18.527          51.000    20325704.664 8  83230360.972 8        14.437          51.000  
G22  22911725.711 8 120402006.901 8      3058.812          49.000    22911722.578 6  93819669.959 6      2383.494          39.000  
G10  21989740.891 6 115556863.483 6     -2351.457          39.000    21989742.836 6  90044337.683 6     -1832.308          40.000  
G14  23720095.211 7 124649971.996 7      2784.742          42.000    23720095.430 6  97129852.325 6      2169.933          38.000  
G27  21204282.305 8 111429235.067 8     -2174.426          51.000    21204283.875 8  86827978.954 8     -1694.358          51.000  
R05  19640214.648 8 104987815.890 8       722.633          51.000    19640216.734 7  81657295.966 7       562.051          46.000  
R20  19794355.086 7 105848936.964 7      -434.492          42.000    19794358.961 8  82326953.557 8      -337.938          50.000  
E15                                                                  25028828.156 4 100780722.647 4     -1343.239          29.000  
E08  23020268.773 8 120972379.280 8      1945.371          50.000    23020269.758 8  92693152.125 8      1490.604          51.000  
E21  26574712.398 8 139651069.295 8     -2404.695          48.000    26574718.086 8 107005362.985 8     -1842.548          48.000  
E13  23298758.812 8 122435800.572 8       273.531          48.000    23298760.461 8  93814470.873 8       209.628          49.000  
C29  22358961.406 8 116428955.855 8     -1626.602          51.000                                                                  
C20  23014979.047 6 119845023.104 6     -1294.293          38.000                                                                  
C19  22224310.141 8 115727832.184 8      1848.270          51.000                                                                  
C05  39645144.578 6 206442670.343 6       -24.152          36.000    39645144.094 6 159634564.180 6       -18.211          38.000  
> 2020 05 16 17 24  0.0000000  0 16      -0.000000000000
G32  22703505.438 6 119307703.911 6      2009.809          36.000    22703514.117 6  92967024.720 6      1566.085          36.000  
G08  20325644.328 8 106811981.974 8         2.664          51.000    20325645.984 8  83230119.501 8         2.076          51.000  
G22  22894288.727 8 120310372.702 8      3050.641          48.000    22894286.617 7  93748266.769 7      2377.126          42.000  
G10  22003195.695 7 115627567.299 7     -2361.781          42.000    22003197.781 7  90099431.558 7     -1840.350          42.000  
G14  23704215.477 7 124566526.559 7      2778.922          44.000    23704216.984 6  97064829.949 6      2165.394          39.000  
G27  21216733.414 8 111494668.613 8     -2187.250          49.000    21216735.250 8  86878966.097 8     -1704.351          49.000  
G11  20707236.805 5 108817280.007 5      2007.945          35.000                                                                  
R05  19636235.109 8 104966542.877 8       696.059          51.000    19636237.258 7  81640750.344 7       541.382          47.000  
R20  19796829.469 7 105862168.421 7      -447.062          42.000    19796833.016 8  82337244.678 8      -347.715          50.000  
E08  23009193.484 8 120914180.176 8      1935.148          50.000    23009195.102 8  92648557.998 8      1482.747          51.000  
E21  26588461.977 8 139723321.865 8     -2411.457          48.000    26588466.977 8 107060725.280 8     -1847.813          48.000  
E13  23297212.172 8 122427672.767 8       268.812          48.000    23297214.070 8  93808243.078 8       205.994          49.000  
C29  22368360.523 8 116477900.234 8     -1635.727          51.000                                                                  
C20  23022476.906 6 119884073.042 6     -1308.582          38.000                                                                  
C19  22213701.516 8 115672589.003 8      1835.043          51.000                                                                  
C05  39645280.281 5 206443376.792 5       -22.594          35.000    39645279.766 6 159635110.474 6       -17.755          38.000  
> 2020 05 16 17 24 30.0000000  0 15      -0.000000000000
G08  20325681.805 8 106812179.019 8       -14.402          51.000    20325683.688 8  83230273.031 8       -11.223          51.000  
G22  22876903.758 7 120219014.642 7      3041.457          47.000    22876902.508 7  93677078.706 7      2369.967          43.000  
G10  22016716.375 6 115698618.042 6     -2373.215          41.000    22016717.711 6  90154795.759 6     -1849.259          41.000  
G14  23688374.422 7 124483280.739 7      2772.059          44.000    23688376.484 6  96999963.146 6      2160.049          41.000  
G27  21229263.156 8 111560517.494 8     -2201.254          48.000    21229265.266 8  86930276.913 8     -1715.260          48.000  
R05  19632410.742 8 104946099.761 8       668.273          51.000    19632412.547 7  81624850.171 7       519.768          47.000  
R20  19799380.000 7 105875807.565 7      -460.809          42.000    19799383.594 8  82347852.895 8      -358.407          50.000  
E15  25048890.055 5 131632809.461 5     -1761.090          35.000                                                                  
E08  22998183.031 8 120856320.475 8      1923.602          51.000    22998185.008 8  92604223.954 8      1473.974          51.000  
E21  26602255.672 7 139795808.531 7     -2419.496          47.000    26602260.133 7 107116266.936 7     -1853.829          47.000  
E13  23295698.562 8 122419718.783 8       262.840          48.000    23295700.891 8  93802148.462 8       201.373          50.000  
C29  22377818.023 8 116527149.220 8     -1646.047          51.000                                                                  
C20  23030062.516 6 119923573.649 6     -1323.586          40.000                                                                  
C19  22203174.883 8 115617774.808 8      1820.629          51.000                                                                  
C05  39645417.570 6 206444091.445 6       -23.355          36.000    39645417.062 6 159635663.092 6       -18.154          38.000  
> 2020 05 16 17 25  0.0000000  0 16      -0.000000000000
G32  22680711.758 6 119187928.708 6      1982.789          36.000    22680721.133 6  92873743.936 6      1545.028          36.000  
G08  20325814.133 8 106812875.258 8       -31.305          51.000    20325816.266 8  83230815.544 8       -24.393          51.000  
G22  22859569.484 7 120127925.587 7      3031.906          46.000    22859569.508 7  93606100.217 7      2362.525          45.000  
G10  22030300.812 6 115770004.961 6     -2384.715          41.000    22030301.828 6  90210421.904 6     -1858.220          41.000  
G14  23672570.414 7 124400228.750 7      2765.301          44.000    23672573.789 6  96935247.433 6      2154.783          41.000  
G27  21241870.242 8 111626772.207 8     -2215.004          50.000    21241872.016 8  86981903.958 8     -1725.978          50.000  
R05  19628739.820 8 104926478.472 8       640.617          51.000    19628741.805 8  81609589.181 8       498.258          48.000  
R20  19802005.188 7 105889846.563 7      -474.316          42.000    19802009.055 8  82358772.091 8      -368.913          50.000  
E15  25058955.750 5 131685703.422 5     -1765.797          31.000                                                                  
E08  22987236.203 8 120798793.099 8      1912.250          51.000    22987238.312 8  92560144.559 8      1465.195          51.000  
E21  26616091.656 7 139868518.675 7     -2427.188          47.000    26616095.766 7 107171979.850 7     -1859.779          47.000  
E13  23294216.414 8 122411930.400 8       257.148          49.000    23294219.156 8  93796180.731 8       196.976          50.000  
C29  22387332.102 8 116576694.252 8     -1656.219          51.000                                                                  
C20  23037730.844 6 119963514.707 6     -1338.324          38.000                                                                  
C19  22192728.984 8 115563382.277 8      1806.188          51.000                                                                  
C05  39645554.758 5 206444806.750 5       -23.762          35.000    39645554.352 6 159636215.455 6       -18.453          37.000  
> 2020 05 16 17 25 30.0000000  0 16      -0.000000000000
G32  22669437.141 6 119128668.928 6      1968.609          37.000    22669442.672 6  92827567.370 6      1533.976          37.000  
G08  20326041.828 8 106814072.441 8       -47.562          51.000    20326044.289 8  83231748.390 8       -37.062          51.000  
G22  22842287.445 8 120037108.041 8      3023.176          48.000    22842287.914 7  93535333.308 7      2355.722          45.000  
G10  22043948.859 6 115841726.616 6     -2395.617          39.000    22043950.297 6  90266308.902 6     -1866.715          40.000  
G14  23656804.266 7 124317374.620 7      2759.055          47.000    23656807.914 7  96870685.839 7      2149.913          43.000  
G27  21254555.477 8 111693432.568 8     -2228.031          51.000    21254556.234 8  87033847.040 8     -1736.132          51.000  
R05  19625222.414 8 104907680.211 8       613.512          49.000    19625225.422 8  81594968.333 8       477.176          49.000  
R20  19804705.742 6 105904287.133 6      -487.328          41.000    19804709.680 8  82370003.636 8      -379.033          51.000  
E15  25069051.695 5 131738742.511 5     -1769.289          35.000                                                                  
E08  22976353.094 8 120741600.344 8      1901.402          51.000    22976355.047 8  92516321.557 8      1456.920          51.000  
E21  26629970.398 8 139941451.103 8     -2434.238          48.000    26629974.070 7 107227863.076 7     -1865.095          47.000  
E13  23292765.953 8 122404308.833 8       251.883          48.000    23292769.094 8  93790340.824 8       192.953          51.000  
C29  22396903.758 8 116626535.936 8     -1665.680          51.000                                                                  
C20  23045484.836 7 120003895.626 7     -1352.633          42.000                                                                  
C19  22182364.500 8 115509413.450 8      1792.523          51.000                                                                  
C05  39645691.883 5 206445520.508 5       -23.410          35.000    39645691.562 6 159636768.144 6       -18.111          38.000  
> 2020 05 16 17 26  0.0000000  0 16      -0.000000000000
G32  22658241.844 6 119069827.728 6      1954.219          38.000    22658247.852 6  92781717.041 6      1522.771          38.000  
G08  20326364.594 8 106815768.755 8       -65.078          51.000    20326367.461 8  83233070.179 8       -50.710          51.000  
G22  22825057.383 8 119946560.626 8      3013.465          50.000    22825057.016 7  93464776.901 7      2348.155          45.000  
G10  22057659.711 6 115913777.982 6     -2407.613          38.000    22057661.094 6  90322452.849 6     -1876.063          38.000  
G14  23641076.328 8 124234718.236 8      2751.781          48.000    23641079.539 7  96806278.351 7      2144.249          43.000  
G27  21267317.555 8 111760494.705 8     -2242.359          51.000    21267317.836 8  87086103.211 8     -1747.294          51.000  
R05  19621858.742 8 104889702.701 8       585.324          49.000    19621862.523 8  81580985.812 8       455.252          49.000  
R20  19807481.023 6 105919127.237 6      -501.391          41.000    19807484.922 8  82381545.915 8      -389.971          50.000  
E15                                                                  25079172.148 5 100983429.598 5     -1359.368          35.000  
E08  22965532.992 8 120684740.852 8      1889.566          50.000    22965534.820 8  92472753.934 8      1447.841          51.000  
E21  26643890.953 8 140014601.040 8     -2442.172          49.000    26643893.945 7 107283912.936 7     -1871.243          46.000  
E13  23291346.922 8 122396851.663 8       245.609          49.000    23291350.016 8  93784626.873 8       188.251          50.000  
C29  22406531.945 8 116676671.423 8     -1676.316          51.000                                                                  
C20  23053323.289 7 120044712.277 7     -1368.141          43.000                                                                  
C19  22172081.266 8 115455866.804 8      1777.613          51.000                                                                  
C05  39645828.484 5 206446233.021 5       -24.094          35.000    39645828.391 6 159637319.090 6       -18.359          37.000  
> 2020 05 16 17 26 30.0000000  0 17      -0.000000000000
G32  22647126.906 5 119011455.11025      1941.508          30.000    22647128.609 5  92736200.01125      1512.861          32.000  
G08  20326783.594 8 106817970.333 8       -80.816          51.000    20326786.742 8  83234785.689 8       -62.974          51.000  
G22  22807879.992 8 119856290.717 8      3005.336          51.000    22807878.500 7  93394436.771 7      2341.824          44.000  
G10  22071433.812 6 115986162.834 6     -2417.293          40.000    22071434.305 6  90378856.602 6     -1883.602          40.000  
G14  23625387.820 8 124152268.464 8      2745.891          48.000    23625389.984 7  96742031.862 7      2139.659          43.000  
G27  21280156.961 8 111827963.492 8     -2254.672          51.000    21280157.258 8  87138676.266 8     -1756.891          51.000  
R06  21987288.484 6 117327998.545 6      4233.023          36.000                                                                  
R05  19618650.281 8 104872552.560 8       558.918          50.000    19618654.391 8  81567646.791 8       434.714          49.000  
R20  19810332.430 6 105934373.591 6      -513.926          40.000    19810336.039 8  82393404.182 8      -399.723          50.000  
E15  25089298.922 5 131845154.539 5     -1777.141          32.000                                                                  
E08  22954777.438 8 120628222.042 8      1879.270          50.000    22954779.453 8  92429447.358 8      1439.970          51.000  
E21  26657853.641 8 140087972.374 8     -2448.355          50.000    26657855.555 7 107340132.435 7     -1876.044          46.000  
E13  23289960.422 8 122389565.241 8       241.027          50.000    23289963.062 8  93779043.770 8       184.719          51.000  
C29  22416217.469 8 116727106.416 8     -1685.223          51.000                                                                  
C20  23061246.336 7 120085968.878 7     -1381.543          43.000                                                                  
C19  22161879.875 8 115402749.348 8      1764.367          50.000                                                                  
C05  39645966.047 5 206446949.121 5       -22.973          35.000    39645965.867 6 159637872.840 6       -17.637          38.000  
> 2020 05 16 17 27  0.0000000  0 17      -0.000000000000
G08  20327298.227 8 106820675.049 8       -98.160          51.000    20327301.578 8  83236893.238 8       -76.488          51.000  
G22  22790754.984 8 119766296.988 8      2995.602          51.000    22790752.281 7  93324311.873 7      2334.239          44.000  
G10  22085270.664 6 116058876.100 6     -2428.949          40.000    22085270.523 6  90435516.250 6     -1892.691          39.000  
G14  23609738.055 8 124070025.515 8      2738.410          49.000    23609739.797 7  96677946.572 7      2133.830          44.000  
G27  21293072.930 8 111895835.108 8     -2268.738          51.000    21293073.359 8  87191563.222 8     -1767.849          51.000  
G01  22325550.266 5 117321557.87525      2525.293          30.000                                                                  
R06  21963520.961 6 117201180.178 6      4222.980          36.000                                                                  
R05  19615596.461 8 104856227.188 8       530.867          51.000    19615600.625 8  81554949.273 8       412.897          49.000  
R20  19813259.273 6 105950024.557 6      -527.988          41.000    19813262.891 8  82405577.161 8      -410.658          50.000  
E15                                                                  25099463.523 5 101065131.700 5     -1364.307          31.000  
E08  22944086.539 8 120572042.611 8      1867.402          51.000    22944088.422 8  92386400.819 8      1430.901          51.000  
E21  26671857.422 8 140161560.316 8     -2456.102          50.000    26671858.359 7 107396517.918 7     -1881.934          46.000  
E13  23288605.906 8 122382447.213 8       234.988          51.000    23288608.102 8  93773589.697 8       179.987          50.000  
C29  22425959.898 8 116777838.064 8     -1695.621          51.000                                                                  
C20  23069253.242 7 120127661.351 7     -1396.602          44.000                                                                  
C19  22151759.844 7 115350059.531 7      1749.582          47.000                                                                  
C05  39646103.781 5 206447665.250 5       -23.199          35.000    39646103.609 6 159638427.368 6       -18.000          38.000  
> 2020 05 16 17 27 30.0000000  0 16      -0.000000000000
G08  20327908.742 8 106823883.233 8      -115.520          51.000    20327912.125 8  83239393.111 8       -90.015          51.000  
G22  22773682.469 8 119676580.305 8      2985.727          51.000    22773678.695 7  93254402.833 7      2326.544          43.000  
G10  22099169.516 6 116131915.112 6     -2440.117          39.000    22099170.406 6  90492429.758 6     -1901.391          38.000  
G14  23594127.648 8 123987991.830 8      2730.715          50.000    23594128.945 7  96614024.308 7      2127.833          44.000  
G27  21306065.242 8 111964107.762 8     -2282.512          51.000    21306065.664 8  87244762.680 8     -1778.581          51.000  
R06  21939808.891 5 117074648.666 5      4212.922          34.000                                                                  
R05  19612697.016 8 104840726.391 8       502.730          51.000    19612701.172 8  81542893.108 8       391.013          49.000  
R20  19816261.758 6 105966080.530 6      -542.211          39.000    19816265.562 8  82418065.126 8      -421.720          50.000  
E15  25109644.375 5 131952061.877 5     -1785.953          31.000    25109660.648 5 101106133.173 5     -1368.291          34.000  
E08  22933460.711 8 120516203.282 8      1855.500          51.000    22933462.523 8  92343614.880 8      1421.709          51.000  
E21  26685901.672 8 140235362.124 8     -2463.738          50.000    26685902.609 7 107453067.271 7     -1887.926          47.000  
E13  23287283.414 8 122375497.293 8       228.723          51.000    23287285.344 8  93768264.419 8       175.231          51.000  
C29  22435759.164 8 116828865.488 8     -1706.051          51.000                                                                  
C20  23077343.523 7 120169787.514 7     -1411.613          44.000                                                                  
C19  22141722.422 7 115297797.813 7      1734.684          46.000                                                                  
C05  39646241.500 5 206448382.626 5       -24.105          35.000    39646241.352 6 159638982.080 6       -18.353          38.000  
> 2020 05 16 17 28  0.0000000  0 16      -0.000000000000
G32  22614267.562 5 118838771.601 5      1896.125          35.000    22614267.461 5  92601643.914 5      1477.516          35.000  
G08  20328617.484 8 106827607.106 8      -132.883          51.000    20328620.773 8  83242294.818 8      -103.545          51.000  
G22  22756664.891 8 119587153.952 8      2975.957          51.000    22756661.125 7  93184720.017 7      2318.931          44.000  
G10  22113132.078 6 116205289.220 6     -2451.535          41.000    22113134.234 6  90549604.417 6     -1910.288          39.000  
G14  23578559.508 8 123906181.248 8      2723.199          48.000    23578560.680 7  96550275.871 7      2121.977          44.000  
G27  21319135.859 8 112032792.120 8     -2296.426          51.000    21319136.336 8  87298282.939 8     -1789.423          51.000  
R06  21916154.664 5 116948419.394 5      4202.379          33.000                                                                  
R05  19609954.062 8 104826062.492 8       474.770          51.000    19609958.094 8  81531487.885 8       369.268          48.000  
R20  19819342.250 6 105982553.988 6      -556.227          39.000    19819346.281 8  82430877.799 8      -432.621          49.000  
E08  22922902.344 8 120460717.199 8      1843.508          51.000    22922904.055 8  92301099.614 8      1412.523          51.000  
E21  26699988.258 8 140309387.533 8     -2471.367          50.000    26699990.125 8 107509787.944 8     -1893.703          48.000  
E13  23285995.242 8 122368727.586 8       222.539          51.000    23285997.109 8  93763077.235 8       170.517          51.000  
C29  22445617.266 8 116880200.158 8     -1716.367          50.000                                                                  
C20  23085518.984 7 120212357.418 7     -1426.594          43.000                                                                  
C19  22131770.570 8 115245976.892 8      1719.805          48.000                                                                  
C05  39646381.523 5 206449112.34225       -24.570          35.000    39646381.367 6 159639545.984 6       -19.147          38.000  
> 2020 05 16 17 28 30.0000000  0 16      -0.000000000000
G32  22603482.961 6 118782081.749 6      1882.125          38.000    22603483.414 6  92557470.225 6      1466.594          36.000  
G08  20329420.844 8 106831828.341 8      -149.285          51.000    20329424.008 8  83245584.081 8      -116.326          51.000  
G22  22739699.117 8 119498000.061 8      2966.965          50.000    22739696.562 7  93115249.507 7      2311.924          45.000  
G10  22127154.391 6 116278977.323 6     -2461.641          40.000    22127155.898 6  90607023.635 6     -1918.162          39.000  
G14  23563030.633 7 123824578.486 7      2716.199          46.000    23563031.914 7  96486689.369 7      2116.520          45.000  
G27  21332280.734 8 112101868.065 8     -2309.316          51.000    21332281.102 8  87352108.303 8     -1799.468          51.000  
R06  21892553.867 5 116822477.160 5      4193.129          32.000                                                                  
R05  19607364.242 8 104812216.434 8       447.648          51.000    19607367.703 7  81520718.756 7       348.174          47.000  
R20  19822497.492 6 105999426.329 6      -569.477          38.000    19822501.695 8  82444000.725 8      -442.929          49.000  
E08  22912407.930 8 120405566.798 8      1832.469          51.000    22912409.289 8  92258841.553 8      1404.070          51.000  
E21  26714113.375 8 140383615.455 8     -2477.918          49.000    26714116.523 8 107566663.804 8     -1898.689          48.000  
E13  23284737.805 8 122362119.510 8       217.250          51.000    23284739.812 8  93758013.890 8       166.497          51.000  
C29  22455530.711 8 116931823.104 8     -1725.746          51.000                                                                  
C20  23093775.234 7 120255350.705 7     -1440.316          43.000                                                                  
C19  22121900.938 8 115194579.074 8      1705.930          51.000                                                                  
C05  39646520.047 5 206449833.70125       -24.500          35.000    39646520.102 6 159640104.543 6       -18.752          38.000  
> 2020 05 16 17 29  0.0000000  0 17      -0.000000000000
G32  22592777.570 5 118725823.828 5      1870.508          34.000    22592779.070 5  92513633.022 5      1457.551          35.000  
G08  20330319.562 8 106836551.140 8      -164.094          51.000    20330322.820 8  83249264.156 8      -127.865          51.000  
G22  22722786.422 8 119409123.799 8      2959.555          51.000    22722784.727 7  93045995.344 7      2306.150          44.000  
G10  22141236.422 6 116352980.544 6     -2470.324          38.000    22141237.477 6  90664688.414 6     -1924.932          38.000  
G14  23547542.312 7 123743189.569 7      2711.062          46.000    23547543.836 7  96423269.486 7      2112.517          43.000  
G27  21345500.320 8 112171337.856 8     -2320.598          51.000    21345500.469 8  87406240.539 8     -1808.261          51.000  
G01  22268211.336 5 117020247.733 5      2499.445          33.000    22268212.461 5  91184598.560 5      1947.620          31.000  
R06  21869006.922 5 116696828.496 5      4185.699          31.000                                                                  
R05  19604927.898 8 104799191.831 8       422.125          51.000    19604931.062 7  81510588.557 7       328.323          47.000  
R20  19825727.734 6 106016701.726 6      -580.859          37.000    19825732.141 8  82457437.151 8      -451.780          48.000  
E08  22901978.367 8 120350756.888 8      1823.023          51.000    22901978.844 8  92216844.363 8      1396.854          51.000  
E21  26728277.180 8 140458047.252 8     -2482.691          48.000    26728281.594 8 107623695.893 8     -1902.344          48.000  
E13  23283511.805 8 122355676.854 8       213.656          51.000    23283513.977 8  93753077.296 8       163.774          51.000  
C29  22465500.555 8 116983737.524 8     -1733.641          51.000                                                                  
C20  23102113.586 6 120298769.263 6     -1452.555          41.000                                                                  
C19  22112113.992 8 115143608.894 8      1693.582          51.000                                                                  
C05                                                                  39646658.180 6 159640660.415 6       -17.202          38.000  
> 2020 05 16 17 29 30.0000000  0 17      -0.000000000000
G32  22582155.555 5 118670023.126 5      1852.844          31.000    22582155.703 5  92470132.655 5      1443.778          33.000  
G08  20331313.477 8 106841773.483 8      -183.145          51.000    20331316.562 8  83253333.494 8      -142.710          51.000  
G22  22705926.547 8 119320524.491 8      2947.910          51.000    22705924.656 7  92976956.993 7      2297.073          43.000  
G10  22155377.891 6 116427294.428 6     -2483.047          39.000    22155380.117 6  90722595.347 6     -1934.842          39.000  
G14  23532094.648 7 123662015.049 7      2701.660          45.000    23532096.617 7  96360016.631 7      2105.193          43.000  
G27  21358794.016 8 112241198.174 8     -2335.875          51.000    21358793.984 8  87460677.067 8     -1820.166          51.000  
G01  22253970.508 5 116945402.169 5      2490.898          31.000    22253969.078 4  91126277.400 4      1940.960          29.000  
R06  21845515.312 5 116571476.063 5      4171.945          32.000                                                                  
R05  19602644.719 8 104786986.755 8       392.414          51.000    19602647.531 7  81501095.771 7       305.211          47.000  
R20  19829033.242 6 106034379.091 6      -596.605          38.000    19829037.391 7  82471186.176 7      -464.027          47.000  
E08  22891613.266 8 120296286.652 8      1809.383          51.000    22891613.469 8  92175107.449 8      1386.390          51.000  
E21  26742478.758 7 140532678.755 7     -2491.707          47.000    26742484.141 8 107680880.984 8     -1909.135          49.000  
E13  23282316.961 8 122349397.854 8       205.930          51.000    23282319.031 8  93748266.101 8       157.832          51.000  
C29  22475526.031 8 117035941.073 8     -1745.645          51.000                                                                  
C20  23110532.570 6 120342609.294 6     -1468.730          38.000                                                                  
C19  22102408.797 8 115093065.209 8      1676.988          51.000                                                                  
C05  39646794.781 5 206451263.262 5       -24.309          35.000    39646795.078 6 159641211.917 6       -19.051          38.000  
> 2020 05 16 17 30  0.0000000  0 16      -0.000000000000
G32  22571622.172 6 118614682.047 6      1837.117          36.000    22571626.609 6  92427028.077 6      1431.520          37.000  
G08  20332411.289 8 106847541.174 8      -200.949          51.000    20332414.109 8  83257827.795 8      -156.587          51.000  
G22  22689128.328 8 119232248.563 8      2937.414          51.000    22689125.820 7  92908170.621 7      2288.895          44.000  
G10  22169586.875 6 116501961.952 6     -2494.461          40.000    22169590.805 6  90780777.833 6     -1943.736          40.000  
G14  23516696.703 7 123581103.065 7      2693.043          43.000    23516699.172 7  96296968.372 7      2098.479          42.000  
G27  21372170.023 8 112311493.000 8     -2350.070          50.000    21372170.172 8  87515452.192 8     -1831.227          50.000  
R06  21822089.141 5 116446468.422 5      4161.352          32.000                                                                  
R05  19600523.664 8 104775647.230 8       363.934          51.000    19600526.438 8  81492276.176 8       283.063          48.000  
R20  19832423.055 6 106052504.950 6      -611.352          38.000    19832427.250 7  82485284.052 7      -475.499          46.000  
E08  22881321.438 8 120242202.633 8      1796.617          51.000    22881321.812 8  92133666.470 8      1376.641          51.000  
E21  26756726.430 7 140607552.980 7     -2499.605          47.000    26756732.078 8 107738252.075 8     -1915.277          48.000  
E13  23281161.977 8 122343328.044 8       199.160          51.000    23281163.828 8  93743615.202 8       152.543          51.000  
C29  22485615.695 8 117088478.231 8     -1756.395          51.000                                                                  
C20  23119041.250 6 120386914.074 6     -1484.332          40.000                                                                  
C19  22092793.594 8 115042993.783 8      1661.531          51.000                                                                  
C05  39646939.203 5 206452015.510 5       -25.516          35.000    39646939.500 6 159641793.619 6       -19.915          38.000  
> 2020 05 16 17 30 30.0000000  0 16      -0.000000000000
G32  22561169.359 6 118559760.953 6      1824.406          37.000    22561176.578 5  92384232.557 5      1421.622          35.000  
G08  20333602.016 8 106853797.769 8      -216.566          51.000    20333604.547 8  83262703.043 8      -168.756          51.000  
G22  22672380.758 8 119144240.267 8      2929.258          50.000    22672378.430 7  92839592.816 7      2282.542          44.000  
G10  22183851.906 6 116576923.588 6     -2503.371          39.000    22183855.891 6  90839189.485 6     -1950.679          40.000  
G14  23501338.367 7 123500399.245 7      2686.941          44.000    23501341.477 7  96234082.363 7      2093.721          43.000  
G27  21385617.242 8 112382163.921 8     -2361.758          48.000    21385618.336 8  87570520.394 8     -1840.331          48.000  
R06  21798717.805 5 116321751.696 5      4152.820          33.000                                                                  
R05  19598553.398 8 104765114.990 8       337.812          51.000    19598556.367 8  81484084.455 8       262.743          48.000  
R20  19835885.898 6 106071022.217 6      -623.844          38.000    19835890.094 7  82499686.338 7      -485.212          45.000  
E08  22871092.062 8 120188448.862 8      1786.527          51.000    22871093.234 8  92092478.562 8      1368.895          51.000  
E21  26771009.266 8 140682610.593 8     -2504.676          48.000    26771014.344 8 107795763.676 8     -1919.186          48.000  
E13  23280036.000 8 122337410.559 8       194.918          51.000    23280037.820 8  93739081.003 8       149.380          51.000  
C29  22495758.453 8 117141292.034 8     -1764.852          51.000                                                                  
C20  23127628.328 6 120431625.266 6     -1496.691          41.000                                                                  
C19  22083257.727 8 114993338.963 8      1648.449          51.000                                                                  
C05  39647080.320 5 206452750.060 5       -24.223          35.000    39647080.555 6 159642361.604 6       -18.646          38.000  
> 2020 05 16 17 31  0.0000000  0 16      -0.000000000000
G32  22550799.633 5 118505251.71525      1807.996          33.000                                                                  
G08  20334889.773 8 106860564.674 8      -234.160          51.000    20334891.984 8  83267975.940 8      -182.463          51.000  
G22  22655688.312 8 119056522.094 8      2918.949          50.000    22655686.492 7  92771241.049 7      2274.510          44.000  
G10  22198176.305 6 116652198.263 6     -2514.465          39.000    22198179.305 6  90897845.051 6     -1959.324          39.000  
G14  23486024.312 7 123419927.504 7      2678.414          42.000    23486027.664 6  96171377.206 6      2087.080          41.000  
G27  21399139.938 8 112453230.852 8     -2375.539          48.000    21399142.336 7  87625897.190 7     -1851.070          47.000  
R06  21775406.508 5 116197351.610 5      4140.496          34.000                                                                  
R05  19596738.234 8 104755411.984 8       309.477          51.000    19596741.070 8  81476537.693 8       240.704          48.000  
R20  19839425.984 6 106089952.976 6      -638.188          38.000    19839430.188 7  82514410.228 7      -496.371          45.000  
E08  22860929.766 8 120135047.925 8      1774.027          51.000    22860931.719 8  92051560.988 8      1359.353          51.000  
E21  26785330.727 7 140757870.722 7     -2512.180          47.000    26785335.047 7 107853430.447 7     -1924.888          47.000  
E13  23278943.094 8 122331666.931 8       188.422          51.000    23278945.023 8  93734680.035 8       144.354          51.000  
C29  22505957.883 8 117194403.245 8     -1775.492          51.000                                                                  
C20  23136295.516 5 120476762.125 5     -1510.777          33.000                                                                  
C19  22073806.039 8 114944122.731 8      1633.051          51.000                                                                  
C05  39647222.094 5 206453488.871 5       -24.801          35.000    39647222.273 6 159642932.144 6       -19.135          38.000  
> 2020 05 16 17 31 30.0000000  0 16      -0.000000000000
G32  22540519.844 5 118451231.68025      1793.504          31.000    22540525.789 5  92299672.41225      1397.539          33.000  
G08  20336273.758 8 106867836.637 8      -250.531          51.000    20336275.578 8  83273642.387 8      -195.219          51.000  
G22  22639049.938 8 118969089.473 8      2910.160          48.000    22639049.195 7  92703111.774 7      2267.661          45.000  
G10  22212558.820 5 116727777.792 5     -2524.172          34.000    22212560.859 5  90956738.144 5     -1966.885          35.000  
G14  23470754.000 7 123339684.647 7      2671.398          42.000    23470757.305 7  96108850.402 7      2081.610          42.000  
G27  21412737.188 8 112524686.636 8     -2387.867          48.000    21412740.422 8  87681577.011 8     -1860.676          48.000  
R06  21752154.766 5 116073265.342 5      4131.297          32.000                                                                  
R05  19595077.203 8 104746531.729 8       282.664          51.000    19595080.086 8  81469630.834 8       219.853          49.000  
R20  19843042.719 6 106109291.802 6      -650.875          39.000    19843046.664 7  82529451.511 7      -506.236          45.000  
E08  22850833.562 8 120081995.122 8      1763.008          50.000    22850836.258 8  92010910.180 8      1350.871          51.000  
E21  26799689.289 8 140833325.236 8     -2517.867          48.000    26799693.062 8 107911246.167 8     -1929.351          48.000  
E13  23277882.203 8 122326091.556 8       183.473          51.000    23277884.250 8  93730407.991 8       140.595          51.000  
C29  22516213.195 8 117247805.686 8     -1784.539          51.000                                                                  
C20  23145044.344 6 120522317.117 6     -1525.289          36.000                                                                  
C19  22064437.586 8 114895340.154 8      1619.203          51.000                                                                  
C05  39647363.383 5 206454224.076 5       -23.844          35.000    39647363.383 6 159643500.681 6       -18.715          37.000  
> 2020 05 16 17 32  0.0000000  0 14      -0.000000000000
G08  20337755.992 8 106875625.054 8      -268.059          51.000    20337757.445 8  83279711.267 8      -208.877          51.000  
G22  22622468.250 8 118881954.565 8      2899.707          49.000    22622468.883 7  92635214.487 7      2259.516          46.000  
G10  22227000.477 6 116803670.445 6     -2534.898          38.000    22227002.797 6  91015875.378 6     -1975.246          37.000  
G14  23455530.047 7 123259684.307 7      2663.039          42.000    23455533.258 7  96046512.558 7      2075.099          42.000  
G27  21426410.617 8 112596540.768 8     -2401.617          49.000    21426414.125 8  87737567.260 8     -1871.391          49.000  
R05  19593571.906 8 104738485.229 8       254.523          51.000    19593574.633 8  81463372.454 8       197.963          48.000  
R20  19846737.961 6 106129050.573 6      -665.273          39.000    19846741.688 7  82544819.441 7      -517.435          45.000  
E08  22840805.875 8 120029302.502 8      1750.785          49.000    22840809.234 8  91970535.347 8      1341.490          51.000  
E21  26814086.672 8 140908982.802 8     -2524.973          48.000    26814090.172 7 107969217.469 7     -1934.649          47.000  
E13  23276855.438 8 122320695.564 8       177.211          51.000    23276857.539 8  93726273.389 8       135.797          51.000  
C29  22526526.484 8 117301509.724 8     -1794.934          51.000                                                                  
C20  23153875.750 6 120568299.345 6     -1539.453          39.000                                                                  
C19  22055154.656 8 114847002.843 8      1604.020          51.000                                                                  
C05  39647506.156 5 206454967.319 5       -25.297          35.000    39647506.070 6 159644075.376 6       -19.066          38.000  
> 2020 05 16 17 32 30.0000000  0 15      -0.000000000000
G08  20339332.906 8 106883911.252 8      -284.406          51.000    20339334.172 8  83286168.027 8      -221.615          51.000  
G22  22605940.516 8 118795100.137 8      2890.598          51.000    22605941.250 7  92567535.752 7      2252.415          45.000  
G10  22241497.969 6 116879855.819 6     -2544.344          40.000    22241501.133 5  91075240.547 5     -1982.609          34.000  
G14  23440349.664 7 123179910.856 7      2655.426          43.000    23440352.516 6  95984351.486 6      2069.167          41.000  
G27  21440156.281 8 112668773.565 8     -2413.973          48.000    21440159.875 8  87793852.553 8     -1881.021          48.000  
R05  19592219.070 8 104731253.326 8       227.645          51.000    19592221.555 8  81457747.626 8       177.057          49.000  
R20  19850507.836 6 106149211.193 6      -678.527          39.000    19850512.250 7  82560499.867 7      -527.744          46.000  
E15                                                                  25212755.945 5 101521298.168 5     -1398.907          33.000  
E08  22830843.508 8 119976952.880 8      1739.340          49.000    22830847.258 8  91930423.317 8      1332.709          51.000  
E21  26828518.883 8 140984822.820 8     -2530.961          48.000    26828522.297 8 108027328.564 8     -1939.276          48.000  
E13  23275859.367 8 122315460.837 8       171.852          51.000    23275861.508 8  93722262.350 8       131.691          51.000  
C29  22536894.211 8 117355496.803 8     -1804.141          51.000                                                                  
C20  23162785.047 6 120614688.885 6     -1552.949          40.000                                                                  
C19  22045954.172 8 114799093.448 8      1589.930          51.000                                                                  
C05  39647646.828 6 206455700.068 6       -23.891          36.000    39647646.742 6 159644642.000 6       -18.570          38.000  
> 2020 05 16 17 33  0.0000000  0 16      -0.000000000000
G32  22510191.781 6 118291850.965 6      1749.641          36.000    22510198.023 5  92175485.032 5      1363.360          34.000  
G08  20341006.547 8 106892706.213 8      -300.410          51.000    20341007.648 8  83293021.231 8      -234.086          51.000  
G22  22589468.398 8 118708537.322 8      2881.789          50.000    22589468.070 7  92500084.268 7      2245.551          45.000  
G10  22256086.344 6 116956498.413 6     -2553.086          38.000    22256057.227 6  91134907.580 6     -1989.421          37.000  
G14  23425215.305 7 123100377.124 7      2648.207          45.000    23425217.617 6  95922377.217 6      2063.542          41.000  
G27  21453975.734 8 112741393.601 8     -2425.762          49.000    21453979.055 8  87850439.575 8     -1890.204          49.000  
R06  21682744.445 4 115702894.01624      4099.555          29.000                                                                  
R05  19591020.219 8 104724846.292 8       201.051          50.000    19591023.070 8  81452764.395 8       156.376          49.000  
R20  19854355.047 6 106169784.356 6      -691.309          40.000    19854359.742 7  82576501.194 7      -537.688          47.000  
E08  22820948.609 8 119924957.373 8      1728.520          49.000    22820952.695 8  91890582.633 8      1324.454          51.000  
E21  26842987.227 8 141060853.048 8     -2536.215          48.000    26842990.695 8 108085585.396 8     -1943.317          48.000  
E13  23274895.883 8 122310397.611 8       167.152          51.000    23274898.008 8  93718382.731 8       128.105          51.000  
C29  22547318.109 8 117409776.437 8     -1813.000          51.000                                                                  
C20  23171774.219 6 120661493.771 6     -1565.953          38.000                                                                  
C19  22036838.102 8 114751622.739 8      1576.168          51.000                                                                  
C05  39647787.586 5 206456433.237 5       -23.336          35.000    39647787.336 6 159645208.158 6       -17.903          37.000  
> 2020 05 16 17 33 30.0000000  0 16      -0.000000000000
G32  22500256.953 6 118239635.321 6      1732.078          36.000    22500259.984 5  92134797.619 5      1349.678          35.000  
G08  20342777.680 8 106902014.018 8      -319.531          51.000    20342778.883 8  83300274.060 8      -248.985          51.000  
G22  22573052.711 8 118622271.209 8      2869.824          49.000    22573051.375 7  92432863.994 7      2236.230          46.000  
G14  23410127.961 7 123021089.356 7      2637.848          46.000    23410129.414 7  95860594.607 7      2055.469          42.000  
G27  21467869.445 8 112814403.333 8     -2440.965          50.000    21467872.242 8  87907330.252 8     -1902.051          50.000  
R06  21659732.688 5 115580103.335 5      4086.406          30.000                                                                  
R05  19589976.250 8 104719267.536 8       171.352          50.000    19589979.438 8  81448425.369 8       133.273          48.000  
R20  19858280.297 6 106190774.656 6      -707.555          39.000    19858285.094 7  82592826.973 7      -550.320          47.000  
E08  22811122.414 8 119873320.953 8      1714.395          50.000    22811126.648 8  91851017.092 8      1313.583          51.000  
E21  26857491.812 7 141137075.020 7     -2544.746          47.000    26857495.539 7 108143989.149 7     -1949.896          47.000  
E13  23273965.758 8 122305509.966 8       159.164          51.000    23273967.750 8  93714637.650 8       121.930          51.000  
C22  25664990.422 6 133644356.618 6      3430.188          36.000                                                                  
C29  22557798.805 8 117464351.952 8     -1824.852          51.000                                                                  
C20  23180841.727 6 120708715.978 6     -1581.941          36.000                                                                  
C19  22027807.047 8 114704595.207 8      1559.410          51.000                                                                  
C05  39647928.789 5 206457168.87725       -25.586          35.000    39647928.492 6 159645776.622 6       -19.622          38.000  
> 2020 05 16 17 34  0.0000000  0 19      -0.000000000000
G32  22490399.695 6 118187831.787 6      1714.059          37.000    22490396.367 5  92094431.429 5      1335.640          35.000  
G08  20344636.961 8 106911785.181 8      -338.969          51.000    20344638.492 8  83307887.934 8      -264.135          51.000  
G22  22556684.320 8 118536254.022 8      2857.445          49.000    22556682.477 7  92365837.681 7      2226.584          46.000  
G10  22285323.633 6 117110198.983 6     -2577.902          36.000    22285320.750 5  91254661.310 5     -2008.756          34.000  
G14  23395078.484 8 122942001.019 8      2627.297          48.000    23395079.133 6  95798967.433 6      2047.248          41.000  
G27  21481827.727 8 112887751.971 8     -2456.156          51.000    21481830.023 8  87964485.003 8     -1913.892          51.000  
G11  20490940.742 5 107680620.02325      1774.465          33.000                                                                  
R06  21636775.680 5 115457609.486 5      4072.336          33.000                                                                  
R05  19589077.828 8 104714466.431 8       141.469          50.000    19589081.195 8  81444691.185 8       110.031          48.000  
R20  19862274.078 6 106212132.286 6      -723.898          39.000    19862279.211 7  82609438.444 7      -563.032          47.000  
R04  22145779.391 5 118589231.581 5     -3514.250          35.000    22145778.336 5  92236079.294 5     -2733.306          31.000  
E08  22801355.672 8 119821995.427 8      1700.191          51.000    22801359.398 8  91811689.747 8      1302.787          51.000  
E21  26872023.000 7 141213437.152 7     -2553.125          47.000    26872027.227 8 108202500.312 8     -1956.298          48.000  
E13  23273059.656 8 122300748.804 8       151.094          51.000    23273061.398 8  93710989.475 8       115.860          51.000  
C22  25645224.344 6 133541433.907 6      3424.344          37.000                                                                  
C29  22568326.742 8 117519174.105 8     -1837.074          51.000                                                                  
C20  23189980.609 6 120756304.824 6     -1598.059          37.000                                                                  
C19  22018851.812 8 114657962.774 8      1542.297          51.000                                                                  
C05  39648061.352 5 206457858.481 5       -27.711          35.000    39648060.945 6 159646309.463 6       -21.023          38.000  
> 2020 05 16 17 34 30.0000000  0 19      -0.000000000000
G32  22480645.375 6 118136565.619 6      1703.461          38.000    22480640.469 6  92054483.837 6      1327.373          36.000  
G08  20346607.914 8 106922143.061 8      -351.559          51.000    20346609.578 8  83315958.997 8      -273.942          51.000  
G22  22540386.750 8 118450609.446 8      2852.117          49.000    22540384.508 7  92299101.717 7      2222.433          46.000  
G10  22300056.078 6 117187606.303 6     -2582.691          38.000    22300055.141 5  91314978.609 5     -2012.487          33.000  
G14  23380090.969 8 122863237.485 8      2623.488          49.000    23380090.352 6  95737593.329 6      2044.280          41.000  
G27  21495873.664 8 112961561.038 8     -2464.535          51.000    21495875.594 8  88021998.505 8     -1920.418          51.000  
R06  21613899.633 6 115335532.198 6      4065.621          37.000                                                                  
R05  19588348.383 8 104710567.551 8       118.484          50.000    19588352.008 7  81441658.736 7        92.155          47.000  
R20  19866360.133 6 106233983.210 6      -733.031          38.000    19866365.344 7  82626433.595 7      -570.136          47.000  
R04  22165494.055 5 118694806.577 5     -3523.961          34.000    22165493.484 5  92318193.210 5     -2740.859          30.000  
E15  25254622.180 5 132713927.009 5     -1840.512          35.000                                                                  
E08  22791671.797 8 119771104.796 8      1692.547          51.000    22791675.062 8  91772695.647 8      1296.881          51.000  
E21  26886604.055 8 141290060.157 8     -2554.988          48.000    26886608.969 8 108261211.359 8     -1957.710          49.000  
E13  23272201.031 8 122296237.294 8       149.648          51.000    23272202.680 8  93707532.604 8       114.672          51.000  
C22  25625492.727 6 133438687.320 6      3425.512          37.000                                                                  
C29  22578925.398 8 117574364.165 8     -1842.375          51.000                                                                  
C20  23199214.297 4 120804380.429 4     -1607.211          29.000                                                                  
C19  22009996.258 8 114611848.041 8      1531.914          51.000                                                                  
C05  39648208.242 5 206458624.137 5       -23.105          35.000    39648207.797 6 159646900.785 6       -17.987          38.000  
> 2020 05 16 17 35  0.0000000  0 19      -0.000000000000
G32  22470973.531 5 118085740.499 5      1685.707          34.000    22470970.328 5  92014879.776 5      1313.541          34.000  
G08  20348671.789 8 106932989.267 8      -370.688          51.000    20348673.383 8  83324410.588 8      -288.848          51.000  
G22  22524141.398 8 118365240.486 8      2840.027          48.000    22524138.945 7  92232580.499 7      2213.012          45.000  
G10  22314837.344 6 117265283.224 6     -2594.797          36.000    22314840.172 5  91375505.959 5     -2021.920          34.000  
G14  23365146.906 8 122784703.081 8      2613.004          48.000    23365145.789 6  95676397.800 6      2036.111          41.000  
G27  21509987.992 8 113035730.627 8     -2479.293          50.000    21509989.594 8  88079792.912 8     -1931.920          50.000  
R06  21591084.172 6 115213775.543 6      4052.273          41.000                                                                  
R05  19587768.992 8 104707470.579 8        88.797          49.000    19587772.500 7  81439249.997 7        69.064          47.000  
R20  19870519.828 6 106256227.411 6      -749.227          38.000    19870525.250 8  82643734.624 8      -582.735          48.000  
R04  22185283.844 5 118800790.646 5     -3541.094          31.000    22185285.609 4  92400625.266 4     -2754.182          27.000  
E15  25265159.938 5 132769256.482 5     -1847.285          35.000                                                                  
E08  22782051.961 8 119720551.740 8      1678.414          50.000    22782055.039 8  91733960.198 8      1286.043          51.000  
E21  26901215.758 8 141366843.312 8     -2563.094          48.000    26901221.406 8 108320045.119 8     -1963.942          49.000  
E13  23271371.211 8 122291877.247 8       141.773          51.000    23271372.977 8  93704191.781 8       108.623          51.000  
C22  25605775.742 5 133336020.952 5      3420.180          34.000                                                                  
C29  22589575.953 8 117629824.170 8     -1854.117          51.000                                                                  
C20  23208516.070 4 120852833.55824     -1622.730          29.000                                                                  
C19  22001221.758 8 114566154.186 8      1515.125          51.000                                                                  
C05  39648350.859 5 206459366.660 5       -25.016          35.000    39648350.375 6 159647474.974 6       -19.830          38.000  
> 2020 05 16 17 35 30.0000000  0 16      -0.000000000000
G08  20350837.523 8 106944370.694 8      -387.965          51.000    20350839.227 8  83333279.230 8      -302.310          51.000  
G22  22507957.227 8 118280194.388 8      2829.895          48.000    22507954.562 7  92166310.861 7      2205.113          44.000  
G10  22329678.422 5 117343273.326 5     -2604.590          33.000    22329680.047 5  91436277.439 5     -2029.554          33.000  
G14  23350255.555 8 122706446.917 8      2604.039          48.000    23350254.711 7  95615419.071 7      2029.128          42.000  
G27  21524179.164 8 113110305.461 8     -2492.281          50.000    21524180.445 8  88137903.110 8     -1942.041          50.000  
R06  21568338.477 6 115092389.325 6      4040.199          41.000                                                                  
R05  19587348.312 8 104705221.795 8        61.082          49.000    19587351.820 7  81437500.957 7        47.508          47.000  
R20  19874762.086 6 106278912.748 6      -762.996          37.000    19874767.594 7  82661378.771 7      -593.445          47.000  
E15  25275716.883 6 132824785.811 6     -1851.062          36.000                                                                  
E08  22772505.328 8 119670383.528 8      1666.082          51.000    22772508.531 8  91695519.655 8      1276.591          51.000  
E21  26915866.062 7 141443830.546 7     -2569.500          47.000    26915872.406 8 108379035.235 8     -1968.770          50.000  
E13  23270579.023 8 122287715.069 8       135.727          51.000    23270581.047 8  93701002.575 8       103.980          51.000  
C22  25586083.656 5 133233482.301 5      3416.039          33.000                                                                  
C29  22600286.789 8 117685599.460 8     -1864.219          50.000                                                                  
C19  21992536.680 8 114520927.665 8      1499.988          51.000                                                                  
C05  39648498.000 5 206460132.656 5       -25.809          35.000    39648497.469 6 159648067.264 6       -19.682          38.000  
> 2020 05 16 17 36  0.0000000  0 17      -0.000000000000
G08  20353100.844 8 106956264.625 8      -405.965          51.000    20353102.648 8  83342547.223 8      -316.336          51.000  
G22  22491830.617 8 118195449.736 8      2818.789          48.000    22491827.859 7  92100276.097 7      2196.463          44.000  
G10  22344573.961 5 117421527.820 5     -2615.441          31.000    22344574.375 5  91497297.738 5     -2038.004          31.000  
G14  23335412.898 8 122628448.674 8      2594.738          48.000    23335412.648 7  95554641.262 7      2021.875          42.000  
G27  21538442.914 8 113185261.637 8     -2505.895          51.000    21538444.094 8  88196310.484 8     -1952.649          51.000  
R06  21545657.938 6 114971354.520 6      4027.508          40.000                                                                  
R05  19587081.859 8 104703797.871 8        32.832          50.000    19587085.211 7  81436393.484 7        25.536          47.000  
R20  19879082.961 6 106302016.962 6      -778.172          37.000    19879088.133 7  82679348.707 7      -605.245          47.000  
E15  25286295.766 5 132880380.404 5     -1856.105          35.000                                                                  
E08  22763028.078 8 119620578.773 8      1653.117          51.000    22763030.984 8  91657357.598 8      1266.654          51.000  
E21  26930549.961 7 141520997.065 7     -2576.168          45.000    26930556.945 8 108438162.735 8     -1973.918          49.000  
E13  23269820.273 8 122283728.544 8       128.980          51.000    23269822.570 8  93697947.962 8        98.814          51.000  
C22  25566412.398 4 133131050.682 4      3411.793          29.000                                                                  
C29  22611053.773 8 117741667.272 8     -1874.746          50.000                                                                  
C20  23227370.164 5 120951003.694 5     -1650.898          30.000                                                                  
C19  21983936.883 8 114476146.925 8      1484.266          51.000                                                                  
C05  39648645.344 5 206460900.19625       -26.059          35.000    39648644.750 6 159648660.403 6       -20.528          38.000  
> 2020 05 16 17 36 30.0000000  0 15      -0.000000000000
G08  20355463.539 8 106968680.691 8      -421.195          51.000    20355465.367 8  83352222.065 8      -328.204          51.000  
G22  22475763.539 8 118111016.871 8      2810.672          49.000    22475761.164 7  92034484.310 7      2190.138          45.000  
G14  23320620.992 7 122550720.338 7      2587.902          46.000    23320621.891 7  95494073.802 7      2016.551          43.000  
G27  21552780.820 8 113260606.750 8     -2516.590          51.000    21552781.719 8  88255020.944 8     -1960.983          51.000  
R06  21523044.484 6 114850684.270 6      4017.641          41.000                                                                  
R05  19586971.695 8 104703207.224 8         7.250          51.000    19586974.727 8  81435934.094 8         5.639          48.000  
R20  19883483.641 6 106325549.784 6      -790.098          37.000    19883488.633 7  82697651.999 7      -614.517          46.000  
E15  25296899.172 5 132936102.288 5     -1858.250          32.000                                                                  
E08  22753622.164 8 119571147.618 8      1642.812          51.000    22753624.156 8  91619481.799 8      1258.812          51.000  
E21  26945268.852 7 141598349.694 7     -2580.082          44.000    26945276.164 8 108497432.850 8     -1976.974          48.000  
E13  23269096.781 8 122279927.009 8       125.020          51.000    23269099.234 8  93695035.083 8        95.803          51.000  
C29  22621878.828 8 117798036.206 8     -1882.539          50.000                                                                  
C20  23236920.898 5 121000718.913 5     -1662.762          34.000                                                                  
C19  21975424.586 8 114431821.665 8      1471.316          51.000                                                                  
C05  39648794.555 5 206461676.617 5       -25.012          35.000    39648793.992 6 159649261.156 6       -19.090          38.000  
> 2020 05 16 17 37  0.0000000  0 17      -0.000000000000
G32  22433188.273 4 117887201.45624      1623.578          29.000    22433192.023 4  91860147.31024      1265.123          29.000  
G08  20357909.062 8 106981531.800 8      -439.711          51.000    20357910.820 8  83362235.903 8      -342.635          51.000  
G22  22459739.742 8 118026810.272 8      2799.035          50.000    22459738.180 7  91968868.852 7      2181.070          44.000  
G14  23305864.484 7 122473178.213 7      2577.383          46.000    23305866.148 7  95433651.409 7      2008.351          44.000  
G27  21567176.016 8 113336252.721 8     -2530.688          51.000    21567176.836 8  88313965.827 8     -1971.965          51.000  
R06  21500483.133 6 114730293.659 6      4004.211          41.000                                                                  
R05  19587000.750 8 104703361.282 8       -21.828          51.000    19587003.766 8  81436053.936 8       -16.977          48.000  
R20  19887948.109 6 106349423.446 6      -805.742          36.000    19887953.117 7  82716220.382 7      -626.688          46.000  
E15  25307510.820 6 132991867.644 6     -1864.223          37.000                                                                  
E08  22744271.008 8 119522004.517 8      1629.066          51.000    22744271.992 8  91581826.714 8      1248.282          51.000  
E21  26960006.570 7 141675799.569 7     -2587.477          44.000    26960013.203 7 108556777.491 7     -1982.571          47.000  
E13  23268392.102 8 122276224.136 8       117.578          51.000    23268394.539 8  93692197.817 8        90.080          51.000  
C22  25527126.953 5 132926439.251 5      3405.031          30.000                                                                  
C29  22632745.508 8 117854619.939 8     -1893.852          51.000                                                                  
C20  23246531.656 5 121050760.657 5     -1677.535          32.000                                                                  
C19  21966983.422 8 114387866.812 8      1454.812          51.000                                                                  
C05  39648929.250 5 206462378.415 5       -26.215          35.000    39648928.539 6 159649803.076 6       -20.543          38.000  
> 2020 05 16 17 37 30.0000000  0 15      -0.000000000000
G32  22423966.352 6 117838744.104 6      1603.098          38.000    22423974.992 6  91822428.689 6      1249.167          36.000  
G08  20360466.953 8 106994973.486 8      -460.281          51.000    20360468.523 8  83372709.921 8      -358.661          51.000  
G22  22443788.672 8 117942985.872 8      2785.418          49.000    22443787.875 7  91903551.192 7      2170.459          44.000  
G10  22389574.047 5 117658019.568 5     -2646.129          32.000    22389583.648 5  91681581.017 5     -2061.916          33.000  
G14  23291173.477 7 122395979.137 7      2565.184          46.000    23291175.500 7  95373496.333 7      1998.845          43.000  
G27  21581657.328 8 113412352.750 8     -2546.680          49.000    21581658.633 8  88373264.502 8     -1984.429          50.000  
R06  21478004.445 7 114610343.604 7      3988.609          42.000                                                                  
R05  19587198.266 8 104704416.618 8       -52.586          51.000    19587201.102 8  81436874.771 8       -40.900          49.000  
R20  19892506.125 6 106373796.235 6      -823.418          36.000    19892510.969 7  82735176.969 7      -640.436          45.000  
E08  22735004.219 8 119473305.185 8      1613.496          51.000    22735004.688 8  91544511.678 8      1236.310          51.000  
E21  26974792.375 7 141753499.138 7     -2596.484          45.000    26974797.586 7 108616313.444 7     -1989.575          46.000  
E13  23267735.648 8 122272774.833 8       108.336          51.000    23267738.047 8  93689554.837 8        83.020          51.000  
C29  22643682.852 8 117911571.298 8     -1906.961          51.000                                                                  
C19  21958642.547 8 114344436.275 8      1436.496          51.000                                                                  
C05  39649078.578 5 206463156.240 5       -29.883          35.000    39649077.797 6 159650404.528 6       -22.911          37.000  
> 2020 05 16 17 38  0.0000000  0 17      -0.000000000000
G32  22414839.453 5 117790772.787 5      1592.012          31.000    22414843.820 5  91785048.303 5      1240.529          30.000  
G08  20363121.211 8 107008921.456 8      -472.852          51.000    20363122.422 8  83383578.455 8      -368.456          51.000  
G22  22427894.258 7 117859460.683 7      2779.699          47.000    22427892.969 7  91838466.685 7      2166.003          43.000  
G10  22404686.672 5 117737429.738 5     -2650.781          34.000    22404692.445 5  91743459.062 5     -2065.544          33.000  
G14  23276532.484 7 122319041.690 7      2560.664          46.000    23276534.266 7  95313545.145 7      1995.326          44.000  
G27  21596208.406 8 113488821.083 8     -2554.465          48.000    21596210.250 8  88432850.142 8     -1990.493          48.000  
R06  21455593.438 7 114490752.179 7      3980.855          44.000                                                                  
R05  19587548.266 8 104706286.804 8       -75.344          51.000    19587551.148 8  81438329.376 8       -58.598          49.000  
R20  19897141.398 6 106398582.491 6      -832.344          36.000    19897145.586 7  82754455.166 7      -647.379          45.000  
E15  25328836.172 5 133103937.480 5     -1870.820          34.000                                                                  
E08  22725806.055 8 119424966.443 8      1605.789          51.000    22725806.539 8  91507472.944 8      1230.443          51.000  
E21  26989609.695 7 141831361.834 7     -2597.609          45.000    26989613.508 7 108675974.364 7     -1990.419          46.000  
E13  23267111.484 8 122269495.106 8       107.066          51.000    23267113.914 8  93687041.786 8        82.065          51.000  
C29  22654674.547 8 117968806.269 8     -1912.035          51.000                                                                  
C20  23266018.406 6 121152267.285 6     -1703.191          37.000                                                                  
C19  21950386.164 8 114301447.196 8      1426.148          50.000                                                                  
C05  39649226.773 5 206463927.89125       -25.105          35.000    39649225.906 6 159651000.834 6       -19.495          37.000  
> 2020 05 16 17 38 30.0000000  0 17      -0.000000000000
G32  22405795.547 6 117743264.341 6      1574.844          39.000    22405804.180 6  91748031.936 6      1227.154          40.000  
G08  20365870.984 8 107023371.428 8      -490.750          51.000    20365872.078 8  83394838.164 8      -382.403          51.000  
G22  22412056.000 8 117776231.126 8      2768.633          49.000    22412053.109 7  91773612.539 7      2157.380          42.000  
G10  22419848.547 5 117817104.895 5     -2661.223          34.000    22419851.586 5  91805543.572 5     -2073.681          34.000  
G14  23261941.016 7 122242364.133 7      2550.793          46.000    23261942.203 7  95253796.474 7      1987.635          43.000  
G27  21610828.141 7 113565651.706 7     -2567.672          46.000    21610830.422 7  88492718.140 7     -2000.784          47.000  
G11  20402435.430 5 107215521.066 5      1666.211          32.000                                                                  
R06  21433249.664 7 114371518.000 7      3967.676          46.000                                                                  
R05  19588049.688 8 104708966.651 8      -103.578          51.000    19588052.328 8  81440413.706 8       -80.564          49.000  
R20  19901853.008 5 106423778.777 5      -847.020          35.000    19901857.562 7  82774052.255 7      -658.793          45.000  
E08  22716675.680 8 119376984.942 8      1592.707          51.000    22716676.164 8  91470707.923 8      1220.390          51.000  
E21  27004456.992 7 141909381.002 7     -2603.910          46.000    27004460.039 7 108735755.197 7     -1995.205          47.000  
E13  23266518.867 8 122266380.846 8       100.336          51.000    23266521.328 8  93684655.530 8        76.848          51.000  
C29  22665719.531 8 118026320.078 8     -1922.484          51.000                                                                  
C20  23275865.805 6 121203565.789 6     -1717.059          36.000                                                                  
C19  21942214.125 8 114258895.955 8      1410.332          50.000                                                                  
C05  39649372.734 5 206464687.394 5       -25.566          35.000    39649371.852 6 159651588.525 6       -20.093          38.000  
> 2020 05 16 17 39  0.0000000  0 19      -0.000000000000
G32  22396842.508 6 117696222.244 6      1561.262          38.000    22396851.664 6  91711375.739 6      1216.568          39.000  
G08  20368714.883 8 107038316.736 8      -505.242          51.000    20368716.148 8  83406483.829 8      -393.695          51.000  
G22  22396272.945 8 117693291.463 8      2760.996          49.000    22396269.703 7  91708984.298 7      2151.429          43.000  
G10  22435058.656 4 117897028.87524     -2666.645          27.000    22435059.023 4  91867815.40824     -2077.908          27.000  
G14  23247398.242 7 122165942.135 7      2544.176          47.000    23247398.883 6  95194246.931 6      1982.478          41.000  
G27  21625515.109 7 113642836.427 7     -2577.633          47.000    21625517.734 7  88552862.037 7     -2008.546          47.000  
G11  20392951.344 5 107165682.823 5      1655.914          30.000                                                                  
R06  21410972.273 7 114252638.461 7      3957.840          47.000                                                                  
R05  19588700.742 8 104712448.276 8      -128.258          50.000    19588703.312 8  81443121.661 8       -99.753          49.000  
R20  19906640.320 6 106449378.357 6      -858.781          36.000    19906644.203 7  82793963.048 7      -667.941          44.000  
R04  22346453.219 5 119663826.369 5     -3648.414          33.000                                                                  
E15  25350229.641 5 133216354.679 5     -1875.938          31.000                                                                  
E08  22707611.766 8 119329354.863 8      1583.078          51.000    22707612.539 8  91434212.170 8      1213.003          51.000  
E21  27019332.273 7 141987547.569 7     -2606.754          46.000    27019335.586 8 108795648.969 8     -1997.399          48.000  
E13  23265956.453 8 122263425.489 8        97.066          51.000    23265958.922 8  93682391.028 8        74.412          51.000  
C29  22676816.289 8 118084105.430 8     -1929.551          51.000                                                                  
C20  23285785.281 5 121255241.790 5     -1727.832          33.000                                                                  
C19  21934125.227 8 114216776.387 8      1397.875          50.000                                                                  
C05  39649515.195 5 206465429.398 5       -23.426          35.000    39649514.398 6 159652162.272 6       -18.087          38.000  
> 2020 05 16 17 39 30.0000000  0 19      -0.000000000000
G32  22387985.359 6 117649683.160 6      1542.434          37.000    22387992.391 6  91675111.539 6      1201.891          37.000  
G08  20371660.500 8 107053796.282 8      -525.227          51.000    20371661.727 8  83418545.777 8      -409.268          51.000  
G22  22380552.547 8 117610681.975 8      2747.723          49.000    22380550.297 7  91644613.310 7      2141.086          45.000  
G10  22450325.188 5 117977262.390 5     -2679.332          31.000    22450326.398 5  91930322.231 5     -2087.795          30.000  
G14  23232912.156 7 122089817.553 7      2531.996          46.000    23232912.711 7  95134929.141 7      1972.988          42.000  
G27  21640277.102 8 113720412.741 8     -2592.598          49.000    21640280.023 8  88613311.079 8     -2020.203          49.000  
G11  20383541.945 5 107116238.461 5      1640.285          30.000                                                                  
R06  21388769.070 7 114134156.328 7      3942.391          47.000                                                                  
R05  19589509.078 8 104716771.073 8      -158.426          51.000    19589512.070 8  81446483.842 8      -123.220          49.000  
R20  19911510.508 6 106475421.495 6      -875.688          36.000    19911514.305 7  82814218.804 7      -681.090          45.000  
R04  22366941.375 6 119773486.224 6     -3663.844          36.000                                                                  
E15  25360969.086 5 133272790.912 5     -1883.746          32.000    25360975.391 5 102118142.740 5     -1443.498          32.000  
E08  22698622.117 8 119282116.261 8      1567.719          51.000    22698623.594 8  91398016.381 8      1201.258          51.000  
E21  27034242.180 7 142065898.308 7     -2615.172          44.000    27034246.797 8 108855683.855 8     -2003.774          48.000  
E13  23265431.875 8 122260668.376 8        88.211          51.000    23265434.227 8  93680278.433 8        67.602          51.000  
C29  22687972.742 8 118142200.541 8     -1942.016          51.000                                                                  
C20  23295789.305 6 121307332.334 6     -1743.488          38.000                                                                  
C19  21926127.031 8 114175127.787 8      1380.062          51.000                                                                  
C05  39649661.492 5 206466191.33425       -27.016          35.000    39649660.805 6 159652751.809 6       -20.253          38.000  
> 2020 05 16 17 40  0.0000000  0 18      -0.000000000000
G32  22379217.391 5 117603607.866 5      1528.539          35.000    22379223.320 5  91639208.637 5      1191.076          35.000  
G08  20374700.086 8 107069769.399 8      -540.523          51.000    20374701.156 8  83430992.337 8      -421.187          51.000  
G22  22364887.711 8 117528362.460 8      2739.328          51.000    22364886.594 7  91580468.244 7      2134.542          46.000  
G10  22465638.203 5 118057734.629 5     -2686.410          30.000    22465643.211 4  91993027.802 4     -2093.310          29.000  
G14  23218475.297 7 122013951.612 7      2524.828          46.000    23218476.055 7  95075812.903 7      1967.402          42.000  
G27  21655106.078 8 113798337.738 8     -2603.016          50.000    21655109.133 8  88674031.821 8     -2028.324          50.000  
R06  21366633.117 7 114016033.181 7      3931.609          47.000                                                                  
R05  19590466.633 8 104721891.607 8      -183.715          50.000    19590470.117 8  81450466.484 8      -142.889          50.000  
R20  19916456.172 6 106501866.810 6      -888.266          37.000    19916460.055 7  82834787.370 7      -690.873          46.000  
R04  22387496.141 5 119883616.882 5     -3675.336          34.000                                                                  
E08  22689699.406 8 119235228.792 8      1557.273          51.000    22689701.414 8  91362089.651 8      1193.203          51.000  
E21  27049178.414 7 142144389.560 7     -2618.449          43.000    27049184.742 8 108915826.412 8     -2006.333          49.000  
E13  23264937.125 8 122258068.383 8        84.309          51.000    23264939.516 8  93678286.229 8        64.600          51.000  
C22  25409803.781 5 132315533.461 5      3383.336          31.000                                                                  
C29  22699180.781 8 118200563.912 8     -1949.715          51.000                                                                  
C20  23305863.453 6 121359794.509 6     -1754.625          40.000                                                                  
C19  21918211.914 8 114133909.788 8      1366.953          51.000                                                                  
C05  39649803.742 5 206466932.471 5       -24.371          35.000    39649803.258 6 159653325.328 6       -18.749          38.000  
> 2020 05 16 17 40 30.0000000  0 19      -0.000000000000
G32  22370550.250 5 117558038.64125      1510.121          30.000                                                                  
G08  20377842.805 8 107086284.628 8      -559.371          51.000    20377844.016 8  83443861.329 8      -435.874          51.000  
G22  22349288.078 8 117446383.240 8      2727.016          51.000    22349287.438 7  91516588.358 7      2124.951          46.000  
G10  22481007.805 5 118138490.537 5     -2697.293          31.000    22481015.602 4  92055991.793 4     -2101.793          26.000  
G14  23204097.594 7 121938396.318 7      2513.363          47.000    23204098.109 6  95016938.700 6      1958.469          40.000  
G27  21670010.836 8 113876659.105 8     -2617.156          51.000    21670013.852 8  88735061.426 8     -2039.343          51.000  
G01  21950643.961 5 115351405.98825      2337.277          31.000                                                                  
R06  21344574.398 7 113898322.516 7      3916.871          46.000                                                                  
R05  19591582.781 8 104727859.078 8      -212.953          49.000    19591586.414 8  81455107.862 8      -165.630          49.000  
R20  19921486.516 6 106528764.658 6      -904.121          37.000    19921490.539 7  82855707.918 7      -703.205          46.000  
R04  22408128.531 5 119994109.373 5     -3690.254          31.000                                                                  
E08  22680853.234 8 119188742.689 8      1542.988          51.000    22680855.430 8  91326470.451 8      1182.278          51.000  
E21  27064150.047 6 142223068.303 6     -2625.777          41.000    27064157.648 8 108976112.645 8     -2011.808          48.000  
E13  23264481.656 8 122255675.084 8        76.406          51.000    23264484.180 8  93676452.400 8        58.566          51.000  
C22  25390328.562 5 132214139.564 5      3376.926          31.000                                                                  
C29  22710449.617 8 118259243.850 8     -1961.070          51.000                                                                  
C20  23316017.422 5 121412675.042 5     -1769.676          35.000                                                                  
C19  21910389.078 8 114093171.780 8      1350.070          51.000                                                                  
C05  39649951.547 5 206467701.176 5       -26.129          34.000    39649950.961 6 159653920.520 6       -20.126          38.000  
> 2020 05 16 17 41  0.0000000  0 19      -0.000000000000
G32  22361976.219 5 117512978.46425      1495.809          30.000    22361976.562 4  91568546.07624      1165.556          29.000  
G08  20381082.625 8 107103309.952 8      -575.895          51.000    20381083.867 8  83457127.801 8      -448.749          51.000  
G22  22333747.047 8 117364713.117 8      2717.223          51.000    22333746.344 7  91452949.355 7      2117.320          46.000  
G10  22496427.062 5 118219519.438 5     -2704.516          34.000    22496434.383 5  92119131.214 5     -2107.412          34.000  
G14  23189773.258 7 121863121.766 7      2504.457          46.000    23189773.539 6  94958283.271 6      1951.526          41.000  
G27  21684984.523 8 113955343.046 8     -2628.734          51.000    21684987.516 8  88796373.530 8     -2048.368          51.000  
R06  21322587.039 7 113780994.645 7      3904.453          46.000                                                                  
R05  19592851.172 8 104734639.760 8      -239.527          51.000    19592854.766 8  81460381.704 8      -186.299          49.000  
R20  19926595.352 6 106556082.803 6      -917.773          36.000    19926599.195 7  82876955.348 7      -713.824          46.000  
R04  22428833.883 5 120104980.568 5     -3701.914          31.000                                                                  
E15  25393328.727 5 133442841.520 5     -1895.332          32.000                                                                  
E08  22672077.438 8 119142626.700 8      1530.961          51.000    22672079.867 8  91291134.858 8      1173.108          51.000  
E21  27079150.570 6 142301899.957 6     -2630.035          40.000    27079158.344 7 109036516.083 7     -2015.465          47.000  
E13  23264059.430 8 122253456.479 8        71.035          51.000    23264062.047 8  93674752.418 8        54.382          51.000  
C22  25370877.781 5 132112865.513 5      3373.668          33.000                                                                  
C29  22721772.500 8 118318207.892 8     -1970.191          51.000                                                                  
C20  23326246.789 6 121465940.002 6     -1781.953          36.000                                                                  
C19  21902652.172 8 114052882.303 8      1335.477          51.000                                                                  
C05  39650098.461 5 206468466.694 5       -25.453          35.000    39650097.867 6 159654512.471 6       -19.670          37.000  
> 2020 05 16 17 41 30.0000000  0 19      -0.000000000000
G32  22353497.594 5 117468432.688 5      1477.066          34.000    22353492.188 5  91533822.589 5      1150.955          34.000  
G08  20384422.602 8 107120861.566 8      -593.758          51.000    20384423.945 8  83470804.377 8      -462.669          51.000  
G22  22318267.516 8 117283369.122 8      2706.113          49.000    22318266.422 7  91389564.484 7      2108.663          46.000  
G10  22511898.703 6 118300822.881 6     -2714.402          36.000    22511903.047 5  92182484.530 5     -2115.122          32.000  
G14  23175505.789 7 121788146.759 7      2494.094          46.000    23175506.141 7  94899861.235 7      1943.450          43.000  
G27  21700029.695 8 114034403.866 8     -2641.496          51.000    21700032.422 8  88857979.318 8     -2058.312          51.000  
G11  20346633.555 5 106922268.200 5      1590.332          34.000                                                                  
R06  21300675.109 7 113664070.390 7      3890.695          44.000                                                                  
R05  19594274.773 8 104742248.755 8      -267.301          50.000    19594278.367 8  81466299.813 8      -207.901          49.000  
R20  19931785.641 6 106583837.802 6      -932.371          37.000    19931789.953 7  82898542.529 7      -725.178          46.000  
R04  22449608.602 4 120216242.363 4     -3716.090          28.000                                                                  
E08  22663375.398 8 119096897.658 8      1517.953          51.000    22663377.578 8  91256095.742 8      1163.138          51.000  
E21  27094183.484 7 142380898.192 7     -2635.875          43.000    27094189.453 7 109097047.121 7     -2019.724          46.000  
E13  23263673.508 8 122251428.695 8        64.543          51.000    23263676.211 8  93673198.654 8        49.443          51.000  
C22  25351454.141 5 132011728.588 5      3369.332          33.000                                                                  
C29  22733153.164 8 118377471.186 8     -1980.336          51.000                                                                  
C20  23336552.906 6 121519603.445 6     -1795.508          38.000                                                                  
C19  21895004.531 8 114013057.745 8      1319.805          51.000                                                                  
C05  39650247.805 5 206469244.631 5       -26.059          34.000    39650246.992 6 159655113.250 6       -20.274          38.000  
> 2020 05 16 17 42  0.0000000  0 19      -0.000000000000
G32  22345108.320 5 117424336.03325      1462.520          31.000    22345097.680 5  91499438.55425      1139.626          31.000  
G08  20387860.969 8 107138930.035 8      -609.570          51.000    20387862.461 8  83484883.706 8      -474.990          51.000  
G22  22302848.422 8 117202343.105 8      2696.945          48.000    22302846.461 7  91326427.358 7      2101.520          46.000  
G10  22527420.477 6 118382389.448 6     -2721.734          36.000    22527421.688 5  92246042.820 5     -2120.830          34.000  
G14  23161294.070 7 121713464.142 7      2485.820          44.000    23161294.836 7  94841667.015 7      1937.003          44.000  
G27  21715144.320 8 114113830.818 8     -2652.254          50.000    21715146.711 8  88919870.423 8     -2066.695          50.000  
G11  20337593.031 6 106874749.262 6      1578.836          37.000                                                                  
R06  21278836.898 7 113547542.702 7      3879.016          42.000                                                                  
R05  19595851.383 8 104750675.699 8      -293.047          51.000    19595854.578 8  81472854.115 8      -227.925          48.000  
R20  19937055.922 6 106612020.792 6      -945.188          37.000    19937060.094 7  82920462.633 7      -735.149          45.000  
R04  22470457.664 4 120327889.301 4     -3726.219          29.000                                                                  
E08  22654745.555 8 119051547.392 8      1506.793          51.000    22654747.258 8  91221346.858 8      1154.556          51.000  
E21  27109246.570 7 142460051.620 7     -2639.527          45.000    27109249.914 7 109157697.028 7     -2022.520          46.000  
E13  23263322.234 8 122249582.889 8        59.906          51.000    23263324.992 8  93671784.325 8        45.947          51.000  
C22  25332056.172 5 131910721.496 5      3366.141          32.000                                                                  
C29  22744589.562 8 118437024.190 8     -1988.633          49.000                                                                  
C20  23346932.641 6 121573654.231 6     -1806.555          38.000                                                                  
C19  21887444.258 8 113973689.519 8      1306.055          51.000                                                                  
C05  39650397.383 5 206470023.783 5       -24.262          35.000    39650396.695 6 159655715.767 6       -19.304          37.000  
> 2020 05 16 17 42 30.0000000  0 18      -0.000000000000
G08  20391390.281 8 107157476.200 8      -627.688          51.000    20391391.836 8  83499335.279 8      -489.107          51.000  
G22  22287482.875 8 117121596.924 8      2685.270          50.000    22287480.711 7  91263508.314 7      2092.418          46.000  
G10  22542998.953 5 118464258.66425     -2730.914          33.000                                                                  
G14  23147131.070 7 121639037.729 7      2475.016          45.000    23147132.328 7  94783672.477 7      1928.587          43.000  
G27  21730320.789 8 114193583.232 8     -2665.387          51.000    21730323.195 8  88982015.124 8     -2076.928          51.000  
G11  20328616.266 5 106827579.047 5      1564.988          34.000                                                                  
R06  21257066.016 7 113431375.898 7      3864.590          42.000                                                                  
R05  19597573.445 8 104759879.815 8      -321.250          51.000    19597576.367 8  81480012.884 8      -249.858          49.000  
R20  19942399.164 6 106640592.815 6      -960.426          40.000    19942402.883 7  82942685.281 7      -746.998          44.000  
R04  22491368.539 5 120439861.452 5     -3739.344          32.000                                                                  
E08  22646180.438 8 119006537.698 8      1493.184          51.000    22646181.797 8  91186858.944 8      1144.173          51.000  
E21  27124331.578 7 142539318.819 7     -2645.598          46.000    27124333.141 7 109218434.095 7     -2027.105          47.000  
E13  23262998.297 8 122247880.229 8        52.891          51.000    23263000.961 8  93670479.682 8        40.563          51.000  
C22  25312676.891 5 131809807.008 5      3360.535          31.000                                                                  
C29  22756074.180 8 118496827.588 8     -1999.027          51.000                                                                  
C20  23357379.859 6 121628051.697 6     -1820.402          40.000                                                                  
C19  21879964.109 8 113934739.438 8      1289.844          51.000                                                                  
C05  39650539.820 5 206470765.194 5       -25.121          34.000    39650539.328 6 159656289.839 6       -19.588          38.000  
> 2020 05 16 17 43  0.0000000  0 19      -0.000000000000
G32  22328601.234 5 117337596.92125      1428.750          31.000                                                                  
G08  20395024.945 8 107176575.772 8      -645.137          51.000    20395026.672 8  83514218.069 8      -502.704          51.000  
G22  22272185.508 8 117041207.440 8      2674.602          49.000    22272182.789 7  91200867.211 7      2084.106          46.000  
G14  23133031.953 7 121564945.755 7      2464.965          47.000    23133033.195 7  94725938.533 7      1920.752          43.000  
G27  21745573.367 8 114273735.163 8     -2677.477          51.000    21745575.672 8  89044471.152 8     -2086.349          51.000  
G11  20319718.672 4 106780842.59624      1552.582          28.000                                                                  
R06  21235378.609 7 113315650.221 7      3851.012          42.000                                                                  
R05  19599455.000 8 104769936.947 8      -348.543          51.000    19599457.766 8  81487835.116 8      -271.089          48.000  
R20  19947829.266 6 106669630.982 6      -974.711          38.000    19947832.945 7  82965270.497 7      -758.109          44.000  
R04  22512353.914 4 120552239.533 4     -3751.441          29.000                                                                  
E07  26938651.953 6 141563573.637 6      3120.992          40.000                                                                  
E08  22637694.570 8 118961945.214 8      1480.312          51.000    22637695.820 8  91152690.709 8      1134.326          51.000  
E21  27139452.352 7 142618773.177 7     -2650.758          44.000    27139453.273 7 109279314.567 7     -2030.982          47.000  
E13  23262716.078 8 122246396.672 8        46.652          51.000    23262718.555 8  93669342.929 8        35.777          51.000  
C22  25293330.281 5 131709061.802 5      3356.098          32.000                                                                  
C29  22767621.883 8 118556955.832 8     -2008.789          51.000                                                                  
C20  23367907.617 6 121682868.907 6     -1833.297          39.000                                                                  
C19  21872578.969 8 113896283.006 8      1274.523          51.000                                                                  
C05  39650689.742 5 206471545.750 5       -25.590          35.000    39650689.148 6 159656893.416 6       -19.899          38.000  
> 2020 05 16 17 43 30.0000000  0 19      -0.000000000000
G32  22320497.109 5 117295002.63425      1411.902          30.000    22320495.289 4  91398695.45524      1100.196          27.000  
G08  20398755.000 8 107196176.875 8      -661.938          51.000    20398756.766 8  83529491.651 8      -515.796          51.000  
G22  22256946.078 8 116961123.498 8      2664.176          48.000    22256942.758 7  91138464.178 7      2075.985          46.000  
G10  22574287.742 4 118628682.15724     -2749.352          28.000                                                                  
G14  23118987.336 8 121491138.766 8      2455.207          48.000    23118988.070 7  94668426.670 7      1913.152          43.000  
G27  21760891.625 8 114354232.856 8     -2689.246          51.000    21760893.766 8  89107196.603 8     -2095.517          51.000  
R06  21213765.477 7 113200316.438 7      3837.738          44.000                                                                  
R05  19601485.883 8 104780792.937 8      -375.375          51.000    19601488.445 8  81496278.670 8      -291.958          49.000  
R20  19953336.836 6 106699082.835 6      -988.723          38.000    19953340.938 7  82988177.437 7      -769.007          44.000  
R04  22533405.359 5 120664966.185 5     -3763.645          31.000                                                                  
E07  26920840.023 6 141469973.021 6      3118.871          39.000                                                                  
E08  22629278.414 8 118917718.736 8      1467.895          51.000    22629280.055 8  91118802.904 8      1124.715          51.000  
E21  27154598.117 7 142698360.229 7     -2655.438          42.000    27154599.258 8 109340296.739 8     -2034.597          48.000  
E13  23262465.648 8 122245080.360 8        40.898          51.000    23262467.875 8  93668334.320 8        31.299          51.000  
C22  25274006.328 5 131608382.701 5      3352.254          30.000                                                                  
C29  22779221.789 8 118617356.733 8     -2018.203          51.000                                                                  
C20  23378504.344 6 121738052.141 6     -1845.969          36.000                                                                  
C19  21865278.758 8 113858269.017 8      1259.547          51.000                                                                  
C05  39650837.000 5 206472312.603 5       -25.375          35.000    39650836.383 6 159657486.407 6       -19.806          37.000  
> 2020 05 16 17 44  0.0000000  0 18      -0.000000000000
G08  20402585.172 8 107216304.187 8      -679.438          51.000    20402586.898 8  83545175.263 8      -529.435          51.000  
G22  22241769.484 7 116881371.076 7      2653.039          46.000    22241766.406 7  91076319.493 7      2067.304          46.000  
G14  23105002.117 8 121417644.296 8      2444.781          48.000    23105002.484 7  94611158.333 7      1905.028          43.000  
G27  21776280.055 8 114435099.685 8     -2701.516          51.000    21776282.211 8  89170209.694 8     -2105.078          51.000  
R06  21192231.164 7 113085403.125 7      3823.648          44.000                                                                  
R05  19603670.531 8 104792471.641 8      -402.754          51.000    19603673.664 8  81505362.139 8      -313.253          49.000  
R20  19958926.523 6 106728974.096 6     -1003.273          37.000    19958930.844 7  83011426.163 7      -780.324          44.000  
R04  22554525.914 5 120778062.745 5     -3775.281          32.000                                                                  
E07  26903042.211 6 141376450.333 6      3116.590          38.000                                                                  
E15                                                                  25458667.625 6 102511488.800 6     -1470.658          36.000  
E08  22620937.039 8 118873884.081 8      1454.887          51.000    22620938.805 8  91085215.328 8      1114.793          51.000  
E21  27169771.852 6 142778102.609 6     -2660.348          40.000    27169774.797 8 109401397.958 8     -2038.470          48.000  
E13  23262251.922 8 122243956.542 8        34.523          51.000    23262253.820 8  93667473.199 8        26.513          51.000  
C22  25254711.000 5 131507902.280 5      3347.141          31.000                                                                  
C29  22790878.422 8 118678054.432 8     -2027.941          51.000                                                                  
C20  23389177.117 6 121793624.234 6     -1858.797          38.000                                                                  
C19  21858068.297 8 113820722.740 8      1243.965          51.000                                                                  
C05  39650986.305 5 206473090.390 5       -26.227          34.000    39650985.672 6 159658087.810 6       -20.047          38.000  
> 2020 05 16 17 44 30.0000000  0 19      -0.000000000000
G08  20406511.875 8 107236938.874 8      -696.480          51.000    20406513.609 8  83561254.224 8      -542.715          51.000  
G22  22226652.789 8 116801932.599 8      2642.383          48.000    22226650.297 8  91014419.437 8      2059.003          48.000  
G14  23091073.070 8 121344446.068 8      2434.871          48.000    23091073.641 7  94554120.847 7      1897.306          43.000  
G27  21791734.852 8 114516315.352 8     -2713.098          51.000    21791736.805 8  89233494.605 8     -2114.103          51.000  
G11  20293472.039 4 106642912.88024      1513.188          28.000                                                                  
R06  21170772.758 7 112970894.639 7      3809.832          45.000                                                                  
R05  19606005.461 8 104804953.121 8      -429.586          51.000    19606008.320 8  81515069.973 8      -334.122          48.000  
R20  19964595.055 6 106759286.230 6     -1017.121          36.000    19964599.320 7  83035002.225 7      -791.097          44.000  
R04  22575711.414 5 120891506.020 5     -3787.496          33.000                                                                  
E07  26885255.984 6 141282988.606 6      3114.227          37.000                                                                  
E15                                                                  25469635.727 5 102555662.629 5     -1474.043          34.000  
E08  22612666.945 8 118830423.542 8      1442.207          51.000    22612668.812 8  91051914.429 8      1105.101          51.000  
E21  27184969.742 6 142857979.381 6     -2665.113          40.000    27184975.547 8 109462602.205 8     -2042.005          48.000  
E13  23262071.328 8 122243006.859 8        28.574          51.000    23262072.930 8  93666745.515 8        21.889          51.000  
C22  25235441.430 5 131407550.547 5      3342.520          31.000                                                                  
C29  22802588.039 8 118739029.865 8     -2037.320          51.000                                                                  
C20  23399920.680 5 121849564.687 5     -1870.508          35.000                                                                  
C19  21850944.367 8 113783626.116 8      1228.859          51.000                                                                  
C05  39651134.164 5 206473860.259 5       -25.902          34.000    39651133.406 6 159658683.145 6       -19.872          38.000  
> 2020 05 16 17 45  0.0000000  0 20      -0.000000000000
G08  20410539.406 8 107258103.925 8      -713.398          51.000    20410541.094 8  83577746.463 8      -555.895          51.000  
G22  22211600.672 8 116722831.911 8      2631.902          48.000    22211598.438 8  90952782.546 8      2050.833          48.000  
G10  22621597.930 6 118877283.005 6     -2773.328          38.000    22621562.539 5  92631549.999 5     -2161.048          35.000  
G14  23077205.250 8 121271569.621 8      2424.707          48.000    23077206.195 7  94497334.071 7      1889.383          43.000  
G27  21807259.969 8 114597901.086 8     -2724.746          50.000    21807261.352 8  89297067.903 8     -2123.179          50.000  
G11  20284875.312 5 106597742.117 5      1499.641          33.000                                                                  
R06  21149395.398 7 112856817.939 7      3796.227          46.000                                                                  
R05  19608494.547 8 104818259.328 8      -456.332          51.000    19608497.477 8  81525419.265 8      -354.922          49.000  
R20  19970346.938 5 106790042.858 5     -1031.035          34.000    19970351.008 7  83058924.039 7      -801.916          45.000  
R04  22596965.773 5 121005315.147 5     -3798.844          33.000                                                                  
E07  26867486.266 6 141189612.263 6      3111.902          36.000                                                                  
E15                                                                  25480628.617 5 102599940.736 5     -1477.030          34.000  
E08  22604472.664 8 118787360.894 8      1429.672          51.000    22604474.750 8  91018918.414 8      1095.529          51.000  
E21  27200198.844 7 142938011.234 7     -2669.250          43.000    27200205.328 8 109523925.236 8     -2045.345          48.000  
E13  23261928.266 8 122242254.465 8        22.742          51.000    23261929.641 8  93666169.002 8        17.411          51.000  
C22  25216201.906 5 131307369.739 5      3338.656          32.000                                                                  
C29  22814355.328 8 118800305.141 8     -2046.570          51.000                                                                  
C20  23410736.922 6 121905894.172 6     -1882.996          37.000                                                                  
C19  21843910.961 8 113747002.288 8      1213.820          51.000                                                                  
C05  39651284.656 5 206474642.957 5       -25.531          34.000    39651284.078 6 159659288.888 6       -19.531          38.000  
> 2020 05 16 17 45 30.0000000  0 21      -0.000000000000
G32  22289037.172 6 117129672.036 6      1346.809          39.000    22289032.938 6  91269874.799 6      1049.462          37.000  
G08  20414666.102 8 107279790.512 8      -728.508          51.000    20414667.859 8  83594645.082 8      -567.669          51.000  
G22  22196611.133 8 116644061.518 8      2623.266          48.000    22196609.320 7  90891403.035 7      2044.104          47.000  
G10  22637457.859 6 118960625.412 6     -2778.898          38.000    22637419.422 5  92696491.993 5     -2165.379          31.000  
G14  23063397.594 8 121199008.858 8      2416.527          49.000    23063399.117 7  94440793.279 7      1883.009          44.000  
G27  21822853.312 8 114679846.618 8     -2734.344          48.000    21822854.578 8  89360921.538 8     -2130.661          48.000  
G11  20276356.703 5 106552970.418 5      1489.262          33.000                                                                  
R06  21128097.680 7 112743167.659 7      3784.617          45.000                                                                  
R05  19611136.086 8 104832379.871 8      -481.023          51.000    19611139.125 8  81536401.918 8      -374.129          48.000  
R20  19976180.602 5 106821235.839 5     -1043.668          33.000    19976184.781 7  83083185.237 7      -811.739          46.000  
R04  22618286.133 5 121119476.982 5     -3807.945          33.000                                                                  
E07  26849731.797 6 141096314.278 6      3111.781          38.000                                                                  
E15  25491648.719 5 133959516.735 5     -1929.148          33.000    25491647.547 5 102644316.425 5     -1478.527          31.000  
E08  22596352.516 8 118744688.354 8      1419.109          51.000    22596354.555 8  90986221.312 8      1087.385          51.000  
E21  27215456.203 7 143018187.246 7     -2671.738          45.000    27215462.234 7 109585358.687 7     -2047.123          47.000  
E13  23261821.141 8 122241691.014 8        18.852          51.000    23261822.391 8  93665737.265 8        14.457          51.000  
C22  25196992.469 4 131207348.88924      3336.176          28.000                                                                  
C29  22826178.148 8 118861871.131 8     -2053.930          49.000                                                                  
C20  23421627.141 6 121962602.348 6     -1893.438          39.000                                                                  
C19  21836966.445 8 113710843.085 8      1200.711          51.000                                                                  
C05  39651436.500 5 206475433.627 5       -23.477          35.000    39651435.945 6 159659900.314 6       -18.151          37.000  
> 2020 05 16 17 46  0.0000000  0 20      -0.000000000000
G32  22281407.891 6 117089581.537 6      1326.836          41.000    22281408.938 6  91238635.418 6      1033.901          40.000  
G08  20418884.688 8 107301959.936 8      -748.715          51.000    20418886.539 8  83611919.930 8      -583.417          51.000  
G22  22181677.180 8 116565583.819 8      2609.316          48.000    22181675.180 7  90830251.579 7      2033.234          46.000  
G10  22653358.180 5 119044178.673 5     -2790.336          35.000    22653319.016 5  92761598.405 5     -2174.285          34.000  
G14  23049643.062 8 121126728.057 8      2403.035          49.000    23049644.961 7  94384470.655 7      1872.495          44.000  
G27  21838507.422 7 114762111.977 7     -2749.152          47.000    21838509.320 8  89425024.351 8     -2142.200          48.000  
G11  20267907.375 5 106508563.641 5      1472.207          33.000                                                                  
R06  21106872.648 7 112629908.214 7      3767.094          44.000                                                                  
R05  19613922.289 8 104847274.637 8      -511.098          51.000    19613925.492 8  81547986.756 8      -397.520          49.000  
R20  19982087.203 5 106852826.254 5     -1061.289          31.000    19982092.523 7  83107755.570 7      -825.447          47.000  
R04  22639664.125 4 121233948.374 4     -3822.719          29.000                                                                  
E07  26831986.352 6 141003057.908 6      3106.199          39.000                                                                  
E15                                                                  25502685.430 4 102688745.239 4     -1482.753          28.000  
E08  22588299.312 8 118702368.483 8      1403.070          51.000    22588301.070 8  90953794.412 8      1075.057          51.000  
E21  27230733.312 7 143098466.747 7     -2679.336          47.000    27230738.984 7 109646871.458 7     -2053.083          47.000  
E13  23261742.711 8 122241278.499 8         9.543          51.000    23261743.883 8  93665421.174 8         7.297          51.000  
C29  22838049.031 8 118923689.269 8     -2066.441          49.000                                                                  
C20  23432582.367 5 122019649.077 5     -1907.891          30.000                                                                  
C19  21830104.430 8 113675110.980 8      1182.273          51.000                                                                  
C05  39651582.273 5 206476193.73025       -26.996          34.000    39651581.602 6 159660486.894 6       -20.383          37.000  
> 2020 05 16 17 46 30.0000000  0 17      -0.000000000000
G32  22273885.344 6 117050065.895 6      1306.605          39.000    22273890.234 6  91207844.174 6      1018.144          36.000  
G08  20423213.828 8 107324710.206 8      -768.945          51.000    20423215.742 8  83629647.383 8      -599.181          51.000  
G22  22166817.953 8 116487497.918 8      2595.461          50.000    22166814.594 7  90769405.462 7      2022.441          44.000  
G14  23035960.648 8 121054827.487 8      2389.566          48.000    23035962.484 7  94328444.281 7      1862.000          44.000  
G27  21854240.875 7 114844793.470 7     -2763.582          47.000    21854243.562 7  89489451.415 7     -2153.444          47.000  
G11  20259545.828 5 106464621.437 5      1456.367          31.000                                                                  
R06  21085739.953 7 112517142.674 7      3749.863          44.000                                                                  
R05  19616871.883 8 104863041.752 8      -540.898          51.000    19616875.070 8  81560250.080 8      -420.699          49.000  
R20  19988087.922 5 106884914.230 5     -1078.535          35.000    19988092.930 7  83132712.885 7      -838.858          47.000  
E07  26814268.375 6 140909942.726 6      3100.750          40.000                                                                  
E08  22580331.648 8 118660500.094 8      1387.332          51.000    22580333.594 8  90921713.462 8      1063.006          51.000  
E21  27246048.156 8 143178945.434 8     -2686.629          48.000    27246053.938 7 109708536.853 7     -2058.482          46.000  
E13  23261711.672 8 122241115.167 8         0.512          51.000    23261712.797 8  93665296.023 8         0.407          51.000  
C29  22849987.102 8 118985856.034 8     -2078.754          50.000                                                                  
C20  23443619.094 5 122077076.221 5     -1923.773          31.000                                                                  
C19  21823343.547 8 113639903.471 8      1164.059          51.000                                                                  
C05  39651740.484 5 206477017.17725       -28.883          35.000    39651739.781 6 159661123.649 6       -22.630          37.000  
> 2020 05 16 17 47  0.0000000  0 18      -0.000000000000
G32  22266456.898 6 117011034.124 6      1292.645          39.000    22266458.602 6  91177429.801 6      1007.256          38.000  
G08  20427635.766 8 107347948.835 8      -783.055          51.000    20427637.781 8  83647755.372 8      -610.173          51.000  
G22  22152016.039 8 116409711.806 8      2587.621          51.000    22152011.609 7  90708792.959 7      2016.329          44.000  
G10  22685314.266 5 119212125.542 5     -2805.844          35.000    22685312.477 5  92892547.406 5     -2186.363          33.000  
G14  23022332.938 7 120983216.895 7      2381.898          47.000    23022335.000 7  94272643.862 7      1856.025          43.000  
G27  21870035.859 8 114927796.540 8     -2772.219          50.000    21870038.898 8  89554129.080 8     -2160.171          49.000  
R06  21064683.047 7 112404779.999 7      3738.590          44.000                                                                  
R05  19619966.633 8 104879585.171 8      -564.574          51.000    19619969.781 8  81573117.200 8      -439.110          49.000  
R20  19994163.930 5 106917406.040 5     -1089.945          35.000    19994169.227 7  83157984.293 7      -847.735          47.000  
E07  26796560.000 6 140816877.478 6      3101.121          40.000                                                                  
E15  25524879.672 6 134134112.494 6     -1945.023          36.000                                                                  
E08  22572432.312 8 118618991.231 8      1377.359          51.000    22572434.602 8  90889908.007 8      1055.401          51.000  
E21  27261382.609 7 143259528.157 7     -2688.035          47.000    27261388.844 7 109770281.997 7     -2059.712          46.000  
E13  23261710.391 8 122241108.464 8        -2.668          51.000    23261711.500 8  93665290.890 8        -2.068          51.000  
C29  22861974.406 8 119048278.852 8     -2085.133          50.000                                                                  
C20  23454724.250 5 122134896.308 5     -1933.012          34.000                                                                  
C19  21816665.477 8 113605128.941 8      1151.594          51.000                                                                  
C05  39651893.367 5 206477813.30625       -26.500          34.000    39651892.641 6 159661739.262 6       -20.214          37.000  
> 2020 05 16 17 47 30.0000000  0 17      -0.000000000000
G32  22259123.383 6 116972498.615 6      1275.832          37.000    22259124.859 5  91147402.348 5       994.161          35.000  
G08  20432152.688 8 107371685.905 8      -800.043          51.000    20432154.844 8  83666251.760 8      -623.410          51.000  
G22  22137273.414 8 116332237.695 8      2576.789          51.000    22137269.117 7  90648423.580 7      2007.888          45.000  
G14  23008762.797 7 120911909.872 7      2371.219          45.000    23008765.531 7  94217079.977 7      1847.707          42.000  
G27  21885894.031 8 115011130.510 8     -2783.805          50.000    21885897.195 8  89619064.611 8     -2169.199          50.000  
R06  21043704.594 7 112292835.097 7      3723.797          45.000                                                                  
R05  19623208.648 8 104896914.843 8      -591.270          51.000    19623211.695 8  81586595.833 8      -459.876          49.000  
R20  20000318.148 6 106950312.988 6     -1104.121          37.000    20000322.625 7  83183578.555 7      -858.761          47.000  
E07  26778863.883 6 140723874.809 6      3098.570          41.000    26778868.664 5 107827401.595 5      2374.138          34.000  
E08  22564603.812 8 118577853.694 8      1364.609          51.000    22564606.078 8  90858387.049 8      1045.643          51.000  
E21  27276738.523 7 143340223.666 7     -2692.086          46.000    27276745.117 7 109832113.548 7     -2062.813          47.000  
E13  23261741.086 8 122241269.703 8        -8.605          51.000    23261742.188 8  93665414.434 8        -6.552          51.000  
C22  25120399.438 5 130808502.082 5      3314.504          33.000                                                                  
C29  22874013.383 8 119110967.999 8     -2094.625          50.000                                                                  
C20  23465895.289 6 122193064.918 6     -1945.332          36.000                                                                  
C19  21810072.742 8 113570798.632 8      1136.391          51.000                                                                  
C05  39652043.086 5 206478592.312 5       -25.855          34.000    39652042.328 6 159662342.049 6       -20.473          37.000  
> 2020 05 16 17 48  0.0000000  0 19      -0.000000000000
G32  22251889.398 5 116934484.990 5      1258.395          33.000    22251889.078 5  91117781.289 5       980.561          30.000  
G08  20436769.094 8 107395945.232 8      -817.105          51.000    20436771.734 8  83685155.098 8      -636.709          51.000  
G22  22122594.273 7 116255100.161 7      2565.863          47.000    22122590.930 7  90588316.425 7      1999.375          47.000  
G14  22995255.828 7 120840932.707 7      2360.539          45.000    22995259.016 7  94161773.138 7      1839.385          42.000  
G27  21901819.453 8 115094817.456 8     -2795.324          51.000    21901822.492 8  89684275.176 8     -2178.178          51.000  
G11  20234895.188 4 106335087.02024      1420.098          27.000                                                                  
R06  21022809.359 7 112181334.833 7      3709.367          45.000                                                                  
R05  19626601.633 8 104915053.111 8      -617.891          51.000    19626604.695 8  81600703.404 8      -480.582          49.000  
R20  20006554.336 6 106983659.700 6     -1118.688          38.000    20006559.031 7  83209514.871 7      -870.090          47.000  
E07  26761184.344 6 140630960.063 6      3095.805          40.000    26761188.484 5 107756207.232 5      2372.103          35.000  
E15  25547100.531 6 134250905.386 6     -1952.637          39.000                                                                  
E08  22556850.820 8 118537112.072 8      1351.625          51.000    22556852.836 8  90827169.442 8      1035.661          51.000  
E21  27292120.062 7 143421053.389 7     -2696.328          46.000    27292126.625 7 109894047.940 7     -2066.058          47.000  
E13  23261808.305 8 122241622.932 8       -14.711          51.000    23261809.469 8  93665685.094 8       -11.287          51.000  
C22  25101326.086 6 130709171.202 6      3308.762          36.000                                                                  
C29  22886107.836 8 119173946.387 8     -2103.953          50.000                                                                  
C20  23477136.977 5 122251603.586 5     -1957.539          34.000                                                                  
C19  21803570.344 8 113536936.481 8      1121.109          51.000                                                                  
C05  39652194.117 5 206479380.10925       -26.352          34.000    39652193.281 6 159662950.020 6       -20.044          37.000  
> 2020 05 16 17 48 30.0000000  0 18      -0.000000000000
G08  20441485.688 8 107420731.266 8      -833.891          51.000    20441488.492 8  83704468.879 8      -649.785          51.000  
G22  22107979.781 7 116178305.059 7      2555.062          45.000    22107977.641 7  90528476.053 7      1990.958          45.000  
G14  22981813.492 7 120770292.426 7      2350.223          47.000    22981817.008 6  94106728.811 6      1831.343          41.000  
G27  21917812.422 8 115178860.381 8     -2806.195          49.000    21917815.555 8  89749763.107 8     -2186.649          50.000  
G11  20226836.711 5 106292737.595 5      1406.074          34.000                                                                  
R06  21001998.938 7 112070287.930 7      3694.984          45.000                                                                  
R05  19630146.820 8 104934003.389 8      -644.102          51.000    19630149.797 8  81615442.497 8      -500.968          49.000  
R20  20012873.750 6 107017451.064 6     -1132.113          38.000    20012878.336 7  83235796.992 7      -880.536          46.000  
E07  26743522.305 6 140538139.465 6      3093.426          41.000    26743525.211 5 107685085.048 5      2370.328          35.000  
E15  25558263.711 6 134309555.436 6     -1956.207          39.000    25558272.141 5 102912560.038 5     -1498.883          34.000  
E08  22549173.969 8 118496771.841 8      1339.062          51.000    22549176.523 8  90796259.422 8      1026.047          51.000  
E21  27307527.602 7 143502019.742 7     -2700.039          46.000    27307533.797 7 109956087.009 7     -2068.856          47.000  
E13  23261912.938 8 122242173.130 8       -20.551          51.000    23261914.312 8  93666106.673 8       -15.729          51.000  
C22  25082280.492 6 130610002.076 6      3304.086          38.000                                                                  
C29  22898258.609 8 119237218.107 8     -2112.871          51.000                                                                  
C20  23488451.297 6 122310514.917 6     -1969.230          36.000                                                                  
C19  21797158.453 8 113503547.430 8      1106.238          51.000                                                                  
C05  39652347.383 5 206480177.63125       -25.973          35.000    39652346.516 6 159663566.715 6       -19.691          37.000  
> 2020 05 16 17 49  0.0000000  0 20      -0.000000000000
G32  22237711.016 6 116859954.736 6      1223.555          38.000    22237712.750 6  91059711.645 6       953.420          38.000  
G08  20446290.641 8 107445981.963 8      -852.180          51.000    20446293.328 8  83724144.752 8      -664.036          51.000  
G22  22093420.039 8 116101791.011 8      2543.027          51.000    22093417.180 7  90468854.756 7      1981.583          44.000  
G10  22749729.125 6 119550601.989 6     -2837.332          36.000                                                                  
G14  22968424.367 8 120699930.024 8      2338.027          48.000    22968427.695 6  94051901.033 6      1821.843          41.000  
G27  21933860.953 8 115263195.900 8     -2818.902          49.000    21933864.336 8  89815479.018 8     -2196.551          49.000  
G11  20218844.961 5 106250736.978 5      1391.297          34.000                                                                  
R06  20981262.508 7 111959634.592 7      3678.984          46.000                                                                  
R05  19633831.570 8 104953701.150 8      -671.844          51.000    19633834.828 8  81630762.996 8      -522.545          49.000  
R20  20019264.547 6 107051624.801 6     -1148.223          37.000    20019268.875 7  83262376.547 7      -893.065          45.000  
R04  22769253.523 4 121927936.213 4     -3888.262          27.000    22769257.438 4  94832847.585 4     -3024.204          27.000  
E15                                                                  25569445.031 6 102957554.140 6     -1502.744          36.000  
E08  22541562.219 8 118456772.166 8      1324.891          51.000    22541565.320 8  90765610.360 8      1015.150          51.000  
E21  27322948.828 7 143583058.714 7     -2705.383          46.000    27322954.711 7 110018181.708 7     -2072.834          47.000  
E13  23262043.375 8 122242858.928 8       -27.914          51.000    23262045.016 8  93666632.150 8       -21.377          51.000  
C22  25063255.328 6 130510935.250 6      3297.824          39.000                                                                  
C29  22910454.180 8 119300721.292 8     -2123.293          51.000                                                                  
C20  23499824.742 6 122369735.887 6     -1982.422          37.000                                                                  
C19  21790825.305 8 113470570.697 8      1089.602          51.000                                                                  
C05                                                                  39652490.031 6 159664144.791 6       -20.914          37.000  
> 2020 05 16 17 49 30.0000000  0 19      -0.000000000000
G32  22230780.594 6 116823532.098 6      1206.215          38.000    22230779.453 6  91031330.295 6       939.905          38.000  
G08  20451208.133 8 107471823.040 8      -868.980          51.000    20451210.609 8  83744280.661 8      -677.128          51.000  
G22  22078938.508 8 116025685.065 8      2532.254          51.000    22078934.070 7  90409551.493 7      1973.192          44.000  
G10  22765952.125 5 119635886.393 5     -2844.723          32.000                                                                  
G14  22955112.547 7 120629973.760 7      2327.297          47.000    22955115.078 6  93997389.732 6      1813.482          40.000  
G27  21949989.109 8 115347947.975 8     -2829.922          51.000    21949992.156 8  89881519.554 8     -2205.138          51.000  
G11  20210944.727 5 106209219.793 5      1378.188          34.000                                                                  
R06  20960624.602 7 111849506.275 7      3664.551          44.000                                                                  
R05  19637680.000 8 104974272.831 8      -697.988          51.000    19637682.992 8  81646763.184 8      -542.880          49.000  
R20  20025750.852 6 107086309.297 6     -1162.316          37.000    20025754.977 7  83289353.339 7      -904.024          44.000  
E15  25580648.508 5 134427212.998 5     -1964.781          35.000    25580655.492 5 103002699.168 5     -1505.731          34.000  
E08  22534039.594 8 118417239.506 8      1312.184          51.000    22534042.125 8  90735319.133 8      1005.416          51.000  
E21  27338407.203 7 143664293.746 7     -2708.992          46.000    27338413.148 7 110080426.638 7     -2075.627          47.000  
E13  23262223.602 8 122243806.325 8       -33.750          51.000    23262225.500 8  93667358.078 8       -25.863          51.000  
C22  25044274.047 6 130412096.892 6      3292.852          39.000                                                                  
C29  22922717.883 8 119364579.962 8     -2132.387          51.000                                                                  
C20  23511280.664 6 122429388.923 6     -1993.285          37.000                                                                  
C19  21784595.672 8 113438131.196 8      1074.508          51.000                                                                  
C05  39652648.914 5 206481747.664 5       -26.543          35.000    39652647.773 6 159664780.425 6       -20.507          37.000  
> 2020 05 16 17 50  0.0000000  0 18      -0.000000000000
G32  22223943.352 6 116787600.375 6      1189.027          39.000    22223942.641 6  91003331.563 6       926.515          39.000  
G08  20456218.008 8 107498148.323 8      -885.988          51.000    20456220.406 8  83764793.858 8      -690.381          51.000  
G22  22064514.500 8 115949882.546 8      2521.371          51.000    22064509.227 7  90350484.683 7      1964.708          44.000  
G14  22941858.180 7 120560320.436 7      2316.270          47.000    22941859.711 6  93943114.477 6      1804.889          39.000  
G27  21966176.250 8 115433009.217 8     -2840.863          51.000    21966178.695 8  89947801.002 8     -2213.663          51.000  
G11  20203115.648 5 106168082.175 5      1364.254          31.000                                                                  
R06  20940065.141 7 111739798.910 7      3649.395          42.000                                                                  
R05  19641671.086 8 104995609.034 8      -724.320          51.000    19641674.461 8  81663358.027 8      -563.360          49.000  
R20  20032312.664 5 107121397.247 5     -1176.523          35.000    20032316.930 7  83316643.895 7      -915.077          43.000  
E07  26690627.297 6 140260195.164 6      3084.375          39.000    26690622.992 6 107472080.221 6      2363.330          36.000  
E08  22526585.750 8 118378069.018 8      1299.305          51.000    22526587.516 8  90705305.396 8       995.596          51.000  
E21  27353882.414 7 143745616.947 7     -2712.547          47.000    27353888.734 7 110142739.102 7     -2078.419          47.000  
E13  23262433.555 8 122244910.031 8       -39.684          51.000    23262435.656 8  93668203.771 8       -30.437          51.000  
C22  25025316.664 6 130313383.881 6      3287.719          37.000                                                                  
C29  22935029.375 8 119428688.790 8     -2141.398          50.000                                                                  
C20  23522799.141 5 122489367.432 5     -2005.344          34.000                                                                  
C19  21778449.062 8 113406124.526 8      1059.301          51.000                                                                  
C05  39652800.969 5 206482539.69525       -25.898          35.000    39652799.680 6 159665392.508 6       -20.377          37.000  
> 2020 05 16 17 50 30.0000000  0 19      -0.000000000000
G32  22217207.391 6 116752204.632 6      1171.289          40.000    22217209.922 6  90975750.521 6       912.696          40.000  
G08  20461328.164 8 107525001.197 8      -903.617          51.000    20461330.508 8  83785718.154 8      -704.117          51.000  
G22  22050156.203 8 115874428.125 8      2509.586          51.000    22050150.742 7  90291689.100 7      1955.525          44.000  
G14  22928669.781 7 120491015.660 7      2304.789          45.000    22928670.188 6  93889110.834 6      1795.943          39.000  
G27  21982430.039 8 115518421.431 8     -2852.645          51.000    21982432.016 8  90014355.923 8     -2222.841          51.000  
G11  20195366.664 5 106127369.837 5      1349.875          31.000                                                                  
R06  20919592.742 6 111630560.150 6      3633.863          41.000                                                                  
R05  19645813.664 8 105017752.454 8      -751.215          51.000    19645816.875 8  81680580.683 8      -584.278          49.000  
R20  20038957.984 5 107156933.281 5     -1191.613          34.000    20038961.836 6  83344283.008 6      -926.810          41.000  
E07  26673032.000 5 140167728.948 5      3080.984          33.000    26673026.102 6 107401230.327 6      2360.609          36.000  
E15                                                                  25603134.195 5 103093210.913 5     -1511.837          31.000  
E08  22519209.281 8 118339304.980 8      1285.617          51.000    22519210.906 8  90675603.097 8       985.159          51.000  
E21  27369382.422 8 143827069.491 8     -2716.875          48.000    27369389.305 8 110205150.692 8     -2081.766          48.000  
E13  23262681.516 8 122246213.821 8       -46.477          51.000    23262683.859 8  93669202.783 8       -35.612          51.000  
C22  25006391.844 5 130214840.909 5      3282.102          34.000                                                                  
C29  22947397.031 8 119493090.233 8     -2151.312          51.000                                                                  
C20  23534387.281 5 122549712.233 5     -2017.762          32.000                                                                  
C19  21772393.805 8 113374594.039 8      1043.422          51.000                                                                  
C05  39652955.367 5 206483343.286 5       -26.711          34.000    39652954.055 6 159666014.279 6       -20.905          37.000  
> 2020 05 16 17 51  0.0000000  0 18      -0.000000000000
G32  22210571.289 5 116717334.428 5      1153.320          34.000    22210572.180 5  90948578.962 5       898.691          33.000  
G08  20466536.094 8 107552368.914 8      -921.227          51.000    20466538.070 8  83807043.633 8      -717.839          51.000  
G22  22035860.969 8 115799310.071 8      2497.938          50.000    22035856.086 7  90233155.608 7      1946.445          44.000  
G14  22915545.672 7 120422050.366 7      2292.770          44.000    22915545.391 6  93835371.689 6      1786.580          39.000  
G27  21998747.945 8 115604170.726 8     -2864.160          51.000    21998749.547 8  90081173.516 8     -2231.814          51.000  
G11  20187697.734 5 106087066.871 5      1336.488          34.000                                                                  
R06  20899207.086 7 111521780.711 7      3617.863          42.000                                                                  
R05  19650104.375 8 105040688.925 8      -778.102          51.000    19650107.469 8  81698420.161 8      -605.187          49.000  
R20  20045684.719 5 107192905.377 5     -1207.191          32.000    20045688.109 6  83372261.253 6      -938.927          41.000  
E07                                                                  26655447.828 6 107330450.934 6      2357.568          37.000  
E15                                                                  25614414.352 5 103138624.495 5     -1515.689          33.000  
E08  22511907.883 8 118300936.034 8      1271.977          51.000    22511909.883 8  90646203.546 8       974.599          51.000  
E21  27384904.547 8 143908636.974 8     -2721.207          48.000    27384911.852 8 110267650.361 8     -2085.079          48.000  
E13  23262965.305 8 122247705.913 8       -53.277          51.000    23262967.969 8  93670346.081 8       -40.892          51.000  
C29  22959818.641 8 119557771.641 8     -2161.078          51.000                                                                  
C20  23546042.992 6 122610409.586 6     -2029.387          38.000                                                                  
C19  21766427.812 8 113343528.068 8      1027.359          50.000                                                                  
C05  39653109.922 5 206484147.732 5       -27.145          34.000    39653108.523 6 159666636.326 6       -21.216          37.000  
> 2020 05 16 17 51 30.0000000  0 17      -0.000000000000
G08  20471842.016 8 107580251.357 8      -937.914          51.000    20471843.836 8  83828770.205 8      -730.842          51.000  
G22  22021629.422 8 115724528.907 8      2487.176          50.000    22021625.680 7  90174884.583 7      1938.060          44.000  
G14  22902486.750 7 120353425.961 7      2281.855          45.000    22902485.945 6  93781898.147 6      1778.070          37.000  
G27  22015129.055 8 115690254.825 8     -2874.992          50.000    22015130.859 8  90148252.024 8     -2240.254          49.000  
G11  20180107.578 5 106047181.208 5      1322.320          34.000                                                                  
R06  20878908.922 7 111413463.554 7      3602.738          43.000                                                                  
R05  19654543.211 8 105064415.998 8      -804.066          51.000    19654546.250 8  81716874.571 8      -625.382          48.000  
R20  20052493.211 5 107229312.969 5     -1220.742          34.000    20052496.078 7  83400578.259 7      -949.466          42.000  
E07                                                                  26637888.016 6 107259742.805 6      2355.823          39.000  
E15  25625714.477 5 134664029.727 5     -1981.672          34.000    25625714.492 5 103184133.129 5     -1518.616          31.000  
E08  22504681.547 8 118262962.339 8      1259.262          51.000    22504683.688 8  90617106.847 8       964.877          51.000  
E21  27400448.203 8 143990316.560 8     -2724.457          48.000    27400455.508 8 110330235.929 8     -2087.608          48.000  
E13  23263284.844 8 122249386.049 8       -59.051          51.000    23263287.898 8  93671633.460 8       -45.274          51.000  
C29  22972293.695 8 119622731.825 8     -2169.922          51.000                                                                  
C20  23557765.906 6 122671456.808 6     -2040.676          38.000                                                                  
C19  21760550.883 8 113312926.306 8      1012.379          51.000                                                                  
C05  39653264.352 5 206484952.38925       -26.566          35.000    39653263.016 6 159667258.191 6       -21.029          38.000  
> 2020 05 16 17 52  0.0000000  0 17      -0.000000000000
G32  22197601.117 6 116649163.581 6      1118.457          36.000    22197603.562 6  90895457.907 6       871.522          36.000  
G08  20477246.047 8 107608650.495 8      -954.512          51.000    20477248.305 8  83850899.363 8      -743.779          51.000  
G22  22007463.469 8 115650088.818 8      2476.445          51.000    22007460.867 7  90116879.329 7      1929.701          45.000  
G14  22889494.242 7 120285148.111 7      2270.781          47.000    22889493.492 6  93728694.660 6      1769.440          39.000  
G27  22031573.445 8 115776675.097 8     -2885.480          48.000    22031576.523 8  90215592.498 8     -2248.427          48.000  
G11  20172597.406 5 106007714.483 5      1309.230          33.000                                                                  
R06  20858698.531 7 111305615.237 7      3587.824          42.000                                                                  
R05  19659130.211 8 105088935.338 8      -829.684          51.000    19659132.656 8  81735945.152 8      -645.310          48.000  
R20  20059383.812 5 107266160.196 5     -1234.672          34.000    20059386.914 7  83429237.164 7      -960.304          44.000  
E07                                                                  26620347.375 6 107189109.657 6      2353.602          39.000  
E08  22497531.250 8 118225387.845 8      1246.543          51.000    22497533.039 8  90588316.011 8       955.156          51.000  
E21  27416013.422 8 144072109.188 8     -2727.574          48.000    27416020.055 7 110392908.105 7     -2089.892          47.000  
E13  23263640.773 8 122251257.767 8       -64.805          51.000    23263644.250 8  93673067.630 8       -49.665          51.000  
C29  22984822.906 8 119687973.232 8     -2178.684          51.000                                                                  
C20  23569556.445 6 122732854.988 6     -2051.871          38.000                                                                  
C19  21754764.047 8 113282792.181 8       997.414          51.000                                                                  
C05  39653419.234 5 206485758.739 5       -26.469          35.000    39653417.984 6 159667882.066 6       -20.005          38.000  
> 2020 05 16 17 52 30.0000000  0 18      -0.000000000000
G32  22191263.703 6 116615848.572 6      1100.766          39.000    22191266.602 6  90869498.164 6       857.740          39.000  
G08  20482741.859 8 107637532.553 8      -972.066          51.000    20482744.297 8  83873404.838 8      -757.455          51.000  
G22  21993356.703 8 115575956.394 8      2464.645          51.000    21993354.180 7  90059113.822 7      1920.503          44.000  
G14  22876561.844 7 120217185.266 7      2259.023          47.000    22876561.195 6  93675736.649 6      1760.282          39.000  
G27  22048075.242 8 115863395.575 8     -2897.062          49.000    22048079.062 8  90283166.869 8     -2257.455          49.000  
G11  20165160.953 6 105968633.919 6      1294.637          37.000                                                                  
R06  20838568.898 6 111198204.294 6      3571.641          40.000                                                                  
R05  19663858.328 8 105114209.849 8      -856.324          51.000    19663860.688 8  81755603.118 8      -666.030          48.000  
R20  20066350.188 5 107303412.124 5     -1249.672          35.000    20066353.992 7  83458210.859 7      -971.967          45.000  
E07  26602815.688 5 139798736.307 5      3068.328          35.000    26602818.836 6 107118526.378 6      2350.989          40.000  
E08  22490450.711 8 118188178.971 8      1232.938          51.000    22490452.547 8  90559805.337 8       944.671          51.000  
E21  27431593.133 8 144153978.317 8     -2731.504          49.000    27431598.414 7 110455638.891 7     -2092.999          47.000  
E13  23264026.734 8 122253287.094 8       -71.547          51.000    23264030.539 8  93674622.555 8       -54.810          51.000  
C22  24931007.266 4 129822296.921 4      3259.699          29.000                                                                  
C29  22997399.203 8 119753461.285 8     -2188.223          50.000                                                                  
C20  23581407.445 6 122794568.093 6     -2063.551          38.000                                                                  
C19  21749060.578 8 113253091.881 8       981.500          51.000                                                                  
C05                                                                  39653566.852 6 159668481.664 6       -20.543          37.000  
> 2020 05 16 17 53  0.0000000  0 17      -0.000000000000
G32  22185035.008 6 116583118.131 6      1083.711          39.000    22185036.883 6  90843993.952 6       844.450          39.000  
G08  20488345.578 8 107666981.294 8      -989.062          51.000    20488348.023 8  83896351.908 8      -770.698          51.000  
G22  21979325.094 8 115502217.549 8      2453.512          51.000    21979322.047 7  90001655.025 7      1911.831          45.000  
G14  22863705.734 7 120149624.873 7      2247.359          45.000    22863705.523 7  93623092.258 7      1751.196          43.000  
G27  22064650.641 8 115950499.674 8     -2907.695          49.000    22064654.477 8  90351040.099 8     -2265.740          49.000  
G11  20157814.867 6 105930025.979 6      1281.301          37.000    20157812.562 5  82542883.808 5       998.404          33.000  
R06  20818538.094 7 111091320.431 7      3556.305          43.000                                                                  
R05  19668743.508 8 105140324.297 8      -882.375          51.000    19668745.945 7  81775914.365 7      -686.292          47.000  
R20  20073408.242 6 107341155.553 6     -1264.301          36.000    20073412.016 7  83487566.841 7      -983.345          45.000  
E07  26585316.469 6 139706770.939 6      3065.238          37.000    26585318.523 6 107048059.462 6      2348.828          40.000  
E08  22483456.086 8 118151421.615 8      1219.852          51.000    22483458.188 8  90531640.632 8       934.731          51.000  
E21  27447202.984 8 144236006.765 8     -2734.711          48.000    27447206.883 7 110518491.748 7     -2095.462          46.000  
E13  23264459.086 8 122255559.494 8       -77.676          51.000    23264462.961 8  93676363.739 8       -59.446          51.000  
C29  23010038.562 8 119819279.637 8     -2197.355          50.000                                                                  
C20  23593335.625 6 122856678.491 6     -2074.926          36.000                                                                  
C19  21743456.586 8 113223910.001 8       966.148          51.000                                                                  
C05  39653727.141 5 206487362.85525       -26.500          34.000    39653725.852 6 159669122.107 6       -20.259          37.000  
> 2020 05 16 17 53 30.0000000  0 18      -0.000000000000
G32  22178900.539 5 116550885.501 5      1066.816          35.000    22178901.812 5  90818877.563 5       831.289          35.000  
G08  20494040.492 8 107696908.957 8     -1006.086          51.000    20494043.398 8  83919672.154 8      -783.963          51.000  
G22  21965351.562 8 115428784.887 8      2442.121          50.000    21965348.180 7  89944434.839 7      1902.955          45.000  
G14  22850909.578 7 120082381.177 7      2235.656          45.000    22850910.141 6  93570694.679 6      1742.073          39.000  
G27  22081281.992 8 116037897.344 8     -2918.461          49.000    22081285.164 8  90419142.085 8     -2274.129          49.000  
G11  20150541.852 6 105891803.778 6      1267.117          38.000    20150539.906 4  82513100.344 4       987.355          27.000  
R06  20798591.109 7 110984877.072 7      3540.219          46.000                                                                  
R05  19673768.805 8 105167187.212 8      -908.438          51.000    19673771.008 7  81796807.739 7      -706.563          47.000  
R20  20080541.766 6 107379301.032 6     -1278.910          37.000    20080545.938 7  83517235.515 7      -994.708          47.000  
E07  26567827.289 5 139614870.688 5      3062.387          33.000    26567829.852 6 106977642.578 6      2345.913          40.000  
E08  22476530.758 8 118115028.215 8      1206.543          51.000    22476532.859 8  90503754.813 8       924.563          51.000  
E21  27462825.500 7 144318104.011 7     -2738.027          46.000    27462828.953 7 110581397.322 7     -2098.027          47.000  
E13  23264921.008 8 122257987.028 8       -83.961          51.000    23264924.781 8  93678223.801 8       -64.340          51.000  
C22  24893497.320 5 129626955.399 5      3250.359          31.000                                                                  
C29  23022724.602 8 119885340.151 8     -2206.508          48.000                                                                  
C20  23605323.227 6 122919096.631 6     -2086.211          37.000                                                                  
C19  21737935.461 8 113195159.269 8       950.676          51.000                                                                  
C05  39653879.422 5 206488154.794 5       -26.172          34.000    39653878.266 6 159669735.680 6       -20.603          38.000  
> 2020 05 16 17 54  0.0000000  0 18      -0.000000000000
G32  22172871.594 6 116519206.674 6      1047.117          36.000    22172873.633 6  90794192.827 6       815.933          37.000  
G08  20499836.977 8 107727369.629 8     -1023.965          51.000    20499840.227 8  83943407.725 8      -797.895          51.000  
G22  21951446.500 8 115355714.479 8      2429.977          49.000    21951443.438 7  89887496.906 7      1893.489          47.000  
G14  22838184.086 7 120015511.223 7      2223.109          44.000    22838184.906 6  93518588.273 6      1732.297          38.000  
G27  22097979.141 8 116125641.546 8     -2930.398          48.000    22097981.727 8  90487514.101 8     -2283.431          48.000  
G11  20143352.727 6 105854023.609 6      1252.352          37.000    20143350.070 5  82483661.237 5       975.859          32.000  
R06  20778738.445 8 110878933.256 8      3523.387          48.000                                                                  
R05  19678944.031 8 105194851.975 8      -935.281          51.000    19678946.469 7  81818324.802 7      -727.441          47.000  
R20  20087760.797 6 107417904.831 6     -1294.121          37.000    20087765.289 7  83547260.663 7     -1006.542          47.000  
E07  26550363.328 6 139523094.057 6      3057.543          36.000    26550363.922 6 106907318.832 6      2342.875          40.000  
E08  22469685.398 8 118079054.226 8      1192.469          51.000    22469687.414 8  90476190.357 8       913.692          51.000  
E21  27478470.383 7 144400322.523 7     -2742.246          43.000    27478474.930 7 110644395.827 7     -2101.245          46.000  
E13  23265422.992 8 122260624.812 8       -91.148          51.000    23265426.555 8  93680244.954 8       -69.784          51.000  
C22  24874791.422 5 129529572.271 5      3243.078          32.000                                                                  
C29  23035467.258 8 119951696.441 8     -2216.586          48.000                                                                  
C20  23617379.227 6 122981874.787 6     -2098.465          39.000                                                                  
C19  21732507.461 8 113166894.159 8       934.289          51.000                                                                  
C05  39654035.484 5 206488968.07525       -27.254          34.000    39654034.320 6 159670364.173 6       -21.114          37.000  
> 2020 05 16 17 54 30.0000000  0 19      -0.000000000000
G32  22166943.523 5 116488073.11125      1032.059          31.000    22166944.469 5  90769917.97825       804.199          32.000  
G08  20505729.336 8 107758333.491 8     -1037.973          51.000    20505732.422 8  83967535.406 8      -808.810          51.000  
G22  21937605.008 8 115282977.639 8      2421.531          51.000    21937602.219 7  89830818.872 7      1886.908          47.000  
G14  22825524.328 7 119948988.488 7      2214.301          43.000    22825525.422 6  93466752.420 6      1725.436          38.000  
G27  22114736.133 7 116213701.300 7     -2938.059          45.000    22114738.625 7  90556132.063 7     -2289.400          45.000  
G11  20136242.281 6 105816658.121 6      1240.918          38.000    20136241.281 5  82454545.286 5       966.952          34.000  
R06  20758974.477 8 110773462.884 8      3510.367          48.000                                                                  
R05  19684263.336 8 105223287.114 8      -958.012          51.000    19684265.844 7  81840441.015 7      -745.120          47.000  
R20  20095060.016 6 107456937.148 6     -1305.570          36.000    20095064.672 7  83577619.124 7     -1015.444          46.000  
R04  23012263.031 5 123229218.48125     -3992.406          34.000    23012263.781 5  95844953.40025     -3105.206          31.000  
E07  26532917.742 6 139431409.613 6      3057.082          36.000    26532915.766 6 106837067.225 6      2342.542          41.000  
E08  22462914.414 8 118043471.247 8      1182.094          51.000    22462916.539 8  90448925.500 8       905.800          51.000  
E21  27494131.602 6 144482630.917 6     -2742.707          40.000    27494138.797 7 110707463.241 7     -2101.409          47.000  
E13  23265959.656 8 122263444.077 8       -94.445          51.000    23265962.828 8  93682405.172 8       -72.367          51.000  
C22  24856121.375 5 129432350.633 5      3240.578          32.000                                                                  
C29  23048260.922 8 120018318.993 8     -2222.645          49.000                                                                  
C20  23629498.227 6 123044982.015 6     -2106.285          38.000                                                                  
C19  21727166.992 8 113139086.048 8       921.820          51.000                                                                  
C05  39654189.641 5 206489770.701 5       -23.711          34.000    39654188.508 6 159670985.211 6       -18.543          37.000  
> 2020 05 16 17 55  0.0000000  0 19      -0.000000000000
G08  20511712.773 8 107789776.149 8     -1058.398          51.000    20511715.758 8  83992036.154 8      -824.726          51.000  
G22  21923822.625 8 115210550.695 8      2406.789          51.000    21923820.148 7  89774382.316 7      1875.421          46.000  
G10  22947122.828 5 120587949.58025     -2924.414          32.000    22947121.250 5  93964624.38425     -2278.765          31.000  
G14  22812927.047 7 119882790.935 7      2198.918          44.000    22812928.023 6  93415169.903 6      1713.443          39.000  
G27  22131548.109 7 116302050.529 7     -2952.203          47.000    22131551.156 7  90624975.610 7     -2300.416          47.000  
G11  20129206.422 6 105779683.607 6      1223.809          39.000    20129205.016 5  82425733.958 5       953.620          30.000  
R06  20739294.766 7 110668444.226 7      3490.922          47.000                                                                  
R05  19689721.578 8 105252465.638 8      -987.309          51.000    19689724.641 7  81863135.455 7      -767.907          47.000  
R20  20102434.875 6 107496373.734 6     -1324.004          36.000    20102439.828 7  83608292.002 7     -1029.781          46.000  
R04  23034667.375 5 123349183.960 5     -4004.879          34.000    23034666.266 4  95938259.845 4     -3114.906          29.000  
E07  26515484.172 5 139339796.496 5      3050.625          33.000    26515481.836 6 106766870.326 6      2337.128          41.000  
E08  22456213.188 8 118008255.599 8      1165.395          51.000    22456215.453 8  90421942.109 8       892.980          51.000  
E21  27509805.812 7 144565002.638 7     -2749.031          42.000    27509815.164 7 110770579.202 7     -2106.489          47.000  
E13  23266526.320 8 122266420.841 8      -104.176          51.000    23266529.203 8  93684686.074 8       -79.856          51.000  
C22  24837478.789 5 129335268.108 5      3231.871          33.000                                                                  
C29  23061101.438 8 120085183.016 8     -2235.090          51.000                                                                  
C20  23641675.547 6 123108392.176 6     -2120.746          37.000                                                                  
C19  21721909.898 8 113111710.966 8       903.059          51.000                                                                  
C05  39654337.469 5 206490539.979 5       -27.375          35.000    39654336.203 6 159671580.062 6       -20.963          37.000  
> 2020 05 16 17 55 30.0000000  0 19      -0.000000000000
G08  20517802.742 8 107821778.248 8     -1074.926          51.000    20517805.727 8  84016972.822 8      -837.605          51.000  
G22  21910114.914 8 115138515.942 8      2395.797          51.000    21910112.164 7  89718251.367 7      1866.855          47.000  
G10  22963833.867 5 120675761.23525     -2930.996          32.000                                                                  
G14  22800407.891 7 119817002.029 7      2187.184          43.000    22800409.445 6  93363905.855 6      1704.302          41.000  
G27  22148430.758 8 116390768.791 8     -2962.168          49.000    22148433.891 8  90694106.711 8     -2308.187          49.000  
G11  20122260.805 6 105743183.126 6      1209.562          39.000    20122259.086 5  82397292.047 5       942.520          34.000  
R06  20719715.250 7 110563963.337 7      3474.746          45.000                                                                  
R05  19695334.352 8 105282468.601 8     -1012.637          51.000    19695337.164 7  81886471.075 7      -787.607          47.000  
R20  20109900.812 5 107536297.295 5     -1337.566          35.000    20109905.961 7  83639343.658 7     -1040.330          45.000  
R04  23057128.625 5 123469464.430 5     -4013.051          35.000    23057128.484 4  96031811.295 4     -3121.262          29.000  
E07  26498079.344 6 139248349.811 6      3046.871          36.000    26498077.891 7 106696791.670 7      2334.868          42.000  
E08  22449597.523 8 117973489.308 8      1152.484          51.000    22449599.766 8  90395303.023 8       883.052          51.000  
E21  27525508.039 7 144647516.784 7     -2751.680          43.000    27525518.578 7 110833804.236 7     -2108.485          47.000  
E13  23267138.492 8 122269636.761 8      -110.070          51.000    23267141.141 8  93687150.213 8       -84.391          51.000  
C22  24818879.375 5 129238406.935 5      3226.215          33.000                                                                  
C29  23074004.391 8 120152368.400 8     -2243.734          51.000                                                                  
C20  23653925.820 6 123172183.823 6     -2131.688          39.000                                                                  
C19  21716751.445 8 113084849.656 8       887.977          51.000                                                                  
C05  39654494.102 5 206491355.852 5       -27.219          35.000    39654492.758 6 159672210.960 6       -20.911          38.000  
> 2020 05 16 17 56  0.0000000  0 19      -0.000000000000
G08  20523983.672 8 107854258.175 8     -1098.477          51.000    20523986.344 8  84042281.839 8      -855.956          51.000  
G22  21896466.453 8 115066792.972 8      2377.668          51.000    21896463.297 7  89662363.375 7      1852.732          47.000  
G10  22980578.109 5 120763720.407 5     -2943.945          33.000                                                                  
G14  22787951.617 7 119751543.155 7      2168.410          44.000    22787953.812 7  93312899.034 7      1689.674          43.000  
G27  22165368.180 8 116479773.032 8     -2979.492          49.000    22165370.797 8  90763460.641 8     -2321.683          49.000  
G11  20115390.305 6 105707076.657 6      1188.809          39.000    20115388.828 5  82369157.118 5       926.345          35.000  
R06  20700221.289 7 110459940.592 7      3451.707          43.000                                                                  
R05  19701085.164 8 105313210.919 8     -1045.059          51.000    19701088.570 7  81910381.791 7      -812.820          47.000  
R20  20117442.391 5 107576625.604 5     -1359.043          34.000    20117447.234 7  83670710.125 7     -1057.037          43.000  
R04  23079633.195 5 123589968.089 5     -4028.762          34.000    23079635.133 4  96125546.74524     -3133.482          28.000  
E07  26480688.688 6 139156965.786 6      3037.102          36.000    26480688.367 7 106626770.238 7      2327.023          43.000  
E08  22443051.750 8 117939091.763 8      1132.551          51.000    22443054.359 8  90368946.490 8       867.781          51.000  
E21  27541224.539 7 144730119.830 7     -2761.195          44.000    27541232.008 7 110897122.388 7     -2115.722          46.000  
E13  23267780.750 8 122273010.946 8      -123.020          51.000    23267782.992 8  93689735.627 8       -94.250          51.000  
C22  24800309.008 5 129141688.099 5      3214.387          35.000                                                                  
C29  23086953.508 8 120219793.928 8     -2259.254          51.000                                                                  
C20  23666233.492 6 123236274.382 6     -2149.023          40.000                                                                  
C19  21711675.891 8 113058421.739 8       865.863          51.000                                                                  
C05  39654644.055 5 206492136.674 5       -33.164          34.000    39654642.820 6 159672815.542 6       -25.880          37.000  
> 2020 05 16 17 56 30.0000000  0 20      -0.000000000000
G32  22144260.391 6 116368869.021 6       957.398          37.000    22144263.852 5  90677047.260 5       746.028          35.000  
G08  20530278.359 8 107887337.404 8     -1108.895          51.000    20530280.852 8  84068057.815 8      -864.074          50.000  
G22  21882900.664 8 114995504.347 8      2372.766          49.000    21882897.430 7  89606813.837 7      1848.912          47.000  
G10  22997374.930 5 120851995.652 5     -2943.070          34.000                                                                  
G14  22775582.023 7 119686538.340 7      2162.891          45.000    22775584.273 7  93262245.978 7      1685.370          44.000  
G27  22182382.695 8 116569183.226 8     -2983.355          49.000    22182385.391 8  90833130.866 8     -2324.696          48.000  
G11  20108618.055 6 105671487.394 6      1181.207          40.000    20108617.094 6  82341425.237 6       920.421          37.000  
R06  20680836.352 7 110356503.505 7      3441.914          43.000                                                                  
R05  19706997.086 8 105344814.446 8     -1064.027          51.000    19707000.750 7  81934962.326 7      -827.577          46.000  
R20  20125082.664 5 107617482.771 5     -1366.660          34.000    20125087.539 7  83702487.870 7     -1062.961          43.000  
R04  23102198.031 5 123710786.69525     -4029.871          31.000    23102204.164 4  96219567.81724     -3134.345          26.000  
E07  26463334.672 6 139065779.787 6      3039.793          38.000    26463336.672 7 106556900.522 7      2329.370          44.000  
E08  22436599.148 8 117905185.343 8      1125.781          51.000    22436602.242 8  90342966.285 8       862.618          51.000  
E21  27556971.984 7 144812871.233 7     -2757.441          43.000    27556977.867 7 110960529.200 7     -2112.939          45.000  
E13  23268476.281 8 122276665.461 8      -122.719          51.000    23268478.250 8  93692535.834 8       -94.031          51.000  
C22  24781789.406 6 129045233.761 6      3214.590          38.000                                                                  
C29  23099971.359 8 120287579.558 8     -2261.844          51.000                                                                  
C20  23678621.938 6 123300782.376 6     -2153.922          38.000                                                                  
C19  21706706.742 8 113032547.933 8       856.996          50.000                                                                  
C05                                                                  39654809.555 6 159673484.938 6       -20.534          37.000  
> 2020 05 16 17 57  0.0000000  0 19      -0.000000000000
G32  22138846.875 5 116340427.08625       937.164          31.000    22138854.055 4  90654887.30624       730.267          29.000  
G08  20536660.352 8 107920874.982 8     -1129.020          51.000    20536662.547 8  84094190.957 8      -879.756          51.000  
G22  21869390.859 8 114924510.704 8      2358.035          48.000    21869387.789 8  89551494.167 8      1837.434          48.000  
G10  23014198.617 5 120940414.049 5     -2952.672          33.000    23014202.266 5  94239300.610 5     -2300.784          32.000  
G14  22763272.289 7 119621849.957 7      2147.426          43.000    22763274.945 7  93211839.509 7      1673.322          43.000  
G27  22199447.148 8 116658857.202 8     -2996.898          48.000    22199449.984 8  90903006.627 8     -2335.249          48.000  
G11  20101917.516 6 105636276.563 6      1163.715          39.000    20101916.344 6  82313988.197 6       906.788          38.000  
R06  20661535.188 7 110253511.912 7      3422.059          45.000                                                                  
R05  19713043.266 8 105377134.112 8     -1092.707          51.000    19713046.789 7  81960099.830 7      -849.883          46.000  
R20  20132795.797 5 107658726.034 5     -1384.859          35.000    20132799.992 7  83734565.936 7     -1077.116          42.000  
E07  26445991.969 6 138974653.107 6      3033.039          39.000    26445996.508 7 106487076.251 7      2324.150          45.000  
E08  22430213.500 8 117871630.394 8      1109.160          51.000    22430216.828 8  90317255.372 8       849.879          51.000  
E21  27572725.633 6 144895658.445 6     -2763.645          41.000    27572730.148 7 111023963.419 7     -2117.584          44.000  
E13  23269198.508 8 122280460.338 8      -132.312          51.000    23269200.312 8  93695443.583 8      -101.364          51.000  
C22  24763292.547 6 128948906.460 6      3205.387          41.000                                                                  
C29  23113031.484 8 120355585.474 8     -2273.902          51.000                                                                  
C20  23691063.594 5 123365566.574 5     -2167.359          34.000                                                                  
C19  21701817.555 8 113007089.325 8       838.402          50.000                                                                  
C05  39654967.445 5 206493820.486 5       -29.750          34.000    39654966.148 6 159674115.567 6       -23.026          37.000  
> 2020 05 16 17 57 30.0000000  0 18      -0.000000000000
G08  20543142.570 8 107954938.671 8     -1143.680          51.000    20543144.727 8  84120734.057 8      -891.179          51.000  
G22  21855950.375 8 114853881.336 8      2348.793          50.000    21855947.539 8  89496458.314 8      1830.229          48.000  
G14  22751035.969 7 119557548.650 7      2137.590          43.000    22751038.727 6  93161734.615 6      1665.655          41.000  
G03  23832619.438 6 125241268.87426      3494.004          36.000                                                                  
G27  22216574.570 8 116748861.621 8     -3004.988          49.000    22216577.234 8  90973139.857 8     -2341.553          49.000  
G11  20095302.273 6 105601513.864 6      1151.859          40.000    20095300.188 5  82286900.410 5       897.553          35.000  
R06  20642331.781 7 110151038.895 7      3407.711          46.000                                                                  
R05  19719235.930 8 105410237.404 8     -1115.809          51.000    19719239.477 7  81985846.861 7      -867.851          46.000  
R20  20140593.680 5 107700425.424 5     -1397.176          35.000    20140597.055 7  83766998.760 7     -1086.696          42.000  
E07  26428674.172 7 138883655.820 7      3031.812          42.000    26428681.078 7 106417351.191 7      2322.920          45.000  
E08  22423907.961 8 117838496.004 8      1098.102          51.000    22423911.156 8  90291866.709 8       841.430          50.000  
E21  27588498.047 6 144978547.670 6     -2764.211          40.000    27588502.031 7 111087475.810 7     -2117.797          43.000  
E13  23269960.516 8 122284464.444 8      -136.320          51.000    23269962.133 8  93698511.656 8      -104.456          51.000  
C22  24744832.008 7 128852775.659 7      3201.863          42.000                                                                  
C29  23126146.656 8 120423878.853 8     -2280.586          51.000                                                                  
C20  23703570.375 6 123430693.073 6     -2175.789          36.000                                                                  
C19  21697021.203 8 112982113.906 8       825.070          51.000                                                                  
C05  39655126.891 5 206494651.56325       -26.934          34.000    39655125.695 6 159674757.856 6       -21.144          37.000  
> 2020 05 16 17 58  0.0000000  0 19      -0.000000000000
G32  22128339.953 5 116285223.69725       903.617          35.000                                                                  
G08  20549719.805 8 107989501.783 8     -1159.613          51.000    20549722.055 8  84147666.306 8      -903.595          51.000  
G22  21842574.570 8 114783590.212 8      2338.188          51.000    21842571.766 7  89441686.014 7      1821.965          47.000  
G14  22738868.719 7 119493609.964 7      2125.898          42.000    22738871.195 6  93111912.282 6      1656.548          41.000  
G03  23812689.891 5 125136540.231 5      3488.934          34.000    23812707.492 5  97508974.383 5      2718.656          34.000  
G27  22233759.672 8 116839167.843 8     -3014.418          51.000    22233761.562 8  91043508.294 8     -2348.898          51.000  
G11  20088767.141 6 105567173.973 6      1138.613          38.000    20088765.281 6  82260142.021 6       887.228          36.000  
R06  20623221.555 7 110049060.910 7      3391.820          47.000                                                                  
R05  19725569.742 8 105444094.946 8     -1140.355          50.000    19725573.156 7  82012180.519 7      -886.943          46.000  
R20  20148471.656 6 107742553.643 6     -1410.707          37.000    20148475.578 7  83799765.100 7     -1097.217          44.000  
E07  26411376.883 7 138792762.868 7      3028.895          45.000    26411384.930 7 106347706.029 7      2320.795          45.000  
E08  22417677.461 8 117805756.007 8      1085.602          51.000    22417680.797 8  90266780.267 8       831.762          50.000  
E21  27604284.453 6 145061509.803 6     -2765.672          38.000    27604288.297 7 111151044.128 7     -2119.066          43.000  
E13  23270757.273 8 122288651.366 8      -141.777          51.000    23270759.000 8  93701719.811 8      -108.662          51.000  
C22  24726403.219 7 128756816.369 7      3196.570          42.000                                                                  
C29  23139311.453 8 120492432.478 8     -2288.590          51.000                                                                  
C20  23716137.648 6 123496133.174 6     -2185.852          38.000                                                                  
C19  21692312.734 8 112957595.162 8       810.410          51.000                                                                  
C05  39655284.234 5 206495470.009 5       -25.980          35.000    39655282.930 6 159675391.131 6       -20.120          38.000  
> 2020 05 16 17 58 30.0000000  0 19      -0.000000000000
G32  22123240.750 5 116258410.818 5       884.285          34.000    22123239.586 5  90590960.429 5       689.035          35.000  
G08  20556391.609 8 108024561.158 8     -1177.777          51.000    20556393.414 8  84174985.281 8      -917.749          51.000  
G22  21829262.984 8 114713635.965 8      2325.258          51.000    21829260.203 8  89387176.239 8      1811.890          48.000  
G14  22726770.258 6 119430034.096 6      2112.367          41.000    22726773.172 6  93062372.674 6      1646.001          41.000  
G03  23792791.016 5 125031977.760 5      3481.719          32.000    23792811.008 5  97427497.181 5      2713.028          32.000  
G27  22251001.305 8 116929771.875 8     -3026.055          51.000    22251002.328 8  91114108.800 8     -2357.965          51.000  
G11  20082312.438 6 105533256.216 6      1122.805          39.000    20082311.297 5  82233712.587 5       874.910          35.000  
R06  20604204.133 7 109947578.359 7      3373.562          46.000                                                                  
R05  19732043.758 8 105478702.324 8     -1166.953          50.000    19732046.930 7  82039097.397 7      -907.630          45.000  
R20  20156429.789 6 107785109.102 6     -1426.305          38.000    20156434.055 7  83832863.738 7     -1109.348          44.000  
E07  26394100.023 7 138701973.650 7      3023.648          46.000    26394108.102 7 106278140.334 7      2316.883          45.000  
E08  22411522.008 8 117773408.839 8      1070.812          51.000    22411525.164 8  90241994.830 8       820.502          49.000  
E21  27620084.938 6 145144540.548 6     -2769.555          40.000    27620087.969 7 111214665.024 7     -2122.259          42.000  
E13  23271588.359 8 122293019.262 8      -149.473          51.000    23271590.445 8  93705066.623 8      -114.561          51.000  
C22  24708006.867 7 128661028.022 7      3189.277          42.000                                                                  
C29  23152525.867 8 120561243.423 8     -2298.852          51.000                                                                  
C20  23728764.953 5 123561882.676 5     -2198.617          35.000                                                                  
C19  21687691.680 8 112933531.042 8       793.711          51.000                                                                  
C05  39655438.875 5 206496275.075 5       -27.426          34.000    39655437.414 6 159676013.663 6       -21.343          37.000  
> 2020 05 16 17 59  0.0000000  0 18      -0.000000000000
G08  20563168.656 8 108060173.820 8     -1195.582          51.000    20563170.109 8  84202735.410 8      -931.623          51.000  
G22  21816026.531 8 114644077.658 8      2312.773          51.000    21816024.023 8  89332974.962 8      1802.162          49.000  
G10  23081875.641 5 121296057.029 5     -2976.355          32.000    23081877.195 5  94516435.469 5     -2319.236          32.000  
G14  22714752.219 6 119366881.397 6      2098.758          40.000    22714755.445 6  93013162.865 6      1635.396          39.000  
G03  23772932.789 5 124927640.434 5      3474.863          31.000    23772953.188 5  97346195.446 5      2707.687          31.000  
G27  22268310.078 8 117020729.898 8     -3037.074          50.000    22268310.945 8  91184985.164 8     -2366.552          50.000  
G11  20075949.531 6 105499819.865 6      1107.242          41.000    20075948.547 6  82207658.313 6       862.789          36.000  
R06  20585290.719 7 109846653.518 7      3355.484          44.000                                                                  
R05  19738668.461 8 105514115.880 8     -1193.184          50.000    19738671.797 7  82066641.271 7      -928.032          45.000  
R20  20164479.008 6 107828150.791 6     -1441.797          36.000    20164483.477 7  83866340.578 7     -1121.398          45.000  
E07  26376854.531 8 138611347.774 8      3018.750          48.000    26376862.312 7 106208699.826 7      2313.213          44.000  
E08  22405452.992 8 117741513.150 8      1056.387          51.000    22405454.984 8  90217555.315 8       809.470          49.000  
E21  27635909.797 7 145227695.678 7     -2773.199          42.000    27635911.633 6 111278381.180 6     -2124.792          41.000  
E13  23272464.992 8 122297626.561 8      -156.828          51.000    23272467.211 8  93708596.869 8      -120.134          51.000  
C22  24689654.305 7 128565469.654 7      3182.395          42.000                                                                  
C29  23165800.438 8 120630368.441 8     -2308.613          49.000                                                                  
C19  21683168.969 8 112909979.062 8       777.246          51.000                                                                  
C05  39655601.805 5 206497123.627 5       -27.891          35.000    39655600.312 6 159676669.849 6       -21.956          37.000  
> 2020 05 16 17 59 30.0000000  0 19      -0.000000000000
G32  22113363.914 5 116206510.74125       849.770          34.000                                                                  
G08  20570038.664 8 108096275.033 8     -1209.762          51.000    20570040.234 8  84230866.218 8      -942.672          51.000  
G22  21802852.852 8 114574850.666 8      2303.770          51.000    21802851.000 8  89279031.864 8      1795.146          49.000  
G10  23098882.078 5 121385452.785 5     -2981.098          34.000    23098880.203 5  94586071.772 5     -2322.934          33.000  
G14  22702802.938 6 119304089.483 6      2088.668          38.000    22702806.320 6  92964234.095 6      1627.534          39.000  
G27  22285673.297 8 117111975.242 8     -3044.500          49.000    22285675.008 8  91256085.392 8     -2372.338          49.000  
G11  20069665.992 6 105466801.492 6      1095.574          39.000    20069664.859 6  82181929.750 6       853.694          39.000  
R06  20566469.250 7 109746223.078 7      3341.129          43.000                                                                  
R05  19745431.688 8 105550267.565 8     -1215.492          49.000    19745435.258 7  82094759.261 7      -945.383          45.000  
R20  20172606.766 6 107871612.750 6     -1453.938          37.000    20172611.516 7  83900144.312 7     -1130.840          46.000  
E07  26359628.211 8 138520821.978 8      3017.750          48.000    26359635.562 7 106139336.025 7      2312.112          44.000  
E08  22399457.602 8 117710004.614 8      1045.668          51.000    22399458.250 8  90193412.460 8       801.260          49.000  
E21  27651745.547 7 145310908.072 7     -2773.074          44.000    27651746.289 6 111342141.196 6     -2124.702          40.000  
E13  23273374.891 8 122302408.717 8      -160.562          51.000    23273377.281 8  93712261.100 8      -122.999          51.000  
C22  24671334.164 7 128470078.576 7      3178.684          42.000                                                                  
C29  23179122.414 8 120699742.609 8     -2314.715          48.000                                                                  
C20  23754218.406 5 123694454.070 5     -2216.855          30.000                                                                  
C19  21678732.344 8 112886874.983 8       764.480          51.000                                                                  
C05  39655760.812 5 206497952.79725       -25.441          35.000    39655759.242 6 159677309.854 6       -19.776          37.000  
