     3.02           OBSERVATION DATA    M (MIXED)           RINEX VERSION / TYPE
SAVERINEX           SC600               20200503 075931 LCL PGM / RUN BY / DATE
       G = GPS       R = GLONASS       C = COMPASS          COMMENT
       S = SBAS      J = QZSS          E = GALILEO          COMMENT
BEAN                                                        MARKER NAME
1                                                           MARKER NUMBER
GEODETIC                                                    MARKER TYPE
Unige DICCA         GTER                                    OBSERVER / AGENCY
SC60291900056       SC600               2.12(191226)        REC # / TYPE / VERS
                    HEMA45          NONE                    ANT # / TYPE
  4509407.8091   693652.4678  4442337.6214                  APPROX POSITION XYZ
        0.0000        0.0000        0.0000                  ANTENNA: DELTA H/E/N
G    8 C1C L1C D1C S1C C2Y L2Y D2Y S2Y                      SYS / # / OBS TYPES
R    8 C1C L1C D1C S1C C2P L2P D2P S2P                      SYS / # / OBS TYPES
C    8 C1I L1I D1I S1I C7I L7I D7I S7I                      SYS / # / OBS TYPES
E    8 C1C L1C D1C S1C C7Q L7Q D7Q S7Q                      SYS / # / OBS TYPES
DBHZ                                                        COMMENT
     30.000                                                 INTERVAL
  2020    05    03    05    00    0.0000000     GPS         TIME OF FIRST OBS
  2020    05    03    05    59   30.0000000     GPS         TIME OF LAST OBS
     0                                                      RCV CLOCK OFFS APPL
G L1C  0.00000                                              SYS / PHASE SHIFT
G L2Y  0.00000                                              SYS / PHASE SHIFT
R L1C  0.00000                                              SYS / PHASE SHIFT
R L2P  0.25000                                              SYS / PHASE SHIFT
C L1I  0.00000                                              SYS / PHASE SHIFT
C L7I  0.00000                                              SYS / PHASE SHIFT
E L1C  0.50000                                              SYS / PHASE SHIFT
E L7Q -0.25000                                              SYS / PHASE SHIFT
 14 R01  1 R02 -4 R03  5 R04  6 R05  1 R10 -5 R12 -1 R13 -2 GLONASS SLOT / FRQ #
    R14 -7 R15  0 R16 -1 R17  4 R18 -3 R23  3               GLONASS SLOT / FRQ #
 C1C   71.950 C2C   71.950 C2P   71.950                     GLONASS COD/PHS/BIS
    18                                                      LEAP SECONDS
*** Above antenna height is from mark to ANTENNA BOTTOM.    COMMENT
    17     4        0.0000        ANT MEASURE TYPE/HEIGT    COMMENT
    0.0000    0.0000    0.0458    0.0405    0.0000          COMMENT
                    BASE STATION                            COMMENT
                                                            END OF HEADER
> 2020 05 03 05 00  0.0000000  0 16        .000000000000
G05  22130834.492 8 116298308.592 8     -2940.832          51.000    22130833.258 8  90622050.320 8     -2291.560          51.000
G13  20277806.453 7 106560590.011 7       771.727          46.000    20277805.258 6  83034209.604 6       601.345          41.000
G28  20878253.547 8 109716029.705 8        60.910          51.000    20878251.898 8  85493012.523 8        47.462          48.000
G30  21820054.258 6 114665151.782 6     -2276.215          36.000    21820057.336 6  89349469.543 6     -1773.674          36.000
R04  19889175.164 7 106505617.186 7     -2322.891          46.000    19889177.836 7  82837710.997 7     -1806.693          46.000
R14  19937500.023 7 106278056.281 7     -2289.426          42.000    19937502.984 6  82660742.184 6     -1780.664          40.000
R15  19613942.523 8 104811079.658 8      1580.840          51.000    19613944.102 7  81519675.593 7      1229.542          47.000
C05  39777097.633 6 207129784.539 6        13.078          36.000    39777096.406 6 160165881.696 6         9.599          41.000
C14  22653100.430 7 117960642.843 7     -2317.617          46.000    22653100.023 8  91214630.881 8     -1792.177          51.000
C24  21835859.812 8 113705092.872 8      -487.699          51.000
C25  23622735.867 8 123009762.896 8      2333.133          51.000
E01  27416802.672 5 144076264.943 5     -2754.551          34.000    27416800.578 5 110396095.157 5     -2110.759          33.000
E04  27119760.477 8 142515303.357 8     -2688.398          48.000    27119763.820 8 109200046.703 8     -2059.954          49.000
E09  21671600.320 8 113885009.312 8      -920.164          51.000    21671601.500 8  87262554.907 8      -705.058          51.000
E24  22636366.281 8 118954902.317 8      1996.898          51.000    22636378.508 8  91147358.703 8      1530.082          51.000
E31  23784803.430 8 124990022.526 8      -763.379          51.000    23784805.734 8  95771594.661 8      -584.870          51.000
> 2020 05 03 05 00 30.0000000  0 16        .000000000000
G05  22147659.203 8 116386720.728 8     -2952.418          51.000    22147657.094 8  90690942.853 8     -2300.588          51.000
G13  20273439.375 7 106537640.376 7       759.109          45.000    20273437.969 7  83016326.767 7       591.511          43.000
G28  20877962.055 8 109714497.166 8        42.320          51.000    20877960.453 8  85491818.353 8        32.977          48.000
G30  21833073.750 5 114733569.803 5     -2283.773          32.000    21833077.539 5  89402782.293 5     -1779.567          31.000
R04  19902246.961 7 106575626.163 7     -2343.512          44.000    19902251.445 7  82892162.451 7     -1822.731          47.000
R14  19950429.750 7 106346978.656 7     -2304.391          42.000    19950432.773 6  82714348.469 6     -1792.304          40.000
R15  19605125.133 8 104763964.458 8      1561.078          51.000    19605127.008 8  81483030.431 8      1214.172          48.000
C05  39777028.094 6 207129422.959 6        12.441          36.000    39777027.602 6 160165605.975 6         9.660          41.000
C14  22666488.547 7 118030362.722 7     -2329.320          46.000    22666488.930 8  91268542.743 8     -1801.251          51.000
C24  21838705.359 8 113719910.869 8      -499.293          51.000
C25  23609321.234 8 122939906.644 8      2324.801          51.000
E01  27432540.641 5 144158972.561 5     -2757.672          35.000    27432537.648 5 110459460.626 5     -2113.075          34.000
E04  27135123.969 8 142596033.322 8     -2692.594          48.000    27135125.555 8 109261904.667 8     -2063.204          48.000
E09  21676886.062 8 113912785.069 8      -930.648          51.000    21676886.711 8  87283837.589 8      -713.076          51.000
E24  22624997.703 8 118895162.666 8      1986.668          51.000    22625010.172 8  91101584.134 8      1522.321          51.000
E31  23789197.500 8 125013113.478 8      -775.184          51.000    23789200.055 8  95789287.730 8      -593.912          51.000
> 2020 05 03 05 01  0.0000000  0 17        .000000000000
G05  22164548.430 8 116475473.240 8     -2964.723          51.000    22164546.133 8  90760100.627 8     -2310.173          51.000
G13  20269143.250 7 106515064.513 7       745.566          45.000    20269141.883 7  82998735.171 7       580.961          43.000
G15  21460953.734 4 112778072.758 4      2345.598          29.000
G28  20877776.805 8 109713523.006 8        22.590          51.000    20877775.117 7  85491059.259 7        17.602          47.000
G30  21846132.195 5 114802198.873 5     -2292.227          31.000    21846135.750 5  89456254.881 5     -1786.144          32.000
R04  19915435.352 8 106646249.589 8     -2365.031          49.000    19915439.484 7  82947091.791 7     -1839.472          45.000
R14  19963442.805 6 106416346.695 6     -2320.145          41.000    19963446.117 6  82768301.415 6     -1804.557          38.000
R15  19596419.211 8 104717442.001 8      1540.219          51.000    19596421.508 8  81446846.300 8      1197.948          48.000
C05  39776958.898 6 207129060.760 6        11.230          36.000    39776957.945 6 160165324.273 6         8.829          41.000
C14  22679944.898 8 118100433.435 8     -2342.238          48.000    22679945.250 8  91322725.842 8     -1811.104          51.000
C24  21841617.180 8 113735075.722 8      -511.918          51.000
C25  23595953.789 8 122870296.253 8      2315.637          51.000
E01  27448296.156 5 144241769.445 5     -2762.262          35.000    27448293.500 5 110522900.802 5     -2116.194          35.000
E04  27150511.078 8 142676891.913 8     -2698.012          48.000    27150511.617 7 109323861.199 7     -2067.338          47.000
E09  21682231.039 8 113940872.685 8      -942.160          51.000    21682231.492 8  87305359.237 8      -721.909          51.000
E24  22613687.211 8 118835727.229 8      1975.395          51.000    22613699.906 8  91056042.688 8      1513.605          51.000
E31  23793658.695 8 125036557.141 8      -787.984          51.000    23793661.289 8  95807251.040 8      -603.783          51.000
> 2020 05 03 05 01 30.0000000  0 15        .000000000000
G05  22181500.062 8 116564556.855 8     -2975.492          49.000    22181498.594 8  90829516.415 8     -2318.568          49.000
G13  20264917.172 7 106492857.256 7       733.457          46.000    20264916.109 7  82981430.823 7       571.525          42.000
G28  20877696.414 8 109713100.774 8         4.273          51.000    20877694.797 7  85490730.261 7         3.330          46.000
R04  19928737.969 8 106717479.812 8     -2385.012          51.000    19928740.742 7  83002493.037 7     -1855.012          44.000
R14  19976537.594 6 106486151.161 6     -2334.855          41.000    19976540.000 6  82822593.714 6     -1816.002          36.000
R15  19587823.375 8 104671506.488 8      1520.816          51.000    19587826.055 8  81411118.674 8      1182.857          49.000
C05  39776887.555 6 207128692.371 6        11.941          36.000    39776887.141 6 160165037.827 6         9.315          41.000
C14  22693467.906 8 118170847.324 8     -2353.473          50.000    22693467.516 8  91377174.316 8     -1819.752          51.000
C24  21844594.688 8 113750580.318 8      -523.012          51.000
C25  23582631.625 8 122800926.133 8      2307.750          49.000
E01  27464068.492 5 144324652.839 5     -2764.996          33.000    27464066.227 5 110586408.826 5     -2118.436          35.000
E04  27165921.195 8 142757879.105 8     -2701.883          48.000    27165923.023 7 109385912.906 7     -2070.193          47.000
E09  21687634.039 8 113969266.083 8      -952.133          51.000    21687634.758 8  87327115.179 8      -729.529          51.000
E24  22602433.969 8 118776590.504 8      1965.688          51.000    22602446.219 8  91010730.126 8      1506.179          51.000
E31  23798185.703 8 125060346.207 8      -799.250          51.000    23798187.977 8  95825478.998 8      -612.400          51.000
> 2020 05 03 05 02  0.0000000  0 15        .000000000000
G05  22198519.539 8 116653998.657 8     -2987.641          49.000    22198519.102 8  90899211.345 8     -2328.032          49.000
G13  20260767.227 7 106471049.790 7       719.969          46.000    20260766.398 7  82964437.965 7       561.015          42.000
G28  20877726.711 8 109713260.470 8       -15.430          51.000    20877724.961 7  85490854.694 7       -12.023          46.000
R04  19942159.188 8 106789345.630 8     -2406.414          51.000    19942160.531 6  83058388.588 6     -1871.658          41.000
R14  19989719.586 6 106556419.281 6     -2350.219          41.000    19989721.898 6  82877246.658 6     -1827.948          36.000
R15  19579343.188 8 104626188.756 8      1499.934          51.000    19579345.773 8  81375871.539 8      1166.612          48.000
C05  39776820.422 6 207128342.023 6        11.055          36.000    39776820.016 6 160164767.682 6         8.439          41.000
C14  22707062.359 8 118241632.858 8     -2366.031          50.000    22707061.242 8  91431910.136 8     -1829.584          51.000
C24  21847642.789 8 113766453.419 8      -535.590          51.000
C25  23569360.164 8 122731826.633 8      2298.605          48.000
E01                                                                  27479860.992 5 110650006.611 5     -2121.851          34.000
E04  27181358.469 7 142839002.380 7     -2707.309          46.000    27181359.258 7 109448070.343 7     -2074.560          45.000
E09  21693101.031 8 113997995.508 8      -963.648          51.000    21693101.992 8  87349128.617 8      -738.428          51.000
E24  22591243.703 8 118717783.277 8      1954.324          51.000    22591255.242 8  90965670.035 8      1497.493          51.000
E31  23802783.984 8 125084509.668 8      -812.027          51.000    23802786.172 8  95843993.842 8      -622.263          51.000
> 2020 05 03 05 02 30.0000000  0 16        .000000000000
G05  22215601.773 8 116743766.928 8     -2997.207          51.000    22215601.062 8  90969160.641 8     -2335.486          51.000
G13  20256688.102 7 106449613.805 7       708.891          46.000    20256687.094 7  82947734.592 7       552.382          43.000
G28  20877862.070 8 109713971.899 8       -32.367          51.000    20877859.984 7  85491409.058 7       -25.221          45.000
R04  19955693.211 8 106861815.289 8     -2425.176          51.000    19955693.383 7  83114753.787 7     -1886.248          42.000
R14  20002982.570 6 106627118.009 6     -2363.207          40.000    20002986.195 6  82932234.600 6     -1838.050          37.000
R15  19570972.734 8 104581458.603 8      1481.641          51.000    19570975.000 7  81341081.449 7      1152.387          47.000
C05  39776751.734 6 207127983.505 6        12.234          36.000    39776751.312 6 160164491.183 6         9.681          41.000
C14  22720722.195 8 118312759.318 8     -2376.082          51.000    22720720.312 8  91486909.593 8     -1837.337          51.000
C24  21850755.828 8 113782664.763 8      -545.535          51.000
C25  23556136.164 8 122662968.937 8      2291.730          50.000
C26  24077077.414 5 125375664.463 5     -2689.164          33.000
E01                                                                  27495671.898 5 110713670.342 5     -2122.911          33.000
E04  27196819.898 7 142920252.380 7     -2709.984          47.000    27196821.398 7 109510328.313 7     -2076.476          44.000
E09  21698626.258 8 114027031.514 8      -972.488          51.000    21698627.594 8  87371376.983 8      -745.186          51.000
E24  22580110.594 8 118659276.635 8      1945.680          51.000    22580121.938 8  90920840.286 8      1490.822          51.000
E31  23807447.578 8 125109016.908 8      -822.148          51.000    23807450.195 8  95862772.108 8      -629.988          51.000
> 2020 05 03 05 03  0.0000000  0 16        .000000000000
G05  22232748.281 8 116833869.576 8     -3008.602          51.000    22232746.328 8  91039370.457 8     -2344.368          51.000
G13  20252682.000 7 106428561.138 7       695.762          47.000    20252680.781 7  82931329.908 7       542.149          43.000
G28  20878104.359 8 109715245.467 8       -51.441          51.000    20878102.320 7  85492401.475 7       -40.084          45.000
R04  19969341.531 8 106934898.162 8     -2445.902          51.000    19969341.258 7  83171595.972 7     -1902.368          44.000
R14  20016328.016 7 106698255.170 7     -2378.043          42.000    20016331.477 6  82987563.471 6     -1849.592          36.000
R15  19562714.102 8 104537327.474 8      1461.504          51.000    19562716.203 8  81306757.250 8      1136.722          48.000
C05  39776683.570 6 207127628.854 6        12.289          36.000    39776683.227 6 160164216.565 6         9.331          41.000
C14  22734449.094 8 118384235.903 8     -2388.000          51.000    22734446.633 8  91542179.803 8     -1846.610          51.000
C24  21853935.867 8 113799223.949 8      -557.309          51.000
C25  23542961.867 8 122594364.216 8      2283.043          50.000
C26  24092582.109 5 125456405.281 5     -2692.309          33.000
E01                                                                  27511500.766 5 110777413.141 5     -2125.473          32.000
E04  27212305.680 7 143001631.156 7     -2714.570          44.000    27212309.406 7 109572691.426 7     -2080.031          44.000
E09  21704211.758 8 114056385.020 8      -983.332          51.000    21704213.438 8  87393868.626 8      -753.492          51.000
E24  22569036.641 8 118601082.011 8      1934.973          51.000    22569048.531 8  90876249.618 8      1482.644          51.000
E31  23812178.422 8 125133877.547 8      -834.211          51.000    23812181.258 8  95881821.157 8      -639.198          51.000
> 2020 05 03 05 03 30.0000000  0 17        .000000000000
G05  22249958.000 8 116924303.784 8     -3017.457          51.000    22249954.773 8  91109838.621 8     -2351.265          51.000
G13  20248749.102 7 106407892.937 7       684.945          47.000    20248747.609 7  82915224.806 7       533.724          45.000
G28  20878453.602 8 109717080.699 8       -68.078          51.000    20878450.977 7  85493831.537 7       -53.048          45.000
G30  21912011.602 5 115148414.304 5     -2322.488          32.000    21912011.867 5  89726044.892 5     -1809.731          34.000
R04  19983103.789 8 107008592.262 8     -2464.148          50.000    19983103.680 7  83228913.622 7     -1916.560          47.000
R14  20029754.711 6 106769827.514 6     -2390.301          40.000    20029756.227 6  83043230.799 6     -1859.123          36.000
R15  19554567.609 8 104493795.594 8      1443.570          51.000    19554570.117 8  81272899.110 8      1122.777          49.000
C05  39776615.953 6 207127277.293 6        14.238          36.000    39776615.539 6 160163943.894 6        10.977          41.000
C14  22748242.055 8 118456061.253 8     -2397.496          49.000    22748240.078 8  91597719.675 8     -1853.815          51.000
C24  21857182.219 8 113816129.960 8      -566.824          51.000
C25  23529835.547 8 122526013.099 8      2276.555          48.000
C26  24108107.773 5 125537254.295 5     -2694.340          33.000
E01                                                                  27527347.203 4 110841219.911 4     -2126.439          29.000
E04  27227817.242 7 143083142.930 7     -2716.668          45.000    27227820.742 7 109635148.197 7     -2081.618          44.000
E09  21709857.789 8 114086056.182 8      -991.797          51.000    21709859.766 8  87416603.666 8      -759.930          51.000
E24  22558022.125 8 118543200.135 8      1926.699          51.000    22558034.930 8  90831898.582 8      1476.314          51.000
E31  23816976.305 8 125159090.540 8      -843.793          51.000    23816979.023 8  95901140.182 8      -646.528          51.000
> 2020 05 03 05 04  0.0000000  0 16        .000000000000
G05  22267241.969 8 117015128.821 8     -3034.434          51.000    22267238.234 8  91180611.333 8     -2364.497          51.000
G13  20244901.266 7 106387672.097 7       666.098          46.000    20244899.578 7  82899468.305 7       519.037          45.000
G28  20878921.359 8 109719539.329 8       -92.926          50.000    20878918.734 7  85495747.373 7       -72.410          45.000
G30  21925317.023 5 115218310.964 5     -2334.840          35.000    21925315.297 5  89780503.343 5     -1819.377          32.000
R04  19996991.367 8 107082959.492 8     -2490.555          51.000    19996991.977 8  83286754.793 8     -1937.098          48.000
R14  20043274.719 7 106841895.004 7     -2410.859          42.000    20043277.117 6  83099283.287 6     -1875.113          39.000
R15  19546544.523 8 104450926.258 8      1417.434          51.000    19546548.070 8  81239556.318 8      1102.448          49.000
C05  39776560.562 6 207126988.185 6         7.883          36.000    39776560.109 6 160163720.685 6         6.382          41.000
C14  22762112.805 8 118528295.403 8     -2415.012          48.000    22762112.047 8  91653575.688 8     -1867.440          51.000
C24  21860507.008 8 113833443.258 8      -584.289          51.000
C25  23516769.539 8 122457977.544 8      2262.008          50.000
C26  24123665.820 5 125618271.604 5     -2703.273          32.000
E04  27243364.117 7 143164845.109 7     -2726.957          43.000    27243368.945 7 109697751.680 7     -2089.537          44.000
E09  21715576.469 8 114116107.136 8     -1008.461          51.000    21715578.508 8  87439629.725 8      -772.744          51.000
E24  22547078.977 8 118485693.705 8      1910.191          51.000    22547092.750 8  90787835.213 8      1463.665          51.000
E31  23821852.828 8 125184716.787 8      -861.527          51.000    23821855.656 8  95920775.872 8      -660.098          51.000
> 2020 05 03 05 04 30.0000000  0 15        .000000000000
G05  22284569.289 8 117106182.841 8     -3040.102          51.000    22284565.781 8  91251562.493 8     -2368.910          51.000
G13  20241108.578 7 106367740.689 7       658.449          47.000    20241106.930 7  82883937.318 7       513.077          46.000
G28  20879477.297 8 109722461.853 8      -106.324          50.000    20879475.141 7  85498024.704 7       -82.850          46.000
R04  20010974.422 8 107157835.749 8     -2505.457          51.000    20010974.883 8  83344991.879 8     -1948.689          48.000
R14  20056857.109 7 106914293.270 7     -2419.914          42.000    20056860.539 6  83155593.029 6     -1882.158          39.000
R15  19538615.945 8 104408557.704 8      1402.750          51.000    19538619.250 8  81206603.010 8      1091.028          48.000
C05  39776487.008 6 207126608.836 6        12.898          36.000    39776486.562 6 160163428.009 6        10.427          41.000
C14  22776031.594 8 118600779.247 8     -2421.570          48.000    22776031.992 8  91709624.774 8     -1872.364          51.000
C24  21863879.539 8 113851005.132 8      -590.672          51.000
C25  23503734.906 8 122390100.329 8      2258.766          51.000
C26  24139223.688 4 125699298.321 4     -2702.078          29.000
E04  27258919.031 7 143246580.781 7     -2726.316          46.000    27258924.875 7 109760380.273 7     -2088.993          47.000
E09  21721337.398 8 114146378.922 8     -1013.914          51.000    21721339.656 8  87462824.970 8      -776.871          51.000
E24  22536177.141 8 118428404.229 8      1904.949          51.000    22536191.453 8  90743938.071 8      1459.657          51.000
E31  23826777.562 8 125210596.107 8      -867.965          51.000    23826780.461 8  95940605.469 8      -665.094          51.000
> 2020 05 03 05 05  0.0000000  0 15        .000000000000
G05  22301959.992 8 117197571.618 8     -3052.344          51.000    22301957.281 8  91322774.519 8     -2378.450          51.000
G13  20237391.773 8 106348208.397 8       643.777          48.000    20237390.242 7  82868717.339 7       501.645          46.000
G28  20880142.188 8 109725956.135 8      -126.617          50.000    20880140.070 7  85500747.490 7       -98.666          46.000
G30  21952002.539 5 115358553.381 5     -2345.250          32.000    21952004.703 4  89889762.607 4     -1827.468          27.000
R04  20025072.852 8 107233329.609 8     -2527.359          51.000    20025072.836 7  83403709.310 7     -1965.727          47.000
R14  20070520.773 6 106987128.879 6     -2435.746          41.000    20070525.438 6  83212242.956 6     -1894.469          39.000
R15  19530801.445 8 104366800.403 8      1381.117          51.000    19530804.766 8  81174125.091 8      1074.199          49.000
C05                                                                  39776415.836 6 160163143.500 6         8.862          40.000
C14  22790019.422 8 118673618.724 8     -2434.430          48.000    22790020.117 8  91765948.865 8     -1882.477          51.000
C24  21867320.250 8 113868922.015 8      -603.688          51.000
C25  23490751.625 8 122322489.480 8      2248.652          51.000
E04  27274499.680 7 143328455.653 7     -2732.145          47.000    27274505.570 7 109823115.531 7     -2093.381          46.000
E09  21727160.711 8 114176980.094 8     -1026.145          51.000    21727163.406 8  87486272.576 8      -786.222          51.000
E24  22525337.484 8 118371440.815 8      1892.762          51.000    22525351.781 8  90700290.765 8      1450.271          51.000
E31  23831770.797 8 125236835.788 8      -881.285          51.000    23831773.523 8  95960711.186 8      -675.279          51.000
> 2020 05 03 05 05 30.0000000  0 16        .000000000000
G05  22319405.922 8 117289252.324 8     -3059.949          49.000    22319404.367 8  91394214.019 8     -2384.379          49.000
G13  20233743.422 8 106329035.880 8       634.156          48.000    20233741.984 7  82853777.697 7       494.148          46.000
G28  20880908.055 8 109729981.282 8      -141.977          50.000    20880906.461 8  85503883.974 8      -110.628          48.000
G30  21965403.172 5 115428972.362 5     -2348.043          34.000
R04  20039278.148 8 107309398.467 8     -2544.207          51.000    20039277.977 7  83462873.926 7     -1978.831          45.000
R14  20084258.672 6 107060358.070 6     -2446.652          40.000    20084263.766 6  83269198.995 6     -1902.949          39.000
R15  19523093.977 8 104325613.795 8      1364.395          51.000    19523097.586 8  81142091.067 8      1061.196          50.000
C05  39776340.508 6 207125838.657 6        14.504          36.000    39776340.328 6 160162836.854 6        11.182          41.000
C14  22804068.086 8 118746772.579 8     -2442.773          49.000    22804068.219 8  91822516.026 8     -1888.847          51.000
C24  21870821.523 8 113887153.017 8      -611.961          51.000
C25  23477811.266 8 122255105.610 8      2243.297          50.000
C26  24170379.352 5 125861490.419 5     -2707.500          31.000
E04  27290099.312 8 143410428.794 8     -2733.113          49.000    27290104.602 7 109885926.112 7     -2094.132          46.000
E09  21733039.039 8 114207870.522 8     -1033.535          51.000    21733041.586 8  87509941.832 8      -791.903          51.000
E24  22514552.523 8 118314763.864 8      1885.484          51.000    22514566.422 8  90656862.960 8      1444.761          51.000
E31  23836824.750 8 125263394.480 8      -889.566          51.000    23836827.422 8  95981061.347 8      -681.610          51.000
> 2020 05 03 05 06  0.0000000  0 16        .000000000000
G05  22336910.453 8 117381242.518 8     -3078.871          48.000    22336910.094 8  91465894.677 8     -2399.123          48.000
G13  20230167.602 8 106310244.905 8       612.547          49.000    20230166.156 7  82839135.370 7       477.309          46.000
G28  20881778.977 8 109734557.315 8      -169.207          51.000    20881777.500 8  85507449.698 8      -131.853          48.000
G30  21978832.844 5 115499560.103 5     -2362.801          31.000    21978828.945 5  89999642.873 5     -1841.140          30.000
R04  20053593.922 8 107386061.453 8     -2572.949          51.000    20053594.031 7  83522500.622 7     -2001.186          45.000
R14  20098073.492 7 107133998.581 7     -2469.055          42.000    20098077.484 6  83326474.930 6     -1920.376          37.000
R15  19515497.539 8 104285018.620 8      1335.727          51.000    19515500.188 8  81110517.026 8      1038.895          48.000
C05  39776264.414 6 207125444.377 6         6.043          36.000    39776263.266 6 160162530.320 6         4.579          41.000
C14  22818181.039 8 118820259.640 8     -2462.477          49.000    22818180.094 8  91879340.866 8     -1904.213          51.000
C24  21874386.742 8 113905717.449 8      -631.781          51.000
C25  23464918.180 8 122187969.614 8      2226.355          50.000
C26  24186016.266 5 125942800.385 5     -2719.375          32.000
E04  27305721.484 8 143492519.962 8     -2745.828          49.000    27305726.242 7 109948827.122 7     -2103.988          47.000
E09  21738976.344 8 114239070.824 8     -1052.652          51.000    21738978.219 8  87533848.537 8      -806.614          51.000
E24  22503826.281 8 118258394.569 8      1866.359          51.000    22503839.305 8  90613670.889 8      1430.065          51.000
E31  23841943.102 8 125290291.656 8      -909.715          51.000    23841946.078 8  96001670.860 8      -697.009          51.000
> 2020 05 03 05 06 30.0000000  0 15        .000000000000
G05  22354489.977 8 117473627.332 8     -3081.707          48.000    22354490.414 8  91537882.818 8     -2401.333          48.000
G13  20226681.266 8 106291924.229 8       607.188          49.000    20226679.539 7  82824859.516 7       473.133          46.000
G28  20882771.438 8 109739771.472 8      -180.215          51.000    20882769.703 8  85511512.660 8      -140.430          50.000
G30  21992317.141 6 115570414.064 6     -2362.309          37.000
R04  20068037.344 8 107463405.952 8     -2585.090          51.000    20068037.812 7  83582657.406 7     -2010.625          46.000
R14  20111981.227 6 107208136.136 6     -2475.176          40.000    20111983.586 6  83384137.414 6     -1925.140          38.000
R15  19508028.367 8 104245104.229 8      1323.496          50.000    19508030.016 8  81079472.479 8      1029.386          49.000
C05  39776202.430 6 207125123.370 6        13.629          36.000    39776202.078 6 160162282.618 6        10.487          41.000
C14  22832374.273 8 118894165.400 8     -2466.250          49.000    22832372.523 8  91936489.468 8     -1907.061          51.000
C24  21878032.445 8 113924701.193 8      -635.527          51.000
C25  23452089.586 8 122121168.833 8      2225.480          50.000
E04  27321382.281 8 143574816.183 8     -2742.352          48.000    27321385.891 7 110011885.209 7     -2101.261          45.000
E09  21744989.328 8 114270668.832 8     -1055.590          51.000    21744990.805 8  87558059.964 8      -808.862          51.000
E24  22493175.359 8 118202421.264 8      1863.441          51.000    22493187.547 8  90570782.231 8      1427.859          51.000
E31  23847142.336 8 125317613.848 8      -913.512          51.000    23847145.500 8  96022606.047 8      -699.967          51.000
> 2020 05 03 05 07  0.0000000  0 15        .000000000000
G05  22372117.930 8 117566263.993 8     -3093.117          49.000    22372117.992 8  91610067.173 8     -2410.221          49.000
G13  20223257.945 8 106273935.009 8       593.059          49.000    20223256.055 7  82810841.937 7       462.124          46.000
G28  20883858.523 8 109745483.088 8      -199.902          51.000    20883856.867 8  85515963.261 8      -155.768          50.000
G30  22005825.984 5 115641398.401 5     -2369.984          32.000    22005825.641 4  90110176.653 4     -1846.738          28.000
R04  20082581.211 8 107541287.196 8     -2606.082          50.000    20082582.211 8  83643231.688 8     -2026.956          48.000
R14  20125955.211 6 107282625.609 6     -2490.109          40.000    20125958.289 6  83442073.691 6     -1936.752          40.000
R15  19500659.734 8 104205728.090 8      1302.477          51.000    19500661.711 8  81048846.601 8      1013.037          50.000
C05  39776130.508 6 207124748.793 6        12.496          37.000    39776129.375 6 160161989.413 6         9.702          41.000
C14  22846620.625 8 118968349.601 8     -2478.637          48.000    22846618.656 8  91993853.375 8     -1916.542          51.000
C24  21881731.914 8 113943964.388 8      -647.848          51.000
C25  23439299.133 8 122054564.967 8      2215.660          50.000
E04  27337055.211 8 143657176.609 8     -2747.527          50.000    27337056.930 7 110074992.538 7     -2105.227          45.000
E09  21751051.234 8 114302524.541 8     -1067.305          51.000    21751053.211 8  87582468.845 8      -817.796          51.000
E24  22482572.922 8 118146704.504 8      1851.820          51.000    22482584.641 8  90528090.167 8      1418.876          51.000
E31  23852395.516 8 125345219.852 8      -926.074          51.000    23852398.492 8  96043758.695 8      -709.607          51.000
> 2020 05 03 05 07 30.0000000  0 15        .000000000000
G05  22389801.422 8 117659190.378 8     -3102.820          51.000    22389800.312 8  91682477.266 8     -2417.785          51.000
G13  20219905.781 8 106256319.342 8       580.461          50.000    20219903.891 7  82797115.428 7       452.307          47.000
G28  20885047.992 8 109751733.001 8      -217.820          51.000    20885046.375 8  85520833.313 8      -169.730          50.000
G30  22019371.219 5 115712568.655 5     -2375.508          32.000    22019372.930 5  90165634.050 5     -1851.045          30.000
R04  20097232.367 8 107619745.423 8     -2625.328          49.000    20097233.953 8  83704254.762 8     -2041.922          49.000
R14  20140001.984 6 107357505.276 6     -2502.988          40.000    20140006.648 6  83500313.478 6     -1946.769          40.000
R15  19493399.812 8 104166932.008 8      1283.059          51.000    19493401.836 8  81018671.851 8       997.934          49.000
C05  39776054.805 6 207124355.360 6        13.258          36.000    39776054.047 6 160161688.178 6        10.134          41.000
C14  22860927.203 7 119042851.374 7     -2489.223          47.000    22860925.898 8  92051462.830 8     -1924.755          51.000
C24  21885492.461 8 113963546.646 8      -658.477          51.000
C25  23426553.930 8 121988199.226 8      2207.781          48.000
E04  27352747.828 8 143739641.494 8     -2751.129          48.000    27352748.852 7 110138179.875 7     -2107.918          46.000
E09  21757169.859 8 114334679.090 8     -1077.273          51.000    21757172.672 8  87607106.709 8      -825.449          51.000
E24  22472026.875 8 118091285.914 8      1841.848          51.000    22472038.555 8  90485626.583 8      1411.262          51.000
E31  23857710.297 8 125373149.565 8      -936.867          51.000    23857713.094 8  96065159.380 8      -717.865          51.000
> 2020 05 03 05 08  0.0000000  0 15        .000000000000
G05  22407547.133 8 117752443.182 8     -3113.570          51.000    22407545.219 8  91755141.704 8     -2426.162          51.000
G13  20216632.414 8 106239117.561 8       566.734          50.000    20216630.383 7  82783711.454 7       441.611          47.000
G28  20886347.031 8 109758559.369 8      -236.984          51.000    20886345.281 8  85526152.555 8      -184.663          50.000
G30  22032954.203 5 115783955.237 5     -2382.301          35.000    22032958.609 5  90221256.789 5     -1856.335          35.000
R04  20111997.883 8 107698818.643 8     -2645.816          48.000    20112000.664 8  83765756.198 8     -2057.854          49.000
R14  20154129.805 7 107432812.298 7     -2517.203          42.000    20154132.430 6  83558885.574 6     -1957.828          39.000
R15  19486255.695 8 104128756.077 8      1262.480          50.000    19486257.609 8  80988979.452 8       981.929          49.000
C05  39775983.078 6 207123983.079 6        11.887          36.000    39775982.938 6 160161398.028 6         9.642          40.000
C14  22875301.750 7 119117708.149 7     -2500.848          46.000    22875301.227 8  92109346.795 8     -1933.693          51.000
C24  21889321.609 8 113983485.867 8      -670.391          51.000
C25  23413861.766 8 121922111.003 8      2198.613          50.000
E04  27368467.383 8 143822249.477 8     -2755.637          48.000    27368468.258 7 110201476.798 7     -2111.456          46.000
E09  21763352.898 8 114367171.823 8     -1088.402          51.000    21763356.258 8  87632003.717 8      -833.908          51.000
E24  22461544.867 8 118036205.406 8      1830.707          51.000    22461556.742 8  90443422.056 8      1402.770          51.000
E31  23863094.094 8 125401441.173 8      -948.773          51.000    23863097.023 8  96086837.345 8      -726.934          51.000
> 2020 05 03 05 08 30.0000000  0 15        .000000000000
G05  22425349.000 8 117845991.758 8     -3122.289          49.000    22425347.047 8  91828036.646 8     -2432.956          50.000
G13  20213432.484 8 106222302.317 8       554.914          50.000    20213430.477 8  82770608.653 8       432.401          48.000
G28  20887750.289 8 109765933.438 8      -254.086          51.000    20887748.555 8  85531898.577 8      -197.989          51.000
G30  22046571.805 5 115855510.815 5     -2387.637          35.000    22046572.227 5  90277037.030 5     -1860.499          34.000
R04  20126872.766 8 107778476.098 8     -2664.047          49.000    20126876.070 8  83827712.020 8     -2072.036          48.000
R14  20168331.477 6 107508514.811 6     -2528.961          41.000    20168334.727 7  83617765.272 7     -1966.970          42.000
R15  19479222.000 8 104091171.515 8      1243.906          50.000    19479224.352 8  80959747.024 8       967.486          49.000
C05  39775910.484 6 207123603.795 6        13.535          36.000    39775910.391 6 160161109.307 6        10.605          41.000
C14  22889739.148 7 119192890.413 7     -2510.656          45.000    22889738.750 8  92167482.462 8     -1941.350          49.000
C24  21893213.852 8 114003752.954 8      -680.164          51.000
C25  23401218.766 8 121856272.683 8      2191.234          51.000
E04  27384208.602 7 143904971.409 7     -2758.344          47.000    27384209.656 7 110264861.081 7     -2113.500          46.000
E09  21769595.117 8 114399974.560 8     -1097.676          51.000    21769598.617 8  87657138.277 8      -841.052          51.000
E24  22451121.727 8 117981435.286 8      1821.441          51.000    22451133.945 8  90401455.358 8      1395.617          51.000
E31  23868541.000 8 125430065.199 8      -958.766          51.000    23868544.250 8  96108770.047 8      -734.639          51.000
> 2020 05 03 05 09  0.0000000  0 14        .000000000000
G05  22443201.680 7 117939810.830 7     -3132.750          45.000    22443200.766 7  91901142.391 7     -2441.104          45.000
G13  20210302.008 8 106205852.139 8       541.184          50.000    20210300.281 8  82757790.323 8       421.702          48.000
G28  20889253.367 8 109773832.100 8      -273.027          51.000    20889251.773 8  85538053.374 8      -212.749          50.000
R04  20141853.125 8 107858692.849 8     -2684.250          51.000    20141856.109 7  83890102.803 7     -2087.753          47.000
R14  20182602.195 6 107584586.727 6     -2542.941          41.000    20182606.805 6  83676932.356 6     -1977.843          40.000
R15  19472294.484 8 104054155.301 8      1223.340          50.000    19472297.844 8  80930956.643 8       951.487          50.000
C05  39775833.227 6 207123191.371 6        13.102          36.000    39775832.352 6 160160792.797 6        10.052          41.000
C14  22904235.000 7 119268374.223 7     -2522.137          46.000    22904234.109 8  92225851.332 8     -1950.207          50.000
C24  21897164.250 8 114024324.504 8      -691.762          51.000
C25  23388619.906 8 121790662.425 8      2182.180          51.000
E04  27399967.078 7 143987784.079 7     -2762.836          47.000    27399969.180 8 110328314.845 8     -2116.972          48.000
E09  21775892.195 8 114433064.823 8     -1108.793          51.000    21775895.477 8  87682493.146 8      -849.559          51.000
E24  22440753.375 8 117926953.618 8      1810.305          51.000    22440766.258 8  90359709.659 8      1387.096          51.000
E31  23874046.789 8 125458997.957 8      -970.449          51.000    23874049.680 8  96130939.299 8      -743.651          51.000
> 2020 05 03 05 09 30.0000000  0 16        .000000000000
G05  22461113.805 7 118033946.969 7     -3136.020          43.000    22461114.727 7  91974495.265 7     -2443.649          44.000
G13  20207250.742 8 106189818.133 8       534.473          50.000    20207249.312 8  82745296.276 8       416.472          48.000
G28  20890865.570 8 109782304.454 8      -285.008          51.000    20890863.992 8  85544655.213 8      -222.084          49.000
G30  22073910.375 5 115999179.554 5     -2394.129          32.000
R04  20156947.031 8 107939517.713 8     -2697.098          51.000    20156949.078 7  83952966.553 7     -2097.746          45.000
R14  20196951.055 6 107661075.367 6     -2549.441          40.000    20196954.094 6  83736423.462 6     -1982.902          38.000
R15  19465482.742 8 104017757.827 8      1210.047          50.000    19465486.953 8  80902647.494 8       941.148          49.000
C05  39775759.180 6 207122807.135 6        19.516          36.000    39775758.906 6 160160495.656 6        15.088          41.000
C14  22918798.539 8 119344207.545 8     -2526.695          48.000    22918797.023 8  92284490.421 8     -1953.626          49.000
C24  21901182.453 8 114045248.861 8      -696.375          51.000
C25  23376073.352 8 121725330.120 8      2180.137          50.000
C26  24295870.172 5 126514884.181 5     -2727.555          30.000
E04  27415752.453 8 144070736.456 8     -2760.320          49.000    27415755.461 8 110391875.682 8     -2115.009          49.000
E09  21782253.414 8 114466492.486 8     -1112.789          51.000    21782256.453 8  87708106.523 8      -852.618          51.000
E24  22430449.820 8 117872810.796 8      1806.246          51.000    22430463.383 8  90318223.582 8      1383.977          51.000
E31  23879620.742 8 125488288.157 8      -975.281          51.000    23879623.109 8  96153382.409 8      -747.192          51.000
> 2020 05 03 05 10  0.0000000  0 16        .000000000000
G05  22479085.312 7 118128391.172 7     -3152.941          46.000    22479087.078 7  92048088.194 7     -2456.837          47.000
G13  20204277.688 8 106174194.782 8       514.105          50.000    20204276.477 8  82733122.212 8       400.602          49.000
G28  20892585.531 8 109791343.362 8      -310.473          51.000    20892584.070 8  85551698.521 8      -241.927          48.000
G30  22087633.516 5 116071311.944 5     -2407.699          32.000    22087639.906 5  90445186.342 5     -1876.132          33.000
R04  20172152.500 8 108020941.986 8     -2723.863          51.000    20172153.867 7  84016296.509 7     -2118.560          44.000
R14  20211376.055 6 107737971.189 6     -2569.812          39.000    20211379.523 6  83796231.297 6     -1998.743          40.000
R15  19458786.047 8 103981972.924 8      1182.918          51.000    19458790.109 8  80874814.761 8       920.047          48.000
C05  39775688.000 6 207122449.741 6        11.875          36.000    39775687.773 6 160160210.979 6         9.500          41.000
C14  22933428.109 8 119420382.474 8     -2544.730          50.000    22933425.859 8  92343393.683 8     -1967.644          51.000
C24  21905266.969 8 114066518.616 8      -714.480          51.000
C25  23363578.594 8 121660269.826 8      2164.445          51.000
C26  24311634.328 5 126596970.583 5     -2737.871          34.000
E04  27431563.070 7 144153821.448 7     -2771.512          47.000    27431566.375 8 110455538.142 8     -2123.686          48.000
E09  21788677.664 8 114500251.183 8     -1130.582          51.000    21788680.438 8  87733973.561 8      -866.296          51.000
E24  22420210.305 8 117819000.977 8      1788.340          51.000    22420223.984 8  90276992.665 8      1370.232          51.000
E31  23885261.031 8 125517928.153 8      -993.684          51.000    23885263.734 8  96176093.589 8      -761.379          51.000
> 2020 05 03 05 10 30.0000000  0 17        .000000000000
G05  22497109.117 8 118223104.545 8     -3161.656          48.000    22497110.469 8  92121890.814 8     -2463.628          48.000
G13  20201376.375 8 106158948.205 8       501.977          50.000    20201375.344 8  82721241.736 8       391.151          50.000
G28  20894406.453 8 109800913.184 8      -327.742          51.000    20894405.000 8  85559155.532 8      -255.384          48.000
G30  22101390.750 5 116143608.166 5     -2412.520          35.000    22101395.930 6  90501521.117 6     -1879.882          36.000
R04  20187462.500 8 108102928.072 8     -2742.250          49.000    20187464.070 7  84080063.413 7     -2132.861          45.000
R14  20225870.664 7 107815235.587 7     -2581.484          42.000    20225875.078 6  83856325.858 6     -2007.821          39.000
R15  19452197.344 8 103946764.618 8      1163.984          51.000    19452201.008 8  80847430.548 8       905.321          48.000
R16  23186933.438 6 123860441.055 6      3807.922          36.000    23186938.727 6  96335917.777 6      2961.720          36.000
C05  39775613.289 6 207122060.373 6        13.395          37.000    39775613.320 6 160159913.899 6        10.388          41.000
C14  22948116.430 8 119496862.615 8     -2554.348          50.000    22948113.555 8  92402532.950 8     -1975.150          51.000
C24  21909410.742 8 114088097.854 8      -724.445          51.000
C25  23351130.250 8 121595447.143 8      2156.801          51.000
C26  24327412.445 5 126679124.977 5     -2739.918          33.000
E04  27447392.742 8 144237003.141 8     -2774.238          49.000    27447395.602 8 110519274.688 8     -2125.670          49.000
E09  21795158.195 8 114534305.796 8     -1139.992          51.000    21795160.555 8  87760067.343 8      -873.486          51.000
E24  22410028.078 8 117765489.572 8      1778.844          51.000    22410041.258 8  90235990.406 8      1363.028          51.000
E31  23890961.031 8 125547881.673 8     -1003.527          51.000    23890963.938 8  96199044.999 8      -768.954          51.000
> 2020 05 03 05 11  0.0000000  0 16        .000000000000
G05  22515187.117 8 118318100.339 8     -3171.672          50.000    22515187.234 8  92195913.487 8     -2471.433          50.000
G13  20198549.672 8 106144093.269 8       488.176          51.000    20198548.680 8  82709666.451 8       380.397          50.000
G28  20896330.969 8 109811027.177 8      -346.660          51.000    20896329.305 8  85567036.569 8      -270.125          48.000
R04  20202879.219 8 108185488.053 8     -2762.086          48.000    20202881.789 7  84144276.699 7     -2148.289          44.000
R14  20240436.289 6 107892879.895 6     -2594.750          39.000    20240439.766 6  83916715.763 6     -2018.142          37.000
R15  19445719.273 8 103912146.752 8      1143.570          51.000    19445722.297 7  80820505.575 7       889.444          47.000
R16  23165570.297 6 123746324.320 6      3799.898          36.000    23165576.633 5  96247160.286 5      2955.477          35.000
C05  39775538.227 6 207121665.031 6        12.562          36.000    39775537.375 6 160159605.171 6         9.826          41.000
C14  22962865.523 8 119573660.338 8     -2565.738          51.000    22962862.195 8  92461917.800 8     -1983.976          51.000
C24  21913616.789 8 114109999.432 8      -735.898          51.000
C25  23338730.750 8 121530876.438 8      2147.648          51.000
C26  24343203.422 5 126761359.612 5     -2742.320          31.000
E04  27463243.305 7 144320294.729 7     -2778.801          46.000    27463245.953 8 110583095.437 8     -2129.076          50.000
E09  21801697.680 8 114568670.424 8     -1151.148          51.000    21801699.586 8  87786398.669 8      -882.073          51.000
E24  22399905.602 8 117712291.188 8      1767.543          51.000    22399917.859 8  90195228.011 8      1354.363          51.000
E31  23896723.273 8 125578161.619 8     -1015.195          51.000    23896725.570 8  96222246.504 8      -777.919          51.000
> 2020 05 03 05 11 30.0000000  0 16        .000000000000
G05  22533319.922 8 118413383.754 8     -3180.441          50.000    22533318.336 8  92270160.252 8     -2478.269          50.000
G13  20195799.445 8 106129640.089 8       475.488          51.000    20195798.414 8  82698404.224 8       370.510          50.000
G28  20898360.570 8 109821693.460 8      -364.309          51.000    20898358.938 8  85575347.996 8      -283.874          48.000
R04  20218404.422 8 108268629.033 8     -2780.520          49.000    20218407.750 7  84208941.886 7     -2162.626          44.000
R14  20255074.281 6 107970909.762 6     -2607.094          41.000    20255077.828 6  83977405.697 6     -2027.740          38.000
R15  19439353.664 8 103878128.619 8      1124.488          51.000    19439356.086 8  80794046.999 8       874.599          48.000
R16  23144251.555 6 123632440.108 6      3792.598          36.000    23144256.797 5  96158583.598 5      2949.792          35.000
C05  39775462.328 6 207121269.607 6        13.277          36.000    39775461.570 6 160159300.704 6        10.605          41.000
C14  22977676.461 8 119650783.058 8     -2575.699          49.000    22977673.203 8  92521553.947 8     -1991.646          51.000
C24  21917886.328 8 114132231.198 8      -746.102          51.000
C25  23326381.266 8 121466567.154 8      2139.809          51.000
C26  24359010.922 5 126843682.355 5     -2744.789          32.000
E04  27479116.211 7 144403704.484 7     -2781.754          45.000    27479118.344 8 110647006.755 8     -2131.507          48.000
E09  21808297.781 8 114603354.086 8     -1160.980          51.000    21808299.305 8  87812974.453 8      -889.564          51.000
E24  22389844.352 8 117659415.375 8      1757.605          51.000    22389855.375 8  90154712.776 8      1346.728          51.000
E31  23902548.898 8 125608775.759 8     -1025.582          51.000    23902550.945 8  96245704.090 8      -785.839          51.000
> 2020 05 03 05 12  0.0000000  0 16        .000000000000
G05  22551500.953 8 118508921.628 8     -3189.758          51.000    22551497.805 8  92344605.285 8     -2485.529          51.000
G13  20193120.047 8 106115559.173 8       462.160          51.000    20193118.938 8  82687432.073 8       360.125          50.000
G28  20900489.508 8 109832880.848 8      -382.523          51.000    20900487.867 7  85584065.459 7      -298.070          47.000
R04  20234032.312 8 108352317.780 8     -2799.719          49.000    20234035.555 7  84274033.069 7     -2177.562          44.000
R14  20269778.711 6 108049291.419 6     -2619.801          40.000    20269783.195 6  84038369.110 6     -2037.629          39.000
R15  19433094.234 8 103844679.000 8      1104.520          51.000    19433096.617 8  80768030.638 8       859.071          48.000
R16  23122971.898 6 123518759.414 6      3785.062          38.000    23122974.211 5  96070165.305 5      2943.938          33.000
C05  39775382.273 6 207120853.977 6        13.703          36.000    39775381.484 6 160158980.230 6        10.415          41.000
C14  22992543.383 8 119728198.968 8     -2586.289          49.000    22992540.445 8  92581416.824 8     -1999.967          51.000
C24  21922213.188 8 114154761.886 8      -756.973          51.000
C25  23314075.141 8 121402489.558 8      2131.074          50.000
C26  24374827.438 6 126926061.757 6     -2748.180          36.000
E04  27495004.258 6 144487201.101 6     -2785.617          41.000    27495007.242 7 110710984.736 7     -2134.524          47.000
E09  21814952.547 8 114638326.375 8     -1171.559          51.000    21814953.664 8  87839771.388 8      -897.718          51.000
E24  22379838.164 8 117606832.238 8      1746.887          51.000    22379848.367 8  90114421.807 8      1338.479          50.000
E31  23908432.094 8 125639692.482 8     -1036.562          51.000    23908434.531 8  96269393.540 8      -794.252          51.000
> 2020 05 03 05 12 30.0000000  0 17        .000000000000
G05  22569727.141 8 118604697.875 8     -3188.250          51.000    22569723.125 8  92419236.078 8     -2484.354          51.000
G13  20190509.195 8 106101838.771 8       459.602          51.000    20190508.078 8  82676740.838 8       358.131          51.000
G28  20902714.977 8 109844575.624 8      -389.891          51.000    20902713.320 8  85593178.294 8      -303.811          48.000
R04  20249760.305 8 108436539.220 8     -2807.832          49.000    20249763.031 7  84339538.566 7     -2183.872          44.000
R05  19410630.680 6 103760943.644 6      1273.305          36.000    19410630.953 5  80702952.298 5       990.348          31.000
R14  20284545.398 6 108128008.536 6     -2620.867          36.000    20284549.727 6  84099593.561 6     -2038.449          39.000
R15  19426938.766 8 103811784.484 8      1095.699          51.000    19426940.531 8  80742446.043 8       852.214          48.000
R16  23101728.070 6 123405271.282 6      3788.234          40.000    23101727.289 5  95981896.807 5      2946.405          33.000
C05  39775293.219 6 207120394.362 6        24.203          36.000    39775293.164 6 160158624.792 6        18.860          41.000
C14  23007463.625 8 119805893.736 8     -2586.305          48.000    23007461.422 8  92641495.314 8     -1999.792          51.000
C24  21926594.758 8 114177577.608 8      -756.934          51.000
C25  23301811.320 8 121338631.177 8      2133.223          49.000
C26  24390653.531 6 127008483.547 6     -2739.789          39.000
E04  27510903.742 6 144570770.901 6     -2778.473          38.000    27510910.242 7 110775018.797 7     -2128.918          47.000
E09  21821659.789 8 114673574.364 8     -1171.152          51.000    21821660.203 8  87866779.575 8      -897.356          51.000
E24  22369884.492 8 117554529.360 8      1747.113          51.000    22369894.805 8  90074345.580 8      1338.670          49.000
E31  23914370.414 8 125670897.678 8     -1036.527          51.000    23914372.859 8  96293304.012 8      -794.255          51.000
> 2020 05 03 05 13  0.0000000  0 18        .000000000000
G05  22588006.594 8 118700755.851 8     -3209.430          51.000    22588002.953 8  92494086.395 8     -2500.857          50.000
G13  20187975.844 8 106088525.669 8       434.203          51.000    20187974.672 8  82666366.971 8       338.340          51.000
G24  24154268.930 6 126931539.222 6      3177.711          36.000
G28  20905045.586 8 109856822.915 8      -420.270          51.000    20905043.898 8  85602721.644 8      -327.483          49.000
R04  20265596.617 8 108521337.804 8     -2839.039          50.000    20265598.141 7  84405493.014 7     -2208.141          43.000
R05  19403595.930 5 103723359.244 5      1238.418          35.000    19403601.898 5  80673719.946 5       963.214          31.000
R14  20299384.516 6 108207104.646 6     -2645.598          40.000    20299387.930 6  84161112.741 6     -2057.687          41.000
R15  19420895.547 8 103779491.603 8      1063.609          51.000    19420897.180 8  80717329.344 8       827.252          49.000
R16  23080528.688 6 123292023.803 6      3768.062          39.000    23080525.859 5  95893815.462 5      2930.715          33.000
C05  39775205.125 6 207119932.230 6        12.328          36.000    39775206.320 6 160158271.622 6         9.346          41.000
C14  23022445.742 8 119883911.090 8     -2608.695          48.000    23022444.477 8  92701823.279 8     -2017.275          51.000
C24  21931039.492 8 114200722.723 8      -779.758          51.000
C25  23289598.992 8 121275037.910 8      2112.617          49.000
C26  24406497.273 6 127090992.145 6     -2754.480          40.000
E04  27526827.836 7 144654459.145 7     -2794.590          43.000    27526835.422 7 110839143.496 7     -2141.234          46.000
E09  21828428.359 8 114709143.890 8     -1193.895          51.000    21828428.648 8  87894034.139 8      -914.793          51.000
E24  22359992.797 8 117502553.131 8      1724.242          51.000    22360003.328 8  90034519.640 8      1321.128          49.000
E31  23920371.891 8 125702435.997 8     -1059.715          51.000    23920374.188 8  96317469.733 8      -811.959          51.000
> 2020 05 03 05 13 30.0000000  0 17        .000000000000
G05  22606349.891 8 118797151.749 8     -3217.219          49.000    22606347.586 8  92569200.051 8     -2506.924          49.000
G13  20185531.445 8 106075679.984 8       421.914          51.000    20185530.039 8  82656357.332 8       328.764          50.000
G28  20907492.219 8 109869680.629 8      -437.211          51.000    20907490.617 8  85612740.660 8      -340.684          49.000
R04  20281551.133 8 108606771.459 8     -2856.738          49.000    20281552.055 7  84471941.408 7     -2221.908          44.000
R05  19396705.203 5 103686530.268 5      1216.793          35.000    19396710.859 5  80645075.159 5       946.391          32.000
R14  20314304.172 6 108286636.431 6     -2656.566          38.000    20314307.961 6  84222970.815 6     -2066.215          41.000
R15  19414975.969 8 103747859.970 8      1044.934          51.000    19414978.508 8  80692726.959 8       812.726          51.000
R16  23059384.828 6 123179078.622 6      3761.461          37.000    23059381.805 5  95805969.267 5      2925.584          34.000
C05  39775132.039 6 207119551.937 6        13.598          36.000    39775130.898 6 160157971.793 6        10.454          41.000
C14  23037500.812 8 119962307.911 8     -2617.973          48.000    23037500.461 8  92762444.660 8     -2024.337          51.000
C24  21935558.578 8 114224254.499 8      -789.246          51.000
C25  23277448.383 8 121211768.527 8      2105.164          49.000
C26  24422369.281 6 127173644.682 6     -2756.293          37.000
E04  27542787.555 7 144738323.694 7     -2796.754          47.000    27542793.789 7 110903403.365 7     -2143.072          44.000
E09  21835269.227 8 114745093.852 8     -1203.102          51.000    21835270.133 8  87921580.177 8      -921.869          51.000
E24  22350175.109 8 117450962.908 8      1714.742          51.000    22350185.469 8  89994989.487 8      1313.920          49.000
E31  23926447.680 8 125734365.085 8     -1069.207          51.000    23926450.148 8  96341934.888 8      -819.227          51.000
> 2020 05 03 05 14  0.0000000  0 17        .000000000000
G05  22624743.062 8 118893812.399 8     -3226.859          48.000    22624742.352 8  92644520.023 8     -2514.439          48.000
G13  20183162.875 8 106063232.809 8       407.992          51.000    20183161.250 8  82646658.219 8       317.913          50.000
G28  20910041.586 8 109883077.934 8      -455.828          51.000    20910039.930 8  85623180.104 8      -355.191          49.000
R04  20297609.883 8 108692766.559 8     -2876.180          48.000    20297610.828 7  84538826.458 7     -2237.029          44.000
R05  19389944.336 6 103650387.689 6      1193.055          39.000    19389949.500 5  80616964.246 5       927.934          32.000
R14  20329292.359 6 108366529.708 6     -2669.297          38.000    20329295.531 6  84285110.062 6     -2076.120          41.000
R15  19409166.883 8 103716818.112 8      1024.598          51.000    19409170.164 8  80668583.285 8       796.909          50.000
R16  23038284.047 6 123066366.791 6      3752.746          36.000    23038282.336 5  95718304.510 5      2918.803          34.000
C05  39775055.414 6 207119150.060 6        13.625          36.000    39775054.852 6 160157665.692 6        10.013          41.000
C14  23052615.289 8 120041013.198 8     -2628.879          49.000    23052615.367 8  92823304.561 8     -2032.858          51.000
C24  21940138.383 8 114248102.459 8      -800.422          51.000
C25  23265346.672 8 121148754.056 8      2096.039          50.000
C26  24438255.500 4 127256370.558 4     -2759.875          29.000
E04  27558767.594 7 144822293.814 7     -2800.953          47.000    27558772.547 7 110967744.071 7     -2146.290          44.000
E09  21842169.195 8 114781354.202 8     -1214.113          51.000    21842170.672 8  87949364.048 8      -930.292          51.000
E24  22340418.156 8 117399689.173 8      1703.609          51.000    22340428.344 8  89955701.837 8      1305.381          50.000
E31  23932584.422 8 125766613.764 8     -1080.539          51.000    23932587.148 8  96366644.905 8      -827.943          51.000
> 2020 05 03 05 14 30.0000000  0 16        .000000000000
G05  22643209.266 7 118990856.967 7     -3233.660          47.000    22643209.672 7  92720139.167 7     -2519.735          47.000
G13  20180893.352 8 106051306.098 8       396.324          51.000    20180891.516 8  82637364.674 8       308.824          51.000
G28  20912716.648 8 109897135.639 8      -472.117          51.000    20912714.953 8  85634134.158 8      -367.884          49.000
R04  20313796.773 8 108779444.827 8     -2893.039          50.000    20313797.398 7  84606242.844 7     -2250.145          44.000
R05  19383335.859 6 103615058.217 6      1171.289          39.000    19383341.320 5  80589485.733 5       911.003          33.000
R14  20344371.227 6 108446904.627 6     -2679.473          36.000    20344373.680 6  84347623.883 6     -2084.034          41.000
R15  19403490.742 8 103686489.311 8      1006.680          51.000    19403494.656 8  80644994.181 8       782.970          50.000
R16  23017250.508 6 122954013.394 6      3746.898          37.000    23017250.328 5  95630918.478 5      2914.254          34.000
C05  39775001.492 6 207118869.206 6        15.242          36.000    39775000.930 6 160157448.464 6        11.659          41.000
C14  23067812.102 8 120120145.761 8     -2637.473          50.000    23067811.719 8  92884494.848 8     -2039.407          51.000
C24  21944801.820 8 114272385.971 8      -809.301          51.000
C25  23253317.414 8 121086115.314 8      2089.113          49.000
E04  27574790.430 7 144906490.310 7     -2802.832          47.000    27574794.000 7 111032258.165 7     -2147.553          44.000
E09  21849151.469 8 114818046.477 8     -1222.715          51.000    21849153.172 8  87977478.892 8      -936.897          51.000
E24  22330745.016 8 117348854.005 8      1694.723          51.000    22330755.148 8  89916750.227 8      1298.530          51.000
E31  23938804.766 8 125799302.364 8     -1089.371          51.000    23938807.586 8  96391692.016 8      -834.707          51.000
> 2020 05 03 05 15  0.0000000  0 18        .000000000000
G05  22661691.398 7 119087984.658 7     -3242.711          46.000    22661692.406 7  92795823.080 7     -2526.785          46.000
G13  20178666.422 8 106039603.532 8       382.469          51.000    20178664.383 8  82628245.785 8       298.028          51.000
G15  21110760.891 4 110937796.905 4      2028.117          29.000
G28  20915460.477 8 109911554.930 8      -490.605          51.000    20915459.008 8  85645369.964 8      -382.290          50.000
R04  20330054.195 8 108866500.450 8     -2912.027          51.000    20330055.102 7  84673952.719 7     -2264.913          45.000
R05  19376822.430 6 103580240.941 6      1147.883          39.000    19376827.102 5  80562405.630 5       892.795          35.000
R14  20359481.828 6 108527456.224 6     -2691.980          38.000    20359485.336 6  84410275.130 6     -2093.763          41.000
R15  19397891.383 8 103656570.558 8       986.512          51.000    19397895.750 8  80621724.050 8       767.287          50.000
R16  22996228.516 6 122841717.636 6      3738.203          39.000    22996229.016 5  95543577.318 5      2907.488          35.000
C05  39774913.016 6 207118409.310 6        14.613          37.000    39774912.391 6 160157092.074 6        10.977          41.000
C14  23083034.094 8 120199409.003 8     -2648.121          51.000    23083032.391 8  92945786.198 8     -2047.695          50.000
C24  21949492.250 8 114296808.893 8      -820.250          51.000
C25  23241304.031 8 121023557.687 8      2080.055          49.000
C26  24470066.867 5 127422050.367 5     -2762.477          35.000
E04  27590799.508 7 144990614.550 7     -2806.832          46.000    27590800.531 7 111096716.961 7     -2150.827          42.000
E09  21856159.242 8 114854872.911 8     -1233.723          51.000    21856161.484 8  88005696.535 8      -945.314          51.000
E24  22321098.953 8 117298160.153 8      1683.496          51.000    22321109.328 8  89877906.894 8      1289.946          51.000
E31  23945051.930 8 125832131.930 8     -1100.656          51.000    23945054.742 8  96416847.146 8      -843.306          51.000
> 2020 05 03 05 15 30.0000000  0 18        .000000000000
G05  22680227.055 7 119185391.131 7     -3250.828          47.000    22680228.109 7  92871724.228 7     -2533.113          47.000
G13  20176520.109 8 106028324.627 8       369.531          51.000    20176518.016 8  82619457.016 8       287.943          51.000
G24  24063828.125 6 126456285.753 6      3159.988          37.000
G28  20918310.891 8 109926533.501 8      -507.984          51.000    20918309.266 8  85657041.585 8      -395.832          49.000
R04  20346419.531 8 108954133.790 8     -2930.078          51.000    20346421.070 7  84742111.921 7     -2278.953          46.000
R05  19370443.555 6 103546140.565 6      1125.207          38.000    19370448.289 5  80535883.086 5       875.158          34.000
R14  20374663.250 6 108608382.971 6     -2702.949          38.000    20374667.633 6  84473218.164 6     -2102.294          40.000
R15  19392407.273 8 103627263.363 8       967.336          51.000    19392411.383 8  80598929.570 8       752.372          50.000
R16  22975255.492 6 122729682.799 6      3730.586          41.000    22975256.562 6  95456439.118 6      2901.567          36.000
C05  39774827.711 6 207117965.139 6        15.160          36.000    39774827.180 6 160156748.568 6        11.641          41.000
C14  23098318.414 8 120278998.010 8     -2657.715          51.000    23098315.539 8  93007329.415 8     -2055.150          48.000
C24  21954247.016 8 114321566.876 8      -830.188          51.000
C25  23229343.992 8 120961278.411 8      2071.883          50.000
C26  24485996.961 6 127504957.308 6     -2764.406          37.000
E04  27606832.547 7 145074864.392 7     -2809.883          44.000    27606831.742 7 111161271.990 7     -2152.994          43.000
E09  21863230.242 8 114892032.036 8     -1243.617          51.000    21863233.250 8  88034169.092 8      -952.895          51.000
E24  22311517.469 8 117247806.642 8      1673.410          51.000    22311528.359 8  89839324.341 8      1282.175          51.000
E31  23951363.625 8 125865299.838 8     -1110.641          51.000    23951366.484 8  96442261.511 8      -851.022          51.000
> 2020 05 03 05 16  0.0000000  0 18        .000000000000
G05  22698806.602 8 119283025.923 8     -3258.059          48.000    22698807.352 8  92947803.276 8     -2538.747          48.000
G13  20174445.594 8 106017422.664 8       357.391          51.000    20174443.484 8  82610961.976 8       278.486          51.000
G24  24045794.180 6 126361524.057 6      3157.465          36.000
G28  20921258.461 8 109942022.923 8      -524.516          51.000    20921256.719 8  85669111.265 8      -408.713          50.000
R04  20362883.664 8 109042293.911 8     -2947.145          51.000    20362885.273 7  84810680.871 7     -2292.224          47.000
R05  19364190.430 6 103512711.117 6      1103.492          40.000    19364194.812 6  80509882.407 6       858.272          36.000
R14  20389906.070 5 108689633.300 5     -2713.266          35.000    20389909.648 6  84536412.911 6     -2110.318          37.000
R15  19387028.172 8 103598518.966 8       949.012          51.000    19387032.148 8  80576572.804 8       738.120          50.000
R16  22954322.922 6 122617862.846 6      3724.141          41.000    22954323.969 6  95369468.019 6      2896.554          37.000
C05  39774736.500 6 207117489.506 6        16.617          37.000    39774736.094 6 160156381.535 6        12.780          41.000
C14  23113655.359 8 120358863.911 8     -2666.391          48.000    23113652.211 8  93069086.747 8     -2061.961          50.000
C24  21959056.734 8 114346611.594 8      -839.316          51.000
C25  23217428.414 8 120899230.584 8      2064.727          50.000
C26  24501934.391 5 127587907.811 5     -2765.520          34.000
E04  27622879.961 7 145159191.359 7     -2812.070          45.000    27622878.703 7 111225886.033 7     -2154.631          45.000
E09  21870355.578 8 114929476.142 8     -1252.609          51.000    21870359.117 8  88062860.015 8      -959.866          51.000
E24  22301991.516 8 117197746.291 8      1664.043          51.000    22302002.742 8  89800966.416 8      1275.007          51.000
E31  23957730.336 8 125898757.169 8     -1119.879          51.000    23957733.242 8  96467897.640 8      -858.062          51.000
> 2020 05 03 05 16 30.0000000  0 18        .000000000000
G05  22717456.680 8 119381030.416 8     -3269.402          48.000    22717456.727 8  93024170.385 8     -2547.586          48.000
G13  20172470.414 8 106007042.629 8       340.875          51.000    20172468.219 8  82602873.635 8       265.617          51.000
G24  24027806.250 5 126266999.851 5      3150.176          35.000
G28  20924330.391 8 109958166.035 8      -545.336          51.000    20924328.820 8  85681690.327 8      -424.937          50.000
R04  20379472.859 8 109131124.975 8     -2968.598          50.000    20379474.359 8  84879771.659 8     -2308.912          48.000
R05  19358089.891 6 103480101.026 6      1077.117          39.000    19358094.922 6  80484518.992 6       837.758          37.000
R14  20405236.805 6 108771350.108 6     -2727.738          36.000    20405237.477 6  84599970.370 6     -2121.580          36.000
R15  19381781.820 8 103570482.935 8       926.332          51.000    19381785.391 8  80554766.977 8       720.480          50.000
R16  22933457.602 7 122506405.203 7      3712.828          42.000    22933458.992 6  95282778.707 6      2887.755          37.000
C05  39774666.961 6 207117126.876 6        13.848          37.000    39774666.516 6 160156101.086 6        10.681          41.000
C14  23129072.062 7 120439147.531 7     -2679.574          47.000    23129069.969 8  93131167.068 8     -2072.023          51.000
C24  21963948.875 8 114372084.387 8      -852.594          51.000
C25  23205584.992 8 120837556.984 8      2053.105          50.000
C26  24517905.656 5 127671043.121 5     -2770.445          34.000
E04  27638969.008 7 145243738.259 7     -2818.297          45.000    27638967.344 7 111290668.621 7     -2159.501          44.000
E09  21877562.781 8 114967348.916 8     -1265.980          51.000    21877566.453 8  88091879.382 8      -970.040          51.000
E24  22292548.406 8 117148123.279 8      1650.363          51.000    22292559.883 8  89762943.584 8      1264.600          51.000
E31  23964179.172 8 125932646.402 8     -1133.246          51.000    23964181.883 8  96493864.719 8      -868.370          51.000
> 2020 05 03 05 17  0.0000000  0 17        .000000000000
G05  22736158.336 8 119479305.981 8     -3283.918          48.000    22736156.945 8  93100748.704 8     -2558.900          48.000
G13  20170576.469 8 105997089.836 8       321.172          51.000    20170574.219 8  82595118.210 8       250.264          51.000
G28  20927508.406 8 109974866.577 8      -569.438          51.000    20927506.828 8  85694703.740 8      -443.718          50.000
R04  20396168.188 8 109220527.467 8     -2993.137          48.000    20396169.781 8  84949306.926 8     -2327.995          49.000
R05  19352125.148 6 103448215.961 6      1047.152          41.000    19352129.336 6  80459719.479 6       814.452          37.000
R14  20420635.961 5 108853433.624 5     -2745.492          33.000    20420638.117 6  84663813.046 6     -2135.377          39.000
R15  19376649.734 8 103543058.177 8       900.445          51.000    19376652.828 8  80533436.619 8       700.349          49.000
R16  22912641.797 7 122395214.975 7      3698.289          42.000    22912643.953 6  95196297.412 6      2876.447          37.000
C05  39774600.891 6 207116782.871 6         7.469          37.000    39774600.312 6 160155834.264 6         6.144          41.000
C14  23144550.781 8 120519752.772 8     -2695.602          48.000    23144549.844 8  93193496.153 8     -2084.377          51.000
C24  21968904.719 8 114397889.744 8      -869.148          51.000
C25  23193795.258 8 120776163.637 8      2038.336          49.000
C26  24533891.539 5 127754267.857 5     -2779.195          35.000
E04  27655081.219 7 145328409.076 7     -2827.812          44.000    27655079.039 7 111355546.158 7     -2166.852          43.000
E09  21884833.594 8 115005555.028 8     -1282.570          51.000    21884836.961 8  88121154.167 8      -982.737          51.000
E24  22283170.109 8 117098842.826 8      1633.520          51.000    22283182.016 8  89725183.234 8      1251.643          51.000
E31  23970691.992 8 125966871.091 8     -1149.953          51.000    23970694.398 8  96520088.821 8      -881.079          51.000
> 2020 05 03 05 17 30.0000000  0 18        .000000000000
G05  22754891.328 8 119577745.902 8     -3285.043          48.000    22754887.688 8  93177455.072 8     -2559.777          48.000
G13  20168744.242 8 105987461.507 8       314.523          51.000    20168742.164 8  82587615.604 8       245.083          51.000
G28  20930772.484 8 109992019.289 8      -580.305          51.000    20930770.961 8  85708069.496 8      -452.185          50.000
G30  22297504.039 6 117174164.733 6     -2492.336          37.000    22297503.414 6  91304538.487 6     -1942.077          37.000
R04  20412949.133 7 109310393.031 7     -3004.324          47.000    20412951.523 8  85019202.399 8     -2336.694          48.000
R05  19346277.422 7 103416952.338 7      1030.789          42.000    19346280.656 6  80435403.330 6       801.725          37.000
R14  20436081.602 6 108935811.151 6     -2750.227          36.000    20436087.352 6  84727880.565 6     -2139.068          36.000
R15  19371612.211 8 103516138.480 8       887.891          51.000    19371614.766 8  80512499.090 8       690.582          49.000
R16  22891856.938 6 122284188.274 6      3696.973          41.000    22891859.516 6  95109943.315 6      2875.426          37.000
C05  39774518.289 6 207116352.441 6        14.918          37.000    39774517.750 6 160155501.439 6        11.415          41.000
C14  23160071.797 8 120600574.995 8     -2698.711          49.000    23160071.406 8  93255993.011 8     -2086.754          51.000
C24  21973904.156 8 114423923.544 8      -872.586          51.000
C25  23182039.391 8 120714947.845 8      2036.602          49.000
C26  24549872.656 6 127837477.693 6     -2774.473          36.000
E04  27671196.203 7 145413099.038 7     -2824.512          43.000    27671194.008 7 111420438.346 7     -2164.048          42.000
E09  21892148.000 8 115043990.463 8     -1285.980          51.000    21892151.102 8  88150604.652 8      -985.332          51.000
E24  22273837.156 8 117049801.360 8      1629.719          51.000    22273849.828 8  89687606.006 8      1248.740          51.000
E31  23977248.594 8 126001326.005 8     -1153.383          51.000    23977250.984 8  96546489.338 8      -883.692          51.000
> 2020 05 03 05 18  0.0000000  0 18        .000000000000
G05  22773677.047 8 119676462.541 8     -3296.113          48.000    22773672.094 8  93254377.080 8     -2568.400          48.000
G13  20166995.891 8 105978273.740 8       297.887          51.000    20166994.008 8  82580456.299 8       232.120          51.000
G17  24590509.250 6 129223996.156 6      2820.617          37.000    24590505.984 6 100694012.082 6      2197.884          36.000
G28  20934144.383 8 110009738.404 8      -600.996          51.000    20934143.125 8  85721876.603 8      -468.309          50.000
R04  20429838.523 8 109400836.710 8     -3025.352          49.000    20429840.945 8  85089547.518 8     -2353.051          48.000
R05  19340567.227 6 103386429.564 6      1004.051          40.000    19340570.688 6  80411663.401 6       780.925          38.000
R14  20451596.367 5 109018524.866 5     -2763.973          35.000    20451600.023 6  84792213.290 6     -2149.763          36.000
R15  19366690.969 8 103489840.486 8       865.281          51.000    19366693.711 8  80492045.107 8       672.997          50.000
R16  22871125.148 7 122173443.477 7      3685.855          42.000    22871127.789 6  95023808.483 6      2866.776          37.000
C05  39774441.156 6 207115951.649 6        12.070          36.000    39774440.594 6 160155190.743 6         9.173          41.000
C14  23175656.625 8 120681726.500 8     -2711.426          49.000    23175655.742 8  93318744.522 8     -2096.680          51.000
C24  21978969.273 8 114450298.664 8      -885.797          51.000
C25  23170339.867 8 120654024.065 8      2025.004          50.000
C26  24565871.734 6 127920785.643 6     -2779.781          37.000
E04  27687336.453 7 145497922.290 7     -2830.801          44.000    27687335.039 7 111485432.719 7     -2168.953          42.000
E09  21899527.852 8 115082770.197 8     -1299.359          51.000    21899530.984 8  88180318.941 8      -995.607          51.000
E24  22264571.805 8 117001114.370 8      1616.031          51.000    22264585.398 8  89650300.398 8      1238.228          51.000
E31  23983870.586 8 126036124.948 8     -1166.707          51.000    23983873.141 8  96573153.459 8      -893.946          51.000
> 2020 05 03 05 18 30.0000000  0 19        .000000000000
G05  22792500.133 8 119775374.900 8     -3300.113          49.000    22792495.242 8  93331451.608 8     -2571.517          49.000
G13  20165316.789 8 105969449.296 8       288.203          51.000    20165314.914 8  82573580.101 8       224.574          51.000
G17  24574396.758 5 129139328.523 5      2821.840          35.000    24574394.469 5 100628037.353 5      2198.839          35.000
G28  20937609.023 8 110027944.757 8      -614.832          51.000    20937607.750 8  85736063.371 8      -479.087          50.000
G30  22326034.492 5 117324093.707 5     -2503.418          33.000    22326033.234 5  91421369.930 5     -1950.715          33.000
R04  20446820.922 8 109491776.636 8     -3039.441          50.000    20446823.273 7  85160278.550 7     -2364.010          46.000
R05  19334981.578 7 103356570.636 7       984.465          43.000    19334984.664 6  80388439.768 6       765.695          38.000
R14  20467168.531 5 109101527.779 5     -2771.094          35.000    20467173.984 6  84856771.226 6     -2155.292          37.000
R15  19361870.930 8 103464084.418 8       849.664          51.000    19361873.938 8  80472012.614 8       660.850          50.000
R16  22850431.938 7 122062903.459 7      3681.414          42.000    22850434.719 6  94937832.918 6      2863.322          38.000
C05  39774354.688 6 207115501.298 6        16.062          36.000    39774354.148 6 160154842.475 6        12.227          40.000
C14  23191289.320 7 120763128.420 7     -2717.492          47.000    23191288.133 8  93381689.611 8     -2101.313          51.000
C24  21984084.953 8 114476936.692 8      -892.176          51.000
C25  23158681.914 8 120593315.262 8      2020.238          50.000
C26  24581873.219 5 128004113.182 5     -2778.094          35.000
E04  27703487.719 7 145582800.040 7     -2830.059          44.000    27703488.047 7 111550468.828 7     -2168.474          43.000
E09  21906958.305 8 115121816.088 8     -1305.836          51.000    21906961.328 8  88210237.184 8     -1000.570          51.000
E24  22255359.594 8 116952704.275 8      1609.258          51.000    22255373.594 8  89613206.947 8      1233.029          51.000
E31  23990543.023 8 126071188.656 8     -1173.070          51.000    23990545.617 8  96600020.452 8      -898.876          51.000
> 2020 05 03 05 19  0.0000000  0 19        .000000000000
G05  22811372.344 8 119874545.707 8     -3309.117          48.000    22811368.133 8  93408727.525 8     -2578.533          48.000
G13  20163719.469 8 105961054.402 8       273.562          51.000    20163717.531 8  82567038.623 8       213.166          51.000
G17  24558305.055 5 129054736.819 5      2817.105          33.000    24558303.289 5 100562138.519 5      2195.147          31.000
G28  20941178.617 8 110046702.917 8      -633.523          51.000    20941177.281 8  85750680.121 8      -493.655          49.000
G30  22340346.852 6 117399298.094 6     -2508.938          37.000    22340347.523 6  91479970.705 6     -1955.013          36.000
R04  20463908.133 8 109583276.938 8     -3058.465          51.000    20463910.328 7  85231445.428 7     -2378.809          46.000
R05  19329533.258 7 103327444.381 7       959.621          43.000    19329535.539 6  80365786.026 6       746.372          38.000
R14  20482807.125 6 109184884.084 6     -2783.207          39.000    20482812.969 6  84921603.841 6     -2164.720          36.000
R15  19357164.969 8 103438936.201 8       829.121          51.000    19357167.641 8  80452452.891 8       644.872          49.000
R16  22829789.734 7 121952636.137 7      3671.926          42.000    22829793.211 6  94852069.433 6      2855.942          39.000
C05  39774271.266 6 207115066.956 6        15.355          36.000    39774270.766 6 160154506.605 6        11.662          40.000
C14  23206981.391 7 120844843.614 7     -2728.234          46.000    23206980.508 8  93444876.936 8     -2109.574          50.000
C24  21989263.094 8 114503901.145 8      -903.379          51.000
C25  23147077.695 8 120532886.480 8      2010.453          50.000
C26  24597890.188 5 128087523.859 5     -2780.977          35.000
E04  27719662.250 7 145667796.718 7     -2834.133          46.000    27719664.336 7 111615596.055 7     -2171.650          43.000
E09  21914451.617 8 115161193.308 8     -1317.152          51.000    21914454.414 8  88240409.312 8     -1009.268          51.000
E24  22246212.945 8 116904636.727 8      1597.449          51.000    22246226.820 8  89576375.961 8      1224.023          51.000
E31  23997278.070 8 126106581.115 8     -1184.332          51.000    23997280.617 8  96627139.349 8      -907.424          51.000
> 2020 05 03 05 19 30.0000000  0 19        .000000000000
G05  22830289.789 7 119973954.607 7     -3317.633          47.000    22830286.180 7  93486188.968 7     -2585.171          47.000
G13  20162200.758 8 105953072.850 8       259.121          51.000    20162198.844 8  82560819.234 8       201.913          51.000
G17  24542230.492 5 128970272.531 5      2814.289          32.000    24542232.375 4 100496317.160 4      2192.959          28.000
G28  20944849.672 8 110065994.483 8      -651.957          51.000    20944848.312 8  85765712.506 8      -508.018          49.000
G30  22354688.992 6 117474665.107 6     -2515.109          39.000    22354687.344 6  91538698.192 6     -1959.822          38.000
R04  20481096.523 8 109675317.467 8     -3077.059          51.000    20481098.297 7  85303032.473 7     -2393.271          45.000
R05  19324218.680 7 103299035.217 7       934.934          44.000    19324221.234 6  80343689.971 6       727.168          39.000
R14  20498507.023 6 109268572.503 6     -2795.027          37.000    20498510.484 5  84986694.771 5     -2173.916          35.000
R15  19352569.055 8 103414377.439 8       808.730          51.000    19352571.430 8  80433351.630 8       629.013          50.000
R16  22809195.992 7 121842625.715 7      3662.723          43.000    22809199.828 6  94766505.739 6      2848.784          40.000
C05  39774187.781 6 207114631.568 6        14.516          37.000    39774187.258 6 160154169.909 6        11.354          41.000
C14  23222730.219 7 120926853.321 7     -2738.582          47.000    23222729.617 8  93508291.998 8     -2117.573          51.000
C24  21994500.336 8 114531173.806 8      -914.211          51.000
C25  23135523.648 8 120472720.961 8      2001.129          50.000
C26  24613919.203 5 128170999.398 5     -2782.852          34.000
E04  27735856.711 8 145752894.214 8     -2838.172          49.000    27735859.531 7 111680800.581 7     -2174.646          43.000
E09  21922004.578 8 115200884.491 8     -1328.176          51.000    21922006.898 8  88270822.044 8     -1017.738          51.000
E24  22237128.164 8 116856894.861 8      1586.000          51.000    22237141.867 8  89539794.523 8      1215.235          51.000
E31  24004072.039 8 126142283.821 8     -1195.121          51.000    24004074.555 8  96654495.960 8      -915.778          51.000
> 2020 05 03 05 20  0.0000000  0 19        .000000000000
G05  22849252.789 7 120073604.382 7     -3325.445          46.000    22849249.648 7  93563838.123 7     -2591.256          45.000
G13  20160761.773 8 105945510.841 8       245.086          51.000    20160759.906 8  82554926.754 8       190.976          51.000
G17  24526177.648 5 128885911.258 5      2810.848          33.000    24526177.242 5 100430581.131 5      2190.277          33.000
G28  20948622.812 8 110085823.284 8      -669.895          51.000    20948621.422 7  85781163.518 7      -521.996          47.000
G30  22369062.680 6 117550198.908 6     -2520.422          36.000    22369059.070 5  91597555.757 5     -1963.965          32.000
R04  20498386.047 8 109767901.300 8     -3095.086          50.000    20498387.445 7  85375042.091 7     -2407.292          44.000
R05  19319039.172 7 103271350.962 7       910.820          43.000    19319041.398 6  80322157.770 6       708.416          39.000
R14  20514269.742 5 109352595.372 5     -2806.648          32.000    20514271.508 5  85052045.894 5     -2182.946          35.000
R15  19348084.422 8 103390413.179 8       788.957          51.000    19348086.883 8  80414712.741 8       613.633          50.000
R16  22788651.727 7 121732879.116 7      3653.934          42.000    22788656.039 6  94681147.253 6      2841.948          39.000
C05  39774104.953 6 207114200.451 6        14.617          37.000    39774104.445 6 160153836.562 6        11.052          40.000
C14  23238537.070 8 121009161.063 8     -2748.578          50.000    23238536.219 8  93571937.543 8     -2125.381          51.000
C24  21999797.766 8 114558758.806 8      -924.613          51.000
C25  23124020.578 8 120412824.323 8      1992.195          49.000
C26  24629960.766 5 128254544.032 5     -2785.812          34.000
E04  27752071.359 8 145838097.022 8     -2841.934          49.000    27752074.164 7 111746085.814 7     -2177.517          44.000
E09  21929618.094 8 115240894.856 8     -1338.984          51.000    21929620.305 8  88301479.342 8     -1025.996          51.000
E24  22228106.352 8 116809484.382 8      1574.852          51.000    22228119.797 8  89503467.004 8      1206.663          51.000
E31  24010925.828 8 126178300.818 8     -1205.879          51.000    24010928.352 8  96682093.393 8      -923.937          51.000
> 2020 05 03 05 20 30.0000000  0 18        .000000000000
G05  22868261.180 7 120173494.432 7     -3333.699          44.000    22868258.328 7  93641674.493 7     -2597.691          43.000
G13  20159403.336 8 105938372.209 8       230.910          51.000    20159401.547 8  82549364.175 8       179.930          51.000
G28  20952498.664 8 110106191.722 8      -687.898          50.000    20952497.289 7  85797035.016 7      -536.025          47.000
G30  22383467.484 5 117625901.663 5     -2526.508          31.000    22383466.227 5  91656544.885 5     -1968.704          31.000
R04  20515776.812 8 109861029.059 8     -3113.273          50.000    20515777.586 7  85447474.742 7     -2421.435          43.000
R05  19313996.570 7 103244396.530 7       886.305          45.000    19313999.211 6  80301193.219 6       689.348          40.000
R14  20530094.484 5 109436953.006 5     -2817.473          34.000    20530096.938 5  85117657.413 5     -2191.371          35.000
R15  19343711.617 8 103367045.895 8       768.941          51.000    19343714.344 8  80396538.183 8       598.066          51.000
R16  22768157.805 6 121623401.118 6      3644.859          41.000    22768162.539 6  94595997.687 6      2834.891          39.000
C05  39774023.555 6 207113777.508 6        14.230          37.000    39774023.055 6 160153508.739 6        10.783          41.000
C14  23254401.617 8 121091768.123 8     -2758.543          50.000    23254400.391 8  93635814.545 8     -2133.080          51.000
C24  22005155.633 8 114586657.973 8      -935.172          51.000
C25  23112569.789 8 120353199.796 8      1982.910          49.000
C26  24646014.055 5 128338159.389 5     -2787.961          34.000
E04  27768306.117 8 145923407.219 8     -2845.488          49.000    27768308.719 7 111811453.287 7     -2180.300          45.000
E09  21937292.742 8 115281227.232 8     -1349.863          51.000    21937295.367 8  88332383.352 8     -1034.278          51.000
E24  22219148.289 8 116762408.656 8      1563.574          51.000    22219161.586 8  89467395.975 8      1198.054          51.000
E31  24017839.805 8 126214633.794 8     -1216.422          51.000    24017842.539 8  96709932.933 8      -932.049          51.000
> 2020 05 03 05 21  0.0000000  0 18        .000000000000
G05  22887304.891 7 120273569.998 7     -3335.367          42.000    22887301.961 7  93719655.404 7     -2598.987          42.000
G13  20158115.672 8 105931605.422 8       222.797          51.000    20158113.781 8  82544091.344 8       173.608          51.000
G28  20956466.805 8 110127045.753 8      -699.668          50.000    20956465.633 7  85813284.932 7      -545.196          47.000
G30  22397893.734 5 117701729.695 5     -2525.520          31.000    22397896.672 5  91715633.779 5     -1967.940          31.000
R04  20533258.391 8 109954644.391 8     -3125.082          49.000    20533258.516 7  85520286.593 7     -2430.622          42.000
R05  19309080.523 7 103218120.870 7       867.945          44.000    19309084.203 6  80280756.549 6       675.066          41.000
R14  20545971.992 6 109521589.096 6     -2822.320          37.000    20545974.031 5  85183485.430 5     -2195.138          34.000
R15  19339440.273 8 103344221.591 8       755.340          51.000    19339443.148 8  80378785.928 8       587.487          50.000
R16  22747704.344 7 121514139.900 7      3642.074          42.000    22747709.031 6  94511016.743 6      2832.724          37.000
C05  39773933.562 6 207113308.768 6        19.996          37.000    39773932.992 6 160153146.272 6        15.381          41.000
C14  23270312.828 8 121174620.764 8     -2762.387          48.000    23270311.438 8  93699881.433 8     -2135.974          50.000
C24  22010563.516 8 114614818.141 8      -939.496          51.000
C25  23101162.164 8 120293795.669 8      1979.926          51.000
C26  24662071.648 5 128421792.438 5     -2784.441          35.000
E04  27784550.805 8 146008771.478 8     -2842.754          49.000    27784553.117 7 111876862.166 7     -2178.289          45.000
E09  21945018.977 8 115321828.978 8     -1354.324          51.000    21945021.766 8  88363493.765 8     -1037.717          51.000
E24  22210244.039 8 116715615.513 8      1558.578          51.000    22210257.352 8  89431541.471 8      1194.256          51.000
E31  24024803.500 8 126251228.948 8     -1220.559          50.000    24024806.500 8  96737973.373 8      -935.335          51.000
> 2020 05 03 05 21 30.0000000  0 16        .000000000000
G05  22906386.766 6 120373845.071 6     -3348.762          39.000    22906383.898 6  93797791.749 6     -2609.428          40.000
G13  20156902.180 8 105925228.334 8       203.027          51.000    20156900.094 8  82539122.172 8       158.203          51.000
G28  20960530.461 8 110148401.129 8      -723.277          51.000    20960529.281 7  85829925.475 7      -563.593          46.000
R04  20550833.836 8 110048762.480 8     -3148.637          48.000    20550834.148 7  85593489.516 7     -2448.940          43.000
R05  19304295.539 7 103192543.375 7       837.727          46.000    19304299.094 6  80260862.940 6       651.565          41.000
R15  19335273.586 8 103321956.971 8       729.723          51.000    19335276.891 8  80361468.987 8       567.562          50.000
R16  22727294.961 7 121405114.532 7      3627.207          45.000    22727298.766 5  94426219.272 5      2821.161          35.000
C05  39773838.195 6 207112812.057 6        13.656          37.000    39773837.602 6 160152762.168 6        10.943          40.000
C14  23286273.477 8 121257734.032 8     -2777.781          48.000    23286271.875 8  93764149.862 8     -2147.984          49.000
C24  22016024.344 8 114643254.978 8      -955.473          51.000
C25  23089800.430 8 120234629.065 8      1965.219          50.000
C26  24678138.039 5 128505458.817 5     -2792.438          35.000
E04  27800808.281 7 146094205.866 7     -2851.969          47.000    27800810.695 7 111942324.818 7     -2185.302          45.000
E09  21952799.805 8 115362716.908 8     -1370.699          51.000    21952802.148 8  88394823.469 8     -1050.324          51.000
E24  22201396.797 8 116669122.275 8      1541.789          51.000    22201410.180 8  89395916.774 8      1181.341          51.000
E31  24031820.141 8 126288101.997 8     -1236.719          50.000    24031822.906 8  96766226.747 8      -947.649          51.000
> 2020 05 03 05 22  0.0000000  0 18        .000000000000
G05  22925524.453 5 120474411.478 5     -3355.695          35.000    22925521.469 5  93876155.114 5     -2614.831          33.000
G13  20155781.039 8 105919336.508 8       189.637          51.000    20155778.742 8  82534531.137 8       147.769          50.000
G28  20964707.578 8 110170351.656 8      -740.332          50.000    20964706.258 7  85847029.780 7      -576.882          47.000
G30  22426851.820 4 117853901.141 4     -2541.711          28.000
R04  20568519.781 7 110143477.013 7     -3165.750          45.000    20568521.969 7  85667156.355 7     -2462.250          44.000
R05  19299659.961 7 103167762.444 7       814.062          47.000    19299662.805 7  80241588.875 7       633.160          42.000
R14  20577911.562 5 109691875.812 5     -2848.711          35.000    20577911.281 5  85315885.438 5     -2215.664          33.000
R15  19331229.648 8 103300347.541 8       710.797          51.000    19331233.133 8  80344661.667 8       552.842          50.000
R16  22706947.609 7 121296422.805 7      3618.926          44.000    22706950.336 5  94341681.280 5      2814.720          35.000
C05  39773755.414 6 207112381.133 6        14.184          37.000    39773754.867 6 160152428.962 6        11.215          41.000
C14  23302301.836 8 121341200.069 8     -2786.699          48.000    23302299.422 8  93828691.051 8     -2154.898          48.000
C24  22021556.109 8 114672061.190 8      -965.020          51.000
C25  23078501.602 8 120175794.149 8      1956.996          48.000
C26  24694230.531 5 128589251.300 5     -2793.484          34.000
E04  27817096.484 7 146179804.259 7     -2854.711          45.000    27817099.812 7 112007913.134 7     -2187.433          45.000
E09  21960653.117 8 115403985.595 8     -1380.637          51.000    21960654.727 8  88426444.909 8     -1057.881          51.000
E24  22192624.500 8 116623023.974 8      1531.320          51.000    22192637.945 8  89360594.690 8      1173.400          51.000
E31  24038907.531 8 126325346.345 8     -1246.418          51.000    24038910.078 8  96794764.591 8      -954.970          51.000
> 2020 05 03 05 22 30.0000000  0 18        .000000000000
G13  20154740.164 8 105913866.899 8       175.730          51.000    20154737.609 8  82530269.094 8       136.933          50.000
G17  24446193.133 5 128465617.414 5      2792.637          31.000
G28  20968985.484 8 110192831.874 8      -757.785          51.000    20968984.133 7  85864546.853 7      -590.482          47.000
G30  22441398.562 5 117930316.061 5     -2546.289          33.000
R04  20586304.250 7 110238720.371 7     -3183.172          46.000    20586307.719 7  85741234.565 7     -2475.800          42.000
R05  19295161.344 7 103143714.885 7       789.695          46.000    19295164.359 7  80222885.201 7       614.207          42.000
R14  20593977.281 6 109777507.858 6     -2859.297          36.000    20593980.906 5  85382488.016 5     -2223.904          35.000
R15  19327296.156 8 103279327.627 8       691.352          51.000    19327299.312 8  80328312.837 8       537.715          49.000
R16  22686650.391 7 121188001.436 7      3610.016          43.000    22686652.844 6  94257353.549 6      2807.790          37.000
C05  39773673.125 6 207111952.614 6        14.738          37.000    39773672.570 6 160152097.635 6        11.249          41.000
C14  23318385.750 8 121424953.594 8     -2796.172          49.000    23318382.273 7  93893454.542 7     -2162.090          47.000
C24  22027146.344 8 114701172.131 8      -975.043          51.000
C25  23067253.617 8 120117227.807 8      1948.199          48.000
C26  24710336.773 5 128673105.428 5     -2797.141          31.000
E04  27833403.266 7 146265501.666 7     -2857.816          44.000    27833408.297 7 112073577.339 7     -2189.842          47.000
E09  21968566.578 8 115445570.813 8     -1390.969          51.000    21968567.852 8  88458308.873 8     -1065.828          51.000
E24  22183915.133 8 116577256.911 8      1520.543          51.000    22183928.562 8  89325526.430 8      1165.109          51.000
E31  24046052.961 8 126362896.640 8     -1256.324          50.000    24046055.953 8  96823536.883 8      -962.614          51.000
> 2020 05 03 05 23  0.0000000  0 15        .000000000000
G13  20153790.992 8 105908879.803 8       154.027          50.000    20153788.531 8  82526383.038 8       120.018          50.000
G17  24430277.352 5 128381991.494 5      2781.445          32.000    24430279.031 5 100037923.868 5      2167.369          32.000
G28  20973375.422 8 110215900.125 8      -782.863          51.000    20973373.898 7  85882522.105 7      -610.023          47.000
R04  20604200.016 8 110334550.518 8     -3208.320          49.000    20604202.641 6  85815769.083 6     -2495.360          41.000
R05  19290811.516 7 103120463.169 7       757.676          46.000    19290814.273 7  80204800.513 7       589.303          42.000
R15  19323483.898 8 103258956.972 8       664.066          51.000    19323487.242 8  80312468.994 8       516.496          49.000
R16  22666415.273 6 121079912.513 6      3593.590          41.000    22666418.195 6  94173284.372 6      2795.014          40.000
C05  39773602.531 6 207111585.434 6         7.129          37.000    39773602.047 6 160151813.673 6         5.700          41.000
C14  23334536.109 8 121509051.774 8     -2812.969          48.000    23334532.430 8  93958484.547 8     -2175.166          49.000
C24  22032806.164 8 114730645.532 8      -992.566          51.000
C25  23056069.422 8 120058989.149 8      1931.652          49.000
E04  27849739.812 7 146351356.626 7     -2868.594          43.000    27849746.977 8 112139362.262 8     -2197.876          48.000
E09  21976551.445 8 115487531.814 8     -1409.043          51.000    21976552.781 8  88490460.760 8     -1079.605          51.000
E24  22175280.328 8 116531880.842 8      1501.973          51.000    22175293.594 8  89290757.770 8      1150.874          51.000
E31  24053267.703 8 126400810.974 8     -1273.906          50.000    24053271.125 8  96852588.126 8      -976.074          51.000
> 2020 05 03 05 23 30.0000000  0 18        .000000000000
G05  22983201.555 6 120777498.981 6     -3375.590          36.000    22983197.312 5  94112343.751 5     -2630.330          35.000
G13  20152908.758 8 105904245.170 8       149.043          49.000    20152906.609 8  82522771.609 8       116.137          49.000
G15  20924372.938 5 109958311.616 5      1812.262          30.000
G17  24414368.844 6 128298399.737 6      2785.648          36.000    24414377.781 5  99972787.580 5      2170.644          34.000
G28  20977852.070 8 110239424.219 8      -791.242          51.000    20977850.539 8  85900852.574 8      -616.552          49.000
G30  22470517.492 5 118083372.030 5     -2555.406          32.000
R04  20622180.555 8 110430831.289 8     -3216.395          50.000    20622181.922 7  85890654.036 7     -2501.643          42.000
R05  19286586.500 8 103097876.269 8       742.340          49.000    19286588.406 7  80187232.912 7       577.375          42.000
R15  19319768.297 8 103239101.715 8       653.707          51.000    19319771.453 8  80297026.033 8       508.439          48.000
R16  22646217.500 6 120972024.340 6      3593.652          39.000    22646221.789 7  94089371.359 7      2795.063          42.000
C05  39773518.797 6 207111148.751 6        16.582          37.000    39773518.375 6 160151476.833 6        12.578          41.000
C14  23350727.469 8 121593363.109 8     -2813.414          48.000    23350724.602 8  94023679.400 8     -2175.528          51.000
C24  22038510.547 8 114760350.543 8      -993.488          51.000
C25  23044923.734 8 120000948.709 8      1931.883          49.000
E04  27866081.570 7 146437237.343 7     -2862.508          42.000    27866090.234 8 112205166.981 8     -2193.485          48.000
E09  21984582.805 8 115529737.477 8     -1410.488          51.000    21984584.352 8  88522800.133 8     -1080.725          51.000
E24  22166695.148 8 116486765.164 8      1500.023          51.000    22166708.336 8  89256188.626 8      1149.351          51.000
E31  24060526.953 8 126438957.182 8     -1274.914          50.000    24060530.094 8  96881817.024 8      -976.873          51.000
> 2020 05 03 05 24  0.0000000  0 18        .000000000000
G05  23002498.062 5 120878913.124 5     -3385.484          33.000    23002493.672 5  94191367.644 5     -2638.040          34.000
G13  20152103.523 8 105900014.689 8       133.203          50.000    20152101.586 8  82519475.108 8       103.795          49.000
G17  24398481.555 5 128214912.219 5      2780.207          35.000    24398485.047 5  99907732.509 5      2166.395          35.000
G28  20982424.938 8 110263453.621 8      -810.461          51.000    20982423.375 8  85919576.777 8      -631.528          49.000
G30  22485128.633 6 118160145.807 6     -2562.844          36.000    22485124.477 4  92072838.011 4     -1997.024          29.000
R04  20640254.633 8 110527612.019 8     -3235.438          51.000    20640256.023 7  85965927.851 7     -2516.454          45.000
R05  19282495.812 8 103076007.464 8       715.879          48.000    19282497.383 7  80170223.848 7       556.795          43.000
R14  20642531.633 6 110036279.047 6     -2889.965          36.000    20642520.344 4  85583755.148 4     -2247.757          28.000
R15  19316158.680 8 103219812.692 8       632.477          51.000    19316161.484 8  80282023.469 8       491.926          48.000
R16  22626066.555 6 120864390.439 6      3582.332          36.000    22626072.984 7  94005656.080 7      2786.255          42.000
C05  39773431.648 6 207110694.923 6        14.305          37.000    39773431.211 6 160151125.909 6        11.016          40.000
C14  23366968.883 7 121677936.076 7     -2824.449          47.000    23366967.312 8  94089076.575 8     -2184.110          51.000
C24  22044269.016 8 114790336.238 8     -1005.250          51.000
C25  23033825.531 8 119943157.064 8      1921.191          48.000
E04  27882438.773 7 146523193.728 7     -2867.527          43.000    27882447.445 8 112271029.632 8     -2197.196          48.000
E09  21992670.148 8 115572238.318 8     -1422.742          51.000    21992671.906 8  88555365.701 8     -1090.147          51.000
E24  22158169.023 8 116441960.878 8      1487.211          51.000    22158182.422 8  89221858.079 8      1139.536          51.000
E31  24067839.539 8 126477384.628 8     -1286.758          50.000    24067842.469 8  96911261.424 8      -985.891          51.000
> 2020 05 03 05 24 30.0000000  0 18        .000000000000
G05  23021835.953 6 120980548.561 6     -3390.965          37.000    23021835.992 6  94270564.052 6     -2642.313          36.000
G13  20151381.008 8 105896218.121 8       119.859          50.000    20151378.977 8  82516516.746 8        93.397          49.000
G15  20903841.281 5 109850413.850 5      1784.195          30.000
G17  24382620.594 5 128131561.193 5      2776.898          33.000    24382622.258 5  99842783.705 5      2163.817          33.000
G28  20987099.242 8 110288016.670 8      -827.254          51.000    20987097.609 8  85938716.832 8      -644.613          49.000
G30  22499770.797 6 118237083.442 6     -2566.469          36.000    22499766.680 5  92132789.447 5     -1999.843          34.000
R04  20658427.297 8 110624919.519 8     -3251.797          50.000    20658428.922 7  86041611.438 7     -2529.175          47.000
R05  19278545.016 8 103054888.757 8       692.004          49.000    19278546.719 7  80153798.152 7       538.222          43.000
R15  19312660.391 8 103201118.846 8       613.730          51.000    19312662.984 8  80267483.800 8       477.343          48.000
R16  22605970.445 6 120757041.783 6      3574.215          39.000    22605976.820 6  93922162.618 6      2779.945          40.000
C05  39773346.594 6 207110251.891 6        15.000          37.000    39773346.070 6 160150783.327 6        11.542          41.000
C14  23383265.438 7 121762797.817 7     -2833.070          46.000    23383265.148 8  94154697.072 8     -2190.679          51.000
C24  22050086.727 8 114820630.436 8     -1014.453          51.000
C25  23022781.078 8 119885643.405 8      1912.914          49.000
E04  27898816.461 7 146609254.037 7     -2870.086          44.000    27898823.938 8 112336971.896 8     -2199.073          48.000
E09  22000819.102 8 115615063.363 8     -1432.453          51.000    22000821.188 8  88588179.684 8     -1097.585          51.000
E24  22149707.742 8 116397497.502 8      1476.910          51.000    22149721.352 8  89187788.743 8      1131.629          51.000
E31  24075210.758 8 126516121.176 8     -1295.844          50.000    24075213.789 8  96940942.694 8      -992.961          51.000
> 2020 05 03 05 25  0.0000000  0 17        .000000000000
G05  23041213.047 6 121082375.391 6     -3397.109          40.000    23041215.648 6  94349909.620 6     -2647.101          40.000
G13  20150736.094 8 105892829.203 8       106.402          50.000    20150733.859 8  82513876.028 8        82.908          48.000
G28  20991869.539 8 110313084.418 8      -843.758          51.000    20991867.844 8  85958250.126 8      -657.474          48.000
G30  22514438.023 6 118314156.982 6     -2571.004          37.000    22514436.211 5  92192846.657 5     -2003.380          35.000
R04  20676692.289 8 110722723.724 8     -3268.293          50.000    20676694.086 7  86117681.404 7     -2542.006          47.000
R05  19274729.977 8 103034494.349 8       667.965          49.000    19274730.883 7  80137935.843 7       519.528          43.000
R14  20675186.773 5 110210378.078 5     -2909.434          30.000    20675168.289 4  85719160.434 4     -2262.893          29.000
R15  19309268.359 8 103182991.829 8       594.992          51.000    19309270.648 8  80253384.992 8       462.772          48.000
R16  22585924.328 7 120649952.518 7      3565.488          42.000    22585927.922 6  93838870.998 6      2773.158          39.000
C05  39773258.484 6 207109792.765 6        15.559          37.000    39773257.836 6 160150428.295 6        11.995          41.000
C14  23399612.039 7 121847919.693 7     -2841.488          47.000    23399612.477 8  94220518.727 8     -2197.183          51.000
C24  22055958.133 8 114851205.042 8     -1023.574          51.000
C25  23011785.430 8 119828381.131 8      1904.707          50.000
E04  27915208.836 7 146695390.232 7     -2872.305          45.000    27915214.188 7 112402972.294 7     -2200.785          47.000
E09  22009024.539 8 115658185.242 8     -1442.145          51.000    22009027.445 8  88621221.120 8     -1105.017          51.000
E24  22141306.430 8 116353348.199 8      1466.598          51.000    22141319.961 8  89153960.042 8      1123.754          51.000
E31  24082635.703 8 126555138.477 8     -1305.066          51.000    24082638.453 8  96970839.046 8      -999.935          51.000
> 2020 05 03 05 25 30.0000000  0 18        .000000000000
G05  23060630.250 6 121184412.548 6     -3405.648          41.000    23060635.000 6  94429419.047 6     -2653.755          41.000
G13  20150172.984 8 105889870.962 8        90.418          49.000    20150170.641 8  82511570.901 8        70.456          49.000
G28  20996739.844 8 110338677.811 8      -862.766          51.000    20996738.078 8  85978193.040 8      -672.285          49.000
G30  22529134.836 6 118391387.387 6     -2577.484          36.000    22529135.930 5  92253026.090 5     -2008.429          34.000
R04  20695053.547 8 110821044.098 8     -3286.914          51.000    20695055.047 7  86194152.838 7     -2556.489          47.000
R05  19271054.648 8 103014848.366 8       641.348          49.000    19271055.781 7  80122655.626 7       498.826          45.000
R14  20691592.891 6 110297813.003 6     -2920.723          36.000    20691555.594 4  85787063.151 4     -2271.685          26.000
R15  19305986.602 8 103165453.271 8       573.797          51.000    19305988.422 7  80239743.906 7       446.286          47.000
R16  22565931.203 7 120543146.484 7      3554.246          43.000    22565931.664 6  93755799.689 6      2764.414          38.000
C05  39773171.500 6 207109339.324 6        13.887          37.000    39773170.688 6 160150077.662 6        11.098          41.000
C14  23416013.258 8 121933321.804 8     -2852.293          49.000    23416013.391 8  94286557.035 8     -2205.495          51.000
C24  22061887.547 8 114882080.757 8     -1035.113          51.000
C25  23000841.914 8 119771392.350 8      1893.969          48.000
C26  24807177.281 5 129177474.288 5     -2806.918          30.000
E04  27931619.250 7 146781623.504 7     -2876.941          45.000    27931622.164 7 112469047.034 7     -2204.395          47.000
E09  22017290.789 8 115701625.798 8     -1454.184          51.000    22017294.258 8  88654506.739 8     -1114.218          51.000
E24  22132969.336 8 116309535.254 8      1453.930          51.000    22132982.391 8  89120389.075 8      1114.074          51.000
E31  24090117.906 8 126594457.155 8     -1316.477          50.000    24090120.344 8  97000966.337 8     -1008.678          51.000
> 2020 05 03 05 26  0.0000000  0 18        .000000000000
G05  23080084.680 6 121286645.517 6     -3411.977          41.000    23080090.070 6  94509081.099 6     -2658.683          41.000
G13  20149689.836 8 105887332.775 8        76.566          50.000    20149687.570 8  82509593.079 8        59.662          49.000
G28  21001707.586 8 110364783.917 8      -879.762          51.000    21001705.938 7  85998535.467 7      -685.529          47.000
G30  22543858.523 5 118468762.127 5     -2583.469          30.000    22543860.766 4  92313317.956 4     -2013.093          29.000
R04  20713508.367 8 110919866.631 8     -3303.410          51.000    20713509.352 7  86271014.823 7     -2569.319          45.000
R05  19267517.320 8 102995940.695 8       616.941          49.000    19267519.062 7  80107949.631 7       479.843          45.000
R14  20708055.242 5 110385536.225 5     -2929.207          34.000    20708061.602 5  85855502.012 5     -2278.266          30.000
R15  19302812.391 8 103148490.569 8       554.855          51.000    19302813.688 7  80226550.687 7       431.554          47.000
R16  22545988.891 7 120436613.947 7      3545.543          42.000    22545987.820 6  93672941.063 6      2757.645          39.000
C05  39773083.312 6 207108881.148 6        14.398          37.000    39773082.555 6 160149722.634 6        11.025          41.000
C14  23432465.977 8 122018990.862 8     -2860.988          51.000    23432465.211 8  94352801.748 8     -2212.376          51.000
C24  22067872.508 8 114913244.980 8     -1044.578          51.000
C25  22989947.602 7 119714665.835 7      1885.547          47.000
C26  24823350.375 5 129261681.168 5     -2808.328          32.000
E04  27948044.930 7 146867941.385 7     -2879.660          45.000    27948046.211 7 112535186.593 7     -2206.568          46.000
E09  22025615.711 8 115745373.283 8     -1464.375          51.000    22025619.164 8  88688027.514 8     -1122.066          51.000
E24  22124694.156 8 116266047.393 8      1443.168          51.000    22124706.625 8  89087067.201 8      1105.780          51.000
E31  24097654.812 8 126634064.363 8     -1326.066          51.000    24097657.320 8  97031314.731 8     -1016.095          51.000
> 2020 05 03 05 26 30.0000000  0 18        .000000000000
G05  23099587.852 6 121389134.086 6     -3417.141          38.000    23099593.391 6  94588942.348 6     -2662.707          37.000
G13  20149298.664 8 105885277.373 8        63.680          49.000    20149296.414 8  82507991.460 8        49.621          49.000
G17  24319423.242 5 127799433.619 5      2759.332          33.000    24319420.039 5  99583961.155 5      2150.135          32.000
G28  21006784.523 8 110391463.840 8      -895.508          51.000    21006782.883 8  86019325.006 8      -697.798          48.000
R04  20732067.484 8 111019251.762 8     -3318.910          50.000    20732068.008 6  86348314.306 6     -2581.378          41.000
R05  19264130.523 8 102977836.805 8       593.344          51.000    19264132.508 7  80093868.826 7       461.493          46.000
R14  20724544.281 5 110473514.180 5     -2938.020          34.000    20724553.758 5  85923845.569 5     -2285.126          33.000
R15  19299757.188 8 103132166.105 8       536.824          51.000    19299758.883 7  80213853.882 7       417.530          47.000
R16  22526108.805 6 120330419.317 6      3537.285          38.000    22526108.742 7  93590345.222 7      2751.222          42.000
C05  39773005.930 6 207108477.893 6        15.469          37.000    39773005.078 6 160149410.792 6        12.122          41.000
C14  23448981.281 8 122104986.642 8     -2868.758          51.000    23448979.320 8  94419299.069 8     -2218.257          51.000
C24  22073924.266 8 114944758.149 8     -1052.980          51.000
C25  22979115.656 8 119658263.417 8      1877.809          48.000
C26  24839543.781 5 129345994.369 5     -2808.441          31.000
E04  27964498.039 7 146954405.077 7     -2881.305          45.000    27964499.055 7 112601437.923 7     -2207.759          47.000
E09  22034011.188 8 115789489.619 8     -1473.371          51.000    22034013.914 8  88721830.916 8     -1128.968          51.000
E24  22116492.547 8 116222947.029 8      1433.543          51.000    22116504.898 8  89054042.253 8      1098.366          51.000
E31  24105258.320 8 126674020.961 8     -1334.402          51.000    24105261.062 8  97061930.815 8     -1022.467          51.000
> 2020 05 03 05 27  0.0000000  0 18        .000000000000
G05  23119112.117 5 121491734.807 5     -3423.316          33.000    23119117.461 5  94668890.918 5     -2667.525          34.000
G13  20148972.805 8 105883565.163 8        49.488          50.000    20148970.664 8  82506657.258 8        38.562          49.000
G17  24303686.164 5 127716729.404 5      2754.574          30.000
G28  21011943.570 8 110418575.286 8      -912.570          50.000    21011942.273 7  86040450.814 7      -711.094          47.000
G30  22573396.797 6 118624002.097 6     -2590.992          36.000    22573418.672 5  92434341.791 5     -2018.955          35.000
R04  20750703.680 8 111119053.437 8     -3335.508          49.000    20750703.164 6  86425937.707 6     -2594.287          41.000
R05  19260867.477 8 102960395.255 8       568.508          51.000    19260870.016 7  80080303.171 7       442.173          47.000
R14  20741104.031 4 110561757.187 4     -2947.758          28.000    20741111.930 5  85992503.968 5     -2292.694          32.000
R15  19296794.828 8 103116336.249 8       517.609          51.000    19296796.750 7  80201541.761 7       402.585          47.000
R16  22506264.273 5 120224421.482 5      3528.121          35.000    22506267.281 7  93507902.438 7      2744.091          44.000
C05  39772912.445 6 207107991.187 6        16.176          37.000    39772911.664 6 160149034.460 6        12.191          40.000
C14  23465531.836 8 122191168.066 8     -2877.641          51.000    23465528.695 8  94485939.936 8     -2225.180          50.000
C24  22080015.945 8 114976479.795 8     -1062.727          51.000
C25  22968319.727 8 119602046.069 8      1869.117          48.000
E04  27980952.039 7 147040873.112 7     -2884.121          46.000    27980953.875 8 112667692.610 8     -2209.974          48.000
E09  22042450.250 8 115833833.984 8     -1483.812          51.000    22042451.875 8  88755809.033 8     -1136.944          51.000
E24  22108337.875 8 116180093.862 8      1422.500          51.000    22108350.375 8  89021206.700 8      1089.974          51.000
E31  24112901.344 8 126714185.038 8     -1344.098          51.000    24112904.141 8  97092705.877 8     -1029.878          51.000
> 2020 05 03 05 27 30.0000000  0 16        .000000000000
G05  23138685.844 5 121594607.797 5     -3429.289          32.000    23138673.531 5  94749008.923 5     -2672.158          31.000
G13  20148730.203 8 105882290.078 8        36.047          51.000    20148728.188 8  82505663.661 8        28.085          49.000
G17  24287972.203 5 127634146.576 5      2751.055          33.000    24287971.352 5  99455183.113 5      2143.679          33.000
G28  21017202.250 8 110446210.193 8      -929.082          50.000    21017201.250 7  86061984.508 7      -723.960          46.000
G30  22588200.227 5 118701802.045 5     -2595.086          34.000    22588224.711 5  92494964.967 5     -2022.148          35.000
R04  20769435.461 8 111219364.167 8     -3351.309          50.000    20769436.484 7  86503957.145 7     -2606.573          44.000
R05  19257746.406 8 102943712.632 8       544.234          51.000    19257749.422 7  80067327.780 7       423.290          47.000
R15  19293942.539 8 103101094.859 8       499.070          51.000    19293944.406 7  80189687.367 7       388.169          46.000
R16  22486475.375 6 120118716.719 6      3519.152          37.000    22486480.609 7  93425687.610 7      2737.118          44.000
C05  39772820.750 6 207107513.545 6        16.859          37.000    39772819.898 6 160148665.124 6        12.834          40.000
C14  23482134.914 8 122277625.703 8     -2885.621          50.000    23482131.484 8  94552794.412 8     -2231.421          51.000
C24  22086165.336 8 115008501.159 8     -1071.582          51.000
C25  22957576.719 7 119546106.486 7      1860.883          45.000
E09  22050950.367 8 115878499.389 8     -1493.438          51.000    22050951.422 8  88790033.129 8     -1144.289          51.000
E24  22100247.797 8 116137581.372 8      1412.188          51.000    22100260.625 8  88988632.198 8      1082.051          51.000
E31  24120601.148 8 126754648.495 8     -1352.957          51.000    24120603.930 8  97123710.345 8     -1036.690          51.000
> 2020 05 03 05 28  0.0000000  0 15        .000000000000
G05  23158288.234 6 121697628.177 6     -3438.805          36.000    23158273.805 5  94829284.444 5     -2679.585          34.000
G13  20148574.500 8 105881470.970 8        18.797          51.000    20148572.523 8  82505025.373 8        14.647          50.000
G17  24272292.297 6 127551750.658 6      2742.523          37.000    24272290.562 6  99390978.505 6      2137.034          37.000
G28  21022563.680 8 110474385.264 8      -949.051          48.000    21022562.586 7  86083939.092 7      -739.520          46.000
R04  20788265.867 8 111320199.340 8     -3370.781          51.000    20788268.258 7  86582384.474 7     -2621.719          46.000
R05  19254771.523 8 102927808.949 8       516.191          51.000    19254774.367 8  80054958.238 8       401.482          48.000
R15  19291203.555 8 103086459.408 8       476.801          51.000    19291205.969 7  80178304.254 7       370.845          47.000
R16  22466746.070 6 120013324.747 6      3506.723          39.000    22466752.016 7  93343716.054 7      2727.451          43.000
C05  39772734.117 6 207107062.720 6        13.488          37.000    39772733.344 6 160148316.502 6        10.593          40.000
C14  23498793.680 8 122364375.506 8     -2897.156          49.000    23498791.203 8  94619874.826 8     -2240.446          51.000
C24  22092375.477 8 115040838.904 8     -1084.160          51.000
C25  22946888.812 7 119490462.704 7      1848.789          42.000
E09  22059514.828 8 115923503.502 8     -1506.641          51.000    22059515.586 8  88824516.761 8     -1154.406          51.000
E24  22092226.047 8 116095427.746 8      1398.254          51.000    22092239.055 8  88956332.674 8      1071.365          51.000
E31  24128361.094 8 126795427.976 8     -1365.445          51.000    24128364.047 8  97154956.942 8     -1046.193          51.000
> 2020 05 03 05 28 30.0000000  0 17        .000000000000
G05  23177927.758 6 121800839.645 6     -3442.875          39.000    23177915.992 5  94909708.874 5     -2682.760          34.000
G13  20148501.219 8 105881085.125 8         6.188          51.000    20148499.414 8  82504724.703 8         4.821          50.000
G15  20824851.727 5 109435334.402 5      1674.723          32.000
G17  24256642.047 6 127469508.070 6      2738.965          36.000    24256639.445 5  99326893.348 5      2134.255          35.000
G28  21028023.195 7 110503075.656 7      -964.371          47.000    21028022.227 7  86106295.236 7      -751.458          46.000
R04  20807189.922 8 111421532.463 8     -3385.520          51.000    20807192.406 7  86661199.099 7     -2633.182          46.000
R05  19251938.242 8 102912661.973 8       492.855          51.000    19251940.625 8  80043177.251 8       383.332          48.000
R15  19288573.117 8 103072404.911 8       459.328          50.000    19288575.961 7  80167372.979 7       357.255          47.000
R16  22447071.539 6 119908223.090 6      3499.066          40.000    22447077.312 6  93261970.329 6      2721.496          40.000
C05  39772648.227 6 207106615.420 6        15.277          37.000    39772647.438 6 160147970.597 6        12.152          41.000
C14  23515503.828 8 122451392.411 8     -2904.465          48.000    23515502.453 8  94687161.787 8     -2245.826          51.000
C24  22098641.500 8 115073468.549 8     -1092.035          51.000
C25  22936253.555 7 119435091.620 7      1841.688          44.000
C26  24904350.562 5 129683497.906 5     -2815.922          32.000
E09  22068139.070 8 115968822.620 8     -1515.289          51.000    22068139.711 8  88859241.766 8     -1161.063          51.000
E24  22084268.211 8 116053609.762 8      1388.922          51.000    22084281.117 8  88924290.323 8      1064.248          51.000
E31  24136176.586 8 126836498.667 8     -1373.211          51.000    24136179.672 8  97186426.671 8     -1052.219          51.000
> 2020 05 03 05 29  0.0000000  0 16        .000000000000
G05  23197599.047 6 121904213.883 6     -3448.805          40.000    23197593.375 6  94990260.114 6     -2687.383          40.000
G13  20148505.570 8 105881107.829 8        -8.027          51.000    20148504.180 8  82504742.382 8        -6.255          50.000
G17  24241015.164 4 127387394.933 4      2734.695          29.000    24241006.367 4  99262910.037 4      2130.941          25.000
G28  21033575.531 7 110532254.412 7      -981.125          46.000    21033574.664 7  86129031.897 7      -764.513          46.000
R04  20826201.453 8 111523334.548 8     -3401.598          51.000    20826203.648 7  86740378.470 7     -2645.690          46.000
R05  19249241.805 8 102898247.371 8       467.859          51.000    19249243.906 8  80031965.884 8       363.891          48.000
R15  19286046.430 8 103058904.536 8       440.406          50.000    19286050.023 8  80156872.687 8       342.535          48.000
R16  22427446.406 6 119803387.536 6      3489.469          38.000    22427451.531 6  93180431.549 6      2714.031          38.000
C05  39772558.172 6 207106146.344 6        15.785          37.000    39772557.320 6 160147607.902 6        12.115          41.000
C14  23532260.141 8 122538649.244 8     -2912.961          48.000    23532259.430 8  94754634.299 8     -2252.486          51.000
C24  22104958.469 8 115106363.594 8     -1101.250          51.000
C25  22925668.227 7 119379968.120 7      1832.941          47.000
C26  24920573.812 5 129767982.103 5     -2816.484          31.000
E09  22076817.906 8 116014430.868 8     -1525.453          51.000    22076818.797 8  88894188.320 8     -1168.857          51.000
E24  22076369.523 8 116012102.015 8      1378.020          51.000    22076382.234 8  88892485.691 8      1055.921          51.000
E31  24144042.305 8 126877833.637 8     -1382.562          51.000    24144045.195 8  97218098.917 8     -1059.351          51.000
> 2020 05 03 05 29 30.0000000  0 16        .000000000000
G05  23217284.289 6 122007661.060 6     -3455.590          40.000    23217280.711 6  95070868.256 6     -2692.667          40.000
G13  20148571.273 8 105881453.168 8       -23.004          51.000    20148570.117 8  82505011.457 8       -17.925          50.000
G28  21039204.039 7 110561833.519 7      -998.938          46.000    21039203.188 7  86152080.544 7      -778.393          45.000
R04  20845282.898 7 111625514.588 7     -3418.562          47.000    20845284.953 7  86819851.794 7     -2658.882          44.000
R05  19246666.312 8 102884478.603 8       441.891          51.000    19246668.227 8  80021256.830 8       343.690          49.000
R14  20824718.375 5 111007453.813 5     -2994.617          31.000    20824696.992 4  86339052.279 4     -2329.147          26.000
R15  19283606.969 8 103045869.269 8       420.453          49.000    19283610.961 8  80146734.130 8       327.016          48.000
R16  22407853.555 6 119698731.577 6      3479.582          36.000    22407858.719 6  93099032.470 6      2706.342          39.000
C05  39772447.352 6 207105569.690 6        14.719          37.000    39772446.547 6 160147162.001 6        11.439          40.000
C14  23549045.836 7 122626058.320 7     -2922.160          47.000    23549045.273 8  94822224.551 8     -2259.705          51.000
C24  22111309.992 8 115139437.124 8     -1111.500          51.000
C25  22915115.086 8 119325006.672 8      1823.273          48.000
C26  24936786.344 5 129852402.999 5     -2819.273          30.000
E09  22085534.789 8 116060241.380 8     -1536.582          51.000    22085536.211 8  88929289.875 8     -1177.366          51.000
E24  22068513.688 8 115970818.138 8      1366.230          51.000    22068526.508 8  88860852.593 8      1046.804          51.000
E31  24151941.531 8 126919344.974 8     -1392.895          51.000    24151944.094 8  97249906.303 8     -1067.259          50.000
> 2020 05 03 05 30  0.0000000  0 16        .000000000000
G05  23237051.359 6 122111535.237 6     -3460.949          37.000    23237047.078 6  95151809.175 6     -2696.844          36.000
G13  20148766.547 8 105882478.782 8       -36.820          51.000    20148765.305 8  82505810.621 8       -28.691          50.000
G17  24209858.719 5 127223676.563 5      2723.414          35.000    24209869.703 6  99135369.694 6      2122.138          36.000
G28  21044976.508 7 110592168.170 7     -1015.059          47.000    21044975.930 7  86175717.898 7      -790.955          44.000
R04  20864499.867 7 111728433.126 7     -3434.035          43.000    20864503.414 7  86899899.578 7     -2670.916          42.000
R05  19244279.695 8 102871720.132 8       417.293          51.000    19244281.445 8  80011333.556 8       324.558          49.000
R15  19281322.359 8 103033660.980 8       402.008          50.000    19281326.477 8  80137238.788 8       312.673          48.000
R16  22388361.648 5 119594619.422 5      3470.441          35.000    22388367.492 6  93018056.360 6      2699.232          39.000
C05  39772383.930 6 207105239.044 6        15.355          37.000    39772383.031 6 160146906.323 6        12.052          40.000
C14  23565928.305 8 122713971.443 8     -2930.301          48.000    23565927.430 8  94890204.555 8     -2265.743          49.000
C24  22117763.461 8 115173041.490 8     -1120.379          51.000
C25  22904660.805 7 119270561.070 7      1815.012          47.000
C26  24953053.328 5 129937096.122 5     -2820.332          30.000
E09  22094357.906 8 116106610.672 8     -1546.148          51.000    22094360.234 8  88964819.590 8     -1184.735          51.000
E24  22060768.594 8 115930115.184 8      1355.824          51.000    22060781.695 8  88829664.603 8      1038.911          51.000
E31  24159942.039 8 126961388.159 8     -1401.535          51.000    24159944.461 8  97282121.184 8     -1073.847          49.000
> 2020 05 03 05 30 30.0000000  0 16        .000000000000
G05  23256815.359 5 122215391.668 5     -3466.414          35.000    23256810.820 5  95232736.244 5     -2701.102          34.000
G13  20149007.422 8 105883743.819 8       -51.188          51.000    20149005.953 8  82506796.350 8       -39.886          50.000
G17  24194317.578 6 127141986.306 6      2719.039          38.000    24194335.242 5  99071715.050 5      2118.744          34.000
G28  21050808.508 7 110622815.201 7     -1031.664          47.000    21050807.922 7  86199598.693 7      -803.894          44.000
R04  20883770.859 8 111831637.511 8     -3449.934          48.000    20883774.953 7  86980169.606 7     -2683.282          43.000
R05  19241998.297 8 102859524.389 8       392.113          51.000    19241999.781 8  80001847.981 8       304.977          49.000
R15  19279108.594 8 103021829.594 8       383.121          51.000    19279112.461 8  80128036.593 8       297.983          48.000
R16  22368889.594 6 119490603.520 6      3460.598          37.000    22368895.375 6  92937155.102 6      2691.576          41.000
C05  39772283.641 6 207104716.617 6        15.969          37.000    39772282.672 6 160146502.343 6        12.233          40.000
C14  23582823.328 7 122801948.968 7     -2938.492          47.000    23582821.492 7  94958234.342 7     -2272.226          47.000
C24  22124234.453 8 115206737.808 8     -1129.676          51.000
C25  22894221.273 7 119216193.718 7      1806.105          46.000
C26  24969291.547 5 130021656.696 5     -2821.578          30.000
E09  22103203.383 8 116153096.715 8     -1556.387          51.000    22103206.484 8  89000438.760 8     -1192.559          51.000
E24  22053049.930 8 115889551.539 8      1344.879          51.000    22053063.102 8  88798583.377 8      1030.480          51.000
E31  24167959.406 8 127003520.050 8     -1410.730          51.000    24167961.883 8  97314404.066 8     -1080.991          48.000
> 2020 05 03 05 31  0.0000000  0 18        .000000000000
G05  23276608.953 5 122319403.977 5     -3458.281          35.000    23276604.078 5  95313784.733 5     -2694.768          35.000
G13  20149327.453 8 105885424.822 8       -51.547          51.000    20149325.727 8  82508106.219 8       -40.166          50.000
G17  24178801.914 6 127060443.117 6      2727.039          37.000    24178829.117 5  99008175.295 5      2124.972          32.000
G24  23516581.453 5 123580468.761 5      3035.477          33.000
G28  21056733.188 8 110653948.979 8     -1034.523          48.000    21056732.562 7  86223858.775 7      -806.122          43.000
R04  20903130.055 8 111935304.111 8     -3451.617          50.000    20903133.547 7  87060799.113 7     -2684.594          45.000
R05  19239855.938 8 102848071.598 8       381.047          51.000    19239857.547 8  79992940.240 8       296.370          50.000
R14  20875516.086 5 111278180.293 5     -3006.105          35.000    20875485.914 4  86549634.150 4     -2338.085          28.000
R15  19276998.477 8 103010552.894 8       378.262          51.000    19277001.930 8  80119265.812 8       294.204          48.000
R16  22349470.430 6 119386864.100 6      3464.992          41.000    22349476.188 7  92856468.930 7      2694.994          42.000
C05  39772180.023 6 207104176.918 6        29.789          37.000    39772179.086 6 160146084.995 6        22.974          40.000
C14  23599763.828 7 122890163.500 7     -2933.125          47.000    23599760.914 7  95026447.369 7     -2268.087          45.000
C24  22130756.469 8 115240699.314 8     -1125.055          51.000
C25  22883829.883 7 119162079.217 7      1810.988          44.000
C26  24985533.680 5 130106241.087 5     -2808.012          31.000
E09  22112104.633 8 116199875.253 8     -1552.730          51.000    22112108.164 8  89036282.014 8     -1189.722          51.000
E24  22045391.172 8 115849303.420 8      1347.762          51.000    22045403.883 8  88767743.901 8      1032.772          51.000
E31  24176026.820 8 127045915.338 8     -1406.012          51.000    24176029.531 8  97346888.774 8     -1077.355          48.000
> 2020 05 03 05 31 30.0000000  0 18        .000000000000
G05  23296441.367 6 122423624.809 6     -3477.484          36.000    23296437.672 5  95394995.725 5     -2709.731          34.000
G13  20149737.383 8 105887578.414 8       -79.746          51.000    20149735.516 8  82509784.337 8       -62.140          50.000
G17  24163323.258 6 126979105.881 6      2707.906          37.000    24163349.477 5  98944795.605 5      2110.051          35.000
G28  21062760.836 8 110685623.980 8     -1064.949          48.000    21062760.031 7  86248540.567 7      -829.831          42.000
G30  22707647.367 5 119329497.429 5     -2633.766          30.000
R04  20922585.953 7 112039486.962 7     -3481.449          47.000    20922589.297 7  87141830.195 7     -2707.794          46.000
R05  19237863.367 8 102837420.011 8       341.625          51.000    19237865.234 8  79984655.673 8       265.708          50.000
R14  20892536.086 5 111368954.758 5     -3029.406          34.000    20892503.281 4  86620186.487 4     -2356.208          25.000
R15  19275002.609 8 102999886.648 8       345.305          51.000    19275005.969 8  80110969.831 8       268.570          48.000
R16  22330116.703 7 119283485.551 7      3441.113          43.000    22330123.609 6  92776057.664 6      2676.421          41.000
C05  39772083.789 6 207103675.167 6        15.953          37.000    39772082.766 6 160145697.014 6        12.436          40.000
C14  23616760.133 7 122978668.400 7     -2954.895          46.000    23616757.094 7  95094884.952 7     -2285.111          47.000
C24  22137339.805 8 115274980.128 8     -1148.090          51.000
C25  22873496.391 7 119108273.179 7      1788.250          43.000
C26  25001792.180 5 130190903.813 5     -2823.629          34.000
E09  22121072.117 8 116247001.733 8     -1576.824          51.000    22121076.070 8  89072391.864 8     -1208.183          51.000
E24  22037802.883 8 115809426.779 8      1322.949          51.000    22037815.102 8  88737189.067 8      1013.676          51.000
E31  24184155.086 8 127088628.485 8     -1429.211          51.000    24184157.633 8  97379617.017 8     -1095.059          48.000
> 2020 05 03 05 32  0.0000000  0 17        .000000000000
G05  23316320.430 5 122528091.976 5     -3486.543          34.000    23316319.625 5  95476398.542 5     -2716.799          32.000
G13  20150244.977 8 105890245.804 8       -98.230          51.000    20150243.117 8  82511862.822 8       -76.546          50.000
G17  24147891.836 6 126898018.321 6      2697.984          38.000    24147917.094 5  98881610.443 5      2102.313          30.000
G28  21068898.938 8 110717879.490 8     -1085.691          49.000    21068897.664 6  86273674.725 6      -845.996          41.000
R04  20942144.750 7 112144224.464 7     -3501.234          45.000    20942148.672 7  87223292.713 7     -2723.179          45.000
R05  19236028.539 8 102827612.482 8       312.074          51.000    19236030.742 8  79977027.576 8       242.724          50.000
R14  20909620.117 6 111460018.619 6     -3041.891          36.000
R15  19273128.383 8 102989871.146 8       322.238          51.000    19273131.297 7  80103179.992 7       250.630          47.000
R16  22310830.625 7 119180458.563 7      3427.230          43.000    22310836.625 6  92695925.029 6      2665.624          38.000
C05  39772002.500 6 207103252.553 6        12.121          37.000    39772001.469 6 160145369.451 6         9.246          40.000
C14  23633819.531 7 123067502.026 7     -2967.426          45.000    23633817.320 8  95163576.696 8     -2294.554          49.000
C24  22143991.805 8 115309619.229 8     -1161.352          51.000
C25  22863229.539 7 119054815.896 7      1775.516          45.000
C26  25018073.805 5 130275683.858 5     -2828.504          34.000
E09  22130113.859 8 116294516.345 8     -1591.105          51.000    22130117.922 8  89108799.128 8     -1219.168          51.000
E24  22030292.758 8 115769962.320 8      1307.797          51.000    22030304.977 8  88706950.067 8      1002.087          51.000
E31  24192351.258 8 127131698.671 8     -1442.434          51.000    24192353.148 8  97412618.838 8     -1105.274          48.000
> 2020 05 03 05 32 30.0000000  0 17        .000000000000
G05  23336228.992 6 122632712.955 6     -3488.324          37.000    23336230.023 6  95557921.224 6     -2718.181          37.000
G13  20150833.352 8 105893338.210 8      -108.336          51.000    20150831.578 8  82514272.481 8       -84.421          50.000
G17  24132491.453 6 126817093.859 6      2696.887          37.000    24132518.211 4  98818552.120 4      2101.443          27.000
G28  21075130.281 8 110750624.625 8     -1097.824          48.000    21075128.852 6  86299190.378 6      -855.447          40.000
R04  20961789.242 7 112249422.866 7     -3512.324          46.000    20961793.570 7  87305113.728 7     -2731.808          44.000
R05  19234334.805 8 102818559.261 8       291.156          51.000    19234337.016 8  79969986.184 8       226.455          49.000
R14  20926747.406 5 111551335.896 5     -3045.574          32.000    20926739.234 4  86762118.445 4     -2368.780          25.000
R15  19271358.727 8 102980414.256 8       307.863          51.000    19271361.164 7  80095824.633 7       239.449          46.000
R16  22291596.750 7 119077719.580 7      3421.801          42.000    22291602.602 6  92616016.941 6      2661.401          37.000
C05  39771919.102 6 207102818.514 6        17.223          37.000    39771918.125 6 160145033.838 6        13.037          40.000
C14  23650924.852 7 123156573.908 7     -2971.168          46.000    23650923.633 8  95232452.703 8     -2297.450          50.000
C24  22150695.531 8 115344526.909 8     -1166.137          51.000
C25  22853013.797 7 119001618.943 7      1770.730          47.000
C26  25034360.734 4 130360491.792 4     -2825.312          29.000
E09  22139212.469 8 116342329.396 8     -1596.730          51.000    22139216.781 8  89145435.084 8     -1223.469          51.000
E24  22022843.961 8 115730820.807 8      1301.297          51.000    22022856.375 8  88676958.534 8       997.148          51.000
E31  24200597.922 8 127175035.124 8     -1446.973          51.000    24200599.273 8  97445824.684 8     -1108.746          48.000
> 2020 05 03 05 33  0.0000000  0 18        .000000000000
G05  23356158.039 6 122737442.867 6     -3496.402          40.000    23356157.172 6  95639528.859 6     -2724.472          39.000
G13  20151494.781 8 105896814.537 8      -125.812          50.000    20151492.992 8  82516981.311 8       -98.036          49.000
G17  24117114.359 6 126736293.344 6      2687.797          38.000    24117136.258 6  98755590.661 6      2094.384          38.000
G24  23447812.586 5 123219086.053 5      3000.047          32.000
G28  21081446.305 8 110783815.334 8     -1117.352          49.000    21081444.578 6  86325053.271 6      -870.667          39.000
G30  22752879.188 5 119567187.073 5     -2649.684          30.000
R04  20981512.609 8 112355036.131 8     -3530.898          50.000    20981515.898 6  87387257.383 6     -2746.254          41.000
R05  19232774.508 8 102810219.112 8       262.469          51.000    19232777.070 8  79963499.401 8       204.142          50.000
R14  20943890.805 5 111642722.954 5     -3056.293          32.000
R15  19269685.398 8 102971472.521 8       285.898          51.000    19269687.789 7  80088869.955 7       222.365          46.000
R16  22272409.109 7 118975227.220 7      3408.676          42.000    22272413.969 5  92536300.718 5      2651.195          35.000
C05  39771825.695 6 207102332.413 6        13.945          37.000    39771824.805 6 160144657.933 6        10.581          40.000
C14  23668067.445 7 123245840.454 7     -2982.395          45.000    23668067.344 8  95301479.257 8     -2306.092          51.000
C24  22157442.766 8 115379660.316 8     -1178.355          51.000
C25  22842839.875 7 118948640.825 7      1758.875          45.000
E09  22148359.789 8 116390398.514 8     -1610.070          51.000    22148364.070 8  89182267.246 8     -1233.690          51.000
E24  22015448.891 8 115691960.366 8      1287.113          51.000    22015461.109 8  88647182.346 8       986.263          51.000
E31  24208887.062 8 127218594.467 8     -1459.203          51.000    24208888.555 8  97479201.308 8     -1118.046          49.000
> 2020 05 03 05 33 30.0000000  0 16        .000000000000
G05  23376119.109 6 122842342.409 6     -3495.523          41.000    23376115.594 6  95721268.690 6     -2723.791          40.000
G13  20152241.531 8 105900739.068 8      -134.418          50.000    20152239.781 8  82520039.374 8      -104.741          50.000
G17  24101774.391 6 126655683.815 6      2687.598          41.000    24101789.617 6  98692778.008 6      2094.229          41.000
G28  21087859.125 8 110817513.972 8     -1127.668          49.000    21087857.391 6  86351311.926 6      -878.702          38.000
R04  21001325.531 8 112461126.263 8     -3540.223          51.000    21001327.406 6  87469771.880 6     -2753.510          41.000
R05  19231359.648 8 102802658.050 8       242.980          51.000    19231362.750 8  79957618.561 8       188.985          49.000
R14  20961122.031 5 111734506.566 5     -3059.559          32.000    20961121.516 4  86904665.045 4     -2379.648          26.000
R15  19268120.406 8 102963109.135 8       273.027          51.000    19268122.703 7  80082365.074 7       212.355          47.000
R16  22253280.164 6 118873047.753 6      3404.684          41.000    22253284.109 5  92456827.795 5      2648.084          35.000
C05  39771734.531 6 207101857.357 6        19.625          37.000    39771733.547 6 160144290.587 6        14.979          40.000
C14  23685259.211 7 123335362.896 7     -2984.461          45.000    23685260.062 8  95370703.680 8     -2307.814          51.000
C24  22164245.227 8 115415081.343 8     -1181.648          51.000
C25  22832719.523 7 118895944.908 7      1755.551          44.000
E09  22157568.062 8 116438787.011 8     -1614.410          51.000    22157571.914 8  89219344.121 8     -1237.037          51.000
E24  22008119.312 8 115653444.766 8      1281.996          51.000    22008131.469 8  88617670.385 8       982.282          51.000
E31  24217230.477 8 127262438.980 8     -1462.359          51.000    24217232.289 8  97512796.451 8     -1120.575          49.000
> 2020 05 03 05 34  0.0000000  0 17        .000000000000
G05  23396108.039 7 122947387.127 7     -3503.871          42.000    23396101.742 6  95803121.635 6     -2730.292          41.000
G13  20153069.531 8 105905090.594 8      -152.391          50.000    20153067.859 8  82523430.177 8      -118.746          50.000
G17  24086467.555 7 126575246.049 7      2677.902          43.000    24086477.844 7  98630099.232 7      2086.677          42.000
G24  23413589.633 5 123039242.597 5      2991.961          32.000
G28  21094364.062 8 110851697.257 8     -1147.973          49.000    21094362.961 6  86377948.248 6      -894.524          37.000
R04  21021222.703 8 112567668.215 8     -3559.312          51.000    21021223.180 7  87552637.763 7     -2768.354          42.000
R05  19230086.859 8 102795855.286 8       213.691          51.000    19230089.930 8  79952327.522 8       166.204          49.000
R14  20978386.227 5 111826510.275 5     -3071.395          35.000
R15  19266659.281 8 102955301.187 8       250.613          51.000    19266661.609 7  80076292.230 7       194.921          47.000
R16  22234206.469 7 118771160.668 7      3390.867          42.000    22234208.727 6  92377582.276 6      2637.341          36.000
C05  39771641.266 6 207101371.749 6        16.156          37.000    39771640.297 6 160143915.077 6        12.415          40.000
C14  23702496.219 7 123425117.798 7     -2996.117          47.000    23702496.781 8  95440107.833 8     -2316.730          50.000
C24  22171098.461 8 115450767.318 8     -1194.285          51.000
C25  22822649.648 7 118843509.744 7      1743.070          46.000
E09  22166833.047 8 116487472.777 8     -1628.164          51.000    22166836.375 8  89256648.781 8     -1247.542          51.000
E24  22000850.836 8 115615252.328 8      1267.383          51.000    22000863.797 8  88588406.087 8       971.070          51.000
E31  24225623.586 8 127306545.563 8     -1474.871          51.000    24225625.383 8  97546592.396 8     -1130.180          49.000
> 2020 05 03 05 34 30.0000000  0 17        .000000000000
G05  23416114.430 7 123052521.728 7     -3506.898          43.000    23416105.906 6  95885044.634 6     -2732.651          40.000
G13  20153969.062 8 105909818.125 8      -164.984          49.000    20153967.609 8  82527113.963 8      -128.559          49.000
G17  24071184.219 7 126494931.020 7      2673.895          42.000    24071190.781 7  98567516.082 7      2083.554          42.000
G24  23396511.211 5 122949492.182 5      2989.934          33.000
G28  21100950.930 8 110886311.147 8     -1161.891          49.000    21100949.656 6  86404920.096 6      -905.372          37.000
R04  21041193.562 8 112674605.814 8     -3572.234          51.000    21041193.805 7  87635811.390 7     -2778.408          44.000
R05  19228946.203 8 102789758.983 8       190.379          50.000    19228949.453 8  79947585.937 8       148.072          49.000
R14  20995676.648 5 111918743.567 5     -3076.863          32.000
R15  19265291.727 8 102947994.204 8       234.211          51.000    19265294.172 7  80070609.013 7       182.164          47.000
R16  22215178.711 7 118669514.118 7      3383.109          44.000    22215178.969 6  92298523.895 6      2631.307          37.000
C05  39771535.961 6 207100824.361 6        17.992          37.000    39771535.117 6 160143491.400 6        14.154          41.000
C14  23719767.922 8 123515051.520 8     -3001.793          48.000    23719767.383 8  95509650.263 8     -2321.159          51.000
C24  22177992.398 8 115486665.249 8     -1201.164          51.000
C25  22812620.953 7 118791283.729 7      1736.402          47.000
E09  22176144.875 8 116536403.211 8     -1636.078          51.000    22176147.359 8  89294140.926 8     -1253.651          51.000
E24  21993634.680 8 115577331.017 8      1258.480          51.000    21993648.062 8  88559349.512 8       964.260          51.000
E31  24234056.352 8 127350860.625 8     -1481.648          51.000    24234058.172 8  97580548.073 8     -1135.280          50.000
> 2020 05 03 05 35  0.0000000  0 16        .000000000000
G05  23436177.586 7 123157952.701 7     -3513.914          44.000    23436167.992 6  95967198.562 6     -2738.118          40.000
G13  20154979.812 8 105915130.452 8      -181.383          49.000    20154978.773 8  82531253.425 8      -141.337          49.000
G15  20707411.680 5 108818182.739 5      1488.758          31.000
G17  24055964.438 6 126414950.663 6      2665.840          41.000    24055968.594 6  98505193.764 6      2077.281          41.000
G28  21107659.133 7 110921563.231 7     -1180.062          47.000    21107656.969 5  86432389.248 5      -919.532          35.000
R04  21061277.336 8 112782148.948 8     -3589.172          51.000    21061277.555 7  87719455.993 7     -2791.581          43.000
R05  19227977.844 8 102784582.874 8       162.781          51.000    19227981.078 8  79943560.072 8       126.608          48.000
R15  19264057.664 8 102941399.558 8       213.578          51.000    19264060.000 7  80065479.837 7       166.116          46.000
R16  22196235.992 7 118568321.696 7      3371.105          44.000    22196236.297 6  92219818.715 6      2621.971          40.000
C05  39771458.539 6 207100420.689 6        16.066          37.000    39771457.711 6 160143179.623 6        12.871          40.000
C14  23737113.078 8 123605369.157 8     -3011.500          48.000    23737111.703 8  95579489.523 8     -2328.695          51.000
C24  22184966.531 8 115522980.982 8     -1212.012          51.000
C25  22802672.453 7 118739474.051 7      1725.531          47.000
E09  22185542.781 8 116585786.875 8     -1648.082          51.000    22185544.602 8  89331980.331 8     -1262.867          51.000
E24  21986510.281 8 115539889.867 8      1245.555          51.000    21986523.523 8  88530660.807 8       954.419          51.000
E31  24242568.562 8 127395591.690 8     -1492.371          51.000    24242570.648 8  97614822.515 8     -1143.574          50.000
> 2020 05 03 05 35 30.0000000  0 15        .000000000000
G05  23456249.844 7 123263431.026 7     -3518.281          42.000    23456240.977 7  96049389.398 7     -2741.518          42.000
G13  20156055.422 8 105920782.656 8      -195.504          50.000    20156054.406 8  82535657.726 8      -152.341          50.000
G17  24040761.750 6 126335061.905 6      2659.785          39.000    24040764.734 6  98442942.828 6      2072.563          39.000
G28  21114441.602 8 110957205.834 8     -1195.914          48.000    21114440.195 5  86460162.734 5      -931.881          34.000
R04  21081426.266 8 112890043.910 8     -3603.750          51.000    21081426.062 7  87803374.207 7     -2802.920          42.000
R05  19227135.250 8 102780077.529 8       137.602          51.000    19227138.336 8  79940055.893 8       107.023          49.000
R15  19262909.672 8 102935265.727 8       195.410          50.000    19262912.195 7  80060709.102 7       151.986          47.000
R16  22177330.961 7 118467335.038 7      3361.484          42.000    22177333.391 7  92141273.553 7      2614.488          42.000
C05  39771362.164 6 207099918.344 6        17.039          37.000    39771361.281 6 160142791.201 6        13.179          40.000
C14  23754484.422 8 123695824.958 8     -3018.781          48.000    23754482.688 8  95649435.647 8     -2334.352          51.000
C24  22191973.719 8 115559469.531 8     -1220.520          51.000
C25  22792756.359 7 118687836.999 7      1716.977          46.000
E09  22194979.797 8 116635377.313 8     -1657.816          51.000    22194981.516 8  89369978.148 8     -1270.293          51.000
E24  21979430.047 8 115502682.846 8      1234.922          51.000    21979443.227 8  88502151.513 8       946.233          51.000
E31  24251112.844 8 127440491.331 8     -1500.891          51.000    24251115.297 8  97649226.125 8     -1150.012          51.000
> 2020 05 03 05 36  0.0000000  0 15        .000000000000
G05  23476352.430 7 123369069.733 7     -3524.906          43.000    23476344.812 7  96131705.216 7     -2746.683          43.000
G13  20157217.984 8 105926891.230 8      -212.152          51.000    20157216.719 8  82540417.635 8      -165.314          51.000
G17  24025598.625 6 126255383.572 6      2651.383          37.000    24025601.352 6  98380855.861 6      2066.016          37.000
G28  21121320.289 8 110993353.112 8     -1214.402          48.000    21121320.148 5  86488329.481 5      -946.284          33.000
R04  21101661.883 8 112998406.029 8     -3620.824          49.000    21101661.422 7  87887655.759 7     -2816.200          43.000
R05  19226440.234 8 102776362.202 8       109.605          50.000    19226443.195 8  79937166.180 8        85.249          48.000
R15  19261869.812 8 102929709.467 8       174.609          50.000    19261872.641 7  80056387.553 7       135.807          46.000
R16  22158486.289 7 118366673.311 7      3348.902          42.000    22158491.109 7  92062981.088 7      2604.702          42.000
C05  39771268.734 6 207099431.879 6        15.105          37.000    39771267.812 6 160142415.036 6        11.487          41.000
C14  23771903.914 8 123786531.958 8     -3028.750          49.000    23771902.164 8  95719576.020 8     -2341.958          51.000
C24  22199035.930 8 115596244.660 8     -1231.520          51.000
C25  22782895.117 7 118636487.704 7      1705.957          44.000
E09  22204478.234 8 116685290.117 8     -1670.078          51.000    22204479.703 8  89408222.979 8     -1279.652          51.000
E24  21972416.227 8 115465826.026 8      1221.758          51.000    21972429.617 8  88473910.571 8       936.185          51.000
E31  24259710.984 8 127485674.162 8     -1511.730          51.000    24259713.547 8  97683846.728 8     -1158.339          51.000
> 2020 05 03 05 36 30.0000000  0 15        .000000000000
G05  23496481.844 7 123474849.168 7     -3528.574          43.000    23496476.039 7  96214130.715 7     -2749.538          42.000
G13  20158464.328 8 105933440.376 8      -225.703          51.000    20158462.852 8  82545520.851 8      -175.873          50.000
G17  24010473.367 6 126175902.210 6      2646.078          38.000    24010476.023 6  98318922.386 6      2061.879          38.000
G28  21128291.531 8 111029986.924 8     -1229.023          48.000    21128290.883 4  86516875.385 4      -957.681          29.000
R04  21121979.719 7 113107215.103 7     -3634.254          47.000    21121981.062 7  87972285.023 7     -2826.642          45.000
R05  19225889.977 8 102773421.252 8        85.105          50.000    19225892.984 8  79934878.766 8        66.190          48.000
R15  19260934.500 8 102924713.069 8       157.273          50.000    19260937.570 7  80052501.459 7       122.324          45.000
R16  22139699.422 6 118266321.039 6      3339.980          40.000    22139705.625 6  91984929.284 6      2597.763          41.000
C05  39771175.242 6 207098944.781 6        16.426          37.000    39771174.266 6 160142038.377 6        12.599          40.000
C14  23789368.242 8 123877471.741 8     -3035.195          50.000    23789366.602 8  95789896.409 8     -2346.915          51.000
C24  22206149.883 8 115633288.743 8     -1239.223          51.000
C25  22773085.477 7 118585409.806 7      1698.102          42.000
E09  22214034.828 8 116735508.242 8     -1678.961          51.000    22214036.023 8  89446701.767 8     -1286.453          51.000
E24  21965466.539 8 115429302.927 8      1211.895          51.000    21965479.695 8  88445925.322 8       928.651          51.000
E31  24268359.656 8 127531122.206 8     -1519.270          51.000    24268362.148 8  97718670.534 8     -1164.104          51.000
> 2020 05 03 05 37  0.0000000  0 15        .000000000000
G05  23516638.719 6 123580776.273 6     -3532.512          40.000    23516635.117 6  96296671.285 6     -2752.607          40.000
G13  20159796.406 8 105940440.440 8      -240.582          51.000    20159794.695 8  82550975.428 8      -187.467          50.000
G17  23995388.172 6 126096630.579 6      2640.043          36.000    23995390.945 6  98257152.322 6      2057.179          36.000
G28  21135356.945 8 111067115.515 8     -1245.102          48.000    21135354.922 5  86545806.766 5      -970.206          31.000
R04  21142382.797 8 113216478.339 8     -3649.281          48.000    21142386.000 7  88057267.570 7     -2838.330          47.000
R05  19225486.680 8 102771265.503 8        59.160          49.000    19225489.867 8  79933202.065 8        46.010          48.000
R15  19260105.898 8 102920284.793 8       138.664          50.000    19260108.758 7  80049057.249 7       107.850          44.000
R16  22120972.422 6 118166289.620 6      3329.410          40.000    22120978.227 6  91907127.023 6      2589.541          39.000
C05  39771083.539 6 207098466.812 6        15.758          37.000    39771082.430 6 160141668.745 6        12.593          40.000
C14  23806878.648 8 123968652.162 8     -3042.945          51.000    23806877.320 8  95860402.881 8     -2353.007          51.000
C24  22213317.125 8 115670610.317 8     -1248.254          51.000
C25  22763327.734 6 118534613.254 6      1689.078          38.000
E09  22223651.086 8 116786041.122 8     -1689.234          51.000    22223652.266 8  89485421.744 8     -1294.321          51.000
E24  21958582.453 8 115393123.385 8      1200.684          51.000    21958595.070 8  88418203.322 8       920.040          51.000
E31  24277060.289 8 127576843.873 8     -1528.180          51.000    24277062.750 8  97753704.011 8     -1170.901          51.000
> 2020 05 03 05 37 30.0000000  0 15        .000000000000
G05  23536820.008 6 123686832.144 6     -3536.824          37.000    23536818.352 6  96379312.175 6     -2755.970          38.000
G13  20161211.297 8 105947875.343 8      -254.562          51.000    20161209.719 8  82556768.839 8      -198.360          50.000
G17  23980340.227 5 126017555.459 5      2632.789          35.000    23980342.953 5  98195535.393 5      2051.527          35.000
G28  21142512.898 7 111104720.430 7     -1260.820          45.000    21142511.227 5  86575109.330 5      -982.457          34.000
R04  21162868.039 8 113326175.891 8     -3663.215          50.000    21162871.797 7  88142587.907 7     -2849.164          47.000
R05  19225227.367 8 102769879.241 8        34.000          49.000    19225230.789 8  79932123.840 8        26.444          48.000
R15  19259380.203 8 102916406.897 8       120.637          49.000    19259382.398 7  80046041.091 7        93.829          43.000
R16  22102304.008 7 118066563.395 7      3319.625          43.000    22102306.766 6  91829562.204 6      2581.931          38.000
C05  39770990.320 6 207097981.544 6        16.723          37.000    39770989.211 6 160141293.528 6        12.904          40.000
C14  23824431.664 8 124060054.934 8     -3049.941          51.000    23824430.508 8  95931081.275 8     -2358.381          51.000
C24  22220534.172 8 115708191.862 8     -1256.527          51.000
C25  22753621.281 6 118484081.758 6      1680.574          38.000
E09  22233323.344 8 116836871.831 8     -1698.734          51.000    22233324.914 8  89524369.949 8     -1301.655          51.000
E24  21951760.133 8 115357270.954 8      1190.238          51.000    21951772.430 8  88390731.988 8       911.959          51.000
E31  24285809.523 8 127622821.299 8     -1536.270          51.000    24285811.875 8  97788933.456 8     -1177.160          51.000
> 2020 05 03 05 38  0.0000000  0 15        .000000000000
G05  23557023.680 5 123793007.775 5     -3541.992          32.000    23557024.227 5  96462046.365 5     -2759.994          32.000
G13  20162708.016 8 105955740.325 8      -269.633          51.000    20162706.656 8  82562897.372 8      -210.103          50.000
G17  23965329.258 5 125938674.236 5      2625.992          35.000    23965331.469 5  98134069.521 5      2046.228          35.000
G28  21149757.938 7 111142794.774 7     -1277.387          44.000    21149756.852 6  86604777.716 6      -995.366          37.000
R04  21183433.086 8 113436299.204 8     -3678.129          51.000    21183436.625 7  88228239.370 7     -2860.767          46.000
R05  19225111.508 8 102769258.207 8         7.691          50.000    19225114.992 8  79931640.818 8         5.982          48.000
R15  19258756.203 8 102913072.665 8       101.812          49.000    19258758.398 7  80043447.810 7        79.188          44.000
R16  22083692.375 7 117967138.268 7      3308.938          44.000    22083692.688 6  91752231.598 6      2573.618          40.000
C05  39770894.797 6 207097483.755 6        16.652          37.000    39770893.617 6 160140908.609 6        12.701          40.000
C14  23842025.648 8 124151672.826 8     -3057.711          50.000    23842024.805 8  96001926.017 8     -2364.510          51.000
C24  22227799.812 8 115746026.908 8     -1265.637          51.000
C25  22743966.578 6 118433810.066 6      1671.344          38.000
E09  22243050.383 8 116887994.628 8     -1709.270          49.000    22243053.047 8  89563541.976 8     -1309.712          51.000
E24  21944998.727 8 115321740.364 8      1178.652          51.000    21945010.969 8  88363507.256 8       903.120          51.000
E31  24294606.211 8 127669047.814 8     -1545.355          51.000    24294608.477 8  97824353.749 8     -1184.098          51.000
> 2020 05 03 05 38 30.0000000  0 15        .000000000000
G13  20164296.500 8 105964087.923 8      -283.688          51.000    20164295.289 8  82569401.972 8      -221.058          50.000
G17  23950366.250 5 125860041.262 5      2619.430          33.000    23950367.625 5  98072797.150 5      2041.114          32.000
G28  21157101.906 7 111181388.555 7     -1292.406          44.000    21157100.250 5  86634850.788 5     -1007.067          35.000
G30  22920615.164 5 120448644.851 5     -2693.457          33.000
R04  21204087.023 8 113546897.678 8     -3691.965          50.000    21204089.938 7  88314260.395 7     -2871.528          46.000
R05  19225148.625 8 102769455.607 8       -17.633          50.000    19225152.234 8  79931794.345 8       -13.714          49.000
R15  19258243.625 8 102910333.251 8        84.090          50.000    19258245.492 7  80041317.130 7        65.403          43.000
R16  22065146.484 7 117868068.236 7      3298.840          43.000    22065146.406 6  91675177.173 6      2565.764          41.000
C05  39770806.594 6 207097024.537 6        17.527          37.000    39770805.391 6 160140553.528 6        13.287          40.000
C14  23859670.273 8 124243555.043 8     -3064.539          50.000    23859669.586 8  96072975.132 8     -2369.681          51.000
C24  22235123.812 8 115784165.437 8     -1273.742          51.000
C25  22734372.703 6 118383849.602 6      1662.410          39.000
E09  22252842.922 8 116939460.662 8     -1718.602          50.000    22252846.617 8  89602977.019 8     -1316.880          51.000
E24  21938308.539 8 115286583.291 8      1168.285          51.000    21938320.867 8  88336568.708 8       895.180          51.000
E31  24303459.891 8 127715573.586 8     -1553.234          51.000    24303462.227 8  97860003.347 8     -1190.138          51.000
> 2020 05 03 05 39  0.0000000  0 15        .000000000000
G13  20165957.023 8 105972813.940 8      -301.691          51.000    20165955.867 8  82576201.438 8      -235.084          49.000
G17  23935431.141 5 125781554.387 5      2608.617          30.000    23935431.938 5  98011638.652 5      2032.695          32.000
G28  21164524.453 7 111220394.897 7     -1311.656          43.000    21164522.539 6  86665245.336 6     -1022.070          38.000
R04  21224809.023 8 113657861.227 8     -3709.477          48.000    21224811.359 7  88400565.352 7     -2885.151          44.000
R05  19225319.109 8 102770365.523 8       -46.812          51.000    19225322.789 8  79932502.036 8       -36.413          48.000
R15  19257822.109 8 102908080.410 8        62.348          49.000    19257823.812 7  80039564.931 7        48.493          44.000
R16  22046646.359 7 117769247.801 7      3285.105          42.000    22046647.078 6  91598316.813 6      2555.082          41.000
C05  39770705.828 6 207096499.768 6        13.973          37.000    39770704.594 6 160140147.728 6        10.829          40.000
C14  23877345.242 8 124335595.333 8     -3075.191          49.000    23877344.430 8  96144146.488 8     -2377.945          51.000
C24  22242485.812 8 115822501.987 8     -1285.680          51.000
C25  22724818.836 6 118334096.208 6      1650.512          41.000
C26  25246541.297 5 131465365.122 5     -2841.441          30.000
E09  22262681.562 8 116991164.350 8     -1732.027          51.000    22262685.789 8  89642594.142 8     -1327.150          51.000
E24  21931669.172 8 115251694.572 8      1153.875          51.000    21931682.109 8  88309835.789 8       884.120          51.000
E31  24312350.078 8 127762292.086 8     -1565.098          51.000    24312352.422 8  97895800.619 8     -1199.216          51.000
> 2020 05 03 05 39 30.0000000  0 16        .000000000000
G13  20167708.523 8 105982018.158 8      -313.398          51.000    20167707.211 8  82583373.539 8      -244.210          49.000
G17  23920542.789 5 125703316.947 5      2605.191          33.000    23920543.172 5  97950674.471 5      2030.019          33.000
G28  21172044.312 6 111259912.402 6     -1324.156          41.000    21172042.664 6  86696038.177 6     -1031.810          38.000
R04  21245617.711 7 113769288.999 7     -3720.512          47.000    21245619.023 6  88487231.346 6     -2893.734          41.000
R05  19225642.242 8 102772090.922 8       -69.695          51.000    19225645.461 8  79933843.996 8       -54.211          48.000
R14  21171170.508 4 112854227.751 4     -3153.914          28.000
R15  19257510.656 8 102906414.852 8        47.164          49.000    19257511.836 7  80038269.484 7        36.683          42.000
R16  22028212.828 7 117670779.896 7      3277.793          44.000    22028214.188 7  91521730.678 7      2549.398          42.000
C05  39770611.555 6 207096009.767 6        17.039          37.000    39770610.328 6 160139768.040 6        13.167          40.000
C14  23895069.219 8 124427891.286 8     -3079.477          48.000    23895068.461 8  96215515.545 8     -2381.207          50.000
C24  22249904.852 8 115861134.880 8     -1291.320          51.000
C25  22715324.234 7 118284649.405 7      1644.562          43.000
C26  25262902.594 5 131550549.914 5     -2838.746          31.000
E09  22272585.031 8 117043205.608 8     -1739.016          51.000    22272589.336 8  89682469.900 8     -1332.481          51.000
E24  21925099.820 8 115217174.549 8      1145.832          51.000    21925113.609 8  88283385.388 8       877.990          51.000
E31  24321295.711 8 127809302.289 8     -1570.539          51.000    24321297.805 8  97931821.398 8     -1203.406          51.000
> 2020 05 03 05 40  0.0000000  0 15        .000000000000
G13  20169540.539 8 105991645.370 8      -328.836          51.000    20169538.930 8  82590875.243 8      -256.236          49.000
G17  23905691.469 5 125625257.123 5      2596.957          30.000    23905691.281 4  97889809.598 4      2023.603          28.000
G28  21179650.289 6 111299882.718 6     -1341.000          36.000    21179649.047 6  86727183.904 6     -1044.932          36.000
R04  21266501.672 7 113881120.475 7     -3735.223          46.000    21266501.523 6  88574211.246 6     -2905.179          40.000
R05  19226107.352 8 102774574.964 8       -96.301          51.000    19226110.148 8  79935775.992 8       -74.904          48.000
R15  19257297.984 8 102905277.808 8        28.277          49.000    19257298.914 7  80037385.119 7        21.993          43.000
R16  22009835.375 7 117572608.656 7      3266.641          44.000    22009837.078 7  91445375.296 7      2540.720          42.000
C05  39770512.945 6 207095496.569 6        16.352          37.000    39770511.781 6 160139371.197 6        12.741          40.000
C14  23912831.367 7 124520384.837 7     -3087.059          47.000    23912830.734 8  96287037.407 8     -2387.185          50.000
C24  22257370.062 8 115900006.896 8     -1300.586          51.000
C25  22705878.125 7 118235453.226 7      1634.695          43.000
C26  25279264.648 5 131635758.228 5     -2840.637          32.000
E09  22282542.102 8 117095527.374 8     -1749.602          51.000    22282546.195 8  89722560.595 8     -1340.586          51.000
E24  21918590.234 8 115182966.729 8      1134.191          51.000    21918604.508 8  88257174.196 8       869.086          51.000
E31  24330285.898 8 127856546.220 8     -1579.551          51.000    24330287.891 8  97968021.262 8     -1210.281          51.000
> 2020 05 03 05 40 30.0000000  0 14        .000000000000
G13  20171442.484 8 106001640.247 8      -331.945          51.000    20171441.031 8  82598663.447 8      -258.659          48.000
G28  21187331.484 6 111340248.364 6     -1344.867          38.000    21187330.555 6  86758637.612 6     -1047.948          37.000
G30  22982318.664 6 120772878.494 6     -2699.141          37.000    22982317.672 5  94108748.105 5     -2103.226          35.000
R04  21287450.055 7 113993295.274 7     -3737.359          45.000    21287448.930 7  88661458.223 7     -2906.835          42.000
R05  19226703.516 8 102777761.675 8      -110.445          50.000    19226706.055 8  79938254.525 8       -85.902          48.000
R15  19257173.336 7 102904611.015 7        21.898          47.000    19257174.383 7  80036866.516 7        17.032          43.000
R16  21991502.359 7 117474678.284 7      3267.879          43.000    21991504.438 6  91369207.262 6      2541.684          41.000
C05  39770399.484 6 207094905.723 6        27.879          37.000    39770398.273 6 160138914.291 6        22.111          40.000
C14  23930620.867 8 124613018.679 8     -3082.957          48.000    23930620.297 8  96358667.738 8     -2383.730          50.000
C24  22264870.164 8 115939061.445 8     -1297.602          51.000
C25  22696469.648 7 118186452.434 7      1637.344          44.000
E09  22292541.680 8 117148073.287 8     -1747.852          51.000    22292545.797 8  89762823.036 8     -1339.284          51.000
E24  21912129.602 8 115149015.192 8      1134.812          51.000    21912144.047 8  88231159.370 8       869.550          51.000
E31  24339309.602 8 127903966.595 8     -1576.230          51.000    24339311.961 8  98004356.331 8     -1207.737          51.000
> 2020 05 03 05 41  0.0000000  0 14        .000000000000
G13  20173457.070 8 106012226.624 8      -364.129          51.000    20173455.828 8  82606912.562 8      -283.737          50.000
G24  23177201.719 5 121797016.137 5      2916.137          30.000
G28  21195129.539 5 111381230.690 5     -1377.461          34.000    21195129.602 5  86790571.764 5     -1073.349          33.000
R04  21308503.102 7 114106038.106 7     -3768.832          44.000    21308503.625 7  88749147.129 7     -2931.314          44.000
R05  19227473.312 8 102781879.251 8      -154.141          50.000    19227476.148 8  79941457.070 8      -119.887          48.000
R15  19257178.898 8 102904640.505 8       -13.996          48.000    19257179.789 7  80036889.457 7       -10.889          42.000
R16  21973256.672 7 117377217.750 7      3239.566          43.000    21973259.234 6  91293404.583 6      2519.660          41.000
C05  39770313.680 6 207094458.798 6        11.426          37.000    39770312.477 6 160138568.746 6         8.587          40.000
C14  23948479.898 7 124706012.456 7     -3107.133          47.000    23948478.992 8  96430576.407 8     -2402.644          49.000
C24  22272447.375 8 115978518.963 8     -1323.289          51.000
C25  22687140.156 7 118137868.762 7      1611.027          44.000
E09  22302626.188 8 117201066.527 8     -1775.281          51.000    22302630.438 8  89803428.229 8     -1360.271          51.000
E24  21905760.164 8 115115543.564 8      1106.348          51.000    21905774.844 8  88205512.288 8       847.673          51.000
E31  24348409.125 8 127951785.650 8     -1602.012          51.000    24348411.898 8  98040996.892 8     -1227.536          51.000
> 2020 05 03 05 41 30.0000000  0 16        .000000000000
G05  23699091.680 5 124539544.972 5     -3562.961          33.000    23699092.086 5  97043817.652 5     -2776.333          33.000
G13  20175529.008 8 106023113.736 8      -367.301          51.000    20175527.727 8  82615396.008 8      -286.208          50.000
G17  23861389.695 5 125392439.204 5      2580.234          31.000    23861383.742 5  97708384.560 5      2010.560          30.000
G28  21202989.227 5 111422460.338 5     -1381.438          31.000    21202989.414 4  86822698.681 4     -1076.457          27.000
R04  21329606.547 8 114219049.034 8     -3770.766          49.000    21329608.438 7  88837044.519 7     -2932.818          44.000
R05  19228361.453 8 102786632.079 8      -168.309          49.000    19228365.102 8  79945153.722 8      -130.907          48.000
R14  21242491.227 5 113234390.725 5     -3177.051          33.000
R15  19257258.938 7 102905068.692 7       -20.426          47.000    19257260.148 7  80037222.479 7       -15.887          42.000
R16  21955044.094 7 117279931.996 7      3240.582          44.000    21955047.039 6  91217737.859 6      2520.453          41.000
C05  39770200.102 6 207093867.100 6        22.637          37.000    39770198.812 6 160138111.182 6        17.749          40.000
C14  23966352.219 8 124799075.404 8     -3102.484          48.000    23966350.734 8  96502538.551 8     -2398.938          49.000
C24  22280046.359 8 116018089.479 8     -1320.246          51.000
C25  22677834.453 7 118089413.433 7      1613.652          44.000
E09  22312740.086 8 117254215.142 8     -1773.449          51.000    22312744.008 8  89844152.459 8     -1358.853          51.000
E24  21899426.719 8 115082260.407 8      1106.996          51.000    21899441.398 8  88180009.613 8       848.251          51.000
E31  24357528.852 8 127999710.565 8     -1598.473          51.000    24357531.766 8  98077718.562 8     -1224.822          51.000
> 2020 05 03 05 42  0.0000000  0 15        .000000000000
G05  23719469.703 5 124646632.113 5     -3572.867          35.000    23719470.289 5  97127262.040 5     -2784.055          34.000
G13  20177694.875 8 106034494.601 8      -388.449          51.000    20177693.461 8  82624264.206 8      -302.688          50.000
G17  23846707.227 5 125315288.864 5      2566.961          31.000    23846699.609 5  97648266.062 5      2000.229          31.000
R04  21350797.008 8 114332521.003 8     -3790.949          51.000    21350798.727 7  88925300.436 7     -2948.519          43.000
R05  19229405.938 8 102792216.222 8      -200.910          51.000    19229409.625 8  79949496.930 8      -156.263          49.000
R14  21260415.117 5 113329932.697 5     -3190.543          33.000
R15  19257449.758 7 102906089.680 7       -44.875          46.000    19257451.828 7  80038016.569 7       -34.903          42.000
R16  21936901.992 7 117183017.694 7      3223.465          45.000    21936905.094 6  91142360.091 6      2507.139          41.000
C05  39770095.273 6 207093321.210 6        16.133          37.000    39770094.000 6 160137689.063 6        12.780          40.000
C14  23984274.125 8 124892396.129 8     -3115.832          49.000    23984271.992 8  96574700.022 8     -2409.253          48.000
C24  22287703.602 8 116057962.448 8     -1335.000          51.000
C25  22668589.828 7 118041277.111 7      1598.418          43.000
E09  22322919.680 8 117307711.000 8     -1789.852          51.000    22322922.414 8  89885142.753 8     -1371.466          49.000
E24  21893165.922 8 115049358.061 8      1089.461          51.000    21893180.156 8  88154798.724 8       834.779          51.000
E31  24366705.109 8 128047932.310 8     -1613.242          51.000    24366708.039 8  98114667.676 8     -1236.076          51.000
> 2020 05 03 05 42 30.0000000  0 15        .000000000000
G05  23739877.688 6 124753870.549 6     -3578.480          37.000    23739872.023 5  97210824.438 5     -2788.420          30.000
G13  20179954.359 8 106046367.576 8      -405.375          51.000    20179952.391 8  82633515.867 8      -315.877          50.000
G15  20589511.750 5 108198613.693 5      1259.766          32.000
G17  23832070.773 5 125238377.917 5      2557.000          31.000    23832065.836 4  97588348.728 4      1992.468          29.000
R04  21372072.539 8 114446448.522 8     -3806.543          51.000    21372073.312 7  89013910.641 7     -2960.648          42.000
R05  19230606.164 8 102798630.515 8      -229.082          51.000    19230609.516 8  79954485.803 8      -178.178          49.000
R15  19257751.062 7 102907699.889 7       -64.781          47.000    19257753.000 6  80039268.935 6       -50.385          41.000
R16  21918829.586 7 117086474.004 7      3210.562          46.000    21918832.555 7  91067270.551 7      2497.104          42.000
C05  39769998.836 6 207092818.933 6        14.621          37.000    39769997.539 6 160137300.702 6        11.360          40.000
C14  24002244.945 8 124985970.604 8     -3124.695          50.000    24002242.172 8  96647057.708 8     -2416.243          48.000
C24  22295418.305 8 116098134.583 8     -1345.387          51.000
C25  22659405.688 7 117993457.889 7      1587.199          43.000
E09  22333164.859 8 117361551.500 8     -1801.738          51.000    22333165.977 8  89926397.104 8     -1380.541          49.000
E24  21886977.000 8 115016834.336 8      1076.461          51.000    21886990.648 8  88129877.954 8       824.845          51.000
E31  24375937.227 8 128096447.380 8     -1623.371          51.000    24375940.109 8  98151841.549 8     -1243.888          51.000
> 2020 05 03 05 43  0.0000000  0 16        .000000000000
G05  23760314.250 6 124861261.985 6     -3576.980          36.000    23760305.867 5  97294506.042 5     -2787.261          33.000
G13  20182308.383 8 106058737.539 8      -415.488          51.000    20182306.141 8  82643154.786 8      -323.757          50.000
G15  20582351.508 4 108160987.198 4      1249.449          28.000    20582347.039 4  84281265.888 4       973.594          27.000
G17  23817490.516 5 125161761.517 5      2554.586          33.000    23817490.016 5  97528643.166 5      1990.583          31.000
G28  21227156.766 6 111549455.942 6     -1431.449          36.000    21227155.250 6  86921650.060 6     -1115.418          36.000
R04  21393433.117 8 114560832.975 8     -3815.156          51.000    21393433.828 7  89102876.278 7     -2967.344          43.000
R05  19231962.852 8 102805879.833 8      -250.367          51.000    19231965.711 8  79960124.144 8      -194.730          49.000
R15  19258163.617 7 102909902.465 7       -78.012          47.000    19258165.297 6  80040982.040 6       -60.676          40.000
R16  21900827.031 7 116990306.582 7      3204.445          45.000    21900830.719 7  90992473.703 7      2492.349          43.000
C05  39769911.641 6 207092364.739 6        19.461          38.000    39769910.266 6 160136949.492 6        14.916          40.000
C14  24020264.570 8 125079801.166 8     -3126.867          49.000    24020261.250 7  96719613.409 7     -2417.943          47.000
C24  22303190.938 8 116138609.106 8     -1349.148          51.000
C25  22650284.180 7 117945960.165 7      1582.793          44.000
E09  22343476.820 8 117415740.532 8     -1806.961          51.000    22343477.336 8  89967918.531 8     -1384.584          50.000
E24  21880860.750 8 114984693.643 8      1070.078          51.000    21880873.898 8  88105250.686 8       819.888          51.000
E31  24385225.797 8 128145258.800 8     -1626.859          51.000    24385228.562 8  98189242.491 8     -1246.534          51.000
> 2020 05 03 05 43 30.0000000  0 16        .000000000000
G05  23780754.602 5 124968673.029 5     -3583.242          33.000    23780746.836 5  97378202.839 5     -2792.146          31.000
G13  20184732.195 8 106071474.604 8      -432.309          51.000    20184730.000 8  82653079.757 8      -336.864          51.000
G15  20575274.078 5 108123789.745 5      1232.414          33.000    20575267.844 5  84252289.861 5       960.320          33.000
G17  23802937.375 6 125085309.698 6      2543.930          36.000    23802943.750 6  97469070.265 6      1982.280          36.000
G28  21235382.477 5 111592681.519 5     -1449.164          33.000    21235381.641 5  86955332.356 5     -1129.213          32.000
R04  21414853.438 8 114675538.673 8     -3830.391          50.000    21414855.188 7  89192091.829 7     -2979.193          44.000
R05  19233450.961 8 102813832.349 8      -278.406          51.000    19233453.625 8  79966309.410 8      -216.538          50.000
R15  19258661.672 7 102912563.245 7       -97.965          47.000    19258663.289 6  80043051.554 6       -76.192          40.000
R16  21882869.844 7 116894383.991 7      3191.734          44.000    21882874.352 7  90917867.231 7      2482.457          42.000
C05  39769808.828 6 207091829.578 6        17.531          37.000    39769807.438 6 160136535.659 6        13.547          40.000
C14  24038307.922 8 125173756.803 8     -3135.574          49.000    24038303.680 7  96792265.823 7     -2424.534          45.000
C24  22310996.602 8 116179255.812 8     -1359.348          51.000
C25  22641200.742 7 117898654.930 7      1571.883          45.000
E09  22353830.477 8 117470147.393 8     -1818.746          51.000    22353830.672 8  90009606.881 8     -1393.588          51.000
E24  21874792.562 8 114952805.739 8      1057.180          51.000    21874805.531 8  88080817.079 8       810.026          51.000
E31  24394545.711 8 128194234.974 8     -1636.855          51.000    24394548.516 8  98226769.668 8     -1254.202          51.000
> 2020 05 03 05 44  0.0000000  0 16        .000000000000
G05  23801217.609 5 125076241.380 5     -3585.957          32.000    23801209.250 5  97461961.107 5     -2794.264          30.000
G13  20187246.758 8 106084688.875 8      -448.094          51.000    20187244.477 8  82663376.574 8      -349.164          51.000
G15  20568289.523 5 108087089.195 5      1215.605          35.000    20568284.672 5  84223692.044 5       947.225          35.000
G17  23788438.625 5 125009090.497 5      2535.312          33.000    23788448.289 5  97409715.559 5      1975.574          32.000
G28  21243701.391 6 111636402.624 6     -1464.789          37.000    21243700.531 6  86989395.296 6     -1141.397          36.000
R04  21436353.875 8 114790673.514 8     -3844.547          49.000    21436356.539 7  89281641.195 7     -2990.200          44.000
R05  19235091.281 8 102822599.632 8      -305.434          51.000    19235093.711 8  79973128.404 8      -237.559          50.000
R15  19259266.375 8 102915792.367 8      -116.750          48.000    19259266.852 6  80045563.083 6       -90.806          39.000
R16  21864979.539 7 116798819.020 7      3179.770          45.000    21864984.281 7  90843538.955 7      2473.157          43.000
C05  39769711.320 6 207091321.751 6        17.062          37.000    39769709.977 6 160136142.970 6        13.133          40.000
C14  24056395.266 7 125267943.930 7     -3143.055          47.000    24056389.820 7  96865097.233 7     -2430.328          43.000
C24  22318855.875 8 116220181.881 8     -1368.477          51.000
C25  22632174.875 7 117851650.622 7      1562.062          44.000
E09  22364246.445 8 117524880.909 8     -1829.488          51.000    22364246.539 8  90051545.530 8     -1401.822          51.000
E24  21868793.000 8 114921279.922 8      1045.215          51.000    21868806.391 8  88056660.919 8       800.876          51.000
E31  24403917.461 8 128243483.819 8     -1645.773          51.000    24403920.508 8  98264505.776 8     -1261.035          51.000
> 2020 05 03 05 44 30.0000000  0 15        .000000000000
G13  20189848.008 8 106098359.075 8      -462.230          51.000    20189845.727 8  82674028.669 8      -360.180          51.000
G15  20561396.367 5 108050866.621 5      1200.688          32.000    20561393.141 5  84195465.846 5       935.598          32.000
G17  23773988.672 5 124933159.591 5      2527.703          35.000    23773998.867 5  97350548.546 5      1969.642          35.000
G28  21252108.859 5 111680581.997 5     -1479.895          35.000    21252106.609 5  87023820.756 5     -1153.168          35.000
R04  21457930.242 8 114906212.548 8     -3856.883          50.000    21457933.055 7  89371504.927 7     -2999.798          43.000
R05  19236879.797 8 102832160.536 8      -330.809          51.000    19236882.414 8  79980564.651 8      -257.299          50.000
R15  19259972.648 7 102919566.100 7      -133.559          46.000    19259973.414 6  80048498.232 6      -103.876          41.000
R16  21847152.789 7 116703590.746 7      3169.766          45.000    21847156.656 7  90769472.544 7      2465.373          42.000
C05  39769614.922 6 207090819.944 6        18.012          37.000    39769613.664 6 160135754.939 6        13.783          40.000
C14  24074522.047 7 125362339.114 7     -3148.969          45.000    24074515.914 7  96938089.486 7     -2434.783          42.000
C24  22326764.430 8 116261364.726 8     -1375.965          51.000
C25  22623202.477 7 117804925.900 7      1554.285          43.000
E09  22374720.367 8 117579918.966 8     -1838.547          51.000    22374720.406 8  90093717.528 8     -1408.769          51.000
E24  21862858.094 8 114890094.450 8      1035.047          51.000    21862872.000 8  88032765.570 8       793.028          51.000
E31  24413336.727 8 128292982.366 8     -1652.965          51.000    24413339.906 8  98302433.224 8     -1266.548          51.000
> 2020 05 03 05 45  0.0000000  0 15        .000000000000
G13  20192531.398 8 106112461.009 8      -477.824          51.000    20192529.203 8  82685017.157 8      -372.331          51.000
G15  20554588.656 5 108015096.551 5      1184.359          30.000    20554586.914 5  84167593.087 5       922.877          31.000
G17  23759582.148 5 124857457.760 5      2519.098          33.000    23759594.219 5  97291564.860 5      1962.912          33.000
G28  21260599.461 6 111725199.821 6     -1496.117          36.000    21260597.555 5  87058587.918 5     -1165.812          35.000
R04  21479576.430 8 115022127.433 8     -3870.641          49.000    21479579.648 6  89461660.944 6     -3010.498          40.000
R05  19238812.047 8 102842490.026 8      -357.668          51.000    19238814.953 8  79988598.685 8      -278.186          50.000
R15  19260775.930 7 102923858.025 7      -152.246          47.000    19260777.016 6  80051836.382 6      -118.417          41.000
R16  21829384.477 7 116608675.438 7      3158.047          44.000    21829387.797 7  90695649.530 7      2456.259          42.000
C05  39769515.055 6 207090299.579 6        16.883          38.000    39769513.742 6 160135352.562 6        13.161          40.000
C14  24092683.078 7 125456915.822 7     -3156.156          42.000    24092678.594 7  97011222.115 7     -2440.576          42.000
C24  22334717.562 8 116302778.656 8     -1384.855          51.000
C25  22614279.625 7 117758456.399 7      1544.051          42.000
E09  22385247.297 8 117635236.236 8     -1849.148          51.000    22385247.266 8  90136103.470 8     -1416.850          51.000
E24  21856983.641 8 114859224.573 8      1023.125          51.000    21856997.609 8  88009112.022 8       783.965          51.000
E31  24422798.547 8 128342704.485 8     -1661.680          51.000    24422801.555 8  98340531.971 8     -1273.247          51.000
> 2020 05 03 05 45 30.0000000  0 13        .000000000000
G13  20195301.492 8 106127018.522 8      -490.684          51.000    20195299.117 8  82696360.668 8      -382.351          51.000
G28  21269177.922 6 111770281.708 6     -1508.039          39.000    21269175.664 5  87093713.556 5     -1175.092          33.000
R04  21501295.953 8 115138438.584 8     -3881.395          48.000    21501296.438 5  89552125.016 5     -3018.872          35.000
R05  19240892.656 8 102853612.447 8      -381.695          51.000    19240895.406 8  79997249.442 8      -296.874          49.000
R15  19261679.703 7 102928690.376 7      -167.863          46.000    19261681.227 6  80055594.886 6      -130.560          40.000
R16  21811678.898 7 116514097.866 7      3149.164          42.000    21811682.289 6  90622089.205 6      2449.350          41.000
C05  39769415.984 6 207089783.884 6        19.043          37.000    39769414.672 6 160134953.786 6        14.994          40.000
C14  24110883.320 7 125551695.318 7     -3160.340          42.000    24110882.070 7  97084511.620 7     -2443.926          44.000
C24  22342719.461 8 116344445.797 8     -1390.941          51.000
C25  22605409.188 6 117712265.322 6      1537.254          39.000
E09  22395831.531 8 117690855.667 8     -1856.801          51.000    22395831.484 8  90178720.939 8     -1422.714          51.000
E24  21851173.727 8 114828693.702 8      1014.312          51.000    21851187.953 8  87985718.218 8       777.168          51.000
E31  24432307.094 8 128392672.246 8     -1667.418          51.000    24432309.891 8  98378818.934 8     -1277.611          51.000
> 2020 05 03 05 46  0.0000000  0 16        .000000000000
G13  20198150.031 8 106141988.155 8      -509.094          51.000    20198147.609 8  82708025.291 8      -396.699          50.000
G15  20541239.656 5 107944960.182 5      1150.738          31.000
G28  21277834.906 6 111815774.189 6     -1526.625          39.000    21277831.898 5  87129162.182 5     -1189.581          34.000
G30  23153883.078 5 121674447.995 5     -2754.273          35.000    23153889.812 5  94811304.435 5     -2146.187          34.000
R04  21523080.766 8 115255098.380 8     -3897.734          48.000    21523079.945 6  89642860.283 6     -3031.574          40.000
R05  19243113.438 8 102865483.941 8      -411.555          51.000    19243116.211 8  80006482.812 8      -320.098          49.000
R14  21405175.148 5 114101579.032 5     -3240.762          30.000    21405170.672 4  88745672.677 4     -2520.595          28.000
R15  19262676.695 7 102934017.220 7      -189.086          46.000    19262677.578 6  80059737.962 6      -147.067          40.000
R16  21794028.727 7 116419814.789 7      3134.641          43.000    21794031.562 6  90548757.935 6      2438.057          41.000
C05  39769309.625 6 207089229.548 6        16.270          37.000    39769308.211 6 160134525.152 6        12.408          40.000
C14  24129115.219 7 125646632.318 7     -3170.418          43.000    24129116.039 7  97157922.935 7     -2451.629          45.000
C24  22350761.430 8 116386321.625 8     -1402.543          51.000
C25  22596578.773 5 117666309.543 5      1524.855          33.000
E09  22406464.695 8 117746732.975 8     -1870.215          51.000    22406464.734 8  90221535.992 8     -1433.040          51.000
E24  21845419.602 8 114798457.986 8       999.598          50.000    21845434.273 8  87962550.575 8       765.905          51.000
E31  24441853.797 8 128442840.548 8     -1678.914          51.000    24441856.633 8  98417259.555 8     -1286.432          51.000
> 2020 05 03 05 46 30.0000000  0 15        .000000000000
G13  20201090.672 8 106157441.421 8      -521.742          51.000    20201088.141 8  82720066.781 8      -406.555          50.000
G17  23716651.977 5 124631872.638 5      2494.695          35.000    23716656.664 6  97115733.666 6      1943.918          36.000
G28  21286583.758 6 111861750.404 6     -1539.133          40.000    21286580.609 5  87164987.817 5     -1199.324          35.000
R04  21544944.273 8 115372176.139 8     -3908.062          49.000    21544945.688 7  89733920.705 7     -3039.607          45.000
R05  19245487.688 8 102878176.929 8      -435.266          51.000    19245490.555 8  80016355.112 8      -338.540          49.000
R14  21423428.141 4 114198928.657 4     -3244.812          28.000
R15  19263778.711 7 102939909.365 7      -204.465          45.000    19263780.297 6  80064320.750 6      -159.028          41.000
R16  21776447.672 7 116325899.682 7      3125.859          44.000    21776450.375 6  90475712.882 6      2431.224          41.000
C05  39769209.352 6 207088708.094 6        18.203          37.000    39769207.891 6 160134121.133 6        14.115          40.000
C14  24147391.328 7 125741795.309 7     -3174.484          44.000    24147392.586 7  97231508.988 7     -2454.749          46.000
C24  22358856.812 8 116428475.498 8     -1408.387          51.000
C25  22587810.883 6 117620659.357 6      1517.828          38.000
E09  22417160.242 8 117802938.702 8     -1877.625          51.000    22417160.820 8  90264602.680 8     -1438.646          51.000
E24  21839735.211 8 114768588.436 8       990.934          50.000    21839749.680 8  87939663.532 8       759.272          51.000
E31  24451451.945 8 128493279.107 8     -1684.465          51.000    24451454.984 8  98455907.257 8     -1290.622          51.000
> 2020 05 03 05 47  0.0000000  0 14        .000000000000
G13  20204121.789 8 106173369.888 8      -537.590          51.000    20204119.000 8  82732478.559 8      -418.901          49.000
G17  23702444.812 5 124557212.535 5      2485.988          35.000    23702447.578 5  97057557.010 5      1937.134          34.000
G28  21295422.578 6 111908199.247 6     -1555.129          41.000    21295420.117 6  87201181.712 6     -1211.786          37.000
R04  21566883.820 8 115489658.998 8     -3921.512          48.000    21566886.648 7  89825296.236 7     -3050.068          47.000
R05  19248013.906 8 102891681.997 8      -462.445          51.000    19248016.688 8  80026859.033 8      -359.680          48.000
R15  19264985.000 7 102946355.787 7      -222.863          45.000    19264987.023 6  80069334.587 6      -173.341          40.000
R16  21758934.156 7 116232344.498 7      3113.852          45.000    21758937.273 6  90402947.738 6      2421.885          41.000
C05  39769113.422 6 207088208.260 6        17.590          37.000    39769111.867 6 160133734.649 6        13.475          40.000
C14  24165708.375 7 125837173.065 7     -3181.625          43.000    24165709.398 7  97305261.120 7     -2460.243          45.000
C24  22367003.617 8 116470897.003 8     -1417.227          51.000
C25  22579102.414 6 117575305.637 6      1508.039          41.000
E09  22427916.359 8 117859462.998 8     -1888.195          51.000    22427917.789 8  90307913.459 8     -1446.811          51.000
E24  21834119.242 8 114739075.690 8       979.121          51.000    21834132.719 8  87917049.881 8       750.206          51.000
E31  24461099.555 8 128543977.218 8     -1692.957          51.000    24461102.461 8  98494753.836 8     -1297.207          51.000
> 2020 05 03 05 47 30.0000000  0 14        .000000000000
G13  20207230.781 8 106189707.670 8      -552.637          51.000    20207227.789 8  82745209.285 8      -430.626          49.000
G17  23688278.930 6 124482771.419 6      2476.270          38.000    23688279.320 6  96999550.886 6      1929.558          37.000
G28  21304338.359 6 111955052.325 6     -1569.223          39.000    21304336.625 6  87237690.614 6     -1222.771          36.000
R04  21588884.953 7 115607476.186 7     -3934.020          44.000    21588889.195 8  89916931.828 8     -3059.790          48.000
R05  19250679.578 8 102905932.361 8      -488.641          51.000    19250682.305 8  80037942.637 8      -380.054          48.000
R15  19266281.844 7 102953287.537 7      -240.254          45.000    19266283.906 6  80074725.969 6      -186.864          40.000
R16  21741475.781 7 116139082.609 7      3102.559          46.000    21741478.992 6  90330410.702 6      2413.101          41.000
C05  39769009.148 6 207087665.286 6        17.531          38.000    39769007.570 6 160133314.773 6        13.568          40.000
C14  24184052.688 6 125932697.757 6     -3187.930          40.000    24184054.016 7  97379126.883 7     -2465.037          45.000
C24  22375188.914 8 116513519.272 8     -1425.324          51.000
C25  22570438.273 6 117530182.679 6      1499.004          40.000
E09  22438720.352 8 117916238.937 8     -1897.977          51.000    22438722.297 8  90351417.050 8     -1454.285          51.000
E24  21828558.883 8 114709853.274 8       968.023          51.000    21828571.336 8  87894658.685 8       741.690          51.000
E31  24470783.672 8 128594867.151 8     -1700.789          51.000    24470786.109 8  98533747.397 8     -1303.193          51.000
> 2020 05 03 05 48  0.0000000  0 16        .000000000000
G13  20210425.789 8 106206497.375 8      -566.125          51.000    20210422.570 8  82758292.151 8      -441.136          49.000
G15  20515642.688 5 107810429.493 5      1090.176          31.000
G17  23674163.336 6 124408594.700 6      2468.734          37.000    23674161.586 6  96941750.851 6      1923.692          37.000
G28  21313338.703 6 112002350.179 6     -1582.938          40.000    21313337.250 6  87274546.155 6     -1233.455          36.000
G30  23216909.242 5 122005681.472 5     -2766.082          34.000
R04  21610954.195 7 115725667.622 7     -3944.902          44.000    21610961.125 7  90008858.576 7     -3068.254          47.000
R05  19253492.898 8 102920971.204 8      -513.285          51.000    19253495.344 8  80049639.515 8      -399.222          48.000
R15  19267677.805 7 102960746.229 7      -256.230          44.000    19267679.430 6  80080527.147 6      -199.290          40.000
R16  21724080.750 7 116046158.477 7      3093.000          45.000    21724083.562 6  90258136.408 6      2405.667          39.000
C05  39768904.719 6 207087121.346 6        19.219          37.000    39768903.070 6 160132894.180 6        14.713          40.000
C14  24202432.102 6 126028409.488 6     -3192.168          39.000    24202434.133 7  97453137.312 7     -2468.465          44.000
C24  22383420.586 8 116556383.244 8     -1431.727          51.000
C25  22561826.609 6 117485332.716 6      1491.613          40.000
E09  22449580.289 8 117973308.438 8     -1906.090          51.000    22449582.625 8  90395145.589 8     -1460.507          51.000
E24  21823061.797 8 114680963.588 8       958.598          51.000    21823073.945 8  87872522.422 8       734.486          51.000
E31  24480512.062 8 128645990.025 8     -1706.824          51.000    24480514.266 8  98572919.439 8     -1307.820          51.000
> 2020 05 03 05 48 30.0000000  0 15        .000000000000
G13  20213707.180 8 106223740.508 8      -581.578          51.000    20213703.805 8  82771728.342 8      -453.178          49.000
G17  23660099.859 6 124334686.672 6      2459.797          38.000    23660095.336 5  96884160.224 5      1916.728          35.000
G28  21322423.508 6 112050092.441 6     -1598.020          41.000    21322422.781 6  87311747.907 6     -1245.213          37.000
R04  21633095.070 8 115844231.567 8     -3957.414          48.000    21633101.906 7  90101074.975 7     -3077.989          46.000
R05  19256454.180 8 102936800.284 8      -540.012          51.000    19256456.438 8  80061951.004 8      -420.012          48.000
R15  19269172.031 7 102968731.531 7      -274.195          46.000    19269173.664 6  80086737.929 6      -213.266          40.000
R16  21706748.930 7 115953574.482 7      3081.254          44.000    21706750.930 6  90186126.638 6      2396.531          38.000
C05  39768800.227 6 207086577.696 6        18.910          37.000    39768798.680 6 160132473.750 6        14.768          40.000
C14  24220848.852 6 126124307.625 6     -3198.762          41.000    24220849.906 7  97527291.884 7     -2473.661          42.000
C24  22391698.625 8 116599489.028 8     -1440.031          51.000
C25  22553267.375 6 117440757.086 6      1482.156          38.000
E05  23756519.453 6 124841360.806 6       775.074          40.000    23756523.812 6  95657667.490 6       593.933          36.000
E09  22460496.117 8 118030672.192 8     -1916.203          51.000    22460498.805 8  90439099.608 8     -1468.224          51.000
E24  21817628.109 8 114652407.728 8       947.164          51.000    21817640.625 8  87850641.968 8       725.713          51.000
E31  24490284.758 8 128697345.742 8     -1714.887          51.000    24490287.148 8  98612269.910 8     -1313.995          51.000
> 2020 05 03 05 49  0.0000000  0 17        .000000000000
G13  20217062.094 8 106241370.442 8      -594.188          51.000    20217058.867 8  82785465.936 8      -463.006          49.000
G17  23646074.891 6 124260983.047 6      2452.742          38.000    23646064.477 5  96826728.812 5      1911.228          32.000
G24  22914234.047 5 120415113.442 5      2838.875          35.000
G28  21331579.750 7 112098209.801 7     -1609.848          42.000    21331579.281 6  87349241.980 6     -1254.427          37.000
R04  21655293.969 8 115963096.158 8     -3967.129          50.000    21655298.180 7  90193525.144 7     -3085.545          44.000
R05  19259550.758 8 102953351.191 8      -563.695          51.000    19259552.641 8  80074823.933 8      -438.430          48.000
R14  21515146.422 5 114687823.588 5     -3270.215          35.000
R15  19270752.461 7 102977173.661 7      -289.219          46.000    19270753.797 6  80093304.028 6      -224.945          40.000
R16  21689468.070 7 115861263.518 7      3072.594          45.000    21689469.195 6  90114329.233 6      2389.795          37.000
C05  39768683.070 6 207085967.704 6        21.230          38.000    39768681.539 6 160132002.085 6        16.501          40.000
C14  24239289.148 7 126220323.526 7     -3202.516          45.000    24239288.430 6  97601537.465 6     -2476.485          39.000
C24  22400010.023 8 116642768.910 8     -1445.594          51.000
C25  22544747.094 6 117396389.171 6      1475.320          40.000
E05  23752118.336 6 124818232.628 6       766.523          39.000    23752122.469 6  95639945.853 6       587.351          36.000
E09  22471454.969 8 118088262.398 8     -1923.469          51.000    22471457.820 8  90483227.165 8     -1473.809          51.000
E24  21812245.273 8 114624118.417 8       938.531          51.000    21812258.062 8  87828965.751 8       719.143          51.000
E31  24500088.656 8 128748865.707 8     -1720.023          51.000    24500091.383 8  98651746.237 8     -1317.946          51.000
> 2020 05 03 05 49 30.0000000  0 17        .000000000000
G13  20220526.867 8 106259578.213 8      -611.223          51.000    20220523.867 8  82799653.794 8      -476.277          49.000
G15  20497391.391 5 107714529.861 5      1042.297          33.000    20497390.367 5  83933381.749 5       812.179          34.000
G17  23632124.805 6 124187676.986 6      2442.254          36.000    23632114.641 5  96769607.360 5      1903.058          30.000
G28  21340843.422 6 112146890.861 6     -1626.918          40.000    21340843.008 5  87387175.278 5     -1267.731          35.000
R04  21677584.750 8 116082452.289 8     -3981.344          50.000    21677586.219 7  90286357.608 7     -3096.604          43.000
R05  19262818.141 8 102970817.859 8      -592.117          50.000    19262820.102 8  80088409.103 8      -460.536          48.000
R14  21533601.414 5 114786179.826 5     -3278.164          33.000    21533608.062 4  89278191.068 4     -2549.683          25.000
R15  19272453.812 8 102986264.717 8      -308.516          48.000    19272455.430 6  80100374.856 6      -239.957          41.000
R16  21672274.914 7 115769420.202 7      3059.004          45.000    21672275.391 6  90042895.546 6      2379.225          38.000
C05  39768589.562 6 207085480.298 6        19.430          37.000    39768587.875 6 160131625.186 6        15.061          40.000
C14  24257787.812 7 126316643.977 7     -3210.555          45.000    24257783.211 4  97676040.437 4     -2482.511          28.000
C24  22408390.891 8 116686410.593 8     -1455.535          51.000
C25  22536302.828 6 117352417.826 6      1464.094          40.000
E05  23747804.805 6 124795565.281 6       753.062          40.000    23747807.156 6  95622577.330 6       577.070          36.000
E09  22482493.133 8 118146269.011 8     -1935.215          51.000    22482495.805 8  90527673.808 8     -1482.779          51.000
E24  21806949.516 8 114596286.076 8       925.371          51.000    21806962.273 8  87807639.669 8       709.092          51.000
E31  24509959.789 8 128800739.124 8     -1729.742          51.000    24509962.625 8  98691493.377 8     -1325.333          51.000
> 2020 05 03 05 50  0.0000000  0 17        .000000000000
G13  20224075.750 8 106278228.029 8      -629.559          51.000    20224073.023 8  82814186.096 8      -490.565          50.000
G15  20491502.266 5 107683586.195 5      1022.750          31.000    20491502.156 4  83909269.843 4       796.948          29.000
G17  23618217.477 5 124114596.960 5      2429.777          30.000    23618227.477 4  96712681.164 4      1893.333          27.000
G19  24811388.008 7 130384721.930 7      3439.434          47.000    24811379.898 6 101598455.565 6      2680.078          37.000
G28  21350188.328 6 112195997.846 6     -1644.434          41.000    21350187.547 6  87425440.481 6     -1281.374          38.000
R04  21699940.219 8 116202158.136 8     -3996.406          48.000    21699939.820 7  90379462.101 7     -3108.319          42.000
R05  19266230.648 8 102989062.143 8      -621.570          49.000    19266233.398 8  80102599.104 8      -483.444          49.000
R15  19274250.398 7 102995865.143 7      -328.945          46.000    19274252.430 7  80107841.839 7      -255.843          42.000
R16  21655143.547 7 115677907.837 7      3044.504          44.000    21655144.438 6  89971719.298 6      2367.947          39.000
C05  39768493.562 6 207084980.810 6        16.289          37.000    39768491.938 6 160131238.951 6        12.541          40.000
C14  24276318.344 7 126413132.409 7     -3219.438          45.000    24276331.625 5  97750726.050 5     -2489.685          34.000
C24  22416815.234 8 116730278.351 8     -1466.453          51.000
C25  22527908.203 6 117308708.523 6      1452.309          38.000
E05  23743553.383 6 124773223.980 6       738.848          39.000    23743554.398 6  95605458.663 6       566.031          36.000
E09  22493584.992 8 118204555.635 8     -1947.969          51.000    22493587.047 8  90572335.009 8     -1492.632          51.000
E24  21801714.477 8 114568774.752 8       911.215          51.000    21801727.242 8  87786559.567 8       698.234          51.000
E31  24519872.102 8 128852828.783 8     -1740.371          51.000    24519874.930 8  98731406.215 8     -1333.531          51.000
> 2020 05 03 05 50 30.0000000  0 18        .000000000000
G13  20227700.172 8 106297274.523 8      -641.652          51.000    20227697.766 8  82829027.517 8      -499.989          49.000
G15  20485694.852 5 107653054.952 5      1009.285          32.000    20485697.812 5  83885497.182 5       786.459          32.000
G17  23604362.938 5 124041750.604 5      2423.273          33.000    23604365.250 5  96655941.768 5      1888.262          33.000
G19  24791742.883 8 130281484.082 8      3441.734          48.000    24791737.391 6 101518010.528 6      2681.871          38.000
G28  21359605.172 6 112245482.804 6     -1655.945          37.000    21359604.070 6  87464000.202 6     -1290.344          37.000
R04  21722349.930 7 116322163.691 7     -4005.379          45.000    21722350.109 6  90472799.773 6     -3115.295          41.000
R05  19269779.828 8 103008037.445 8      -644.910          50.000    19269783.531 8  80117357.691 8      -501.597          49.000
R14  21570579.570 5 114983271.271 5     -3288.875          33.000
R15  19276133.227 7 103005926.343 7      -343.148          47.000    19276135.625 6  80115667.227 6      -266.896          41.000
R16  21638065.227 7 115586680.704 7      3035.809          43.000    21638066.578 6  89900764.863 6      2361.184          38.000
C05  39768386.539 6 207084423.725 6        19.152          37.000    39768384.984 6 160130808.155 6        15.036          40.000
C14  24294870.938 7 126509741.198 7     -3222.445          43.000    24294874.680 6  97825430.074 6     -2491.733          40.000
C24  22425273.961 8 116774325.437 8     -1471.344          51.000
C25  22519555.023 6 117265215.655 6      1446.219          36.000
E05  23739355.875 6 124751163.670 6       730.543          41.000    23739356.062 6  95588555.306 6       559.797          36.000
E09  22504721.359 8 118263075.669 8     -1954.688          51.000    22504722.742 8  90617175.035 8     -1497.739          51.000
E24  21796531.367 8 114541538.262 8       903.145          51.000    21796544.203 8  87765690.051 8       692.056          51.000
E31  24529816.578 8 128905087.273 8     -1744.902          51.000    24529819.602 8  98771448.431 8     -1336.991          51.000
> 2020 05 03 05 51  0.0000000  0 19        .000000000000
G13  20231405.953 8 106316748.701 8      -653.512          51.000    20231403.828 8  82844202.190 8      -509.230          49.000
G15  20479976.234 5 107623003.914 5       997.508          34.000    20479977.344 5  83862080.808 5       777.282          33.000
G17  23590558.062 5 123969186.631 5      2416.828          31.000    23590554.188 4  96599398.351 4      1883.237          28.000
G19  24772095.992 8 130178236.473 8      3444.438          49.000    24772092.914 6 101437557.836 6      2683.977          41.000
G24  22849757.188 5 120076280.940 5      2817.242          32.000
G28  21369099.250 6 112295374.303 6     -1666.984          39.000    21369098.133 5  87502876.751 5     -1298.949          35.000
R04  21744821.211 7 116442496.964 7     -4013.684          47.000    21744820.891 6  90566392.279 6     -3121.757          39.000
R05  19273471.773 8 103027774.747 8      -667.848          50.000    19273476.367 8  80132708.899 8      -519.437          49.000
R14  21589098.156 5 115082011.421 5     -3290.672          34.000
R15  19278107.609 7 103016477.733 7      -357.121          46.000    19278110.188 7  80123873.858 7      -277.761          42.000
R16  21621046.430 7 115495770.981 7      3027.902          44.000    21621047.680 6  89830057.326 6      2355.032          36.000
C05  39768274.336 6 207083839.444 6        22.902          37.000    39768272.844 6 160130356.366 6        17.501          40.000
C14  24313451.320 7 126606498.686 7     -3224.789          42.000    24313451.172 7  97900249.111 7     -2493.802          44.000
C24  22433772.602 8 116818581.106 8     -1475.883          51.000
C25  22511249.672 6 117221969.541 6      1440.285          38.000
E05  23735218.266 7 124729416.108 7       722.324          42.000    23735217.641 6  95571891.576 6       553.424          37.000
E09  22515907.539 8 118321859.147 8     -1961.113          51.000    22515908.695 8  90662216.905 8     -1502.665          51.000
E24  21791406.258 8 114514607.142 8       895.379          51.000    21791419.234 8  87745054.512 8       686.034          51.000
E31  24539798.797 8 128957543.876 8     -1749.180          51.000    24539802.156 8  98811642.447 8     -1340.269          51.000
> 2020 05 03 05 51 30.0000000  0 18        .000000000000
G13  20235209.641 8 106336737.609 8      -672.914          51.000    20235207.938 8  82859777.947 8      -524.349          49.000
G15  20474362.852 5 107593503.081 5       976.254          33.000    20474363.766 5  83839093.218 5       760.720          32.000
G17  23576816.812 5 123897008.211 5      2402.730          33.000
G19  24752464.305 8 130075068.803 8      3439.570          48.000    24752462.617 7 101357167.464 7      2680.188          43.000
G28  21378687.133 5 112345757.343 5     -1685.445          35.000    21378685.695 5  87542136.286 5     -1313.328          33.000
R04  21767370.180 8 116563243.033 8     -4029.742          49.000    21767368.227 6  90660305.778 6     -3134.247          40.000
R05  19277323.102 8 103048362.282 8      -698.457          51.000    19277327.922 8  80148721.408 8      -543.244          48.000
R14  21607660.625 5 115180968.131 5     -3300.578          35.000    21607677.516 4  89585293.566 4     -2567.119          25.000
R15  19280190.273 7 103027606.172 7      -378.527          46.000    19280193.258 7  80132529.303 7      -294.410          42.000
R16  21604104.281 7 115405268.074 7      3012.125          44.000    21604104.242 6  89759666.216 6      2342.767          36.000
C05  39768173.344 6 207083313.879 6        18.297          37.000    39768171.898 6 160129949.960 6        14.166          40.000
C14  24332076.562 6 126703488.838 6     -3235.000          41.000    24332075.297 7  97975248.039 7     -2501.411          45.000
C24  22442327.531 8 116863130.174 8     -1487.852          51.000
C25  22503009.078 6 117179056.260 6      1427.145          39.000
E05  23731156.773 7 124708068.943 7       706.797          43.000    23731155.516 6  95555534.671 6       541.560          38.000
E09  22527160.055 8 118380992.162 8     -1974.949          51.000    22527161.234 8  90707526.601 8     -1513.258          51.000
E24  21786355.891 8 114488067.953 8       880.031          51.000    21786369.000 8  87724719.295 8       674.307          51.000
E31  24549834.898 8 129010283.976 8     -1760.824          51.000    24549838.555 8  98852053.683 8     -1349.161          51.000
> 2020 05 03 05 52  0.0000000  0 18        .000000000000
G13  20239093.805 8 106357149.670 8      -687.930          51.000    20239092.758 8  82875683.439 8      -536.049          50.000
G15  20468836.117 4 107564459.124 4       959.867          29.000    20468836.906 4  83816475.763 4       747.945          27.000
G17  23563123.492 5 123825031.699 5      2394.047          34.000    23563121.742 5  96487048.892 5      1865.491          33.000
G19  24732830.969 8 129971892.612 8      3439.062          48.000    24732829.742 7 101276770.462 7      2679.789          45.000
G28  21388350.469 6 112396534.439 6     -1699.738          36.000    21388350.461 6  87581721.057 6     -1324.465          36.000
R04  21789977.969 8 116684305.124 8     -4040.941          48.000    21789975.898 6  90754465.123 6     -3142.954          41.000
R05  19281316.586 8 103069706.937 8      -724.492          51.000    19281320.898 8  80165322.773 8      -563.494          48.000
R14  21626248.047 6 115280045.494 6     -3304.918          37.000    21626259.742 4  89662325.823 4     -2570.492          24.000
R15  19282362.805 7 103039216.807 7      -395.445          46.000    19282365.953 7  80141559.792 7      -307.569          42.000
R16  21587220.664 7 115315079.959 7      3000.738          42.000    21587219.711 5  89689519.953 5      2333.911          35.000
C05  39768066.328 6 207082756.292 6        18.766          37.000    39768064.797 6 160129518.765 6        14.607          40.000
C14  24350728.898 6 126800618.846 6     -3240.488          41.000    24350727.125 7  98050355.119 7     -2505.591          45.000
C24  22450921.320 8 116907880.724 8     -1495.438          51.000
C25  22494814.820 6 117136385.058 6      1418.133          39.000
E05  23727153.758 7 124687031.646 7       695.777          42.000    23727152.617 6  95539415.189 6       533.302          38.000
E09  22538461.477 8 118440382.472 8     -1984.324          51.000    22538463.055 8  90753033.440 8     -1520.408          51.000
E24  21781362.695 8 114461828.902 8       869.277          51.000    21781375.758 8  87704614.056 8       666.103          51.000
E31  24559907.242 8 129063214.582 8     -1767.852          51.000    24559910.805 8  98892610.885 8     -1354.567          51.000
> 2020 05 03 05 52 30.0000000  0 17        .000000000000
G13  20243067.648 8 106378032.676 8      -704.543          51.000    20243067.117 8  82891955.885 8      -548.998          50.000
G15  20463406.891 6 107535940.049 6       942.090          36.000    20463408.914 6  83794229.768 6       734.096          36.000
G17  23549489.344 6 123753374.651 6      2382.559          38.000    23549488.516 6  96431212.248 6      1856.536          37.000
G19  24713205.406 8 129868758.366 8      3436.527          48.000    24713204.227 7 101196406.119 7      2677.814          42.000
G28  21398099.047 5 112447758.428 5     -1715.344          34.000    21398096.242 5  87621635.874 5     -1336.625          33.000
R04  21812652.523 7 116805727.888 7     -4054.039          46.000    21812651.461 6  90848905.035 6     -3153.141          41.000
R05  19285460.727 8 103091856.180 8      -752.301          51.000    19285464.398 8  80182549.918 8      -585.126          48.000
R15  19284634.766 7 103051355.625 7      -414.070          45.000    19284637.680 7  80151001.061 7      -322.055          42.000
R16  21570404.773 7 115225255.061 7      2987.453          42.000    21570404.688 6  89619656.140 6      2323.575          36.000
C05  39767962.125 6 207082213.283 6        17.672          37.000    39767960.469 6 160129098.917 6        13.339          40.000
C14  24369417.070 6 126897933.290 6     -3247.535          41.000    24369415.094 7  98125604.801 7     -2511.052          46.000
C24  22459562.766 8 116952878.278 8     -1504.598          51.000
C25  22486675.984 6 117094002.476 6      1407.223          39.000
E05  23723218.242 6 124666352.273 6       682.832          40.000    23723218.133 6  95523569.938 6       523.197          39.000
E09  22549820.617 8 118500076.457 8     -1995.387          51.000    22549822.773 8  90798772.967 8     -1528.903          51.000
E24  21776435.484 8 114435936.841 8       856.770          51.000    21776448.023 8  87684774.699 8       656.507          51.000
E31  24570024.516 8 129116381.354 8     -1776.660          51.000    24570027.648 8  98933349.047 8     -1361.358          51.000
> 2020 05 03 05 53  0.0000000  0 18        .000000000000
G13  20247126.422 8 106399361.410 8      -716.742          51.000    20247126.047 8  82908575.658 8      -558.500          50.000
G15  20458069.891 5 107507893.306 5       927.895          33.000    20458070.906 5  83772375.155 5       723.032          32.000
G17  23535908.461 6 123682001.481 6      2375.770          36.000    23535906.547 5  96375596.778 5      1851.246          32.000
G19  24693583.438 7 129765644.101 7      3438.480          47.000    24693582.297 6 101116057.311 6      2679.332          40.000
G28  21407925.953 6 112499398.261 6     -1726.922          37.000    21407923.180 5  87661874.745 5     -1345.653          35.000
R04  21835387.656 7 116927482.536 7     -4062.191          43.000    21835388.680 6  90943603.105 6     -3159.482          38.000
R05  19289750.625 8 103114784.554 8      -775.648          51.000    19289753.570 8  80200383.076 8      -603.282          49.000
R14  21663510.688 5 115478642.458 5     -3312.984          31.000
R15  19286999.930 7 103063995.521 7      -427.844          45.000    19287002.898 6  80160832.132 6      -332.764          41.000
R16  21553652.898 7 115135769.163 7      2978.773          42.000    21553654.547 6  89550056.023 6      2316.824          38.000
C05  39767855.773 6 207081660.072 6        20.406          38.000    39767854.172 6 160128671.118 6        15.601          39.000
C14  24388135.562 6 126995405.226 6     -3249.957          39.000    24388134.062 7  98200976.264 7     -2513.058          45.000
C24  22468246.711 8 116998096.787 8     -1509.340          51.000
C25  22478587.945 6 117051883.699 6      1401.293          40.000
E05  23719345.391 6 124646006.695 6       674.184          40.000    23719346.859 6  95507980.426 6       516.801          39.000
E09  22561232.352 8 118560048.369 8     -2002.039          51.000    22561235.500 8  90844725.449 8     -1533.991          51.000
E24  21771569.562 8 114410366.488 8       848.680          51.000    21771581.680 8  87665181.842 8       650.281          51.000
E31  24580181.664 8 129169757.817 8     -1781.016          51.000    24580184.422 8  98974247.883 8     -1364.653          51.000
> 2020 05 03 05 53 30.0000000  0 17        .000000000000
G13  20251268.523 8 106421127.823 8      -735.004          51.000    20251268.133 8  82925536.487 8      -572.730          51.000
G15  20452822.781 5 107480324.397 5       908.281          32.000    20452824.578 5  83750892.860 5       707.749          32.000
G19  24673963.859 7 129662544.359 7      3434.188          45.000    24673962.953 6 101035719.820 6      2675.990          40.000
G28  21417829.953 6 112551443.567 6     -1743.352          39.000    21417827.328 6  87702429.541 6     -1358.450          38.000
R04  21858183.133 7 117049556.863 7     -4076.523          46.000    21858183.453 5  91038549.732 5     -3170.635          34.000
R05  19294184.438 8 103138483.104 8      -804.934          51.000    19294187.164 8  80218815.238 8      -626.059          49.000
R14  21682181.797 4 115578151.992 4     -3321.145          29.000    21682179.109 4  89894166.033 4     -2583.112          26.000
R15  19289457.352 7 103077126.351 7      -447.969          46.000    19289459.930 7  80171044.969 7      -348.420          42.000
R16  21536962.906 6 115046614.591 6      2964.246          41.000    21536965.984 6  89480713.619 6      2305.528          38.000
C05  39767745.961 6 207081088.262 6        17.129          37.000    39767744.422 6 160128228.932 6        13.076          40.000
C14  24406881.953 6 127093024.358 6     -3258.598          38.000    24406881.383 7  98276461.531 7     -2519.727          43.000
C24  22476971.219 8 117043526.818 8     -1519.949          51.000
C25  22470549.117 6 117010020.375 6      1389.238          41.000
E05  23715534.688 6 124625987.460 6       659.781          41.000    23715537.938 6  95492640.981 6       505.604          41.000
E09  22572695.031 8 118620289.119 8     -2014.598          51.000    22572699.508 8  90890883.940 8     -1543.668          51.000
E24  21766763.305 8 114385109.243 8       834.586          51.000    21766775.578 8  87645828.888 8       639.479          51.000
E31  24590376.898 8 129223334.155 8     -1791.320          51.000    24590379.539 8  99015299.879 8     -1372.612          51.000
> 2020 05 03 05 54  0.0000000  0 17        .000000000000
G13  20255509.906 8 106443415.971 8      -747.586          51.000    20255509.320 8  82942903.859 8      -582.538          51.000
G15  20447684.078 6 107453318.023 6       894.926          37.000    20447685.625 6  83729848.889 6       697.345          37.000
G19  24654363.031 7 129559546.036 7      3435.605          44.000    24654362.234 6 100955461.384 6      2677.092          40.000
G28  21427826.406 6 112603975.891 6     -1754.738          36.000    21427824.094 6  87743363.846 6     -1367.325          36.000
R04  21881055.492 8 117172033.361 8     -4085.043          48.000    21881054.359 6  91133809.086 6     -3177.259          37.000
R05  19298777.906 8 103163036.702 8      -828.547          51.000    19298780.289 8  80237912.457 8      -644.425          49.000
R14  21700889.898 5 115677915.829 5     -3323.578          34.000    21700885.398 4  89971720.251 4     -2585.005          28.000
R15  19292022.250 7 103090831.462 7      -462.098          44.000    19292024.852 7  80181704.490 7      -359.409          42.000
R16  21520350.875 6 114957877.518 6      2954.887          39.000    21520354.461 6  89411695.871 6      2298.245          38.000
C05  39767648.555 6 207080580.783 6        19.879          37.000    39767646.969 6 160127836.503 6        15.378          40.000
C14  24425671.812 5 127190871.481 5     -3261.625          35.000    24425672.305 6  98352123.100 6     -2521.953          41.000
C24  22485751.812 8 117089250.160 8     -1524.980          51.000
C25  22462574.914 6 116968495.417 6      1382.566          40.000
E05  23711802.688 7 124606379.229 7       650.852          43.000    23711808.016 7  95477616.453 7       498.689          42.000
E09  22584224.883 8 118680881.751 8     -2021.516          51.000    22584230.383 8  90937312.045 8     -1548.936          51.000
E24  21762032.336 8 114360248.566 8       826.145          51.000    21762045.023 8  87626779.796 8       633.077          51.000
E31  24600625.914 8 129277192.709 8     -1795.848          51.000    24600628.477 8  99056568.113 8     -1376.066          51.000
> 2020 05 03 05 54 30.0000000  0 17        .000000000000
G13  20259820.578 8 106466067.845 8      -765.176          51.000    20259819.875 8  82960554.662 8      -596.241          51.000
G15  20442622.641 6 107426717.696 6       875.887          36.000    20442622.969 5  83709121.355 5       682.509          35.000
G19  24634751.781 7 129456493.793 7      3431.902          43.000    24634750.203 6 100875160.967 6      2674.210          38.000
G28  21437884.695 6 112656834.907 6     -1770.988          41.000    21437882.445 6  87784552.709 6     -1379.991          37.000
R04  21903972.508 8 117294746.622 8     -4098.297          48.000    21903972.219 6  91229252.678 6     -3187.564          41.000
R05  19303501.062 8 103188283.867 8      -857.172          51.000    19303503.062 8  80257549.155 8      -666.689          49.000
R14  21719610.820 5 115777682.201 5     -3330.160          30.000    21719602.625 5  90049315.851 5     -2590.128          32.000
R15  19294663.648 7 103104947.931 7      -481.363          45.000    19294666.672 7  80192683.963 7      -374.394          42.000
R16  21503787.062 6 114869397.857 6      2941.141          41.000    21503790.633 6  89342878.363 6      2287.554          39.000
C05  39767533.219 6 207079980.659 6        17.422          37.000    39767531.734 6 160127372.414 6        13.641          40.000
C14  24444474.703 5 127288787.603 5     -3268.699          33.000    24444476.078 6  98427838.003 6     -2527.705          38.000
C24  22494558.141 8 117135108.699 8     -1534.863          51.000
C25  22454634.211 6 116927151.877 6      1371.109          39.000
E05  23708119.438 7 124587024.495 7       636.988          44.000    23708125.797 7  95462786.172 7       488.145          42.000
E09  22595791.875 8 118741667.147 8     -2033.383          51.000    22595797.703 8  90983887.856 8     -1558.050          51.000
E24  21757346.688 8 114335625.799 8       812.812          51.000    21757359.227 8  87607912.991 8       622.756          51.000
E31  24610898.180 8 129331173.662 8     -1805.395          51.000    24610900.648 8  99097930.131 8     -1383.396          51.000
> 2020 05 03 05 55  0.0000000  0 16        .000000000000
G13  20264235.086 8 106489265.170 8      -779.535          51.000    20264234.320 8  82978630.488 8      -607.430          51.000
G15  20437673.766 6 107400706.440 6       860.215          36.000    20437673.094 6  83688852.784 6       670.294          36.000
G19  24615165.969 7 129353572.812 7      3431.188          43.000    24615163.977 6 100794962.854 6      2673.656          41.000
G28  21448039.703 6 112710200.288 6     -1784.367          40.000    21448037.289 6  87826136.093 6     -1390.413          37.000
R04  21926967.523 8 117417878.816 8     -4108.520          48.000    21926968.016 7  91325022.153 7     -3195.515          42.000
R05  19308387.945 8 103214409.061 8      -882.637          51.000    19308389.867 8  80277868.734 8      -686.495          48.000
R15  19297416.914 7 103119658.898 7      -497.523          46.000    19297419.773 7  80204125.792 7      -386.963          42.000
R16  21487306.250 6 114781361.334 6      2929.828          38.000    21487309.992 6  89274405.520 6      2278.755          39.000
C05  39767434.867 6 207079467.993 6        18.387          37.000    39767433.281 6 160126976.012 6        13.964          39.000
C14  24463325.391 5 127386950.805 5     -3273.254          33.000    24463326.125 5  98503743.943 5     -2531.124          34.000
C24  22503424.859 8 117181281.437 8     -1541.500          51.000
C25  22446763.117 7 116886169.755 7      1362.891          42.000
E05  23704519.430 7 124568106.059 7       626.152          43.000    23704525.023 6  95448290.228 6       479.806          41.000
E09  22607430.461 8 118802826.430 8     -2042.078          51.000    22607435.766 8  91030750.129 8     -1564.733          51.000
E24  21752741.102 8 114311422.561 8       802.582          51.000    21752753.336 8  87589367.623 8       614.989          51.000
E31  24621228.117 8 129385457.427 8     -1811.715          51.000    24621230.406 8  99139524.172 8     -1388.209          51.000
> 2020 05 03 05 55 30.0000000  0 18        .000000000000
G13  20268727.133 8 106512870.384 8      -793.379          51.000    20268726.203 8  82997024.149 8      -618.217          51.000
G15  20432810.734 6 107375147.267 6       844.711          40.000    20432809.508 6  83668936.561 6       658.219          39.000
G19  24595579.844 7 129250648.311 7      3431.059          45.000    24595578.781 7 100714761.990 7      2673.552          44.000
G28  21458264.133 7 112763932.068 7     -1797.238          43.000    21458262.141 6  87868005.049 6     -1400.445          36.000
R04  21950013.297 8 117541285.994 8     -4117.883          48.000    21950014.328 7  91421005.507 7     -3202.798          43.000
R05  19313413.055 8 103241271.978 8      -907.480          51.000    19313414.641 8  80298762.104 8      -705.818          48.000
R14  21757121.875 4 115977701.622 4     -3337.898          29.000
R15  19300254.617 7 103134822.483 7      -512.723          46.000    19300257.578 6  80215919.718 6      -398.784          41.000
R16  21470881.211 5 114693629.103 5      2919.414          35.000    21470886.695 6  89206169.350 6      2270.655          39.000
C05  39767327.023 6 207078906.221 6        19.738          37.000    39767325.398 6 160126541.579 6        15.296          40.000
C14  24482197.352 5 127485222.475 5     -3276.934          31.000    24482196.633 5  98579733.675 5     -2534.042          32.000
C24  22512325.773 8 117227630.613 8     -1547.668          51.000
C25  22438936.422 7 116845412.426 7      1354.902          43.000
E05  23700975.984 7 124549486.999 7       615.727          42.000    23700980.469 7  95434023.674 7       471.755          42.000
E09  22619113.898 8 118864220.971 8     -2050.219          51.000    22619118.547 8  91077792.667 8     -1570.908          51.000
E24  21748189.016 8 114287500.675 8       792.941          51.000    21748201.219 8  87571037.854 8       607.564          51.000
E25  26853015.820 7 141113551.390 7      2684.180          42.000    26853015.086 7 108125964.661 7      2056.694          44.000
E31  24631589.266 8 129439904.713 8     -1817.445          51.000    24631591.430 8  99181243.496 8     -1392.528          51.000
> 2020 05 03 05 56  0.0000000  0 17        .000000000000
G13  20273304.367 8 106536923.479 8      -809.359          51.000    20273303.211 8  83015766.820 8      -630.670          51.000
G15  20428040.836 6 107350081.042 6       826.824          38.000    20428039.562 6  83649404.470 6       644.279          39.000
G19  24576001.539 7 129147763.066 7      3428.730          46.000    24576001.562 7 100634591.681 7      2671.738          45.000
G28  21468565.805 7 112818067.678 7     -1811.402          42.000    21468564.109 6  87910188.621 6     -1411.479          38.000
R04  21973117.594 8 117665005.178 8     -4129.289          48.000    21973118.758 7  91517231.529 7     -3211.669          42.000
R05  19318583.641 8 103268912.169 8      -934.441          51.000    19318584.734 8  80320260.034 8      -726.788          48.000
R15  19303184.336 7 103150477.125 7      -530.273          46.000    19303187.336 7  80228095.534 7      -412.435          42.000
R16  21454521.719 6 114606241.925 6      2906.855          38.000    21454528.141 6  89138201.551 6      2260.891          38.000
C05  39767217.250 6 207078334.554 6        19.145          37.000    39767215.633 6 160126099.531 6        14.813          40.000
C14  24501098.664 5 127583645.865 5     -3283.801          30.000    24501096.008 5  98655836.060 5     -2538.648          32.000
C24  22521268.047 8 117274194.401 8     -1555.824          51.000
C25  22431160.656 7 116804919.146 7      1345.156          43.000
E05  23697497.156 7 124531207.828 7       603.434          43.000    23697501.422 7  95420017.524 7       462.428          42.000
E09  22630849.234 8 118925889.708 8     -2060.418          51.000    22630853.289 8  91125045.306 8     -1578.753          51.000
E24  21743697.883 8 114263899.484 8       781.141          51.000    21743709.852 8  87552953.823 8       598.485          51.000
E25  26837710.203 7 141033121.196 7      2678.551          44.000    26837709.820 7 108064336.350 7      2052.348          44.000
E31  24641988.695 8 129494553.741 8     -1825.207          51.000    24641991.172 8  99223117.427 8     -1398.532          51.000
> 2020 05 03 05 56 30.0000000  0 20        .000000000000
G13  20277955.789 8 106561366.894 8      -820.680          51.000    20277954.500 8  83034813.635 8      -639.491          50.000
G15  20423353.883 6 107325451.720 6       814.207          40.000    20423352.781 6  83630212.762 6       634.450          40.000
G17  23442431.047 5 123190782.994 5      2307.285          34.000    23442432.148 5  95992822.966 5      1797.906          33.000
G19  24556420.328 7 129044862.800 7      3430.949          45.000    24556421.078 7 100554409.672 7      2673.467          45.000
G24  22675139.992 5 119158659.264 5      2752.848          33.000    22675134.570 5  92850880.115 5      2145.076          34.000
G28  21478932.891 6 112872547.737 6     -1821.195          40.000    21478931.133 6  87952640.641 6     -1419.116          36.000
G30  23488298.156 5 123431826.629 5     -2820.160          34.000    23488287.680 5  96180628.799 5     -2197.527          33.000
R04  21996268.625 7 117788974.419 7     -4135.797          47.000    21996270.055 6  91613652.033 6     -3216.731          40.000
R05  19323888.398 8 103297270.834 8      -956.578          51.000    19323889.938 8  80342316.743 8      -744.005          49.000
R15  19306194.336 7 103166562.712 7      -542.695          44.000    19306198.000 7  80240606.581 7      -422.093          42.000
R16  21438217.406 6 114519142.628 6      2898.945          36.000    21438222.969 6  89070457.682 6      2254.741          37.000
C05  39767094.672 6 207077696.049 6        23.105          37.000    39767092.961 6 160125605.767 6        17.909          40.000
C14  24520018.203 5 127682161.836 5     -3284.602          30.000    24520013.945 5  98732005.384 5     -2539.406          33.000
C24  22530240.289 8 117320914.712 8     -1559.285          51.000
C25  22423424.000 7 116764632.912 7      1340.270          43.000
E05  23694072.633 7 124513211.984 7       595.836          45.000    23694076.594 7  95406228.511 7       456.514          43.000
E09  22642625.438 8 118987774.455 8     -2065.691          51.000    22642628.703 8  91172463.466 8     -1582.752          51.000
E24  21739256.844 8 114240561.317 8       774.344          51.000    21739268.562 8  87535071.318 8       593.301          51.000
E25  26822420.055 7 140952775.927 7      2677.453          45.000    26822419.859 7 108002773.118 7      2051.630          44.000
E31  24652415.219 8 129549345.681 8     -1828.012          51.000    24652418.219 8  99265100.854 8     -1400.714          51.000
> 2020 05 03 05 57  0.0000000  0 19        .000000000000
G13  20282704.750 8 106586323.053 8      -841.043          51.000    20282703.445 8  83054259.975 8      -655.361          50.000
G15  20418773.445 6 107301382.539 6       792.309          38.000    20418772.859 6  83611457.582 6       617.383          39.000
G17  23429311.484 5 123121833.908 5      2291.223          32.000    23429310.148 5  95939096.418 5      1785.374          31.000
G19  24536860.070 7 128942072.882 7      3423.910          44.000    24536861.250 7 100474313.596 7      2667.982          44.000
G24  22659462.070 5 119076277.143 5      2741.379          34.000    22659458.328 5  92786686.416 5      2136.145          35.000
G28  21489388.406 7 112927492.338 7     -1839.699          43.000    21489387.305 5  87995454.569 5     -1433.535          33.000
R04  22019488.633 7 117913314.700 7     -4151.469          44.000    22019490.820 5  91710361.147 5     -3228.920          35.000
R05  19329351.055 8 103326471.635 8      -988.020          51.000    19329352.297 7  80365028.475 7      -768.460          47.000
R15  19309307.852 7 103183201.478 7      -564.457          47.000    19309311.164 6  80253547.811 6      -439.025          41.000
R16  21421989.836 6 114432456.043 6      2881.918          37.000    21421994.977 6  89003034.835 6      2241.492          37.000
C05  39766982.438 6 207077111.653 6        17.992          37.000    39766980.648 6 160125153.854 6        14.124          39.000
C14  24538978.086 5 127780897.148 5     -3294.152          31.000    24538974.375 5  98808333.599 5     -2547.625          35.000
C24  22539265.516 8 117367911.344 8     -1571.762          51.000
C25  22415749.859 7 116724674.538 7      1325.812          43.000
E05  23690725.562 7 124495622.470 7       578.867          44.000    23690729.086 7  95392750.833 7       443.536          43.000
E09  22654465.891 8 119049996.513 8     -2080.301          51.000    22654468.328 8  91220140.086 8     -1593.988          51.000
E24  21734888.852 8 114217607.936 8       758.105          51.000    21734901.008 8  87517483.660 8       580.853          51.000
E25  26807169.039 7 140872638.302 7      2667.176          45.000    26807168.727 7 107941369.038 7      2043.581          43.000
E31  24662891.922 8 129604401.202 8     -1840.184          51.000    24662895.078 8  99307286.251 8     -1409.978          50.000
> 2020 05 03 05 57 30.0000000  0 18        .000000000000
G13  20287548.578 8 106611777.867 8      -855.770          51.000    20287547.125 8  83074094.877 8      -666.833          49.000
G15  20414297.078 6 107277860.726 6       776.262          41.000    20414296.781 6  83593128.860 6       604.876          40.000
G19  24517317.977 6 128839382.292 6      3422.414          40.000    24517319.805 6 100394294.900 6      2666.816          40.000
G24  22643827.336 5 118994116.667 5      2735.883          33.000    22643825.906 4  92722665.254 4      2131.851          29.000
G28  21499929.406 6 112982885.087 6     -1853.258          40.000    21499929.273 6  88038617.778 6     -1444.091          37.000
R04  22042774.039 6 118038008.112 6     -4161.133          41.000    22042779.148 5  91807345.016 5     -3236.434          30.000
R05  19334968.484 8 103356499.421 8     -1013.539          51.000    19334969.445 7  80388383.412 7      -788.308          47.000
R15  19312522.328 7 103200377.508 7      -580.320          46.000    19312524.891 6  80266906.917 6      -451.360          41.000
R16  21405837.102 6 114346168.849 6      2870.449          38.000    21405841.617 6  88935922.577 6      2232.575          37.000
C05  39766877.938 6 207076567.377 6        18.398          37.000    39766876.094 6 160124733.013 6        14.142          40.000
C14  24557973.484 5 127879801.918 5     -3298.273          32.000    24557970.164 6  98884808.314 6     -2550.785          36.000
C24  22548341.062 8 117415169.193 8     -1578.387          51.000
C25  22408136.594 7 116685030.076 7      1317.355          44.000
E05  23687453.312 7 124478426.061 7       567.668          44.000    23687456.625 7  95379574.339 7       435.128          44.000
E09  22666367.961 8 119112541.000 8     -2089.066          51.000    22666369.680 8  91268063.771 8     -1600.761          51.000
E24  21730591.156 8 114195024.916 8       747.711          51.000    21730604.141 8  87500179.799 8       572.885          51.000
E25  26791955.227 7 140792694.936 7      2662.672          44.000    26791954.633 7 107880113.790 7      2040.193          43.000
E31  24673415.781 8 129659704.777 8     -1846.480          51.000    24673418.742 8  99349661.721 8     -1414.869          50.000
> 2020 05 03 05 58  0.0000000  0 17        .000000000000
G13  20292492.227 8 106637756.949 8      -869.609          51.000    20292490.352 8  83094338.285 8      -677.621          48.000
G15  20409930.117 6 107254912.963 6       760.289          40.000    20409929.977 6  83575247.483 6       592.433          41.000
G19  24497800.047 6 128736819.936 6      3421.848          39.000    24497802.328 6 100314376.171 6      2666.375          40.000
G28  21510559.844 7 113038749.716 7     -1865.117          42.000    21510558.984 5  88082148.658 5     -1453.341          32.000
R04  22066129.031 6 118163077.665 6     -4169.965          39.000    22066138.078 4  91904621.542 4     -3243.297          28.000
R05  19340745.016 8 103387380.100 8     -1038.355          51.000    19340746.406 7  80412401.681 7      -807.613          47.000
R15  19315841.828 7 103218114.965 7      -595.434          47.000    19315844.891 6  80280702.759 6      -463.115          40.000
R16  21389764.234 6 114260308.140 6      2859.988          39.000    21389768.086 6  88869142.034 6      2224.432          37.000
C05  39766785.961 6 207076088.680 6        20.148          37.000    39766784.172 6 160124362.826 6        15.417          40.000
C14  24577008.852 4 127978933.628 4     -3302.859          28.000    24577005.000 6  98961447.663 6     -2553.204          38.000
C24  22557471.523 8 117462712.643 8     -1584.492          51.000
C25  22400588.477 7 116645724.945 7      1309.594          44.000
E05  23684260.609 7 124461649.379 7       557.359          44.000    23684264.086 7  95366719.484 7       427.095          44.000
E09  22678336.102 8 119175432.926 8     -2097.020          51.000    22678337.242 8  91316253.670 8     -1606.843          51.000
E24  21726368.570 8 114172837.715 8       738.098          51.000    21726382.375 8  87483179.225 8       565.594          51.000
E25  26776783.945 7 140712972.265 7      2658.727          43.000    26776783.484 7 107819027.632 7      2037.407          43.000
E31  24683991.492 8 129715280.791 8     -1851.867          51.000    24683994.180 8  99392245.926 8     -1418.966          50.000
> 2020 05 03 05 58 30.0000000  0 18        .000000000000
G13  20297502.047 8 106664084.001 8      -885.195          51.000    20297499.438 8  83114852.845 8      -689.763          48.000
G15  20405638.984 6 107232363.740 6       743.180          40.000    20405639.594 6  83557676.648 6       579.101          39.000
G17  23390339.289 5 122917050.488 5      2261.520          31.000
G19  24478274.492 7 128634212.325 7      3419.031          44.000    24478276.219 7 100234422.193 7      2664.180          43.000
G28  21521246.312 7 113094907.240 7     -1879.180          42.000    21521244.156 5  88125907.680 5     -1464.299          31.000
R04  22089520.492 6 118288339.704 6     -4180.477          39.000    22089527.328 5  92002047.686 5     -3251.482          33.000
R05  19346647.523 8 103418933.005 8     -1064.793          51.000    19346649.336 7  80436942.840 7      -828.172          47.000
R15  19319232.578 7 103236232.257 7      -611.996          45.000    19319235.406 6  80294793.979 6      -475.997          40.000
R16  21373737.984 6 114174694.953 6      2847.434          40.000    21373741.195 6  88802553.965 6      2214.671          38.000
C05  39766672.961 6 207075500.427 6        19.555          37.000    39766671.250 6 160123907.942 6        14.955          40.000
C14  24596048.805 5 128078079.835 5     -3307.293          30.000    24596045.867 6  99038114.560 6     -2557.463          39.000
C24  22566622.906 8 117510365.369 8     -1592.012          51.000
C25  22393071.641 7 116606583.860 7      1300.164          44.000
E05  23681114.180 7 124445116.578 7       545.051          44.000    23681118.039 7  95354051.470 7       417.636          44.000
E09  22690336.438 8 119238494.745 8     -2106.719          51.000    22690337.430 8  91364573.755 8     -1614.278          51.000
E24  21722187.750 8 114150869.270 8       726.797          51.000    21722202.211 8  87466346.256 8       556.890          51.000
E25  26761622.031 7 140633294.176 7      2653.203          42.000    26761622.086 7 107757975.652 7      2033.138          44.000
E31  24694585.180 8 129770951.066 8     -1859.152          51.000    24694587.805 8  99434902.361 8     -1424.491          50.000
> 2020 05 03 05 59  0.0000000  0 18        .000000000000
G13  20302599.445 8 106690871.044 8      -899.875          51.000    20302596.516 8  83135725.834 8      -701.204          48.000
G15  20401445.516 7 107210326.053 7       726.672          43.000    20401445.883 7  83540504.414 7       566.241          43.000
G17  23377466.680 5 122849392.812 5      2249.742          35.000    23377466.508 6  95726813.879 6      1753.043          36.000
G19  24458762.852 7 128531674.329 7      3417.371          44.000    24458763.906 7 100154522.499 7      2662.887          42.000
G28  21532009.086 5 113151470.766 5     -1890.363          32.000    21532007.180 4  88169980.881 4     -1473.010          28.000
R04  22112967.047 5 118413904.889 5     -4190.266          30.000    22112974.578 6  92099709.525 6     -3259.095          36.000
R05  19352696.898 8 103451271.329 8     -1090.410          51.000    19352699.203 8  80462094.849 8      -848.100          48.000
R15  19322714.953 7 103254841.204 7      -627.902          43.000    19322717.922 6  80309267.630 6      -488.368          40.000
R16  21357779.672 6 114089443.804 6      2836.242          38.000    21357782.852 6  88736247.504 6      2205.966          39.000
C05  39766560.211 6 207074913.286 6        20.137          37.000    39766558.422 6 160123453.903 6        15.474          40.000
C14  24615116.461 5 128177371.305 5     -3311.320          33.000    24615114.133 6  99114892.943 6     -2560.632          39.000
C24  22575816.148 8 117558236.991 8     -1598.703          51.000
C25  22385607.812 7 116567717.575 7      1291.586          46.000
E05  23678035.805 7 124428940.247 7       533.957          45.000    23678039.734 7  95341656.589 7       409.178          44.000
E09  22702390.055 8 119301837.442 8     -2115.445          51.000    22702391.438 8  91413109.054 8     -1620.962          51.000
E24  21718070.086 8 114129231.010 8       716.477          51.000    21718084.922 8  87449766.287 8       548.947          51.000
E25  26746490.672 6 140553773.178 6      2648.832          41.000    26746491.195 7 107697044.009 7      2029.514          45.000
E31  24705217.773 8 129826825.931 8     -1865.281          50.000    24705220.664 8  99477715.565 8     -1429.194          49.000
> 2020 05 03 05 59 30.0000000  0 17        .000000000000
G13  20307774.180 8 106718064.973 8      -918.340          51.000    20307771.336 8  83156915.882 8      -715.589          48.000
G15  20397339.398 7 107188747.946 7       706.516          44.000    20397339.094 7  83523690.327 7       550.532          44.000
G19  24439255.109 7 128429156.225 7      3411.824          46.000    24439255.422 7 100074638.363 7      2658.567          42.000
G24  22581608.023 5 118667152.201 5      2710.145          32.000    22581613.266 5  92467933.738 5      2111.822          31.000
G28  21542838.703 6 113208367.841 6     -1908.016          38.000    21542836.594 5  88214307.902 5     -1486.772          34.000
R05  19358883.062 8 103484340.250 8     -1119.629          51.000    19358885.742 8  80487815.101 8      -870.822          48.000
R15  19326279.016 7 103273886.155 7      -647.422          43.000    19326281.461 6  80324080.350 6      -503.553          40.000
R16  21341878.852 6 114004501.583 6      2820.965          40.000    21341881.414 6  88670181.362 6      2194.084          38.000
C05  39766437.555 6 207074274.783 6        16.641          37.000    39766435.773 6 160122960.145 6        13.233          39.000
C14  24634199.570 5 128276752.473 5     -3319.484          35.000    24634199.664 6  99191740.665 6     -2566.667          39.000
C24  22585040.906 8 117606273.883 8     -1609.086          51.000
C25  22378187.117 7 116529073.443 7      1279.340          47.000
E05  23675015.852 7 124413068.251 7       518.801          46.000    23675019.172 7  95329494.926 7       397.496          44.000
E09  22714486.992 8 119365407.259 8     -2127.926          51.000    22714488.633 8  91461818.375 8     -1630.477          51.000
E24  21714005.188 8 114107869.591 8       702.289          51.000    21714020.195 8  87433398.452 8       538.109          51.000
E25  26731379.766 6 140474356.934 6      2640.055          39.000    26731380.375 7 107636192.612 7      2023.007          45.000
E31  24715878.891 8 129882851.001 8     -1875.109          50.000    24715882.070 8  99520643.863 8     -1436.841          49.000
