     3.02           OBSERVATION DATA    M (MIXED)           RINEX VERSION / TYPE
SAVERINEX           SC600               20200509 015933 LCL PGM / RUN BY / DATE
       G = GPS       R = GLONASS       C = COMPASS          COMMENT
       S = SBAS      J = QZSS          E = GALILEO          COMMENT
BEAN                                                        MARKER NAME
1                                                           MARKER NUMBER
GEODETIC                                                    MARKER TYPE
Unige DICCA         GTER                                    OBSERVER / AGENCY
SC60291900056       SC600               2.12(191226)        REC # / TYPE / VERS
                    HEMA45          NONE                    ANT # / TYPE
  4509407.8091   693652.4678  4442337.6214                  APPROX POSITION XYZ
        0.0000        0.0000        0.0000                  ANTENNA: DELTA H/E/N
G    8 C1C L1C D1C S1C C2Y L2Y D2Y S2Y                      SYS / # / OBS TYPES
R    8 C1C L1C D1C S1C C2P L2P D2P S2P                      SYS / # / OBS TYPES
C    8 C1I L1I D1I S1I C7I L7I D7I S7I                      SYS / # / OBS TYPES
E    8 C1C L1C D1C S1C C7Q L7Q D7Q S7Q                      SYS / # / OBS TYPES
DBHZ                                                        COMMENT
     30.000                                                 INTERVAL
  2020    05    08    23    00    0.0000000     GPS         TIME OF FIRST OBS
  2020    05    08    23    59   30.0000000     GPS         TIME OF LAST OBS
     0                                                      RCV CLOCK OFFS APPL
G L1C  0.00000                                              SYS / PHASE SHIFT
G L2Y  0.00000                                              SYS / PHASE SHIFT
R L1C  0.00000                                              SYS / PHASE SHIFT
R L2P  0.25000                                              SYS / PHASE SHIFT
C L1I  0.00000                                              SYS / PHASE SHIFT
C L7I  0.00000                                              SYS / PHASE SHIFT
E L1C  0.50000                                              SYS / PHASE SHIFT
E L7Q -0.25000                                              SYS / PHASE SHIFT
 12 R01  1 R06 -4 R07  5 R08  6 R09 -2 R10 -7 R15  0 R16 -1 GLONASS SLOT / FRQ #
    R20  2 R21  4 R22 -3 R23  3                             GLONASS SLOT / FRQ #
 C1C   71.950 C2C   71.950 C2P   71.950                     GLONASS COD/PHS/BIS
    18                                                      LEAP SECONDS
*** Above antenna height is from mark to ANTENNA BOTTOM.    COMMENT
    17     4        0.0000        ANT MEASURE TYPE/HEIGT    COMMENT
    0.0000    0.0000    0.0458    0.0405    0.0000          COMMENT
                    BASE STATION                            COMMENT
                                                            END OF HEADER
> 2020 05 08 23 00  0.0000000  0 17        .000000000000
G01  24568986.320 6 129110864.988 6     -3770.773          39.000    24568989.984 6 100605882.064 6     -2938.265          38.000
G03  21594522.578 6 113479978.413 6     -2022.996          39.000    21594523.141 6  88425964.883 6     -1576.364          39.000
G04  20315406.719 8 106758199.601 8      -599.258          50.000    20315406.859 8  83188251.116 8      -466.954          50.000
G09  20868159.680 8 109663025.379 8      1730.836          51.000    20868160.383 8  85451687.166 8      1348.706          51.000
G17  23301333.656 8 122449320.698 8     -2513.809          48.000    23301334.734 6  95415049.219 6     -1958.812          41.000
G19  22752464.211 6 119564999.511 6     -1993.289          41.000    22752472.430 4  93167547.304 4     -1553.200          26.000
R01  21978737.438 5 117488930.921 5      2710.238          30.000
R10  23438665.727 6 124941305.567 6      4008.480          38.000
R22  21926120.914 6 117043103.415 6     -4188.297          40.000    21926123.383 5  91033521.183 5     -3257.561          32.000
C11  24103405.023 6 125512775.809 6     -2893.148          41.000    24103406.109 7  97054410.769 7     -2237.024          44.000
C21  23725043.047 6 123542524.123 6     -2117.520          36.000
C26  24348118.492 8 126787040.691 8      2624.414          48.000
E04  25731294.852 6 135218846.760 6     -2164.055          38.000    25731293.789 5 103609253.385 5     -1657.989          32.000
E05  25603063.062 7 134544992.019 7      2026.785          42.000    25603067.125 8 103092975.190 8      1552.997          48.000
E09  21456880.938 8 112756743.221 8       -85.285          51.000    21456882.461 8  86398039.065 8       -65.306          51.000
E11                                                                  25333493.688 6 102007462.463 6     -2330.877          40.000
E36  23657969.828 8 124323469.686 8      -967.586          51.000    23657972.977 8  95260850.933 8      -741.400          51.000
> 2020 05 08 23 00 30.0000000  0 17        .000000000000
G01  24590521.812 6 129224034.281 6     -3773.996          39.000    24590525.531 6 100694065.935 6     -2940.776          39.000
G03  21606095.422 7 113540792.594 7     -2031.199          43.000    21606096.766 7  88473352.538 7     -1582.753          43.000
G04  20318872.625 8 106776412.925 8      -614.680          50.000    20318872.883 8  83202443.323 8      -478.971          50.000
G09  20858319.297 8 109611314.889 8      1716.828          51.000    20858320.500 8  85411393.283 8      1337.788          51.000
G17  23315713.055 7 122524884.826 7     -2523.633          47.000    23315712.547 6  95473930.322 6     -1966.467          38.000
G19  22763888.430 6 119625033.162 6     -2009.285          41.000    22763897.922 4  93214326.874 4     -1565.658          27.000
R10  23416118.859 6 124821114.136 6      4004.359          39.000
R22  21949689.477 6 117168916.150 6     -4198.918          39.000    21949687.508 4  91131391.083 4     -3265.825          24.000
R23  19897151.094 4 106436339.612 4      -115.848          28.000
C11  24120096.781 7 125599701.729 7     -2901.684          42.000    24120097.148 7  97121627.452 7     -2243.835          42.000
C21  23737253.680 5 123606109.572 5     -2121.371          35.000
C26  24333022.289 7 126708431.173 7      2616.500          47.000
E04                                                                  25743662.250 5 103659039.206 5     -1660.069          33.000
E05  25591510.477 7 134484277.428 7      2021.109          42.000    25591512.805 8 103046453.642 8      1548.600          48.000
E09  21457391.016 8 112759422.979 8       -93.188          51.000    21457392.648 8  86400092.386 8       -71.388          51.000
E11                                                                  25350876.562 6 102077455.101 6     -2334.885          37.000
E36  23663535.094 8 124352715.370 8      -981.871          51.000    23663538.367 8  95283259.962 8      -752.340          51.000
> 2020 05 08 23 01  0.0000000  0 16        .000000000000
G01  24612073.539 6 129337289.533 6     -3776.477          40.000    24612077.586 6 100782316.796 6     -2942.709          40.000
G03  21617713.172 6 113601844.495 6     -2038.977          40.000    21617717.500 6  88520925.412 6     -1588.813          39.000
G04  20322424.539 8 106795078.372 8      -629.754          50.000    20322424.852 8  83216987.822 8      -490.717          51.000
G09  20848557.141 8 109560016.726 8      1703.039          51.000    20848558.781 8  85371420.707 8      1327.043          51.000
G17  23330146.734 7 122600733.937 7     -2532.922          46.000    23330144.164 6  95533033.529 6     -1973.705          40.000
G19  22775404.789 6 119685551.464 6     -2025.367          41.000    22775404.281 4  93261460.321 4     -1578.208          25.000
R07  20831000.320 5 111509995.080 5     -2329.730          33.000    20831008.266 5  86730008.768 5     -1812.016          33.000
R10  23393594.859 6 124701043.177 6      4000.246          41.000
R22  21973314.945 6 117295029.701 6     -4208.676          38.000
C11  24136838.172 7 125686876.282 7     -2910.055          45.000    24136835.578 6  97189036.331 6     -2250.157          41.000
C21  23749487.164 5 123669805.338 5     -2125.320          33.000
C26  24317970.352 7 126630053.211 7      2608.793          47.000
E04                                                                  25756044.477 5 103708911.133 5     -1661.994          32.000
E05  25579988.516 7 134423723.639 7      2015.770          44.000    25579989.602 8 103000055.327 8      1544.536          48.000
E09  21457944.227 8 112762330.014 8      -100.648          51.000    21457946.047 8  86402319.855 8       -77.090          51.000
E36  23669179.438 8 124382377.087 8      -995.660          51.000    23669182.680 8  95305987.786 8      -762.861          51.000
> 2020 05 08 23 01 30.0000000  0 18        .000000000000
G01  24633644.414 6 129450645.297 6     -3780.047          38.000    24633649.391 6 100870645.955 6     -2945.491          39.000
G03  21629379.000 6 113663150.198 6     -2047.797          41.000    21629383.523 6  88568696.098 6     -1595.680          39.000
G04  20326065.328 8 106814211.073 8      -645.543          50.000    20326065.695 8  83231896.430 8      -503.020          50.000
G09  20838876.711 8 109509147.803 8      1688.531          51.000    20838878.758 8  85331782.619 8      1315.739          51.000
G17  23344637.133 7 122676881.521 7     -2543.324          47.000    23344633.805 6  95592369.285 6     -1981.811          40.000
G19  22787015.984 6 119746568.402 6     -2042.434          40.000    22787011.305 5  93308980.141 5     -1591.504          31.000
R07  20844080.766 5 111580001.517 5     -2336.262          33.000    20844085.750 5  86784458.174 5     -1817.095          34.000
R10  23371097.344 7 124581113.351 7      3995.180          44.000
R22  21997000.305 6 117421456.736 6     -4219.480          40.000
R23  19898766.484 5 106444948.529 5      -173.438          34.000
C11  24153630.945 8 125774313.317 8     -2918.988          48.000    24153625.789 7  97256648.154 7     -2256.893          42.000
C21  23761743.133 5 123733627.499 5     -2129.613          35.000
C26  24302966.797 8 126551925.594 8      2599.938          48.000
E04                                                                  25768441.688 5 103758808.146 5     -1664.385          31.000
E05  25568499.891 7 134363347.213 7      2009.770          44.000    25568499.922 7 102953792.904 7      1539.932          47.000
E09  21458543.711 8 112765480.159 8      -108.992          51.000    21458545.602 8  86404733.602 8       -83.484          51.000
E11  25385735.008 6 133402949.591 6     -3057.793          37.000
E36  23674905.727 8 124412470.876 8     -1010.336          51.000    23674909.039 8  95329046.672 8      -774.124          51.000
> 2020 05 08 23 02  0.0000000  0 18        .000000000000
G01  24655241.445 6 129564139.107 6     -3784.625          36.000    24655248.047 5 100959082.674 5     -2949.058          33.000
G03  21641100.734 6 113724748.718 6     -2057.211          38.000    21641110.773 6  88616695.060 6     -1603.025          38.000
G04  20329802.398 8 106833849.287 8      -662.047          50.000    20329802.750 8  83247198.938 8      -515.881          50.000
G09  20829285.750 8 109458748.187 8      1673.180          51.000    20829288.203 8  85292510.201 8      1303.776          51.000
G17  23359191.281 8 122753364.128 8     -2553.965          48.000    23359188.477 6  95651966.060 6     -1990.106          40.000
G19  22798728.680 6 119808120.373 6     -2059.516          40.000    22798722.617 5  93356942.696 5     -1604.820          32.000
R07  20857206.258 6 111650251.022 6     -2344.949          37.000    20857210.047 5  86839096.724 5     -1823.852          34.000
R10  23348634.516 7 124461369.269 7      3989.238          44.000
R22  22020752.211 6 117548233.105 6     -4230.504          40.000    22020746.680 4  91426393.829 4     -3290.395          28.000
R23  19899824.117 5 106450619.089 5      -203.367          34.000
C11  24170481.320 8 125862049.483 8     -2928.531          49.000    24170474.680 7  97324491.328 7     -2264.417          42.000
C21  23774031.844 6 123797614.533 6     -2134.672          40.000
C26  24288019.656 8 126474089.986 8      2590.535          49.000
E04  25780851.250 5 135479287.585 5     -2176.074          34.000
E05  25557051.930 7 134303187.867 7      2002.730          42.000    25557051.172 7 102907696.790 7      1534.641          45.000
E09  21459196.898 8 112768912.308 8      -118.031          51.000    21459198.680 8  86407363.434 8       -90.478          51.000
E11  25403209.633 6 133494801.062 6     -3064.199          39.000
E36  23680721.453 8 124443035.833 8     -1025.621          51.000    23680724.938 8  95352466.558 8      -785.877          51.000
> 2020 05 08 23 02 30.0000000  0 18        .000000000000
G01  24676838.211 5 129677628.654 5     -3786.496          32.000
G03  21652851.477 6 113786499.467 6     -2064.500          37.000    21652866.492 4  88664812.639 4     -1608.677          29.000
G04  20333608.641 8 106853851.433 8      -676.324          50.000    20333608.938 8  83262785.022 8      -527.006          50.000
G09  20819757.695 8 109408678.014 8      1659.996          51.000    20819760.344 8  85253494.482 8      1293.503          51.000
G17  23373782.062 8 122830038.865 8     -2562.590          48.000    23373780.086 6  95711712.538 6     -1996.826          40.000
G19  22810515.781 6 119870064.240 6     -2074.836          39.000    22810510.094 5  93405210.742 5     -1616.749          30.000
R07  20870349.609 6 111720599.316 6     -2349.895          36.000    20870349.477 5  86893811.981 5     -1827.699          31.000
R10  23326180.492 7 124341673.167 7      3985.438          42.000
R22  22044541.867 6 117675212.254 6     -4239.934          39.000    22044535.969 5  91525155.297 5     -3297.732          30.000
R23  19901028.219 6 106457058.580 6      -231.258          37.000
C11  24187361.367 8 125949943.313 8     -2936.109          48.000    24187354.289 7  97392456.383 7     -2270.159          43.000
C21  23786326.094 6 123861627.074 6     -2137.754          38.000
C26  24273102.422 8 126396409.820 8      2583.262          49.000
E04  25793262.883 5 135544515.343 5     -2177.695          34.000
E05  25545618.547 7 134243105.414 7      1997.746          42.000    25545616.000 7 102861659.580 7      1530.824          44.000
E09  21459876.781 8 112772485.544 8      -124.980          51.000    21459878.484 8  86410101.375 8       -95.761          51.000
E11  25420697.562 6 133586709.218 6     -3068.051          39.000    25420690.086 5 102358582.447 5     -2351.179          34.000
E36  23686600.414 8 124473931.128 8     -1038.855          51.000    23686603.438 8  95376139.576 8      -795.991          51.000
> 2020 05 08 23 03  0.0000000  0 18        .000000000000
G01  24698459.883 5 129791242.516 5     -3788.086          31.000
G03  21664656.250 6 113848532.431 6     -2071.434          40.000    21664665.273 6  88713204.144 6     -1614.104          39.000
G04  20337508.742 8 106874346.743 8      -690.301          50.000    20337509.039 8  83278755.398 8      -537.897          50.000
G09  20810317.414 8 109359068.316 8      1646.969          51.000    20810319.562 8  85214837.592 8      1283.352          51.000
G17  23388433.734 8 122907032.992 8     -2570.629          48.000    23388432.508 6  95771707.939 6     -2003.087          41.000
G19  22822402.094 6 119932527.657 6     -2089.844          38.000    22822398.266 5  93453883.502 5     -1628.441          33.000
R07  20883535.180 6 111791178.244 6     -2355.566          36.000    20883532.305 5  86948706.640 5     -1832.110          30.000
R10  23303761.008 6 124222162.125 6      3981.680          40.000
R22  22068393.258 6 117802522.549 6     -4248.039          37.000    22068385.938 5  91624174.387 5     -3304.030          32.000
R23  19902399.945 6 106464399.516 6      -258.641          36.000    19902402.922 4  82805666.135 4      -201.165          26.000
C11  24204295.133 7 126038121.627 7     -2943.012          45.000    24204288.812 7  97460641.463 7     -2275.832          44.000
C21  23798647.984 6 123925794.175 6     -2140.133          36.000
C26  24258240.164 8 126319016.992 8      2575.961          48.000
E04  25805699.211 6 135609855.797 6     -2178.930          38.000
E05  25534225.031 7 134183230.425 7      1993.355          43.000    25534220.211 7 102815781.377 7      1527.397          43.000
E09  21460608.312 8 112776329.757 8      -131.645          51.000    21460609.914 8  86413046.946 8      -100.856          51.000
E11  25438221.742 6 133678803.043 6     -3072.148          39.000    25438217.391 6 102429147.816 6     -2353.927          36.000
E36  23692567.055 8 124505286.872 8     -1051.879          51.000    23692569.891 8  95400165.409 8      -805.961          51.000
> 2020 05 08 23 03 30.0000000  0 18        .000000000000
G01  24720107.094 5 129904984.497 5     -3793.930          31.000
G03  21676516.391 5 113910853.069 5     -2082.047          35.000    21676520.891 5  88761765.698 5     -1622.374          35.000
G04  20341503.695 8 106895339.676 8      -707.645          51.000    20341503.922 8  83295113.519 8      -551.411          51.000
G09  20800965.977 8 109309925.321 8      1630.691          51.000    20800966.789 8  85176544.369 8      1270.669          51.000
G17  23403146.594 7 122984349.715 7     -2582.180          46.000    23403146.125 7  95831954.733 7     -2012.088          44.000
G19  22834388.062 6 119995513.917 6     -2107.746          36.000    22834385.188 5  93502963.657 5     -1642.406          35.000
R07  20896763.664 6 111861992.585 6     -2363.949          38.000    20896759.797 5  87003784.497 5     -1838.627          30.000
R10  23281378.281 6 124102846.232 6      3974.219          39.000
R22  22092306.461 6 117930165.699 6     -4260.273          37.000    22092298.281 5  91723452.269 5     -3313.546          33.000
R23  19903942.078 6 106472647.771 6      -289.695          37.000    19903946.820 4  82812081.432 4      -225.319          29.000
C11  24221283.047 7 126126587.653 7     -2953.258          42.000    24221278.547 7  97529048.969 7     -2283.755          42.000
C21  23811000.602 6 123990121.097 6     -2146.484          36.000
C26  24243434.094 7 126241919.624 7      2565.348          47.000
E04  25818158.836 6 135675316.843 6     -2183.855          37.000
E05  25522872.703 6 134123568.835 6      1985.430          41.000    25522866.398 7 102770066.679 7      1521.435          44.000
E09  21461392.477 8 112780450.113 8      -141.617          51.000    21461393.992 8  86416204.102 8      -108.518          51.000
E11  25455782.180 6 133771086.661 6     -3079.234          37.000    25455780.148 6 102499858.601 6     -2359.090          37.000
E36  23698622.062 8 124537108.373 8     -1068.199          51.000    23698625.438 8  95424548.095 8      -818.505          51.000
> 2020 05 08 23 04  0.0000000  0 17        .000000000000
G03  21688412.008 5 113973359.491 5     -2087.602          32.000    21688413.445 5  88810471.923 5     -1626.706          32.000
G04  20345573.688 8 106916727.496 8      -721.473          50.000    20345573.883 8  83311779.381 8      -562.186          50.000
G09  20791684.047 8 109261148.010 8      1617.887          51.000    20791684.008 8  85138536.069 8      1260.691          51.000
G17  23417900.828 7 123061884.548 7     -2589.996          44.000    23417901.344 7  95892371.452 7     -2018.179          44.000
G19  22846453.641 5 120058918.855 5     -2122.426          34.000    22846450.625 5  93552370.136 5     -1653.832          32.000
R07  20910016.039 6 111932937.431 6     -2369.117          39.000    20910014.805 5  87058963.818 5     -1842.647          30.000
R10  23259013.484 6 123983627.129 6      3970.281          41.000
R22  22116261.359 6 118058034.182 6     -4268.109          37.000    22116252.484 5  91822905.491 5     -3319.644          32.000
C11  24238305.258 6 126215238.398 6     -2959.840          36.000    24238303.219 6  97597599.318 6     -2288.839          41.000
C14                                                                  22285579.898 5  89734760.141 5      1029.162          35.000
C21  23823365.258 6 124054506.812 6     -2149.453          37.000
C26  24228665.898 8 126165019.693 8      2558.039          48.000
E04  25830620.938 5 135740794.385 5     -2184.555          33.000
E05  25511540.992 7 134064019.276 7      1981.074          42.000    25511535.352 7 102724437.848 7      1518.164          44.000
E09  21462209.602 8 112784744.470 8      -147.930          51.000    21462211.094 8  86419494.591 8      -113.331          51.000
E11  25473359.273 5 133863456.975 5     -3082.324          35.000    25473358.211 6 102570635.831 6     -2361.984          36.000
E36  23704746.555 8 124569293.625 8     -1080.801          51.000    23704750.312 8  95449209.503 8      -828.092          51.000
> 2020 05 08 23 04 30.0000000  0 17        .000000000000
G03  21700346.281 6 114036072.212 6     -2097.562          37.000    21700346.773 6  88859338.911 6     -1634.464          37.000
G04  20349722.602 8 106938529.755 8      -737.395          51.000    20349722.789 8  83328768.162 8      -574.593          51.000
G09  20782475.617 8 109212757.685 8      1602.895          51.000    20782476.031 8  85100829.328 8      1249.009          51.000
G17  23432699.859 7 123139655.019 7     -2600.133          42.000    23432701.320 7  95952971.783 7     -2026.078          42.000
G19  22858602.297 5 120122760.105 5     -2138.648          35.000    22858599.180 5  93602116.515 5     -1666.476          34.000
R07  20923296.664 6 112004032.960 6     -2376.191          39.000    20923295.539 4  87114260.341 4     -1848.149          29.000
R10  23236671.273 6 123864531.200 6      3963.848          41.000
R22  22140261.922 6 118186145.265 6     -4278.039          38.000    22140255.266 5  91922547.438 5     -3327.364          33.000
C11  24255363.773 4 126304091.879 4     -2968.504          27.000    24255366.711 6  97666306.488 6     -2295.668          40.000
C14  22277917.695 4 116006965.401 4      1322.070          29.000    22277912.352 4  89703913.552 4      1023.287          27.000
C21  23835744.086 5 124118971.607 5     -2153.242          34.000
C26  24213940.477 8 126088340.324 8      2548.660          49.000
E04  25843088.312 5 135806345.520 5     -2188.133          32.000
E05  25500234.195 6 134004602.715 6      1974.598          41.000    25500230.070 7 102678910.945 7      1513.033          44.000
E09  21463063.812 8 112789233.096 8      -156.566          51.000    21463065.078 8  86422933.938 8      -119.972          51.000
E11  25490957.242 5 133955883.286 5     -3087.961          32.000    25490954.445 5 102641494.268 5     -2365.935          33.000
E36  23710944.734 8 124601863.019 8     -1095.691          51.000    23710948.266 8  95474165.274 8      -839.622          51.000
> 2020 05 08 23 05  0.0000000  0 15        .000000000000
G03  21712341.336 6 114099105.913 6     -2104.500          37.000    21712341.430 6  88908456.011 6     -1639.873          38.000
G04  20353971.914 8 106960860.305 8      -751.441          50.000    20353972.227 8  83346168.589 8      -585.539          50.000
G09  20773362.766 8 109164870.010 8      1589.480          51.000    20773364.008 8  85063514.260 8      1238.556          51.000
G17  23447565.172 7 123217773.549 7     -2608.016          42.000    23447567.164 7  96013843.382 7     -2032.220          42.000
G19  22870856.023 6 120187150.339 6     -2154.113          38.000    22870851.180 5  93652290.709 5     -1678.527          35.000
R07  20936626.281 5 112075395.297 5     -2381.312          34.000    20936624.805 4  87169751.408 4     -1852.132          29.000
R10  23214374.227 6 123745679.425 6      3959.605          39.000
R22  22164328.492 5 118314611.852 5     -4286.258          35.000    22164324.266 4  92022465.837 4     -3333.756          28.000
C11  24272489.234 6 126393208.902 6     -2975.793          36.000    24272491.750 6  97735256.932 6     -2300.942          41.000
C21  23848161.641 5 124183629.234 5     -2156.812          31.000
C26  24199280.016 8 126011998.157 8      2540.824          50.000
E05  25488974.461 6 133945434.592 6      1969.891          41.000    25488971.883 7 102633574.351 7      1509.319          45.000
E09  21463976.914 8 112794030.597 8      -163.324          51.000    21463977.945 8  86426609.935 8      -125.151          51.000
E11                                                                  25508591.344 5 102712528.043 5     -2369.060          31.000
E36  23717238.039 8 124634931.269 8     -1108.910          51.000    23717241.266 8  95499503.279 8      -849.651          51.000
> 2020 05 08 23 05 30.0000000  0 14        .000000000000
G01  24806789.211 5 130360553.906 5     -3801.434          32.000    24806794.312 5 101579667.652 5     -2962.162          30.000
G03  21724375.930 6 114162352.246 6     -2111.996          41.000    21724375.742 6  88957738.817 6     -1645.711          41.000
G04  20358300.805 8 106983609.826 8      -765.578          50.000    20358301.414 8  83363895.494 8      -596.554          50.000
G09  20764325.219 8 109117377.352 8      1576.254          51.000    20764326.680 8  85026507.013 8      1228.253          51.000
G17  23462475.797 7 123296129.366 7     -2616.172          45.000    23462477.422 7  96074899.875 7     -2038.575          45.000
G19  22883192.695 6 120251978.304 6     -2168.656          38.000    22883188.695 5  93702805.965 5     -1689.862          33.000
R07  20949986.484 6 112146913.338 6     -2386.844          37.000    20949987.516 5  87225376.536 5     -1856.431          32.000
R10  23192102.688 5 123626966.466 5      3954.688          35.000
R22  22188439.336 6 118443320.050 6     -4294.441          36.000    22188465.242 4  92122751.378 4     -3340.121          28.000
C11  24289656.852 6 126482582.159 6     -2982.582          38.000    24289657.008 7  97804365.972 7     -2306.461          42.000
C26  24184664.375 8 125935888.667 8      2532.887          49.000
E05  25477740.523 6 133886407.032 6      1964.965          39.000    25477740.023 7 102588345.423 7      1505.539          44.000
E09  21464927.898 8 112799028.339 8      -170.211          51.000    21464929.062 8  86430439.374 8      -130.427          51.000
E36  23723605.734 8 124668389.843 8     -1122.133          51.000    23723608.516 8  95525140.359 8      -859.819          51.000
> 2020 05 08 23 06  0.0000000  0 17        .000000000000
G01  24828496.719 5 130474630.724 5     -3803.965          32.000    24828500.812 5 101668556.430 5     -2964.128          30.000
G03  21736454.242 6 114225825.833 6     -2120.535          41.000    21736454.492 6  89007198.737 6     -1652.365          41.000
G04  20362712.125 8 107006792.115 8      -780.859          50.000    20362713.102 8  83381959.609 8      -608.459          49.000
G09  20755365.859 8 109070295.285 8      1561.637          51.000    20755367.336 8  84989819.720 8      1216.860          51.000
G17  23477433.984 7 123374734.702 7     -2625.180          46.000    23477434.477 7  96136150.796 7     -2045.595          43.000
G19  22895614.812 6 120317256.029 6     -2184.305          39.000    22895611.969 5  93753671.768 5     -1702.056          31.000
R07  20963378.289 6 112218601.226 6     -2393.590          38.000    20963381.148 5  87281133.748 5     -1861.678          30.000
R10  23169858.023 5 123508413.017 5      3948.895          32.000
R22  22212598.445 5 118572280.744 5     -4304.328          35.000    22212608.484 4  92223043.391 4     -3347.802          29.000
R23  19914016.617 5 106526532.785 5      -431.910          31.000
C11  24306865.070 6 126572173.060 6     -2990.418          38.000    24306864.352 7  97873643.274 7     -2312.789          44.000
C14                                                                  22255201.211 6  89612450.743 6      1008.438          37.000
C21  23873040.680 4 124313203.711 4     -2164.469          29.000
C26  24170096.352 8 125860029.289 8      2523.488          49.000
E05  25466535.430 6 133827535.157 6      1958.566          39.000    25466537.797 7 102543235.803 7      1500.875          45.000
E09  21465919.758 8 112804240.821 8      -178.309          51.000    21465920.992 8  86434433.359 8      -136.653          51.000
E36  23730050.469 8 124702253.320 8     -1136.527          51.000    23730052.570 8  95551087.695 8      -870.858          51.000
> 2020 05 08 23 06 30.0000000  0 17        .000000000000
G01  24850215.945 5 130588769.404 5     -3805.117          32.000    24850220.711 5 101757495.485 5     -2965.029          33.000
G03  21748577.070 7 114289534.230 7     -2127.047          42.000    21748577.211 7  89056841.580 7     -1657.442          42.000
G04  20367207.008 8 107030413.643 8      -794.227          49.000    20367208.195 8  83400365.998 8      -618.878          49.000
G09  20746486.375 8 109023632.105 8      1549.031          51.000    20746487.969 8  84953458.802 8      1207.037          51.000
G17  23492440.469 7 123453594.163 7     -2632.281          44.000    23492439.750 7  96197599.735 7     -2051.128          43.000
G19  22908123.789 6 120382989.025 6     -2198.199          39.000    22908121.234 5  93804892.317 5     -1712.876          33.000
R07  20976803.312 6 112290465.539 6     -2397.832          36.000    20976804.594 4  87337028.179 4     -1864.977          28.000
R10  23147647.969 6 123390030.829 6      3944.008          36.000
R22  22236804.430 4 118701572.085 4     -4310.785          29.000    22236804.734 5  92323545.850 5     -3352.836          35.000
R23  19916517.297 5 106539937.914 5      -458.871          33.000
C11  24324114.352 6 126661986.903 6     -2997.305          38.000    24324113.766 7  97943092.979 7     -2317.546          46.000
C14                                                                  22247706.055 6  89582253.527 6      1004.306          38.000
C26  24155578.305 8 125784430.263 8      2516.266          48.000
E04  25893101.625 5 136069212.204 5     -2195.086          33.000
E05  25455362.586 6 133768826.950 6      1954.660          39.000    25455367.039 7 102498251.608 7      1497.763          46.000
E09  21466954.102 8 112809675.266 8      -184.352          51.000    21466955.039 8  86438597.407 8      -141.271          51.000
E36  23736573.305 8 124736528.991 8     -1148.883          51.000    23736575.039 8  95577350.867 8      -880.334          51.000
> 2020 05 08 23 07  0.0000000  0 18        .000000000000
G01  24871948.711 5 130702977.939 5     -3807.602          33.000    24871954.828 5 101846489.107 5     -2966.962          33.000
G03  21760745.523 6 114353482.666 6     -2134.750          39.000    21760744.422 6  89106671.462 6     -1663.445          40.000
G04  20371786.430 8 107054478.672 8      -808.609          50.000    20371787.555 8  83419117.958 8      -630.088          50.000
G09  20737687.617 8 108977393.766 8      1535.145          51.000    20737689.602 8  84917428.922 8      1196.217          51.000
G17  23507495.523 7 123532710.693 7     -2640.457          43.000    23507494.367 7  96259248.953 7     -2057.499          42.000
G19  22920720.312 7 120449179.966 7     -2213.320          42.000    22920716.258 4  93856469.635 4     -1724.668          29.000
R07  20990262.086 5 112362511.222 5     -2403.742          33.000    20990265.914 5  87393063.739 5     -1869.583          31.000
R10  23125473.875 6 123271830.572 6      3937.781          38.000
R22  22261056.906 5 118831045.617 5     -4319.742          33.000    22261057.336 5  92424249.065 5     -3359.793          35.000
R23  19919177.273 5 106554148.178 5      -487.020          35.000
C11  24341406.055 6 126752026.550 6     -3004.188          38.000    24341405.898 7  98012717.343 7     -2322.914          47.000
C14  22240246.078 4 115810788.501 4      1292.426          29.000    22240247.609 5  89552212.930 5       999.727          35.000
C21  23898015.844 5 124443235.652 5     -2170.008          30.000
C26  24141111.422 7 125709099.627 7      2507.531          47.000
E04  25905644.805 5 136135081.818 5     -2196.535          33.000
E05  25444222.539 6 133710288.192 6      1949.445          41.000    25444228.633 7 102453397.249 7      1493.728          46.000
E09  21468031.438 8 112815336.679 8      -191.527          51.000    21468032.219 8  86442935.373 8      -146.788          51.000
E36  23743175.109 8 124771221.932 8     -1162.398          51.000    23743176.977 8  95603933.762 8      -890.663          51.000
> 2020 05 08 23 07 30.0000000  0 17        .000000000000
G01  24893686.742 5 130817212.629 5     -3812.137          34.000    24893693.461 5 101935503.125 5     -2970.499          34.000
G03  21772951.805 6 114417629.429 6     -2144.922          40.000    21772948.969 6  89156655.843 6     -1671.371          38.000
G04  20376442.219 8 107078944.570 8      -825.547          50.000    20376443.336 8  83438182.282 8      -643.283          50.000
G09  20728961.805 8 108931539.373 8      1518.766          51.000    20728964.086 8  84881698.236 8      1183.454          51.000
G17  23522591.094 7 123612039.931 7     -2651.254          43.000    23522590.367 7  96321063.936 7     -2065.915          43.000
G19  22933395.328 7 120515784.549 7     -2230.289          42.000    22933387.977 4  93908369.290 4     -1737.888          28.000
R07  21003747.438 5 112434694.788 5     -2411.934          34.000    21003752.172 5  87449206.516 5     -1875.948          30.000
R10  23103327.656 6 123153774.558 6      3929.453          41.000
R22  22285351.141 6 118960732.913 6     -4329.910          38.000    22285351.812 5  92525116.988 5     -3367.711          34.000
R23  19921977.305 5 106569150.333 5      -517.750          35.000
C11  24358732.148 6 126842248.710 6     -3013.426          37.000    24358732.742 8  98082482.872 8     -2330.399          49.000
C14                                                                  22232818.445 5  89522297.496 5       992.837          32.000
C26  24126688.844 8 125633998.968 8      2496.250          48.000
E04  25918211.039 5 136201117.982 5     -2201.719          32.000
E05  25433107.609 7 133651877.693 7      1941.645          42.000    25433114.391 7 102408641.168 7      1487.571          46.000
E09  21469143.836 8 112821183.142 8      -201.320          51.000    21469144.578 8  86447415.138 8      -154.246          51.000
E36  23749848.117 8 124806290.275 8     -1178.500          51.000    23749850.586 8  95630804.307 8      -903.057          51.000
> 2020 05 08 23 08  0.0000000  0 16        .000000000000
G03  21785216.852 6 114482083.656 6     -2151.309          39.000    21785213.828 6  89206879.854 6     -1676.344          38.000
G04  20381194.758 8 107103919.591 8      -838.758          49.000    20381195.930 8  83457643.344 8      -653.578          49.000
G09  20720330.117 8 108886178.972 8      1506.070          51.000    20720332.102 8  84846352.479 8      1173.561          51.000
G17  23537747.828 7 123691688.538 7     -2657.871          43.000    23537747.844 7  96383127.796 7     -2071.065          43.000
G19  22946168.578 6 120582909.470 6     -2243.910          40.000    22946160.016 4  93960674.440 4     -1748.501          29.000
R07  21017278.562 6 112507126.877 6     -2416.062          36.000    21017284.203 4  87505542.590 4     -1879.163          29.000
R08  19714411.805 5 105569777.864 5       330.375          30.000    19714403.523 4  82109794.097 4       256.958          25.000
R10  23081230.539 7 123035978.593 7      3924.473          43.000
R22  22309704.875 6 119090739.592 6     -4336.195          39.000    22309707.805 4  92626233.369 4     -3372.590          26.000
R23  19924959.453 5 106585105.123 5      -545.355          34.000
C11  24376113.781 6 126932759.525 6     -3019.508          36.000    24376114.758 8  98152471.591 8     -2334.875          50.000
C21  23923073.766 5 124573691.046 5     -2177.648          35.000
C26  24112331.727 7 125559239.367 7      2488.574          47.000
E05  25422038.250 6 133593705.223 6      1937.387          40.000    25422044.891 7 102364067.445 7      1484.410          44.000
E09  21470312.445 8 112827323.723 8      -207.355          51.000    21470312.859 8  86452120.257 8      -158.859          51.000
E36  23756613.289 8 124841843.115 8     -1190.938          51.000    23756616.352 8  95658046.093 8      -912.525          51.000
> 2020 05 08 23 08 30.0000000  0 16        .000000000000
G03  21797520.586 4 114546744.158 4     -2161.051          29.000    21797519.570 5  89257264.530 5     -1683.951          30.000
G04  20386024.625 8 107129301.299 8      -854.371          49.000    20386025.859 8  83477421.293 8      -665.744          49.000
G09  20711773.258 8 108841211.805 8      1490.648          51.000    20711774.523 8  84811313.146 8      1161.547          51.000
G17  23552945.766 7 123771552.450 7     -2667.285          46.000    23552946.648 7  96445359.429 7     -2078.404          46.000
G19  22959020.414 6 120650450.416 6     -2259.953          36.000    22959012.391 5  94013303.728 5     -1761.015          30.000
R07  21030835.109 5 112579703.356 5     -2422.918          33.000    21030842.484 4  87561991.005 4     -1884.492          29.000
R10  23059164.516 7 122918345.560 7      3916.875          44.000
R22  22334098.320 6 119220958.545 6     -4345.840          36.000    22334106.539 4  92727426.017 4     -3380.098          27.000
R23  19928095.992 6 106601884.435 6      -574.695          36.000
C11  24393530.586 5 127023456.380 5     -3027.574          33.000    24393532.156 8  98222604.167 8     -2341.348          50.000
C14                                                                  22218084.914 5  89463032.078 5       982.298          32.000
C21  23935627.422 5 124639084.747 5     -2183.180          30.000
C26  24098021.703 8 125484723.081 8      2478.230          48.000
E05  25410994.703 6 133535669.761 6      1930.180          37.000    25411001.148 7 102319598.701 7      1479.235          43.000
E09  21471517.664 8 112833656.674 8      -215.902          51.000    21471517.773 8  86456972.784 8      -165.405          51.000
E36  23763451.203 8 124877778.764 8     -1205.859          51.000    23763454.555 8  95685581.203 8      -923.973          51.000
> 2020 05 08 23 09  0.0000000  0 16        .000000000000
G04  20390944.781 8 107155157.108 8      -868.969          48.000    20390946.055 8  83497568.668 8      -677.119          49.000
G09  20703304.141 8 108796706.951 8      1476.629          51.000    20703305.000 8  84776634.079 8      1150.623          51.000
G17  23568197.180 7 123851697.581 7     -2675.371          47.000    23568198.852 7  96507810.191 7     -2084.705          47.000
G19  22971963.773 6 120718473.625 6     -2274.879          37.000    22971958.297 5  94066308.864 5     -1772.627          31.000
R01  21711532.273 5 116060581.896 5      2579.160          30.000
R07  21044432.133 6 112652493.142 6     -2429.125          36.000    21044440.484 4  87618605.153 4     -1889.326          29.000
R10  23037142.812 7 122800949.487 7      3910.152          46.000
R22  22358542.727 5 119351455.572 5     -4353.879          33.000    22358559.750 4  92828923.839 4     -3386.347          29.000
R23  19931399.922 6 106619557.155 6      -603.316          40.000
C11  24410994.094 4 127114404.724 4     -3034.961          28.000    24410997.469 8  98292931.328 8     -2346.815          49.000
C14  22210805.578 5 115657429.515 5      1263.656          33.000    22210786.758 6  89433642.625 6       977.411          36.000
C21  23948209.977 5 124704625.274 5     -2186.270          35.000
C26  24083772.406 8 125410520.710 8      2468.961          49.000
E05  25399989.789 6 133477840.238 6      1924.926          36.000    25399996.086 7 102275287.723 7      1475.090          44.000
E09  21472772.273 8 112840250.176 8      -223.242          51.000    21472772.438 8  86462024.961 8      -171.116          51.000
E36  23770374.969 8 124914165.353 8     -1219.543          51.000    23770378.469 8  95713461.854 8      -934.476          51.000
> 2020 05 08 23 09 30.0000000  0 15        .000000000000
G04  20395939.695 8 107181405.427 8      -877.402          48.000    20395940.938 8  83518021.919 8      -683.687          48.000
G09  20694907.680 8 108752584.668 8      1468.535          51.000    20694908.602 8  84742253.097 8      1144.313          51.000
G17  23583486.211 7 123932040.725 7     -2677.211          47.000    23583488.164 7  96570415.246 7     -2086.138          46.000
G19  22984983.680 6 120786895.814 6     -2283.258          36.000    22984979.281 5  94119624.803 5     -1779.162          31.000
R07  21058054.109 5 112725413.365 5     -2428.461          35.000    21058062.258 4  87675320.884 4     -1888.803          28.000
R10  23015150.867 7 122683713.395 7      3909.352          46.000
R22  22383022.234 4 119482092.682 4     -4354.582          27.000    22383040.492 4  92930571.121 4     -3386.882          28.000
R23  19934856.305 5 106638041.462 5      -625.695          35.000
C11  24428493.781 5 127205522.777 5     -3035.348          34.000    24428495.086 8  98363389.763 8     -2347.664          48.000
C14                                                                  22203519.266 6  89404376.778 6       976.511          36.000
C21  23960810.938 6 124770232.972 6     -2184.207          38.000
C26  24069568.727 8 125336555.272 8      2465.801          49.000
E05  25389009.453 6 133420136.515 6      1925.711          39.000    25389014.875 7 102231073.211 7      1475.413          44.000
E09  21474061.281 8 112847023.455 8      -224.602          51.000    21474061.531 8  86467214.880 8      -172.109          51.000
E36  23777369.375 8 124950922.145 8     -1227.219          51.000    23777373.031 8  95741626.157 8      -940.336          51.000
> 2020 05 08 23 10  0.0000000  0 16        .000000000000
G04  20401011.648 8 107208058.577 8      -896.488          49.000    20401012.688 8  83538790.617 8      -698.562          49.000
G09  20686586.523 8 108708859.024 8      1449.570          51.000    20686587.719 8  84708181.176 8      1129.535          51.000
G17  23598815.008 8 124012592.783 8     -2689.844          48.000    23598816.555 7  96633183.087 7     -2095.982          44.000
G19  22998081.695 5 120855727.790 5     -2302.582          33.000    22998076.789 4  94173260.135 4     -1794.223          29.000
R07  21071701.539 4 112798469.086 4     -2439.773          28.000    21071708.500 4  87732148.191 4     -1897.602          28.000
R08  19707522.820 4 105532910.558 4       284.285          29.000
R10  22993191.867 7 122566656.185 7      3897.727          45.000
R22  22407549.398 5 119612993.485 5     -4367.941          33.000
R23  19938467.477 6 106657350.203 6      -658.852          36.000
C11  24446029.086 6 127296821.984 6     -3047.770          37.000    24446027.469 7  98433988.080 7     -2356.538          46.000
C14                                                                  22196283.594 5  89375245.030 5       967.781          33.000
C21  23973427.641 5 124835921.161 5     -2192.234          30.000
C26  24055413.695 8 125262842.796 8      2451.668          49.000
E05  25378056.273 6 133362572.462 6      1915.102          39.000    25378059.906 7 102186965.753 7      1467.469          44.000
E09  21475387.141 8 112853989.659 8      -236.715          51.000    21475387.367 8  86472552.621 8      -181.385          51.000
E36  23784436.898 8 124988062.252 8     -1245.688          51.000    23784440.609 8  95770084.151 8      -954.479          51.000
> 2020 05 08 23 10 30.0000000  0 15        .000000000000
G03  21847193.375 5 114807775.484 5     -2189.547          30.000
G04  20406178.508 8 107235209.734 8      -910.555          50.000    20406179.352 8  83559947.360 8      -709.523          50.000
G09  20678358.992 8 108665624.869 8      1435.805          51.000    20678360.477 8  84674492.223 8      1118.809          51.000
G17  23614201.102 8 124093445.504 8     -2697.199          48.000    23614201.539 7  96696185.181 7     -2101.714          43.000
G19  23011275.172 6 120925060.988 6     -2316.496          36.000    23011271.305 5  94227286.120 5     -1805.053          34.000
R08  19705982.594 5 105524589.353 5       272.699          31.000    19705980.266 4  82074682.143 4       212.096          28.000
R10  22971284.773 7 122449878.184 7      3890.793          45.000
R22  22432126.891 6 119744179.525 6     -4374.902          38.000
R23  19942249.023 6 106677578.765 6      -686.645          36.000
C11  24463615.734 6 127388393.117 6     -3053.930          37.000    24463612.516 7  98504796.714 7     -2361.728          46.000
C14                                                                  22189099.086 5  89346320.039 5       963.060          34.000
C26  24041325.172 8 125189479.476 8      2442.309          48.000
E05  25367147.695 6 133305242.819 6      1909.746          40.000    25367149.156 7 102143037.894 7      1463.330          42.000
E09  21476767.336 8 112861242.696 8      -243.762          51.000    21476767.656 8  86478110.142 8      -186.799          51.000
E36  23791595.414 8 125025679.589 8     -1259.152          51.000    23791598.773 8  95798907.821 8      -964.790          51.000
> 2020 05 08 23 11  0.0000000  0 15        .000000000000
G03  21859715.977 4 114873583.472 4     -2198.605          29.000    21859715.516 4  89511881.442 4     -1713.178          28.000
G04  20411415.336 8 107262728.569 8      -925.160          50.000    20411416.188 8  83581390.620 8      -720.901          50.000
G09  20670200.867 8 108622753.561 8      1421.281          51.000    20670202.320 8  84641086.017 8      1107.492          51.000
G17  23629619.305 8 124174466.730 8     -2705.242          48.000    23629618.164 7  96759318.576 7     -2107.981          43.000
G19  23024539.008 6 120994763.807 6     -2331.395          40.000    23024537.047 4  94281599.903 4     -1816.665          26.000
R10  22949405.930 7 122333253.402 7      3882.953          45.000
R22  22456732.359 6 119875524.638 6     -4382.508          38.000    22456732.641 5  93236507.445 5     -3408.617          33.000
R23  19946176.227 5 106698595.571 5      -715.988          31.000
C11  24481228.914 6 127480106.065 6     -3061.535          38.000    24481225.398 7  98575714.922 7     -2367.071          45.000
C14                                                                  22181943.023 6  89317503.189 6       957.545          36.000
C26  24027278.672 7 125116339.954 7      2432.367          46.000
E05  25356259.258 7 133248018.721 7      1903.879          42.000    25356258.250 7 102099190.911 7      1458.777          42.000
E09  21478177.328 8 112868653.037 8      -251.348          51.000    21478177.820 8  86483788.208 8      -192.579          51.000
E11  25722129.773 5 135170700.707 5     -3141.773          35.000
E36  23798820.148 8 125063644.557 8     -1273.004          51.000    23798823.016 8  95827997.875 8      -975.410          51.000
> 2020 05 08 23 11 30.0000000  0 16        .000000000000
G03  21872286.602 5 114939638.085 5     -2205.129          33.000    21872279.133 5  89563332.188 5     -1718.285          32.000
G04  20416735.922 8 107290687.585 8      -938.629          49.000    20416736.602 8  83603176.870 8      -731.399          50.000
G09  20662126.242 8 108580319.316 8      1407.836          51.000    20662127.156 8  84608020.390 8      1097.015          51.000
G17  23645082.844 7 124255727.455 7     -2712.098          47.000    23645080.562 7  96822638.606 7     -2113.323          44.000
G19  23037886.758 7 121064906.827 7     -2344.520          42.000    23037886.914 5  94336256.826 5     -1826.898          32.000
R10  22927570.375 7 122216861.382 7      3876.309          44.000
R22  22481378.172 6 120007099.588 6     -4389.059          38.000    22481382.914 5  93338843.564 5     -3413.712          35.000
R23  19950269.055 4 106720486.048 4      -743.824          29.000
C11  24498882.492 6 127572031.445 6     -3066.793          37.000    24498879.703 7  98646797.479 7     -2371.684          43.000
C14  22174831.727 4 115470165.888 4      1231.727          27.000    22174827.633 6  89288851.213 6       952.833          37.000
C21  24011413.594 5 125033717.542 5     -2202.113          34.000
C26  24013289.641 7 125043499.921 7      2423.508          46.000
E05  25345404.547 6 133190974.118 6      1898.988          40.000    25345402.844 7 102055481.459 7      1455.132          42.000
E09  21479631.227 8 112876293.987 8      -257.984          51.000    21479631.891 8  86489642.966 8      -197.673          51.000
E11  25740073.016 6 135264996.150 6     -3144.879          36.000
E36  23806124.914 8 125102030.421 8     -1285.977          51.000    23806127.680 8  95857410.436 8      -985.332          51.000
> 2020 05 08 23 12  0.0000000  0 15        .000000000000
G04  20422140.703 8 107319089.807 8      -953.719          48.000    20422141.352 8  83625308.464 8      -743.154          48.000
G09  20654135.836 8 108538326.923 8      1392.715          51.000    20654136.320 8  84575299.054 8      1085.232          51.000
G17  23660591.680 7 124337228.988 7     -2720.375          44.000    23660589.422 7  96886146.282 7     -2119.773          44.000
G19  23051318.719 7 121135491.288 7     -2359.574          42.000    23051321.438 6  94391257.665 6     -1838.629          37.000
R07  21126640.336 5 113092556.953 5     -2461.457          32.000    21126639.594 5  87960880.379 5     -1914.467          30.000
R10  22905780.117 7 122100710.935 7      3868.020          44.000
R22  22506068.492 6 120138905.125 6     -4396.914          39.000    22506074.695 6  93441359.081 6     -3419.819          36.000
C11  24516576.805 6 127664171.334 6     -3074.441          36.000    24516575.812 7  98718045.882 7     -2377.302          42.000
C14  22167757.289 4 115433327.898 4      1224.820          28.000    22167754.305 6  89260367.738 6       946.931          38.000
C21  24024116.414 5 125099866.596 5     -2206.703          32.000
C26  23999359.570 7 124970966.180 7      2413.156          45.000
E05  25334583.844 5 133134113.605 5      1892.637          35.000    25334583.539 7 102011913.067 7      1450.277          42.000
E09  21481129.688 8 112884169.387 8      -265.957          51.000    21481130.516 8  86495677.367 8      -203.830          51.000
E11  25758040.484 5 135359416.993 5     -3149.184          35.000
E36  23813510.383 8 125140840.969 8     -1300.312          51.000    23813513.555 8  95887148.400 8      -996.319          51.000
> 2020 05 08 23 12 30.0000000  0 17        .000000000000
G04  20427624.977 8 107347910.315 8      -967.715          49.000    20427625.820 8  83647766.015 8      -754.064          50.000
G09  20646224.773 8 108496753.132 8      1378.750          51.000    20646225.508 8  84542903.918 8      1074.351          51.000
G17  23676140.891 7 124418945.067 7     -2727.445          43.000    23676139.844 7  96949821.151 7     -2125.282          43.000
G19  23064829.859 6 121206491.277 6     -2373.523          41.000    23064834.500 6  94446582.313 6     -1849.499          36.000
R01  21611184.945 5 115524167.448 5      2528.219          30.000
R07  21140449.648 4 113166456.442 4     -2467.285          29.000    21140447.359 4  88018365.184 4     -1919.000          28.000
R10  22884032.430 7 121984783.546 7      3860.418          46.000
R22  22530798.164 7 120270913.204 7     -4403.820          42.000    22530805.656 5  93544032.037 5     -3425.194          35.000
C11  24534307.344 6 127756499.954 6     -3080.645          36.000    24534308.359 6  98789440.289 6     -2382.316          41.000
C14                                                                  22160718.938 6  89232034.902 6       942.119          39.000
C21  24036839.562 5 125166114.658 5     -2209.812          34.000
C26  23985484.883 7 124898717.868 7      2403.332          45.000
E04  26044401.180 6 136864217.255 6     -2219.863          36.000
E05  25323793.242 5 133077435.820 5      1887.297          33.000    25323794.969 7 101968467.811 7      1446.120          42.000
E09  21482668.250 8 112892255.157 8      -273.031          51.000    21482669.117 8  86501872.955 8      -209.173          51.000
E11  25776028.641 5 135453943.978 5     -3152.945          33.000
E36  23820971.984 8 125180052.037 8     -1313.719          51.000    23820975.391 8  95917193.243 8     -1006.544          51.000
> 2020 05 08 23 13  0.0000000  0 15        .000000000000
G04  20433196.273 8 107377187.198 8      -983.090          50.000    20433197.039 8  83670579.160 8      -766.044          50.000
G09  20638400.852 8 108455637.775 8      1363.293          51.000    20638401.656 8  84510865.986 8      1062.306          51.000
G17  23691738.320 7 124500912.276 7     -2736.141          44.000    23691738.523 7  97013691.697 7     -2132.058          44.000
G19  23078427.000 7 121277942.662 7     -2388.863          43.000    23078431.203 5  94502258.708 5     -1861.452          35.000
R07  21154303.867 5 113240585.886 5     -2473.711          34.000    21154296.859 4  88076015.398 4     -1923.997          29.000
R10  22862335.195 7 121869123.654 7      3851.324          46.000
R22  22555573.305 7 120403159.729 7     -4411.789          42.000    22555579.227 5  93646890.435 5     -3431.391          32.000
C11  24552082.125 6 127849053.788 6     -3088.379          37.000    24552083.500 7  98861008.774 7     -2388.031          42.000
C14                                                                  22153728.172 6  89203883.243 6       935.754          36.000
C21  24049581.141 4 125232481.967 4     -2214.281          29.000
C26  23971673.250 7 124826796.555 7      2392.410          46.000
E04  26057088.094 6 136930882.545 6     -2222.871          38.000    26057089.281 5 104921099.119 5     -1703.658          33.000
E05  25313041.523 6 133020931.421 6      1880.688          36.000    25313044.375 7 101925176.068 7      1440.930          42.000
E09  21484254.359 8 112900590.225 8      -281.492          51.000    21484255.266 8  86508259.570 8      -215.677          51.000
E36  23828517.062 8 125219702.468 8     -1328.543          51.000    23828520.492 8  95947574.730 8     -1017.927          51.000
> 2020 05 08 23 13 30.0000000  0 17        .000000000000
G03  21923018.961 4 115206247.935 4     -2236.207          29.000
G04  20438841.422 8 107406851.963 8      -995.098          51.000    20438841.867 8  83693694.578 8      -775.401          50.000
G09  20630651.578 8 108414914.073 8      1351.160          51.000    20630651.961 8  84479133.227 8      1052.852          51.000
G17  23707370.602 7 124583060.522 7     -2740.938          46.000    23707371.773 7  97077703.266 7     -2135.795          43.000
G19  23092096.688 6 121349775.782 6     -2400.695          40.000    23092098.375 6  94558232.629 6     -1870.675          36.000
R07  21168175.633 5 113314844.397 5     -2476.777          31.000    21168171.883 4  88133771.918 4     -1926.391          28.000
R10  22840676.383 7 121753668.090 7      3845.246          46.000
R22  22580379.602 6 120535572.536 6     -4416.078          38.000    22580382.812 4  93749878.181 4     -3434.727          28.000
R23  19968230.188 6 106816552.000 6      -855.586          36.000
C11  24569887.953 6 127941764.033 6     -3092.730          39.000    24569887.773 7  98932698.229 7     -2391.459          43.000
C14  22146768.312 5 115324021.711 5      1205.035          30.000    22146767.453 5  89175861.481 5       932.021          30.000
C21  24062349.367 5 125298944.292 5     -2215.766          32.000
C26  23957912.633 8 124755138.303 8      2384.324          48.000
E04  26069778.859 5 136997570.418 5     -2223.281          34.000    26069781.102 5 104972197.617 5     -1703.625          31.000
E05  25302316.734 6 132964565.377 6      1876.449          37.000    25302318.305 7 101881986.539 7      1438.065          42.000
E09  21485875.070 8 112909106.965 8      -286.680          51.000    21485876.156 8  86514785.387 8      -219.694          51.000
E36  23836132.766 8 125259724.515 8     -1340.078          51.000    23836135.859 8  95978240.946 8     -1026.813          51.000
> 2020 05 08 23 14  0.0000000  0 15        .000000000000
G04  20444566.555 8 107436937.110 8     -1012.809          51.000    20444566.734 8  83717137.558 8      -789.202          51.000
G09  20622983.023 8 108374616.123 8      1333.297          51.000    20622983.562 8  84447732.247 8      1038.936          51.000
G17  23723043.516 8 124665420.789 8     -2751.742          48.000    23723045.016 6  97141880.059 6     -2144.215          41.000
G19  23105844.398 6 121422021.279 6     -2418.082          39.000    23105844.922 5  94614527.789 5     -1884.223          35.000
R07  21182089.594 5 113389265.046 5     -2486.156          32.000    21182074.398 4  88191654.566 4     -1933.677          29.000
R10  22819062.852 7 121638455.608 7      3833.484          46.000
R22  22605223.000 6 120668181.877 6     -4426.336          36.000    22605225.094 4  93853018.751 4     -3442.706          29.000
R23  19973112.188 5 106842673.418 5      -887.840          34.000
C11  24587730.367 6 128034661.780 6     -3102.547          37.000    24587727.102 7  99004532.683 7     -2399.107          43.000
C14  22139850.984 5 115287984.976 5      1195.207          33.000    22139844.836 5  89147981.595 5       924.101          30.000
C26  23944209.297 7 124683779.034 7      2370.746          47.000
E04                                                                  26082485.656 5 105023352.902 5     -1707.444          32.000
E05  25291624.227 6 132908366.701 6      1867.402          36.000    25291624.156 7 101838925.237 7      1431.232          42.000
E09  21487536.688 8 112917838.627 8      -297.516          51.000    21487537.789 8  86521475.886 8      -227.943          51.000
E36  23843825.609 8 125300151.308 8     -1357.043          51.000    23843828.375 8  96009217.285 8     -1039.854          51.000
> 2020 05 08 23 14 30.0000000  0 16        .000000000000
G04  20450362.859 8 107467396.079 8     -1019.227          51.000    20450363.008 8  83740871.817 8      -794.203          51.000
G09  20615386.688 8 108334699.133 8      1326.359          51.000    20615387.828 8  84416628.131 8      1033.527          51.000
G17  23738747.688 8 124747944.886 8     -2751.258          48.000    23738748.617 6  97206184.526 6     -2143.837          40.000
G19  23119661.531 7 121494631.020 7     -2424.238          43.000    23119661.031 6  94671106.798 6     -1889.020          36.000
R07  21196019.539 5 113463800.728 5     -2483.832          32.000    21196000.992 5  88249626.860 5     -1931.869          31.000
R10  22797487.070 7 121523445.371 7      3832.484          45.000
R22  22630092.922 5 120800937.867 5     -4425.633          30.000    22630096.023 4  93956273.436 4     -3442.162          28.000
R23  19978141.156 6 106869592.079 6      -908.055          36.000
C11  24605600.094 5 128127699.859 5     -3101.641          34.000    24605592.531 7  99076475.612 7     -2398.171          42.000
C14  22132962.422 5 115252105.657 5      1195.098          32.000    22132953.539 5  89120237.433 5       924.047          33.000
C26  23930555.094 7 124612676.462 7      2367.965          47.000
E04                                                                  26095191.000 5 105074510.887 5     -1703.167          32.000
E05                                                                  25280952.672 6 101795957.739 6      1432.312          41.000
E09  21489230.523 8 112926739.556 8      -297.316          51.000    21489231.383 8  86528296.076 8      -227.802          51.000
E11  25848186.172 5 135833133.012 5     -3162.555          35.000
E36  23851586.898 8 125340937.091 8     -1363.328          51.000    23851589.523 8  96040468.699 8     -1044.592          51.000
> 2020 05 08 23 15  0.0000000  0 15        .000000000000
G03  21961540.758 5 115408664.755 5     -2258.352          31.000    21961544.156 5  89928837.529 5     -1759.754          34.000
G04  20456261.250 8 107498392.433 8     -1036.043          51.000    20456261.414 8  83765024.830 8      -807.306          51.000
G09  20607894.367 8 108295328.397 8      1309.355          51.000    20607895.727 8  84385949.631 8      1020.277          51.000
G17  23754513.812 7 124830795.077 7     -2760.898          47.000    23754513.289 6  97270743.105 6     -2151.349          39.000
G19  23133579.336 7 121567767.327 7     -2440.543          45.000    23133577.875 6  94728096.112 6     -1901.722          36.000
R08  19694837.594 5 105464961.374 5       172.094          31.000    19694836.102 4  82028299.736 4       133.851          26.000
R10  22775981.109 7 121408809.823 7      3821.258          43.000
R23  19983352.797 5 106897474.776 5      -939.090          35.000
C11  24623527.266 5 128221039.306 5     -3110.805          32.000    24623515.594 7  99148651.557 7     -2405.070          42.000
C14  22126131.141 4 115216570.718 4      1185.168          27.000    22126125.430 5  89092741.402 5       916.958          35.000
C26  23916982.109 7 124541996.591 7      2355.152          46.000
E05  25270334.281 5 132796502.042 5      1861.215          35.000    25270336.039 6 101753210.529 6      1426.042          41.000
E09  21490987.820 8 112935974.214 8      -307.293          51.000    21490988.602 8  86535371.986 8      -235.440          51.000
E11  25866289.219 5 135928273.004 5     -3169.043          35.000
E36  23859447.625 8 125382246.168 8     -1379.586          51.000    23859450.523 8  96072121.101 8     -1057.103          51.000
> 2020 05 08 23 15 30.0000000  0 14        .000000000000
G04  20462223.984 8 107529727.096 8     -1053.160          51.000    20462224.086 8  83789441.441 8      -820.644          51.000
G09  20600468.375 8 108256306.423 8      1291.926          51.000    20600469.852 8  84355542.902 8      1006.695          51.000
G17  23770303.430 7 124913770.196 7     -2770.875          44.000    23770301.445 6  97335399.028 6     -2159.126          38.000
G19  23147559.352 7 121641229.056 7     -2457.168          44.000    23147556.047 6  94785339.004 6     -1914.676          38.000
R01  21526798.750 5 115073026.874 5      2481.980          30.000
R10  22754508.750 7 121294352.644 7      3809.152          43.000
R23  19988706.422 5 106926119.109 5      -970.613          31.000
C11  24641472.766 5 128314481.586 5     -3119.320          31.000    24641458.773 6  99220907.089 6     -2412.364          41.000
C14  22119325.008 4 115181129.157 4      1176.879          29.000    22119322.281 5  89065342.358 5       909.183          33.000
C26  23903452.898 7 124471545.910 7      2341.504          46.000
E05  25259740.180 6 132740803.288 6      1851.973          38.000    25259736.727 6 101710532.313 6      1419.044          40.000
E09  21492770.961 8 112945344.319 8      -317.633          51.000    21492771.930 8  86542551.689 8      -243.417          51.000
E11  25884394.938 5 136023413.423 5     -3175.824          33.000
E36  23867370.211 8 125423880.133 8     -1396.305          51.000    23867373.422 8  96104022.451 8     -1069.890          51.000
> 2020 05 08 23 16  0.0000000  0 15        .000000000000
G04  20468274.961 8 107561525.567 8     -1063.492          51.000    20468275.109 8  83814219.462 8      -828.695          51.000
G09  20593133.125 8 108217760.404 8      1281.094          51.000    20593134.703 8  84325507.056 8       998.258          51.000
G17  23786139.969 7 124996994.691 7     -2774.301          42.000    23786137.930 6  97400249.279 6     -2161.793          41.000
G19  23161624.633 7 121715140.357 7     -2467.098          44.000    23161619.430 6  94842932.246 6     -1922.414          37.000
R07  21238007.359 5 113688715.501 5     -2502.320          30.000
R10  22733095.047 7 121180207.095 7      3803.707          44.000
R22  22704974.805 5 121200667.705 5     -4446.730          30.000    22704965.188 5  94267172.589 5     -3458.568          32.000
R23  19994228.250 6 106955653.295 6      -995.457          37.000
C11                                                                  24659445.977 6  99293337.620 6     -2414.153          41.000
C14                                                                  22112568.305 5  89038137.792 5       906.358          34.000
C26  23889991.797 7 124401452.641 7      2334.527          44.000
E05  25249181.977 6 132685347.563 6      1849.520          37.000    25249177.047 6 101667977.402 6      1417.293          40.000
E09  21494603.953 8 112954976.276 8      -321.402          51.000    21494605.109 8  86549932.024 8      -246.293          51.000
E11  25902531.570 5 136118729.310 5     -3175.523          34.000
E36  23875378.781 8 125465965.174 8     -1406.277          51.000    23875382.133 8  96136269.448 8     -1077.603          51.000
> 2020 05 08 23 16 30.0000000  0 16        .000000000000
G04  20474386.805 8 107593643.636 8     -1084.621          51.000    20474386.930 8  83839246.539 8      -845.159          50.000
G09  20585861.828 8 108179547.819 8      1259.527          51.000    20585863.133 8  84295731.017 8       981.450          51.000
G17  23801996.008 7 125080322.783 7     -2788.398          42.000    23801995.594 6  97465180.286 6     -2172.778          40.000
G19  23175747.438 7 121789355.327 7     -2487.641          44.000    23175741.258 6  94900762.060 6     -1938.421          38.000
R07  21252069.039 5 113763871.951 5     -2515.945          33.000    21252040.805 4  88482964.040 4     -1956.843          29.000
R10  22711713.969 7 121066233.514 7      3787.465          44.000
R22  22729968.719 5 121334116.361 5     -4459.629          35.000    22729968.273 5  94370981.750 5     -3468.600          32.000
R23  19999888.516 5 106985930.293 5     -1030.527          34.000
C11  24677456.727 5 128502004.088 5     -3135.430          32.000    24677449.133 6  99365831.795 6     -2424.105          41.000
C14                                                                  22105835.711 5  89011018.421 5       895.759          35.000
C21  24139342.141 5 125699901.281 5     -2243.074          35.000
C26  23876571.586 7 124331577.768 7      2316.789          42.000
E05  25238637.312 5 132629940.147 5      1836.930          35.000    25238635.836 7 101625522.479 7      1407.577          42.000
E09  21496459.406 8 112964726.720 8      -335.750          51.000    21496460.492 8  86557403.155 8      -257.221          51.000
E11  25920669.891 5 136214039.465 5     -3186.121          33.000    25920671.461 5 104371805.147 5     -2441.233          33.000
E36  23883445.961 8 125508357.792 8     -1426.930          51.000    23883449.391 8  96168752.099 8     -1093.296          51.000
> 2020 05 08 23 17  0.0000000  0 16        .000000000000
G04  20480591.992 8 107626251.929 8     -1090.047          51.000    20480592.016 8  83864655.604 8      -849.387          50.000
G09  20578686.945 8 108141840.989 8      1253.453          51.000    20578687.805 8  84266349.078 8       976.717          51.000
G17  23817904.508 7 125163923.612 7     -2785.957          45.000    23817905.617 7  97530323.781 7     -2170.876          43.000
G19  23189959.844 7 121864042.557 7     -2492.359          45.000    23189953.305 6  94958959.886 6     -1942.095          39.000
R07  21266153.992 5 113839341.589 5     -2512.445          32.000
R10  22690398.422 7 120952611.172 7      3786.613          42.000
R22  22755025.008 6 121467851.315 6     -4456.672          37.000    22755018.594 5  94474997.827 5     -3466.303          30.000
R23  20005719.273 5 107017124.246 5     -1049.645          33.000
C11  24695508.047 5 128596005.384 5     -3132.527          34.000    24695500.422 6  99438519.611 6     -2422.372          41.000
C14  22099155.109 5 115076074.240 5      1160.328          32.000    22099156.469 5  88984116.392 5       896.904          35.000
C21  24152252.859 5 125767115.294 5     -2238.340          33.000
C26  23863226.156 7 124262094.128 7      2314.723          42.000
E05  25228138.922 6 132574779.343 6      1839.730          38.000    25228142.586 7 101583256.472 7      1409.496          43.000
E09  21498369.977 8 112974767.201 8      -334.516          51.000    21498370.820 8  86565096.523 8      -256.311          51.000
E11  25938841.938 5 136309534.349 5     -3181.309          33.000    25938844.203 5 104444979.645 5     -2437.767          34.000
E36  23891604.273 8 125551229.318 8     -1432.008          51.000    23891607.539 8  96201601.706 8     -1097.265          51.000
> 2020 05 08 23 17 30.0000000  0 16        .000000000000
G04  20486868.578 8 107659235.210 8     -1108.191          51.000    20486868.406 8  83890356.856 8      -863.526          50.000
G09  20571586.445 8 108104526.293 8      1234.785          51.000    20571586.836 8  84237272.691 8       962.170          51.000
G17  23833843.203 7 125247680.023 7     -2796.742          47.000    23833844.992 7  97595588.503 7     -2179.280          44.000
G19  23204239.836 7 121939085.541 7     -2509.750          43.000    23204234.141 7  95017434.907 7     -1955.649          42.000
R07  21280255.234 4 113914849.829 4     -2522.523          29.000
R10  22669128.047 7 120839229.509 7      3772.918          42.000
R22  22780103.359 6 121601718.684 6     -4467.008          37.000    22780094.469 4  94579116.813 4     -3474.342          29.000
R23  20011698.195 5 107049117.631 5     -1082.344          33.000
C11  24713584.320 6 128690141.813 6     -3142.102          36.000    24713577.273 6  99511311.872 6     -2430.291          39.000
C14                                                                  22092507.008 5  88957344.710 5       888.235          34.000
C21  24165173.828 5 125834397.208 5     -2246.613          33.000
C26  23849936.523 7 124192891.438 7      2299.684          45.000
E05  25217667.078 6 132519751.457 6      1829.410          40.000    25217674.211 7 101541092.269 7      1401.813          43.000
E09  21500313.969 8 112984983.378 8      -345.945          51.000    21500314.758 8  86572924.506 8      -265.090          51.000
E11                                                                  25957029.164 5 104518201.170 5     -2443.466          34.000
E36  23899831.906 8 125594465.204 8     -1449.844          51.000    23899834.812 8  96234730.494 8     -1110.892          51.000
> 2020 05 08 23 18  0.0000000  0 16        .000000000000
G04  20493227.180 8 107692650.246 8     -1120.586          51.000    20493227.062 8  83916394.555 8      -873.184          51.000
G09  20564571.539 8 108067662.207 8      1221.746          51.000    20564571.453 8  84208547.413 8       952.007          51.000
G17  23849822.438 7 125331648.354 7     -2801.887          47.000    23849824.297 7  97661018.355 7     -2183.288          45.000
G19  23218597.438 6 122014539.473 6     -2521.621          40.000    23218593.422 6  95076230.202 6     -1964.897          40.000
R08  19690272.656 5 105440509.054 5       102.445          30.000    19690270.008 4  82009280.992 4        79.680          26.000
R10  22647915.352 7 120726152.241 7      3764.523          45.000
R22  22805215.633 5 121735773.414 5     -4471.172          35.000    22805205.945 4  94683381.528 4     -3477.584          28.000
R23  20017839.250 5 107081968.516 5     -1108.750          31.000
C11  24731697.844 6 128784468.713 6     -3146.809          37.000    24731690.414 6  99584251.368 6     -2433.255          38.000
C14                                                                  22085900.555 5  88930748.105 5       883.940          33.000
C21  24178118.094 5 125901804.094 5     -2248.176          32.000
C26  23836713.664 7 124124029.710 7      2290.078          46.000
E05  25207232.031 6 132464914.841 6      1825.141          40.000    25207240.523 7 101499074.597 7      1398.508          43.000
E09  21502302.289 8 112995432.918 8      -351.758          51.000    21502303.320 8  86580931.295 8      -269.469          51.000
E11                                                                  25975236.438 5 104591513.163 5     -2444.905          35.000
E36  23908139.836 8 125638122.938 8     -1461.746          51.000    23908142.477 8  96268182.518 8     -1120.057          51.000
> 2020 05 08 23 18 30.0000000  0 16        .000000000000
G04  20499662.898 8 107726470.366 8     -1133.676          51.000    20499662.883 8  83942747.903 8      -883.384          50.000
G09  20557637.617 8 108031223.650 8      1207.977          51.000    20557637.461 8  84180153.738 8       941.283          51.000
G17  23865836.422 8 125415799.590 8     -2807.707          48.000    23865838.039 7  97726590.739 7     -2187.824          45.000
G19  23233028.047 6 122090376.114 6     -2533.953          41.000    23233025.125 6  95135323.736 6     -1974.509          41.000
R01  21443897.953 5 114629940.696 5      2439.035          30.000
R08  19689728.094 5 105437599.070 5        91.293          30.000    19689733.406 4  82007043.528 4        71.006          29.000
R10  22626756.359 7 120613358.083 7      3755.438          46.000
R22  22830357.430 6 121869985.943 6     -4475.836          38.000    22830349.555 5  94787768.955 5     -3481.209          30.000
R23  20024129.930 5 107115597.630 5     -1136.262          31.000
C11  24749843.180 6 128878958.542 6     -3152.383          36.000    24749835.070 6  99657316.855 6     -2437.323          36.000
C14                                                                  22079333.195 5  88904307.619 5       879.022          32.000
C26  23823552.148 8 124055486.306 8      2279.734          49.000
E05  25196827.891 6 132410244.465 6      1819.918          36.000    25196836.711 6 101457184.245 6      1394.498          40.000
E09  21504330.078 8 113006090.017 8      -358.289          51.000    21504331.453 8  86589097.124 8      -274.530          51.000
E11                                                                  25993461.414 5 104664894.990 5     -2446.683          35.000
E36  23916523.055 8 125682176.498 8     -1474.590          51.000    23916525.633 8  96301937.832 8     -1129.895          51.000
> 2020 05 08 23 19  0.0000000  0 16        .000000000000
G04  20506171.820 8 107760675.056 8     -1146.668          51.000    20506171.633 8  83969400.912 8      -893.508          50.000
G09  20550780.695 8 107995191.737 8      1194.328          51.000    20550781.094 8  84152076.955 8       930.648          51.000
G17  23881880.875 8 125500111.846 8     -2813.164          48.000    23881882.273 7  97792288.595 7     -2192.076          45.000
G19  23247527.492 7 122166572.968 7     -2545.926          43.000    23247525.156 6  95194697.905 6     -1983.838          41.000
R08  19689261.258 5 105435040.343 5        80.211          32.000    19689253.477 4  82005046.482 4        62.380          24.000
R10  22605647.828 7 120500832.811 7      3746.219          46.000
R22  22855525.078 6 122004332.713 6     -4480.602          37.000    22855519.320 5  94892260.875 5     -3484.912          32.000
R23  20030577.656 6 107150088.261 6     -1163.258          39.000
C11  24768015.961 5 128973589.911 5     -3156.543          34.000    24768007.312 6  99730491.805 6     -2440.885          36.000
C14                                                                  22072801.750 4  88878008.716 4       874.455          29.000
C21  24204063.055 5 126036891.694 5     -2254.707          31.000
C26  23810448.602 8 123987244.812 8      2269.672          49.000
E05  25186449.234 5 132355686.294 5      1814.699          33.000    25186457.789 6 101415406.742 6      1390.598          38.000
E09  21506393.617 8 113016935.117 8      -364.609          51.000    21506395.297 8  86597406.994 8      -279.388          51.000
E11                                                                  26011699.367 5 104738330.921 5     -2448.883          35.000
E36  23924977.727 8 125726606.045 8     -1487.188          51.000    23924980.383 8  96335981.247 8     -1139.557          51.000
> 2020 05 08 23 19 30.0000000  0 15        .000000000000
G04  20512752.641 8 107795257.839 8     -1162.172          51.000    20512752.273 8  83996348.543 8      -905.588          50.000
G07  24247904.398 6 127423600.385 6      3428.906          36.000
G09  20544000.141 8 107959561.732 8      1177.875          51.000    20544001.188 8  84124313.335 8       917.825          51.000
G17  23897954.250 8 125584577.196 8     -2821.254          48.000    23897955.742 7  97858105.738 7     -2198.380          45.000
G19  23262094.336 7 122243122.110 7     -2560.625          43.000    23262091.031 6  95254346.575 6     -1995.292          40.000
R10  22584589.023 7 120388576.355 7      3734.410          45.000
R22  22880715.422 5 122138804.863 5     -4487.270          35.000    22880711.375 5  94996850.262 5     -3490.099          33.000
R23  20037177.555 6 107185381.587 6     -1192.801          41.000    20037190.039 4  83366460.416 4      -927.734          25.000
C11  24786215.188 5 129068355.525 5     -3163.477          31.000    24786206.188 5  99803770.530 5     -2446.415          34.000
C26  23797401.398 7 123919302.601 7      2256.715          47.000
E04  26222853.062 5 137802023.418 5     -2246.230          30.000
E05                                                                  25176103.656 6 101373738.309 6      1385.012          36.000
E09  21508491.930 8 113027962.640 8      -373.566          51.000    21508493.758 8  86605856.654 8      -286.245          51.000
E11                                                                  26029949.219 5 104811815.926 5     -2452.394          33.000
E36  23933502.695 8 125771405.751 8     -1502.504          51.000    23933505.734 8  96370308.300 8     -1151.242          51.000
> 2020 05 08 23 20  0.0000000  0 14        .000000000000
G04  20519427.977 8 107830337.600 8     -1172.578          51.000    20519427.812 8  84023683.430 8      -913.697          50.000
G07  24228337.742 5 127320775.663 5      3429.480          35.000    24228333.742 5  99210966.493 5      2672.322          35.000
G09  20537319.398 8 107924454.071 8      1166.559          51.000    20537320.766 8  84096956.712 8       909.007          51.000
G17  23914079.086 8 125669313.119 8     -2823.969          48.000    23914080.539 7  97924133.702 7     -2200.495          43.000
G19  23276750.555 7 122320140.913 7     -2569.945          44.000    23276746.664 7  95314361.205 7     -2002.555          42.000
R10  22563604.320 7 120276714.963 7      3727.145          46.000
R22  22905952.039 6 122273520.437 6     -4489.516          37.000    22905948.133 5  95101629.086 5     -3491.845          32.000
R23  20043950.648 7 107221598.439 7     -1217.527          44.000    20043962.164 4  83394629.130 4      -946.966          28.000
C11                                                                  24804454.266 5  99877243.311 5     -2448.194          32.000
C26  23784434.531 7 123851781.346 7      2248.547          45.000
E05  25165805.758 6 132247183.306 6      1804.605          38.000    25165804.961 6 101332271.272 6      1382.744          37.000
E09  21510647.828 8 113039292.391 8      -377.746          51.000    21510649.617 8  86614537.906 8      -289.457          51.000
E11                                                                  26048234.133 5 104885444.041 5     -2452.948          32.000
E36  23942120.508 8 125816695.140 8     -1512.883          51.000    23942124.227 8  96405010.567 8     -1159.246          51.000
> 2020 05 08 23 20 30.0000000  0 19        .000000000000
G04  20526157.859 8 107865704.232 8     -1186.609          51.000    20526157.992 8  84051241.847 8      -924.628          50.000
G07  24208762.500 5 127217904.584 5      3427.422          34.000    24208759.047 5  99130807.247 5      2670.721          34.000
G09  20530698.211 8 107889660.261 8      1151.547          51.000    20530700.055 8  84069844.666 8       897.309          51.000
G17  23930215.055 8 125754107.922 8     -2830.484          48.000    23930216.266 6  97990207.535 6     -2205.572          41.000
G19  23291455.828 7 122397417.477 7     -2583.176          43.000    23291451.562 6  95374576.705 6     -2012.861          41.000
R01  21389477.758 4 114339023.128 4      2409.730          28.000
R07  21365518.422 5 114371256.777 5     -2549.980          32.000    21365499.586 4  88955402.655 4     -1983.312          26.000
R08  19688189.781 5 105429388.073 5        47.055          32.000
R10  22542655.383 7 120165042.261 7      3716.133          47.000
R22  22931194.305 5 122408263.705 5     -4494.973          31.000    22931190.367 5  95206429.396 5     -3496.093          33.000
R23  20050855.703 6 107258562.995 6     -1245.590          41.000
C11                                                                  24822711.164 4  99950748.451 4     -2452.858          29.000
C21  24243117.508 5 126240283.677 5     -2263.602          32.000
C26  23771508.961 7 123784476.632 7      2236.793          44.000
E04  26248497.562 5 137936778.023 5     -2247.348          34.000
E05  25155521.391 6 132193119.493 6      1798.234          41.000    25155520.258 6 101290845.757 6      1377.847          37.000
E09  21512821.469 8 113050715.165 8      -385.254          51.000    21512823.188 8  86623290.423 8      -295.183          51.000
E11                                                                  26066515.305 5 104959048.031 5     -2455.570          32.000
E36  23950791.727 8 125862264.763 8     -1526.633          51.000    23950795.906 8  96439927.533 8     -1169.710          51.000
> 2020 05 08 23 21  0.0000000  0 16        .000000000000
G04  20532985.438 8 107901584.408 8     -1204.234          50.000    20532985.688 8  84079200.423 8      -938.364          50.000
G07  24189222.961 6 127115218.289 6      3419.770          36.000    24189217.578 5  99050791.994 5      2664.759          35.000
G09  20524180.367 8 107855408.653 8      1133.012          51.000    20524181.945 8  84043155.130 8       882.869          51.000
G17  23946405.094 7 125839187.100 7     -2840.355          47.000    23946405.812 6  98056502.936 6     -2213.264          41.000
G19  23306252.945 7 122475176.650 7     -2599.641          44.000    23306248.516 7  95435168.294 7     -2025.691          42.000
R01  21375985.977 5 114266917.165 5      2398.234          33.000
R10  22521786.164 7 120053794.086 7      3701.508          46.000
R22  22956482.320 5 122543262.436 5     -4503.941          34.000    22956481.180 5  95311428.330 5     -3503.066          33.000
R23  20057935.945 7 107296429.856 7     -1277.598          42.000    20057953.711 4  83452853.852 4      -993.690          24.000
C11  24841031.266 5 129353772.633 5     -3181.859          30.000
C14  22047078.836 4 114804924.931 4      1098.738          28.000
C26  23758668.555 7 123717616.921 7      2221.508          44.000
E05  25145287.523 6 132139338.252 6      1788.109          39.000    25145289.719 6 101249636.705 6      1370.430          37.000
E09  21515056.180 8 113062458.609 8      -396.484          51.000    21515057.961 8  86632288.648 8      -303.794          51.000
E11                                                                  26084835.453 5 105032820.612 5     -2460.430          30.000
E36  23959559.859 8 125908341.991 8     -1543.988          51.000    23959563.953 8  96475233.438 8     -1183.047          51.000
> 2020 05 08 23 21 30.0000000  0 16        .000000000000
G04  20539880.031 8 107937816.028 8     -1208.902          51.000    20539880.219 8  84107432.848 8      -942.002          51.000
G07  24169687.727 5 127012558.339 5      3426.137          34.000    24169681.023 5  98970797.229 5      2669.714          35.000
G09  20517735.359 8 107821538.713 8      1127.266          51.000    20517735.898 8  84016762.986 8       878.389          51.000
G17  23962618.008 7 125924386.710 7     -2837.398          46.000    23962618.344 6  98122892.201 6     -2210.960          40.000
G19  23321110.586 7 122553254.908 7     -2603.348          42.000    23321106.875 7  95496008.503 7     -2028.583          42.000
R01  21362533.328 5 114194990.386 5      2399.949          31.000
R08  19687802.648 5 105427232.383 5        28.996          30.000
R10  22500966.227 7 119942812.298 7      3699.691          44.000
R22  22981787.461 5 122678349.128 5     -4498.922          31.000    22981786.281 5  95416495.765 5     -3499.164          31.000
R23  20065159.633 6 107335071.760 6     -1296.266          40.000
C11  24859355.547 5 129449200.083 5     -3178.430          34.000    24859346.547 4 100098286.820 4     -2457.543          29.000
C26  23745883.758 7 123651045.504 7      2218.820          45.000
E05  25135074.586 6 132085679.000 6      1791.398          39.000    25135080.422 5 101208521.149 5      1372.738          34.000
E09  21517321.289 8 113074361.544 8      -394.707          51.000    21517323.195 8  86641409.077 8      -302.405          51.000
E11  26103158.680 5 137173018.851 5     -3205.414          35.000
E36  23968394.289 8 125954765.316 8     -1548.426          51.000    23968397.703 8  96510804.543 8     -1186.465          51.000
> 2020 05 08 23 22  0.0000000  0 15        .000000000000
G04  20546832.062 8 107974348.955 8     -1222.371          51.000    20546832.211 8  84135900.072 8      -952.497          51.000
G07  24150147.773 5 126909878.592 5      3423.430          35.000    24150142.312 6  98890787.059 6      2667.608          36.000
G09  20511353.648 8 107788001.959 8      1112.855          51.000    20511353.578 8  83990630.453 8       867.163          51.000
G17  23978843.844 7 126009655.344 7     -2842.938          43.000    23978844.359 6  98189335.271 6     -2215.273          40.000
G19  23336019.211 7 122631600.399 7     -2615.520          43.000    23336015.656 7  95557056.992 7     -2038.064          42.000
R10  22480187.070 7 119832052.476 7      3688.762          42.000
R22  23007099.148 5 122813470.549 5     -4503.301          33.000    23007096.914 5  95521590.163 5     -3502.567          30.000
R23  20072517.648 6 107374437.090 6     -1323.598          41.000    20072522.391 4  83513454.012 4     -1029.462          26.000
C11  24877691.312 5 129544680.531 5     -3183.340          35.000    24877684.016 5 100172118.333 5     -2460.893          35.000
C26  23733145.266 7 123584716.387 7      2207.484          45.000
E04  26287042.992 5 138139343.657 5     -2248.277          35.000    26287057.422 5 105847064.246 5     -1722.353          35.000
E05  25124875.680 6 132032093.221 6      1785.191          38.000    25124882.305 5 101167461.931 5      1368.077          34.000
E09  21519607.383 8 113086374.799 8      -401.852          51.000    21519609.352 8  86650614.043 8      -307.909          51.000
E11  26121481.250 5 137269310.045 5     -3208.637          34.000
E36  23977285.367 8 126001485.252 8     -1561.852          51.000    23977288.141 8  96546602.920 8     -1196.746          51.000
> 2020 05 08 23 22 30.0000000  0 15        .000000000000
G04  20553889.398 8 108011435.539 8     -1252.188          51.000    20553889.562 8  84164798.723 8      -975.727          50.000
G07  24130652.492 5 126807435.912 5      3403.777          34.000    24130647.969 5  98810961.636 5      2652.294          34.000
G09  20505083.445 8 107755052.327 8      1081.797          51.000    20505083.875 8  83964955.427 8       842.959          51.000
G17  23995130.227 6 126095244.156 6     -2865.383          41.000    23995131.656 6  98256027.873 6     -2232.766          40.000
G19  23351026.680 7 122710463.889 7     -2644.332          43.000    23351023.305 7  95618509.044 7     -2060.518          43.000
R10  22459498.516 7 119721776.876 7      3660.906          42.000
R23  20080060.469 6 107414782.869 6     -1368.066          41.000    20080066.727 4  83544834.068 4     -1064.052          29.000
C11  24896084.477 5 129640463.193 5     -3205.145          33.000    24896079.531 6 100246183.522 6     -2477.899          38.000
C14  22028200.336 4 114706611.801 4      1070.074          29.000    22028212.180 5  88698469.549 5       827.884          30.000
C26  23720502.570 7 123518883.419 7      2179.250          44.000
E04  26299920.359 5 138207026.592 5     -2265.863          34.000    26299937.719 5 105898925.176 5     -1736.256          35.000
E05  25114738.953 6 131978834.817 6      1762.941          36.000    25114745.914 5 101126653.613 5      1350.738          34.000
E09  21521962.656 8 113098751.647 8      -425.289          51.000    21521964.555 8  86660097.605 8      -325.874          51.000
E11  26139847.305 5 137365825.242 5     -3228.023          35.000
E36  23986281.016 8 126048754.743 8     -1591.555          51.000    23986283.281 8  96582822.396 8     -1219.470          51.000
> 2020 05 08 23 23  0.0000000  0 18        .000000000000
G04  20561009.781 8 108048853.634 8     -1253.164          50.000    20561010.039 8  84193955.690 8      -976.491          50.000
G07  24111161.016 5 126705012.278 5      3413.398          35.000    24111156.766 5  98731151.015 5      2659.788          34.000
G09  20498883.094 8 107722469.278 8      1079.602          51.000    20498883.625 8  83939566.022 8       841.248          51.000
G17  24011435.133 6 126180929.128 6     -2858.230          40.000    24011437.258 6  98322795.416 6     -2227.190          39.000
G19  23366090.148 7 122789621.515 7     -2643.910          46.000    23366086.984 7  95680190.279 7     -2060.190          43.000
R07  21437332.172 5 114755745.162 5     -2574.836          35.000    21437347.852 4  89254462.549 4     -2002.650          27.000
R08  19687676.859 4 105426547.850 4        -9.184          29.000    19687679.102 4  81998498.246 4        -7.140          28.000
R10  22438860.148 7 119611766.618 7      3662.102          42.000
R23  20087744.188 6 107455882.339 6     -1382.945          39.000    20087747.203 4  83576800.292 4     -1075.624          27.000
C11  24914493.055 4 129736326.794 4     -3197.680          28.000    24914488.633 6 100320311.402 6     -2472.422          37.000
C14  22021990.914 5 114674265.108 5      1075.590          31.000    22021990.594 5  88673456.975 5       831.578          35.000
C26  23707914.414 7 123453330.275 7      2179.766          45.000
C28  24074320.203 5 125361335.780 5       378.852          34.000
E04  26312793.047 5 138274660.056 5     -2255.754          32.000    26312814.875 5 105950773.370 5     -1728.228          35.000
E05  25104622.891 6 131925683.318 6      1769.668          36.000    25104631.117 5 101085927.159 5      1355.851          35.000
E09  21524345.117 8 113111270.899 8      -420.148          51.000    21524346.914 8  86669690.279 8      -321.950          51.000
E11  26158217.281 6 137462359.133 6     -3218.785          36.000
E36  23995338.820 8 126096352.281 8     -1592.566          51.000    23995340.680 8  96619293.242 8     -1220.245          51.000
> 2020 05 08 23 23 30.0000000  0 17        .000000000000
G04  20568173.266 8 108086498.437 8     -1261.105          50.000    20568173.523 8  84223289.303 8      -982.680          49.000
G07  24091653.234 5 126602506.700 5      3415.508          32.000    24091650.047 5  98651276.584 5      2661.441          33.000
G09  20492733.180 8 107690149.575 8      1070.367          51.000    20492732.859 8  83914381.798 8       834.052          51.000
G17  24027738.508 6 126266604.109 6     -2858.012          40.000    24027740.672 6  98389555.121 6     -2227.022          40.000
G19  23381189.352 7 122868966.746 7     -2650.492          47.000    23381186.125 7  95742017.734 7     -2065.316          43.000
R08  19687716.453 5 105426867.553 5       -14.387          30.000    19687728.016 4  81998686.032 4       -11.190          28.000
R10  22418253.414 7 119501921.149 7      3656.121          42.000
R23  20095546.227 6 107497628.864 6     -1404.809          36.000    20095548.867 4  83609276.690 4     -1092.635          26.000
C11                                                                  24932893.172 6 100394420.836 6     -2471.827          38.000
C14                                                                  22015781.875 5  88648477.247 5       830.035          35.000
C26  23695360.453 7 123387956.866 7      2173.496          46.000
C28  24072155.406 5 125350081.706 5       366.609          32.000
E04                                                                  26325670.891 5 106002561.372 5     -1725.837          30.000
E05  25094508.516 6 131872534.584 6      1769.105          37.000    25094515.820 5 101045219.560 5      1355.638          32.000
E09  21526734.875 8 113123828.730 8      -421.746          51.000    21526736.812 8  86679312.509 8      -323.168          51.000
E11  26176571.086 5 137558808.838 5     -3215.844          35.000
E36  24004438.805 8 126144173.665 8     -1600.270          51.000    24004440.742 8  96655935.612 8     -1226.178          51.000
> 2020 05 08 23 24  0.0000000  0 19        .000000000000
G03  22200811.547 5 116666059.251 5     -2395.328          34.000    22200825.570 5  90908643.227 5     -1866.486          35.000
G04  20575469.234 8 108124839.936 8     -1278.613          49.000    20575469.828 8  84253165.811 8      -996.319          49.000
G07  24072219.297 5 126500392.980 5      3408.289          33.000    24072218.000 5  98571707.491 5      2655.813          34.000
G09  20486723.164 8 107658564.793 8      1051.703          51.000    20486722.500 8  83889770.286 8       819.509          51.000
G17  24044129.578 6 126352737.797 6     -2867.793          40.000    24044131.391 6  98456672.234 6     -2234.647          37.000
G19  23396413.078 7 122948967.813 7     -2666.359          47.000    23396410.250 7  95804356.225 7     -2077.686          44.000
R07  21466253.305 5 114910552.307 5     -2583.430          34.000    21466264.586 4  89374893.901 4     -2009.331          27.000
R08  19687888.164 5 105427782.120 5       -29.484          35.000    19687888.188 4  81999355.780 4       -22.938          28.000
R10  22397768.266 6 119392724.158 6      3640.613          40.000
R23  20103560.070 6 107540499.862 6     -1436.359          41.000    20103562.469 4  83642613.838 4     -1117.168          27.000
C11  24951390.219 5 129928435.178 5     -3205.555          30.000    24951382.922 6 100468871.304 6     -2479.104          36.000
C14                                                                  22009673.453 5  88623891.920 5       821.456          33.000
C21  24334958.164 5 126718498.098 5     -2287.512          34.000
C26  23682931.328 7 123323232.863 7      2157.691          46.000
C28  24070152.680 5 125339644.171 5       345.199          32.000
E05  25084485.898 6 131819862.068 6      1759.102          39.000    25084487.422 5 101004838.148 5      1348.185          30.000
E09  21529221.484 8 113136896.130 8      -432.906          51.000    21529223.711 8  86689325.192 8      -331.654          51.000
E11  26194997.906 5 137655642.357 5     -3222.723          35.000
E36  24013670.867 8 126192689.526 8     -1617.543          51.000    24013673.367 8  96693110.090 8     -1239.386          51.000
> 2020 05 08 23 24 30.0000000  0 19        .000000000000
G03  22214504.750 5 116738003.868 5     -2408.590          34.000    22214514.078 5  90964703.734 5     -1876.826          35.000
G04  20582801.594 8 108163372.186 8     -1298.059          50.000    20582802.586 8  84283190.933 8     -1011.474          49.000
G09  20480756.820 8 107627210.539 8      1030.949          51.000    20480756.250 8  83865338.431 8       803.337          51.000
G17  24060511.641 6 126438822.390 6     -2879.074          40.000    24060512.266 6  98523751.061 6     -2243.438          39.000
G19  23411665.102 7 123029117.283 7     -2684.500          47.000    23411662.633 7  95866810.360 7     -2091.818          42.000
R07  21480737.516 5 114988120.714 5     -2595.371          35.000    21480755.648 4  89435224.714 4     -2018.628          26.000
R08  19688085.586 5 105428824.585 5       -47.469          35.000    19688086.984 4  82000166.642 4       -36.920          29.000
R10  22377308.875 6 119283668.135 6      3621.887          38.000
R23  20111688.336 6 107583980.273 6     -1470.133          39.000    20111691.477 5  83676431.831 5     -1143.440          30.000
C11  24969868.273 5 130024654.660 5     -3216.746          31.000    24969861.336 5 100543274.325 5     -2487.428          35.000
C14                                                                  22003567.312 5  88599314.735 5       810.812          30.000
C21  24348143.992 4 126787153.636 4     -2297.613          26.000
C26  23670530.633 7 123258660.594 7      2139.426          44.000
C28  24068211.852 5 125329523.526 5       322.109          33.000
E04  26351478.258 6 138477954.801 6     -2266.059          39.000
E05  25074458.141 6 131767160.444 6      1746.578          38.000    25074458.688 5 100964452.530 5      1338.281          34.000
E09  21531708.953 8 113149968.077 8      -446.316          51.000    21531711.180 8  86699341.369 8      -342.013          51.000
E11  26213400.742 5 137752349.592 5     -3231.820          35.000
E36  24022938.891 8 126241394.467 8     -1637.211          51.000    24022942.203 8  96730429.457 8     -1254.495          51.000
> 2020 05 08 23 25  0.0000000  0 19        .000000000000
G03  22228238.922 5 116810177.706 5     -2411.543          34.000
G04  20590209.109 8 108202298.758 8     -1305.852          50.000    20590209.938 8  84313523.309 8     -1017.547          50.000
G09  20474872.992 8 107596291.984 8      1021.688          51.000    20474872.711 8  83841246.023 8       796.120          51.000
G17  24076923.102 6 126525060.276 6     -2879.160          39.000    24076922.125 6  98590949.355 6     -2243.508          39.000
G19  23426983.797 7 123109616.957 7     -2690.836          47.000    23426981.383 7  95929537.388 7     -2096.755          44.000
R01  21269501.531 5 113697681.384 5      2340.578          31.000
R08  19688344.305 5 105430202.785 5       -53.332          32.000
R10  22356915.836 6 119174965.939 6      3616.043          37.000
R22  23159563.234 5 123627294.283 5     -4532.512          31.000    23159562.430 4  96154574.919 4     -3525.287          28.000
R23  20119969.766 6 107628276.480 6     -1491.809          41.000    20119973.430 5  83710884.384 5     -1160.293          31.000
C11  24988375.477 5 130121013.473 5     -3216.527          31.000    24988367.867 5 100617785.090 5     -2486.552          31.000
C14  21997517.820 5 114546846.460 5      1047.539          31.000    21997503.789 5  88574903.003 5       809.537          31.000
C21  24361339.242 5 126855926.922 5     -2295.797          34.000
C26  23658198.375 7 123194445.575 7      2133.074          43.000
C28  24066370.742 5 125319923.281 5       309.828          31.000
E04  26364376.781 6 138545747.468 6     -2262.367          37.000    26364383.719 5 106158434.856 5     -1733.161          34.000
E05  25064464.359 6 131714634.914 6      1746.273          38.000    25064467.266 6 100924205.731 6      1338.054          38.000
E09  21534236.195 8 113163249.117 8      -447.859          51.000    21534238.164 8  86709517.747 8      -343.162          51.000
E36  24032281.586 8 126290492.633 8     -1644.809          51.000    24032285.695 8  96768050.122 8     -1260.302          51.000
> 2020 05 08 23 25 30.0000000  0 17        .000000000000
G04  20597707.852 8 108241704.468 8     -1308.191          51.000    20597708.516 8  84344229.061 8     -1019.367          51.000
G09  20469088.359 8 107565895.522 8      1017.824          51.000    20469088.734 8  83817560.464 8       793.113          51.000
G17  24093379.289 6 126611534.933 6     -2873.109          38.000    24093376.992 6  98658332.204 6     -2238.787          39.000
G19  23442385.125 7 123190550.130 7     -2691.676          46.000    23442382.703 7  95992602.177 7     -2097.410          45.000
R01  21256399.766 5 113627633.435 5      2343.375          32.000
R07  21509816.844 4 115143762.985 4     -2589.855          29.000    21509820.719 4  89556255.862 4     -2014.338          26.000
R08  19688681.875 5 105432004.659 5       -53.816          34.000
R10  22336607.086 6 119066709.922 6      3614.383          39.000
R23  20128419.633 6 107673474.889 6     -1508.203          40.000    20128423.492 5  83746038.763 5     -1173.047          34.000
C14  21991514.320 4 114515583.727 4      1049.848          29.000    21991499.766 5  88550654.248 5       812.081          30.000
C21  24374581.898 5 126924879.169 5     -2289.039          34.000
C26  23645951.398 6 123130675.769 6      2131.500          41.000
E04                                                                  26377311.758 6 106210484.216 6     -1726.555          39.000
E05  25054519.875 6 131662372.037 6      1751.328          36.000    25054526.258 6 100884160.114 6      1341.586          41.000
E09  21536819.586 8 113176825.098 8      -444.148          51.000    21536821.336 8  86719920.124 8      -340.319          51.000
E11                                                                  26250260.164 5 105698921.853 5     -2468.353          32.000
E36  24041715.352 8 126340069.456 8     -1647.195          51.000    24041720.172 8  96806037.571 8     -1262.149          51.000
> 2020 05 08 23 26  0.0000000  0 18        .000000000000
G04  20605251.836 8 108281347.478 8     -1331.047          51.000    20605252.609 8  84375119.722 8     -1037.179          51.000
G07  23994535.492 5 126092141.748 5      3394.711          30.000    23994522.078 4  98253566.237 4      2645.235          28.000
G09  20463357.438 8 107535780.828 8       993.422          51.000    20463358.078 8  83794094.508 8       774.098          51.000
G17  24109833.094 6 126698003.324 6     -2887.293          39.000    24109830.938 6  98725710.187 6     -2249.836          38.000
G19  23457822.414 7 123271673.280 7     -2712.941          46.000    23457820.133 7  96055815.039 7     -2113.980          44.000
G22  24511681.758 5 128809756.339 5     -2899.555          30.000
R07  21524379.523 6 115221707.370 6     -2603.984          38.000    21524377.398 4  89616878.653 4     -2025.318          26.000
R10  22316338.156 6 118958661.329 6      3592.223          40.000
R23  20136991.633 6 107719328.159 6     -1544.934          39.000    20136997.234 6  83781702.410 6     -1201.615          38.000
C11  25025453.430 5 130314095.071 5     -3224.348          30.000
C14  21985516.492 5 114484356.682 5      1033.797          31.000    21985507.820 4  88526522.370 4       799.512          29.000
C21  24387824.281 5 126993783.947 5     -2301.879          34.000
C26  23633743.828 6 123067115.186 6      2109.512          41.000
E04  26390190.477 5 138681388.011 5     -2264.523          33.000    26390218.289 6 106262453.442 6     -1735.229          39.000
E05  25044579.117 5 131610131.470 5      1735.934          33.000    25044588.055 6 100844131.571 6      1329.769          41.000
E09  21539413.289 8 113190455.129 8      -460.863          51.000    21539415.016 8  86730363.913 8      -353.078          51.000
E11                                                                  26268693.406 5 105773144.818 5     -2477.515          31.000
E36  24051194.531 8 126389883.654 8     -1669.941          51.000    24051199.547 8  96844206.902 8     -1279.592          51.000
> 2020 05 08 23 26 30.0000000  0 16        .000000000000
G04  20612895.484 8 108321514.318 8     -1342.031          51.000    20612896.211 8  84406418.563 8     -1045.736          51.000
G07  23975170.375 4 125990391.244 4      3393.473          29.000    23975162.125 5  98174280.206 5      2644.270          31.000
G09  20457734.938 8 107506236.069 8       980.809          51.000    20457735.727 8  83771072.632 8       764.266          51.000
G17  24126339.297 6 126784750.242 6     -2890.422          39.000    24126338.094 6  98793305.181 6     -2252.277          37.000
G19  23473349.914 7 123353271.069 7     -2722.281          46.000    23473347.797 7  96119397.748 7     -2121.255          44.000
R07  21539021.984 5 115300054.877 5     -2605.184          30.000
R10  22296163.836 6 118851116.900 6      3582.168          39.000
R23  20145738.695 6 107766127.796 6     -1570.238          37.000    20145747.180 6  83818102.127 6     -1221.303          38.000
C11  25044051.484 5 130410923.330 5     -3226.488          34.000
C14  21979589.680 4 114453496.650 4      1029.008          29.000    21979581.906 4  88502667.502 4       795.323          29.000
C26  23621633.672 7 123004051.587 7      2099.125          44.000
E04                                                                  26403158.977 6 106314562.947 6     -1735.026          37.000
E05  25034697.875 6 131558201.476 6      1731.461          36.000    25034706.914 6 100804340.944 6      1326.785          39.000
E09  21542071.961 8 113204426.754 8      -465.754          51.000    21542073.805 8  86741069.448 8      -356.861          51.000
E11                                                                  26287167.758 5 105847531.609 5     -2478.374          31.000
E36  24060773.781 8 126440222.362 8     -1681.074          51.000    24060778.469 8  96882778.116 8     -1288.096          51.000
> 2020 05 08 23 27  0.0000000  0 16        .000000000000
G04  20620605.391 8 108362029.741 8     -1341.738          51.000    20620606.062 8  84437989.028 8     -1045.510          51.000
G09  20452187.734 8 107477087.485 8       979.539          51.000    20452189.188 8  83748359.464 8       763.277          51.000
G17  24142864.906 6 126871599.084 6     -2882.031          39.000    24142864.625 6  98860979.567 6     -2245.739          37.000
G19  23488934.008 7 123435166.768 7     -2720.184          45.000    23488932.125 7  96183212.562 7     -2119.624          44.000
R01  21217307.656 5 113418631.659 5      2324.520          30.000
R10  22276050.680 6 118743904.935 6      3582.914          37.000
R23  20154629.875 6 107813694.870 6     -1583.508          37.000    20154639.438 5  83855098.748 5     -1231.617          35.000
C11  25062666.875 5 130507841.880 5     -3217.344          34.000
C14  21973695.586 4 114422812.640 4      1035.648          27.000    21973689.172 5  88478940.654 5       799.579          30.000
C21  24414398.164 5 127132158.499 5     -2293.125          31.000
C26  23609586.680 7 122941315.069 7      2100.227          44.000
E04                                                                  26416100.641 5 106366679.180 5     -1726.588          32.000
E05                                                                  25024850.734 5 100764655.166 5      1332.487          35.000
E09  21544762.477 8 113218565.750 8      -459.555          51.000    21544764.422 8  86751903.229 8      -352.093          51.000
E11                                                                  26305648.336 5 105921944.757 5     -2469.290          31.000
E36  24070419.852 8 126490910.882 8     -1680.918          51.000    24070423.648 8  96921617.352 8     -1287.952          51.000
> 2020 05 08 23 27 30.0000000  0 13        .000000000000
G04  20628375.359 8 108402860.654 8     -1370.059          51.000    20628375.938 8  84469805.318 8     -1067.578          51.000
G09  20446710.266 8 107448303.495 8       949.598          51.000    20446712.172 8  83725930.407 8       739.949          51.000
G17  24159403.562 6 126958515.218 6     -2901.664          36.000    24159403.742 6  98928706.485 6     -2261.031          37.000
G19  23504567.945 7 123517325.363 7     -2746.797          45.000    23504566.367 7  96247232.260 7     -2140.361          43.000
R10  22255994.109 6 118636998.641 6      3554.598          37.000
R23  20163657.047 5 107861994.655 5     -1626.059          33.000    20163667.555 5  83892665.242 5     -1264.712          33.000
C11  25081289.852 5 130604817.033 5     -3237.156          31.000    25081278.867 5 100991903.007 5     -2502.857          31.000
C14                                                                  21967824.664 5  88455325.871 5       782.591          31.000
C26  23597596.680 7 122878876.494 7      2072.543          43.000
E04                                                                  26429037.273 5 106418786.478 5     -1739.201          32.000
E05  25015006.352 5 131454745.406 5      1717.172          33.000
E09  21547478.891 8 113232839.971 8      -481.785          51.000    21547480.695 8  86762840.621 8      -369.172          51.000
E36  24080126.445 8 126541916.615 8     -1709.203          51.000    24080129.148 8  96960699.647 8     -1309.685          51.000
> 2020 05 08 23 28  0.0000000  0 16        .000000000000
G03  22311564.617 5 117248070.874 5     -2450.359          33.000
G04  20636222.461 8 108444096.765 8     -1377.770          51.000    20636222.781 8  84501937.347 8     -1073.587          51.000
G09  20441319.883 8 107419975.419 8       940.164          51.000    20441321.664 8  83703856.593 8       732.595          51.000
G17  24175972.922 6 127045587.189 6     -2901.336          37.000    24175972.625 6  98996554.793 6     -2260.784          37.000
G19  23520268.695 7 123599835.193 7     -2752.742          44.000    23520267.430 7  96311525.647 7     -2144.994          44.000
R07  21582958.609 6 115535263.058 6     -2618.223          36.000    21582950.953 5  89860725.063 5     -2036.392          30.000
R10  22236014.672 6 118530495.031 6      3546.859          41.000
R23  20172837.141 5 107911117.980 5     -1647.801          34.000    20172850.281 5  83930872.208 5     -1281.626          35.000
C11  25099939.531 4 130701936.667 4     -3235.531          29.000    25099929.609 5 101067002.047 5     -2501.978          33.000
C14                                                                  21962006.680 5  88431893.433 5       780.709          33.000
C21  24441019.562 5 127270816.366 5     -2310.852          35.000
C26  23585682.352 7 122816828.634 7      2065.250          46.000
E04  26441984.945 6 138953566.864 6     -2266.055          36.000    26441989.047 5 106470931.751 5     -1736.498          33.000
E05  25005206.508 5 131403246.248 5      1716.785          34.000    25005205.078 5 100685597.137 5      1315.384          30.000
E09  21550238.367 8 113247340.192 8      -483.523          51.000    21550239.883 8  86773951.168 8      -370.474          51.000
E36  24089910.445 8 126593329.868 8     -1716.965          51.000    24089912.492 8  97000094.204 8     -1315.584          51.000
> 2020 05 08 23 28 30.0000000  0 15        .000000000000
G04  20644139.789 8 108485702.354 8     -1395.551          51.000    20644140.055 8  84534357.282 8     -1087.442          51.000
G09  20436009.578 8 107392068.927 8       920.598          51.000    20436010.961 8  83682111.285 8       717.349          51.000
G17  24192565.562 6 127132777.777 6     -2910.863          41.000    24192563.578 6  99064495.514 6     -2268.205          37.000
G19  23536029.227 7 123682658.606 7     -2768.414          45.000    23536028.375 7  96376063.379 7     -2157.206          44.000
R10  22216105.656 6 118424363.606 6      3528.984          40.000
R23  20182168.609 6 107961027.623 6     -1679.191          41.000    20182180.484 6  83969690.827 6     -1306.038          37.000
C11                                                                  25118600.023 5 101142184.808 5     -2509.717          33.000
C14                                                                  21956227.336 5  88408617.319 5       770.853          34.000
C21  24454354.094 4 127340273.700 4     -2319.324          29.000
C24  26169279.727 6 136270308.097 6      3297.871          36.000
C26  23573836.562 7 122755139.829 7      2047.758          45.000
E04                                                                  26454947.695 5 106523108.365 5     -1741.718          33.000
E05  24995438.602 6 131351916.730 6      1705.824          36.000    24995443.898 5 100646291.502 5      1307.075          32.000
E09  21553034.086 8 113262031.619 8      -495.445          51.000    21553035.398 8  86785208.237 8      -379.618          51.000
E36  24099765.078 8 126645115.374 8     -1734.926          51.000    24099766.992 8  97039774.017 8     -1329.329          51.000
> 2020 05 08 23 29  0.0000000  0 17        .000000000000
G03  22339671.539 5 117395776.111 5     -2470.488          33.000    22339676.219 5  91477225.255 5     -1925.056          33.000
G04  20652135.742 8 108527721.276 8     -1407.121          51.000    20652136.125 8  84567099.300 8     -1096.455          51.000
G09  20430788.227 8 107364629.495 8       907.297          51.000    20430788.969 8  83660729.922 8       706.988          51.000
G17  24209189.055 7 127220129.489 7     -2914.008          42.000    24209185.789 6  99132561.765 6     -2270.658          38.000
G19  23551857.555 7 123765837.597 7     -2777.926          44.000    23551856.773 7  96440878.191 7     -2164.614          44.000
R10  22196275.977 6 118318655.863 6      3516.965          41.000
R23  20191655.953 7 108011767.552 7     -1704.684          42.000    20191666.102 6  84009155.204 6     -1325.865          37.000
C11                                                                  25137299.898 5 101217484.071 5     -2511.629          33.000
C14  21950506.750 5 114302041.460 5       990.355          30.000    21950494.438 5  88385532.471 5       766.627          35.000
C21  24467715.461 5 127409816.370 5     -2321.102          31.000
C24  26150271.984 5 136171332.308 5      3298.898          33.000
C26  23562067.641 7 122693857.253 7      2036.387          43.000
C28  24055223.828 5 125261867.874 5       171.727          31.000
E04                                                                  26467923.969 4 106575361.663 4     -1741.922          29.000
E05  24985710.094 5 131300792.239 5      1700.629          33.000    24985720.555 5 100607128.267 5      1302.957          32.000
E09  21555874.641 8 113276959.217 8      -501.086          51.000    21555875.906 8  86796646.272 8      -383.979          51.000
E36  24109698.859 8 126697317.595 8     -1746.613          51.000    24109700.711 8  97079773.147 8     -1338.326          51.000
> 2020 05 08 23 29 30.0000000  0 16        .000000000000
G03  22353787.695 5 117469955.414 5     -2472.859          35.000    22353792.625 6  91535027.418 6     -1926.897          36.000
G04  20660197.867 8 108570088.176 8     -1414.953          51.000    20660198.398 8  84600112.470 8     -1102.561          51.000
G09  20425643.734 8 107337593.236 8       897.539          51.000    20425644.242 8  83639662.721 8       699.381          51.000
G17  24225830.375 7 127307575.450 7     -2913.402          43.000    24225826.773 6  99200701.415 6     -2270.184          38.000
G19  23567740.977 7 123849305.816 7     -2784.160          43.000    23567740.031 7  96505918.338 7     -2169.475          43.000
R07  21627152.164 5 115771843.203 5     -2631.664          34.000    21627143.953 4  90044752.829 4     -2046.847          26.000
R10  22176514.250 6 118213311.698 6      3508.414          41.000
R23  20201285.773 7 108063270.366 7     -1726.488          42.000    20201294.469 6  84049212.954 6     -1342.824          37.000
C11                                                                  25156016.406 5 101292849.078 5     -2510.974          33.000
C14                                                                  21944796.922 5  88362590.388 5       764.764          34.000
C24  26131255.875 5 136072316.492 5      3304.504          32.000
C26  23550364.422 6 122632919.875 6      2028.719          41.000
C28  24054271.250 5 125256921.714 5       160.160          32.000
E04  26480893.922 5 139158037.887 5     -2269.750          34.000
E09  21558747.930 8 113292058.627 8      -503.090          51.000    21558749.156 8  86808215.953 8      -385.493          51.000
E36  24119699.344 8 126749871.699 8     -1754.637          51.000    24119701.406 8  97120041.891 8     -1344.435          51.000
> 2020 05 08 23 30  0.0000000  0 17        .000000000000
G03  22367953.398 5 117544388.378 5     -2484.062          32.000    22367959.852 5  91593056.140 5     -1935.636          33.000
G04  20668340.055 8 108612875.729 8     -1431.184          51.000    20668340.609 8  84633453.420 8     -1115.208          51.000
G09  20420589.789 8 107311034.346 8       879.375          51.000    20420590.586 8  83618967.476 8       685.224          51.000
G17  24242503.062 6 127395187.083 6     -2921.086          40.000    24242499.062 5  99268970.182 5     -2276.168          34.000
G19  23583693.008 7 123933133.634 7     -2798.113          45.000    23583691.398 7  96571238.705 7     -2180.348          45.000
R07  21641941.289 6 115851011.814 6     -2639.938          37.000    21641928.820 4  90106328.601 4     -2053.282          27.000
R08  19694342.375 5 105462327.296 5      -161.145          30.000    19694337.383 5  82026216.166 5      -125.335          30.000
R10  22156836.016 7 118108411.513 7      3491.320          42.000
R23  20211071.352 7 108115609.287 7     -1756.465          44.000    20211078.422 5  84089921.048 5     -1366.136          35.000
C11                                                                  25174763.445 5 101368334.812 5     -2516.912          33.000
C14                                                                  21939149.125 5  88339848.126 5       756.170          32.000
C21  24494518.234 4 127549336.550 4     -2327.195          29.000
C24  26112248.406 5 135973336.843 5      3300.387          33.000
C26  23538741.836 6 122572403.576 6      2012.250          38.000
E04                                                                  26493879.219 6 106679867.047 6     -1743.287          36.000
E09  21561668.016 8 113307403.546 8      -513.539          51.000    21561669.086 8  86819973.754 8      -393.470          51.000
E36  24129780.562 8 126802850.868 8     -1771.027          51.000    24129782.922 8  97160636.317 8     -1356.976          51.000
> 2020 05 08 23 30 30.0000000  0 16        .000000000000
G03  22382138.617 5 117618929.758 5     -2503.625          34.000    22382141.055 5  91651140.382 5     -1950.864          33.000
G04  20676529.430 8 108655911.324 8     -1455.617          51.000    20676529.773 8  84666987.660 8     -1134.244          51.000
G09  20415593.961 8 107284781.707 8       853.008          51.000    20415594.812 8  83598510.854 8       664.681          51.000
G17  24259173.680 5 127482790.282 5     -2936.934          34.000    24259169.133 5  99337232.353 5     -2288.529          33.000
G19  23599680.281 7 124017146.854 7     -2820.594          45.000    23599678.094 7  96636703.528 7     -2197.865          44.000
R08  19695257.648 5 105467240.796 5      -184.527          34.000    19695258.773 5  82030037.881 5      -143.518          32.000
R10  22137209.344 6 118003785.752 6      3465.734          41.000
R23  20220980.078 7 108168607.572 7     -1794.871          43.000    20220985.094 5  84131141.945 5     -1396.011          33.000
C11                                                                  25193507.969 5 101443808.309 5     -2528.574          30.000
C14                                                                  21933517.594 5  88317174.873 5       741.641          31.000
C24  26093216.094 5 135874222.494 5      3290.113          31.000
C26  23527164.617 5 122512140.904 5      1987.797          34.000
E04                                                                  26506862.703 6 106732115.525 6     -1753.604          37.000
E05  24956713.914 5 131148414.221 5      1672.375          34.000    24956700.938 5 100490296.191 5      1281.496          34.000
E09  21564602.188 8 113322822.359 8      -532.184          51.000    21564603.023 8  86831788.169 8      -407.768          51.000
E36  24139910.109 8 126856082.981 8     -1795.547          51.000    24139912.641 8  97201424.566 8     -1375.842          51.000
> 2020 05 08 23 31  0.0000000  0 19        .000000000000
G03  22396394.055 5 117693843.981 5     -2497.965          31.000    22396398.633 5  91709512.072 5     -1946.460          30.000
G04  20684817.656 8 108699466.505 8     -1454.168          51.000    20684817.742 8  84700926.758 8     -1133.118          51.000
G07  23801726.562 5 125078905.598 5      3359.207          34.000    23801723.836 5  97464079.645 5      2617.561          34.000
G09  20410708.398 8 107259108.355 8       852.430          51.000    20410709.086 8  83578505.653 8       664.231          51.000
G17  24275894.383 5 127570655.260 5     -2926.852          32.000    24275889.266 4  99405708.385 4     -2280.682          24.000
G19  23615754.250 7 124101615.652 7     -2816.762          46.000    23615751.539 7  96702523.347 7     -2194.879          43.000
R08  19696266.852 5 105472631.290 5      -181.191          34.000    19696264.391 5  82034230.467 5      -140.927          31.000
R10  22117686.406 6 117899716.302 6      3466.133          41.000
R23  20231062.273 7 108222540.636 7     -1806.773          43.000    20231065.602 5  84173089.843 5     -1405.265          32.000
C11                                                                  25212301.164 4 101519476.934 4     -2519.975          29.000
C14  21927964.039 5 114184668.733 5       965.625          30.000    21927956.102 5  88294780.114 5       746.698          35.000
C21  24521344.055 5 127689058.324 5     -2331.590          31.000
C24  26074212.633 4 135775262.988 4      3302.238          29.000
C26  23515691.977 6 122452404.728 6      1988.898          40.000
C28  24052029.562 5 125245268.532 5       106.031          33.000
E04                                                                  26519879.984 5 106784508.568 5     -1744.391          35.000
E05  24947126.367 5 131098028.230 5      1680.645          35.000    24947116.164 6 100451686.560 6      1287.518          37.000
E09  21567602.203 8 113338587.679 8      -524.957          51.000    21567602.953 8  86843868.095 8      -402.234          51.000
E36  24150139.750 8 126909840.131 8     -1794.352          51.000    24150142.375 8  97242615.090 8     -1374.863          51.000
> 2020 05 08 23 31 30.0000000  0 16        .000000000000
G03  22410668.734 5 117768858.645 5     -2508.879          34.000
G04  20693132.906 8 108743163.520 8     -1470.602          51.000    20693133.008 8  84734976.379 8     -1145.923          51.000
G07  23782539.484 6 124978068.894 6      3351.184          36.000    23782535.320 6  97385505.632 6      2611.315          36.000
G09  20405861.422 8 107233637.960 8       833.855          51.000    20405861.789 8  83558658.606 8       649.758          51.000
G19  23631842.547 7 124186160.377 7     -2831.016          46.000    23631839.523 7  96768402.355 7     -2205.986          44.000
R08  19697291.211 5 105478114.863 5      -196.828          31.000    19697286.180 4  82038495.466 4      -153.089          27.000
R10  22098197.148 6 117795826.713 6      3447.758          40.000
R23  20241246.812 7 108277023.594 7     -1837.324          43.000    20241249.508 5  84215465.452 5     -1429.030          33.000
C14  21922403.242 5 114155695.255 5       953.902          33.000    21922393.344 6  88272375.964 6       737.872          37.000
C21  24534770.422 5 127758962.222 5     -2340.473          31.000
C24  26055165.148 5 135676072.516 5      3299.344          31.000
C26  23504252.188 7 122392824.256 7      1971.824          43.000
C28  24051442.461 5 125242236.713 5        84.539          34.000
E05                                                                  24937519.469 6 100413075.516 6      1280.107          38.000
E09  21570596.375 8 113354322.776 8      -535.684          51.000    21570597.281 8  86855924.868 8      -410.471          51.000
E36  24160397.609 8 126963744.999 8     -1810.988          51.000    24160400.453 8  97283918.800 8     -1387.658          51.000
> 2020 05 08 23 32  0.0000000  0 15        .000000000000
G03  22424989.172 5 117844113.909 5     -2510.945          32.000
G04  20701558.195 8 108787438.416 8     -1477.375          51.000    20701558.297 8  84769476.315 8     -1151.201          51.000
G07  23763415.531 6 124877571.175 6      3352.270          37.000    23763410.906 6  97307195.759 6      2612.158          37.000
G09  20401136.328 8 107208808.094 8       825.031          51.000    20401136.359 8  83539310.670 8       642.881          51.000
G19  23648027.719 7 124271215.243 7     -2835.477          44.000    23648024.742 7  96834678.856 7     -2209.465          44.000
R08  19698414.445 5 105484137.422 5      -201.762          33.000
R10  22078825.078 6 117692564.999 6      3439.777          37.000
R23  20251617.516 7 108332498.862 7     -1857.516          45.000    20251620.727 5  84258612.879 5     -1444.734          34.000
C11  25249910.562 5 131482889.065 5     -3265.250          31.000
C14  21916919.125 4 114127150.299 4       952.977          29.000    21916910.953 6  88250297.932 6       736.549          36.000
C24  26036155.227 5 135577082.658 5      3304.207          32.000
C26  23492925.898 7 122333835.355 7      1964.516          46.000
C28  24050999.258 6 125239930.587 6        72.633          36.000
E09  21573668.086 8 113370464.780 8      -536.770          51.000    21573669.109 8  86868293.422 8      -411.306          51.000
E36  24170766.648 8 127018234.126 8     -1818.070          51.000    24170769.523 8  97325670.211 8     -1392.968          51.000
> 2020 05 08 23 32 30.0000000  0 16        .000000000000
G03  22439334.508 5 117919516.853 5     -2518.707          35.000    22439334.664 6  91885342.812 6     -1962.626          36.000
G04  20710025.430 8 108831933.915 8     -1490.910          51.000    20710025.398 8  84804148.147 8     -1161.748          51.000
G07  23744288.852 6 124777059.071 6      3346.613          40.000    23744283.750 6  97228874.617 6      2607.751          40.000
G09  20396465.289 8 107184262.930 8       809.387          51.000    20396465.586 8  83520184.562 8       630.691          51.000
G19  23664241.836 7 124356421.437 7     -2846.816          45.000    23664238.672 7  96901073.281 7     -2218.298          43.000
R07  21716201.352 6 116248495.171 6     -2660.562          39.000
R08  19699571.438 5 105490335.327 5      -213.793          31.000    19699563.305 4  82047986.747 4      -166.280          25.000
R10  22059504.344 6 117589575.508 6      3424.871          36.000
R23  20262105.359 7 108388601.796 7     -1884.754          46.000    20262109.070 5  84302248.497 5     -1465.920          35.000
C11  25268729.422 5 131580906.263 5     -3270.195          30.000
C14  21911446.125 5 114098649.934 5       943.867          30.000    21911440.977 6  88228273.653 6       730.048          36.000
C24  26017116.742 5 135477950.162 5      3302.816          32.000
C26  23481645.930 7 122275087.727 7      1950.059          47.000
C28  24050629.023 6 125237997.447 6        54.531          36.000
E09  21576749.516 8 113386657.415 8      -544.656          51.000    21576750.500 8  86880700.762 8      -417.334          51.000
E36  24181178.438 8 127072950.635 8     -1831.730          51.000    24181181.484 8  97367595.864 8     -1403.534          51.000
> 2020 05 08 23 33  0.0000000  0 14        .000000000000
G03  22453765.594 6 117995356.219 6     -2534.754          36.000    22453766.633 6  91944438.496 6     -1975.133          36.000
G04  20718603.531 8 108877012.014 8     -1511.777          51.000    20718603.500 8  84839273.943 8     -1178.008          51.000
G07  23725229.414 6 124676898.721 6      3333.367          41.000    23725224.508 6  97150827.599 6      2597.429          41.000
G09  20391917.523 8 107160365.902 8       786.344          51.000    20391918.180 8  83501563.510 8       612.735          51.000
G19  23680553.414 7 124442139.182 7     -2865.191          45.000    23680550.188 7  96967866.323 7     -2232.617          42.000
R08  19700829.930 6 105497078.872 6      -233.246          37.000    19700824.875 4  82053234.192 4      -181.417          26.000
R10  22040305.773 6 117487231.325 6      3401.051          36.000
R23  20272779.195 7 108445699.754 7     -1919.246          46.000    20272782.625 5  84346658.028 5     -1492.747          34.000
C14                                                                  21906053.023 6  88206581.966 6       718.060          37.000
C24  25998120.789 5 135379037.753 5      3293.914          34.000
C26  23470480.172 7 122216943.770 7      1928.402          44.000
E04  26571929.375 5 139636430.318 5     -2289.449          33.000    26571914.805 5 106994120.463 5     -1754.526          35.000
E09  21579909.594 8 113403263.738 8      -559.805          51.000    21579910.625 8  86893425.083 8      -428.920          51.000
E36  24191701.984 8 127128257.020 8     -1852.691          50.000    24191705.281 8  97409973.493 8     -1419.589          51.000
> 2020 05 08 23 33 30.0000000  0 16        .000000000000
G03  22468203.117 6 118071227.243 6     -2532.902          36.000    22468207.016 6  92003558.766 6     -1973.693          36.000
G04  20727215.289 8 108922267.294 8     -1515.031          51.000    20727215.375 8  84874537.809 8     -1180.544          51.000
G07  23706160.273 6 124576688.910 6      3337.535          40.000    23706156.273 6  97072742.030 6      2600.677          39.000
G09  20387416.438 8 107136713.039 8       780.766          51.000    20387416.859 8  83483132.723 8       608.389          51.000
G19  23696884.820 7 124527961.383 7     -2866.082          43.000    23696881.625 7  97034740.734 7     -2233.314          43.000
R08  19702113.797 6 105503956.397 6      -235.031          37.000    19702113.578 5  82058583.389 5      -182.802          30.000
R10  22021152.555 5 117385127.564 5      3396.574          30.000
R23  20283561.367 7 108503379.135 7     -1936.043          45.000    20283563.914 5  84391519.783 5     -1505.811          33.000
C14                                                                  21900671.250 6  88184913.745 6       718.933          37.000
C21  24588777.695 5 128040225.674 5     -2348.105          34.000
C24  25979090.969 5 135279947.625 5      3302.492          35.000
C26  23459353.234 7 122159005.386 7      1924.285          43.000
C28  24050214.789 4 125235791.907 4        19.637          29.000
E04  26584952.906 5 139704869.603 5     -2282.582          33.000    26584945.273 6 107046561.735 6     -1749.042          36.000
E09  21583071.234 8 113419879.398 8      -557.605          51.000    21583072.680 8  86906156.570 8      -427.289          51.000
E36  24202261.438 8 127183748.399 8     -1856.418          51.000    24202264.531 8  97452492.832 8     -1422.459          51.000
> 2020 05 08 23 34  0.0000000  0 16        .000000000000
G03  22482665.797 5 118147231.411 5     -2521.883          35.000    22482670.227 5  92062782.846 5     -1965.097          35.000
G04  20735879.844 8 108967800.178 8     -1508.934          51.000    20735879.812 8  84910017.978 8     -1175.792          51.000
G07  23687101.297 6 124476534.143 6      3350.891          40.000    23687098.320 6  96994699.371 6      2611.084          40.000
G09  20382981.398 8 107113406.225 8       784.578          51.000    20382981.648 8  83464971.568 8       611.363          51.000
G19  23713254.758 7 124613986.701 7     -2857.320          42.000    23713251.688 7  97101773.421 7     -2226.483          42.000
R07  21761048.336 6 116488548.028 6     -2654.969          36.000
R08  19703442.875 6 105511071.013 6      -227.129          36.000    19703446.250 5  82064116.974 5      -176.656          31.000
R23  20294469.625 7 108561740.574 7     -1942.996          42.000    20294472.953 5  84436912.031 5     -1511.216          34.000
C14                                                                  21895315.320 6  88163347.338 6       727.411          37.000
C21  24602297.984 5 128110631.778 5     -2333.426          33.000
C24  25960046.852 6 135180783.214 6      3319.902          36.000
C26  23448285.609 7 122101375.756 7      1929.137          43.000
C28  24050160.023 5 125235479.433 5        20.465          34.000
E04  26597968.023 5 139773264.429 5     -2265.504          35.000    26597964.609 5 107098967.420 5     -1735.858          32.000
E09  21586253.945 8 113436605.827 8      -545.871          51.000    21586255.797 8  86918972.925 8      -418.313          51.000
E36  24212876.109 8 127239525.561 8     -1850.578          51.000    24212878.930 8  97495231.137 8     -1417.946          51.000
> 2020 05 08 23 34 30.0000000  0 16        .000000000000
G04  20744619.125 8 109013725.883 8     -1544.430          51.000    20744619.023 8  84945804.228 8     -1203.452          50.000
G07  23668075.180 6 124376553.640 6      3322.547          41.000    23668072.977 6  96916792.463 6      2588.995          41.000
G09  20378634.344 8 107090562.037 8       746.797          51.000    20378634.875 8  83447170.901 8       581.917          51.000
G19  23729684.898 7 124700328.925 7     -2890.547          44.000    23729682.375 7  97169053.090 7     -2252.371          42.000
R08  19704838.062 5 105518541.355 5      -262.387          33.000    19704839.023 4  82069927.244 4      -204.079          26.000
R22  23646103.969 4 126224507.965 4     -4578.637          29.000
R23  20305528.570 7 108620900.916 7     -1992.531          47.000    20305532.445 5  84482925.649 5     -1549.747          35.000
C14  21890018.055 5 113987063.701 5       910.371          31.000    21890007.227 5  88141972.578 5       703.827          34.000
C21  24615850.156 4 128181167.844 4     -2360.723          29.000
C24  25941012.086 6 135081662.722 6      3296.215          37.000
C26  23437300.602 7 122044172.720 7      1892.629          45.000
C28  24050174.750 5 125235577.629 5       -21.004          31.000
E04  26610996.047 6 139841728.368 6     -2290.523          37.000
E05  24880739.328 5 130749166.755 5      1635.102          34.000    24880747.719 6 100184468.524 6      1252.810          36.000
E09  21589480.094 8 113453559.349 8      -575.992          51.000    21589481.977 8  86931963.280 8      -441.369          51.000
E36  24223567.406 8 127295704.191 8     -1886.438          51.000    24223570.414 8  97538277.083 8     -1445.461          51.000
> 2020 05 08 23 35  0.0000000  0 15        .000000000000
G04  20753489.531 8 109060340.878 8     -1553.383          51.000    20753489.664 8  84982127.586 8     -1210.428          51.000
G07  23649139.055 6 124277048.222 6      3321.066          40.000    23649137.664 6  96839255.763 6      2587.847          40.000
G09  20374432.164 8 107068478.446 8       735.305          51.000    20374432.914 8  83429962.920 8       572.965          51.000
G19  23746231.602 7 124787282.686 7     -2896.633          44.000    23746229.336 6  97236809.267 6     -2257.113          40.000
R07  21791086.930 5 116649442.931 5     -2684.613          33.000
R08  19706354.445 5 105526670.715 5      -269.547          33.000
R10  21964219.164 5 117081672.876 5      3348.805          33.000
R23  20316794.664 8 108681160.480 8     -2014.684          48.000    20316798.016 6  84529794.174 6     -1566.976          37.000
C14  21884812.750 5 113959964.886 5       906.336          32.000    21884802.516 5  88121017.991 5       700.682          35.000
C24  25922043.219 5 134982883.891 5      3298.547          35.000
C26  23426454.383 7 121987693.737 7      1882.273          44.000
E04  26624092.938 5 139910559.974 5     -2288.383          35.000
E05  24871442.570 5 130700306.431 5      1632.164          35.000    24871438.930 5 100146983.186 5      1250.847          30.000
E09  21592806.164 8 113471037.502 8      -579.387          51.000    21592807.945 8  86945355.625 8      -443.940          51.000
E36  24234391.273 8 127352581.190 8     -1895.520          51.000    24234394.805 8  97581858.159 8     -1452.456          51.000
> 2020 05 08 23 35 30.0000000  0 15        .000000000000
G04  20762356.617 8 109106938.342 8     -1558.930          51.000    20762356.859 8  85018437.283 8     -1214.750          51.000
G07  23630159.734 7 124177315.293 7      3322.316          42.000    23630158.883 6  96761541.765 6      2588.815          41.000
G09  20370240.617 8 107046449.986 8       727.355          51.000    20370241.242 8  83412797.873 8       566.770          51.000
G19  23762760.031 7 124874139.495 7     -2899.422          44.000    23762757.172 6  97304489.912 6     -2259.290          40.000
R08  19707860.938 4 105534740.383 4      -274.426          28.000
R10  21945372.836 5 116981236.045 5      3340.711          34.000
R23  20328130.742 7 108741798.509 7     -2033.652          47.000    20328134.273 6  84576957.085 6     -1581.730          37.000
C14                                                                  21879569.164 6  88099943.553 6       699.936          37.000
C21  24643052.758 5 128322847.983 5     -2357.367          34.000
C24  25903006.586 6 134883750.254 6      3304.078          36.000
C26  23415613.008 7 121931241.994 7      1875.109          42.000
E04  26637124.734 5 139979034.677 5     -2283.668          31.000
E05  24862108.000 5 130651244.517 5      1633.141          35.000
E09  21596097.711 8 113488334.494 8      -579.496          51.000    21596099.555 8  86958609.175 8      -444.000          51.000
E36  24245212.906 8 127409450.155 8     -1901.352          51.000    24245217.094 8  97625433.086 8     -1456.901          51.000
> 2020 05 08 23 36  0.0000000  0 16        .000000000000
G03  22541039.109 5 118453964.593 5     -2568.473          32.000
G04  20771327.523 8 109154081.104 8     -1573.840          50.000    20771327.828 8  85055171.894 8     -1226.369          50.000
G07  23611245.195 7 124077921.660 7      3313.934          42.000    23611244.695 6  96684092.180 6      2582.289          41.000
G09  20366166.664 8 107025040.954 8       709.879          51.000    20366167.172 8  83396115.514 8       553.152          51.000
G19  23779376.977 7 124961460.387 7     -2911.816          45.000    23779373.156 6  97372532.163 6     -2268.948          40.000
R07  21821184.797 5 116810496.198 5     -2690.789          30.000    21821197.453 5  90852647.462 5     -2092.842          30.000
R08  19709464.516 5 105543324.817 5      -287.621          32.000    19709466.672 4  82089222.397 4      -223.708          25.000
R10  21926649.781 5 116881444.512 5      3323.188          34.000
R23  20339643.508 7 108803386.332 7     -2062.012          47.000    20339647.570 6  84624858.752 6     -1603.787          37.000
C11                                                                  25401049.242 5 102279490.210 5     -2543.263          35.000
C14  21874419.156 4 113905838.455 4       894.473          28.000    21874414.633 6  88079181.990 6       691.887          37.000
C24  25884010.156 5 134784823.506 5      3299.930          35.000
C26  23404884.078 6 121875378.808 6      1858.840          40.000
E05  24852843.148 6 130602545.467 6      1623.766          36.000
E09  21599462.117 8 113506014.261 8      -589.086          51.000    21599464.078 8  86972156.021 8      -451.375          51.000
E36  24256139.367 8 127466874.327 8     -1916.801          49.000    24256144.352 8  97669433.437 8     -1468.685          51.000
> 2020 05 08 23 36 30.0000000  0 14        .000000000000
G04  20780345.805 8 109201472.517 8     -1585.539          51.000    20780346.227 8  85092100.274 8     -1235.485          51.000
G07  23592339.523 7 123978574.978 7      3309.102          43.000    23592339.500 7  96606679.196 7      2578.524          43.000
G09  20362154.477 8 107003956.050 8       695.645          51.000    20362154.773 8  83379685.753 8       542.061          51.000
G19  23796025.539 7 125048947.062 7     -2920.707          46.000    23796020.203 6  97440703.592 6     -2275.876          40.000
R08  19711107.555 5 105552122.827 5      -298.895          32.000    19711105.211 4  82096056.762 4      -232.474          24.000
R10  21907994.992 5 116782003.281 5      3306.766          31.000
R23  20351277.914 8 108865621.163 8     -2086.938          49.000    20351281.781 6  84673263.641 6     -1623.174          37.000
C11                                                                  25420006.008 5 102355820.163 5     -2545.831          35.000
C14  21869286.812 4 113879109.750 4       886.617          27.000    21869281.484 6  88058507.447 6       686.443          36.000
C24  25864997.516 5 134685813.735 5      3299.734          34.000
C26  23394213.477 7 121819813.840 7      1845.695          43.000
E05  24843590.273 6 130553914.188 6      1618.117          37.000
E09  21602843.195 8 113523781.197 8      -595.453          51.000    21602845.109 8  86985769.655 8      -456.271          51.000
E36  24267114.969 8 127524557.412 8     -1928.840          49.000    24267120.008 8  97713632.196 8     -1478.014          51.000
> 2020 05 08 23 37  0.0000000  0 17        .000000000000
G04  20789419.766 8 109249156.114 8     -1599.816          51.000    20789420.148 8  85129256.318 8     -1246.613          51.000
G07  23573452.016 7 123879322.638 7      3301.164          44.000    23573451.820 7  96529339.720 7      2572.336          43.000
G09  20358212.523 8 106983240.164 8       678.961          51.000    20358212.836 8  83363543.528 8       529.060          51.000
G19  23812713.422 7 125136641.262 7     -2932.062          46.000    23812706.648 6  97509036.693 6     -2284.727          39.000
R01  20966630.047 4 112078607.784 4      2152.742          29.000
R07  21851388.117 5 116972130.505 5     -2701.566          30.000    21851385.758 5  90978310.038 5     -2101.224          31.000
R08  19712799.133 4 105561180.030 4      -312.164          29.000    19712798.398 4  82103103.653 4      -242.785          26.000
R10  21889414.312 5 116682963.159 5      3288.469          33.000
R23  20363041.414 8 108928545.778 8     -2114.508          49.000    20363045.188 6  84722204.957 6     -1644.620          38.000
C11                                                                  25438966.203 5 102432162.812 5     -2549.350          35.000
C14                                                                  21864177.430 5  88037954.748 5       678.478          34.000
C24  25845977.617 5 134586767.881 5      3296.941          33.000
C26  23383610.195 7 121764593.883 7      1829.453          42.000
E04  26676332.484 5 140185074.619 5     -2292.504          34.000    26676312.758 5 107414472.900 5     -1756.375          33.000
E05  24834358.773 6 130505395.860 6      1610.137          41.000
E09  21606249.328 8 113541679.909 8      -604.250          51.000    21606251.094 8  86999484.253 8      -462.973          51.000
E36  24278149.156 8 127582543.338 8     -1943.391          51.000    24278153.102 8  97758062.984 8     -1489.056          51.000
> 2020 05 08 23 37 30.0000000  0 16        .000000000000
G04  20798572.109 8 109297251.658 8     -1608.395          51.000    20798572.492 8  85166733.363 8     -1253.294          51.000
G07  23554606.266 7 123780288.816 7      3298.836          43.000    23554606.148 7  96452170.490 7      2570.522          43.000
G09  20354363.602 8 106963014.562 8       667.664          51.000    20354364.281 8  83347783.312 8       520.258          51.000
G19  23829463.156 7 125224661.141 7     -2937.684          45.000    23829456.266 6  97577623.589 6     -2289.104          38.000
R07  21866511.969 5 117053160.710 5     -2702.059          32.000    21866509.492 4  91041343.580 4     -2101.601          26.000
R08  19714562.555 4 105570619.494 4      -319.227          29.000    19714561.008 4  82110445.497 4      -248.284          26.000
R10  21870933.125 4 116584451.284 4      3277.352          28.000
R23  20374956.523 8 108992280.849 8     -2136.418          51.000    20374959.914 6  84771776.647 6     -1661.658          38.000
C11                                                                  25457952.461 6 102508609.327 6     -2548.764          36.000
C14                                                                  21859125.695 5  88017617.199 5       675.551          33.000
C21  24697615.203 5 128606977.935 5     -2372.613          34.000
C26  23373095.438 6 121709841.174 6      1819.105          39.000
E04                                                                  26689388.336 5 107467130.280 5     -1755.510          31.000
E05  24825171.930 6 130457112.050 6      1607.055          39.000
E09  21609703.414 8 113559831.307 8      -607.621          51.000    21609705.164 8  87013392.477 8      -465.604          51.000
E36  24289264.789 8 127640952.378 8     -1952.402          51.000    24289266.938 8  97802817.955 8     -1496.000          51.000
> 2020 05 08 23 38  0.0000000  0 15        .000000000000
G04  20807788.305 8 109345683.104 8     -1622.516          51.000    20807788.781 8  85204472.163 8     -1264.298          51.000
G07  23535788.219 7 123681401.226 7      3291.328          42.000    23535789.141 7  96375115.255 7      2564.671          42.000
G09  20350593.898 8 106943204.497 8       650.871          51.000    20350594.562 8  83332346.900 8       507.172          51.000
G19  23846259.773 7 125312928.999 7     -2948.684          44.000    23846253.883 6  97646403.715 6     -2297.679          39.000
R07  21881676.359 5 117134295.151 5     -2708.703          33.000    21881668.062 4  91104448.208 4     -2106.766          28.000
R08  19716384.641 5 105580365.213 5      -332.816          33.000    19716382.617 4  82118028.535 4      -258.851          28.000
R09  21489308.086 5 114751702.559 5       702.742          31.000    21489307.797 4  89251328.698 4       546.583          25.000
R23  20387008.281 8 109056747.383 8     -2163.668          51.000    20387011.867 6  84821917.264 6     -1682.856          39.000
C11                                                                  25476950.078 5 102585100.805 5     -2552.458          35.000
C14  21854118.914 5 113800144.392 5       863.891          31.000    21854112.320 5  87997437.969 5       668.154          32.000
C21  24711294.555 5 128678222.067 5     -2378.629          33.000
C26  23362656.742 6 121655483.985 6      1803.035          40.000
E05  24816012.641 5 130408988.306 5      1598.727          35.000
E09  21613191.234 8 113578160.417 8      -616.539          51.000    21613193.180 8  87027436.857 8      -472.362          51.000
E36  24300446.914 8 127699708.791 8     -1966.836          51.000    24300447.258 8  97847839.098 8     -1507.080          51.000
> 2020 05 08 23 38 30.0000000  0 17        .000000000000
G03  22614860.570 6 118841893.403 6     -2601.566          36.000    22614860.938 5  92604063.652 5     -2027.189          34.000
G04  20817085.141 8 109394538.279 8     -1629.629          51.000    20817085.578 8  85242541.134 8     -1269.841          50.000
G07  23517015.562 7 123582751.930 7      3290.230          42.000    23517017.445 7  96298245.716 7      2563.816          42.000
G09  20346920.188 8 106923899.141 8       641.035          51.000    20346920.656 8  83317303.790 8       499.508          51.000
G19  23863119.773 7 125401530.968 7     -2953.059          44.000    23863115.227 6  97715444.236 6     -2301.082          41.000
R07  21896875.156 5 117215670.195 5     -2708.660          35.000    21896869.102 5  91167729.944 5     -2106.736          31.000
R08  19718279.195 5 105590507.840 5      -338.621          32.000    19718279.617 4  82125917.328 4      -263.372          27.000
R09  21485424.141 5 114731006.625 5       681.539          32.000    21485437.375 4  89235249.096 4       530.086          26.000
R10  21834249.875 4 116388814.200 4      3246.914          28.000
R23  20399212.688 8 109122033.466 8     -2183.711          50.000    20399216.570 6  84872695.315 6     -1698.445          39.000
C11                                                                  25495976.086 6 102661703.779 6     -2550.800          36.000
C14  21849163.922 5 113774341.954 5       861.109          32.000    21849157.508 6  87977485.921 6       665.674          36.000
C26  23352310.492 6 121601612.862 6      1793.324          39.000
E04  26715589.781 5 140391369.514 5     -2291.078          32.000
E05  24806897.812 6 130361114.088 6      1597.395          37.000
E09  21616729.820 8 113596756.094 8      -618.270          51.000    21616731.984 8  87041685.493 8      -473.769          51.000
E36  24311711.789 8 127758900.802 8     -1974.359          51.000    24311711.453 8  97893193.981 8     -1512.806          51.000
> 2020 05 08 23 39  0.0000000  0 13        .000000000000
G03  22629703.688 5 118919894.372 5     -2630.352          33.000    22629706.172 5  92664843.488 5     -2049.625          33.000
G04  20826392.438 8 109443448.174 8     -1662.738          51.000    20826392.781 8  85280652.742 8     -1295.640          50.000
G07  23498218.906 7 123483976.500 7      3262.930          43.000    23498219.047 6  96221277.952 6      2542.546          36.000
G09  20343272.430 8 106904730.897 8       605.113          51.000    20343272.781 8  83302367.521 8       471.520          51.000
G19  23879972.914 7 125490096.238 7     -2982.961          44.000    23879968.734 6  97784456.137 6     -2324.385          40.000
R09  21481641.375 5 114710796.237 5       633.695          30.000    21481656.984 4  89219530.072 4       492.883          26.000
R23  20411499.828 8 109187761.906 8     -2230.324          51.000    20411503.594 6  84923817.438 6     -1734.700          39.000
C11                                                                  25514959.242 6 102738134.845 6     -2569.011          36.000
C14  21844193.586 5 113748452.505 5       832.305          31.000    21844190.180 6  87957479.702 6       643.678          36.000
C26  23341989.133 7 121547865.676 7      1758.469          44.000
E05  24797764.094 6 130313121.843 6      1570.289          39.000
E09  21620249.195 8 113615250.457 8      -646.246          51.000    21620251.461 8  87055856.493 8      -495.125          51.000
E36  24322989.008 8 127818159.712 8     -2007.891          51.000    24322989.055 8  97938600.135 8     -1538.517          51.000
> 2020 05 08 23 39 30.0000000  0 14        .000000000000
G04  20835845.609 8 109493124.712 8     -1649.598          51.000    20835846.070 8  85319361.741 8     -1285.401          50.000
G07  23479534.430 7 123385790.630 7      3281.969          43.000    23479530.406 6  96144769.608 6      2557.378          41.000
G09  20339786.492 8 106886412.954 8       615.414          51.000    20339786.727 8  83288093.802 8       479.543          51.000
G19  23896954.414 7 125579335.216 7     -2966.574          43.000    23896949.586 6  97853992.959 6     -2311.616          39.000
R07  21927315.164 5 117378574.261 5     -2713.746          34.000    21927320.656 5  91294507.949 5     -2110.701          31.000
R09  21478087.078 6 114691778.500 6       632.266          36.000
R23  20424005.117 8 109254656.237 8     -2229.926          51.000    20424008.852 6  84975846.353 6     -1734.387          40.000
C11                                                                  25534034.055 5 102814938.924 5     -2551.615          35.000
C14                                                                  21839343.133 5  87937966.294 5       656.905          32.000
C24  25751009.125 5 134092264.312 5      3299.324          30.000
C26  23331827.758 6 121494951.573 6      1768.797          39.000
E05  24788745.227 6 130265725.239 6      1588.938          40.000    24788750.047 5  99814017.665 5      1217.779          33.000
E09  21623885.039 8 113634356.504 8      -628.016          51.000    21623887.219 8  87070496.187 8      -481.207          51.000
E36  24334413.703 8 127878197.787 8     -1995.219          51.000    24334415.023 8  97984603.327 8     -1528.810          51.000
> 2020 05 08 23 40  0.0000000  0 14        .000000000000
G04  20845286.352 8 109542735.726 8     -1663.891          51.000    20845286.820 8  85358019.678 8     -1296.538          50.000
G07  23460804.766 7 123287366.304 7      3273.676          43.000    23460800.906 7  96068075.378 7      2550.916          43.000
G09  20336304.344 8 106868114.525 8       598.266          51.000    20336304.688 8  83273835.288 8       466.184          51.000
G19  23913905.414 7 125668413.892 7     -2977.973          43.000    23913900.102 6  97923404.846 6     -2320.501          39.000
R23  20436569.367 8 109321867.385 8     -2257.109          51.000    20436573.609 6  85028121.684 6     -1755.530          40.000
C11                                                                  25553043.719 6 102891477.691 6     -2555.421          36.000
C14                                                                  21834458.703 4  87918316.547 4       648.699          29.000
C24  25732001.750 5 133993259.956 5      3294.961          34.000
C26  23321666.406 6 121442049.293 6      1752.426          36.000
C28  24057073.531 4 125271494.681 4      -200.746          29.000
E04  26754852.289 5 140597695.436 5     -2294.469          34.000    26754841.938 5 107730660.115 5     -1757.875          32.000
E05  24779681.695 6 130218093.692 6      1580.559          37.000    24779691.469 6  99777520.844 6      1210.967          36.000
E09  21627479.141 8 113653243.163 8      -637.254          51.000    21627481.133 8  87084967.785 8      -488.291          51.000
E36  24345827.523 8 127938183.232 8     -2009.938          51.000    24345830.891 8  98030566.212 8     -1540.112          51.000
> 2020 05 08 23 40 30.0000000  0 16        .000000000000
G03  22674588.195 5 119155801.892 5     -2633.715          32.000    22674593.102 5  92848668.073 5     -2052.245          30.000
G04  20854819.375 8 109592831.677 8     -1679.047          51.000    20854819.695 8  85397055.484 8     -1308.348          51.000
G07  23442135.352 7 123189257.910 7      3263.941          43.000    23442132.773 7  95991627.297 7      2543.331          43.000
G09  20332930.883 8 106850387.389 8       580.391          51.000    20332931.664 8  83260021.943 8       452.252          51.000
G19  23930930.422 7 125757881.163 7     -2989.895          42.000    23930925.781 6  97993119.543 6     -2329.791          40.000
R07  21957790.891 5 117541717.069 5     -2729.078          31.000    21957771.844 4  91421337.064 4     -2122.619          25.000
R09  21471304.234 6 114655575.235 6       573.246          38.000    21471294.953 5  89176544.876 5       445.855          30.000
R23  20449296.750 8 109389954.387 8     -2285.203          50.000    20449301.906 6  85081078.247 6     -1777.380          40.000
C11                                                                  25572092.000 5 102968172.256 5     -2559.931          33.000
C14                                                                  21829648.172 6  87898939.881 6       640.350          36.000
C24  25713026.234 5 133894438.658 5      3289.801          34.000
C26  23311615.320 6 121389708.124 6      1734.512          41.000
E04  26767948.367 5 140666522.363 5     -2299.051          35.000    26767944.562 5 107783421.154 5     -1761.978          33.000
E05  24770678.070 6 130170779.298 6      1570.738          37.000    24770690.398 5  99741267.015 5      1203.741          34.000
E09  21631136.422 8 113672461.972 8      -647.168          51.000    21631138.180 8  87099693.887 8      -495.873          51.000
E36  24357336.336 8 127998666.819 8     -2025.418          51.000    24357341.258 8  98076910.803 8     -1551.941          51.000
> 2020 05 08 23 41  0.0000000  0 14        .000000000000
G04  20864435.242 8 109643363.266 8     -1700.160          51.000    20864435.406 8  85436430.728 8     -1324.800          50.000
G07  23423517.555 7 123091420.516 7      3248.117          44.000    23423516.078 7  95915390.361 7      2531.000          44.000
G09  20329657.016 8 106833183.589 8       556.168          51.000    20329658.117 8  83246616.388 8       433.378          51.000
G19  23948019.430 7 125847685.716 7     -3007.695          43.000    23948016.789 6  98063097.113 6     -2343.659          36.000
R10  21744044.195 5 115907984.093 5      3150.770          35.000
R23  20462178.453 8 109458865.416 8     -2319.465          50.000    20462183.414 6  85134675.680 6     -1804.028          39.000
C11                                                                  25591167.734 5 103044984.249 5     -2568.603          34.000
C14                                                                  21824897.781 6  87879807.047 6       627.201          39.000
C24  25694073.336 5 133795755.569 5      3277.980          30.000
C26  23301663.922 6 121337882.427 6      1710.469          41.000
E04                                                                  26781068.641 5 107836278.785 5     -1770.153          32.000
E05  24761725.773 5 130123734.529 5      1555.227          34.000    24761736.297 6  99705219.615 6      1191.434          37.000
E09  21634847.633 8 113691964.768 8      -663.375          51.000    21634849.227 8  87114637.592 8      -508.291          51.000
E36  24368931.500 8 128059599.610 8     -2047.102          51.000    24368936.633 8  98123599.573 8     -1568.567          51.000
> 2020 05 08 23 41 30.0000000  0 17        .000000000000
G04  20874115.172 8 109694231.689 8     -1698.578          51.000    20874115.320 8  85476068.444 8     -1323.567          50.000
G07  23404933.398 7 122993759.677 7      3255.039          42.000    23404932.734 7  95839290.994 7      2536.394          42.000
G09  20326464.273 8 106816405.610 8       554.754          51.000    20326465.180 8  83233542.627 8       432.276          51.000
G19  23965153.766 7 125937727.367 7     -3002.746          44.000    23965152.867 6  98133259.480 6     -2339.799          38.000
R07  21988394.453 5 117705599.531 5     -2734.387          33.000
R08  19730764.539 4 105657347.005 4      -402.859          29.000
R10  21726296.914 6 115813392.768 6      3147.191          39.000
R23  20475195.586 8 109528498.456 8     -2330.496          51.000    20475199.500 6  85188834.688 6     -1812.608          38.000
C11                                                                  25610253.562 5 103121837.280 5     -2560.484          34.000
C14                                                                  21820189.359 6  87860843.735 6       631.330          38.000
C24  25675128.586 5 133697116.886 5      3289.398          34.000
C26  23291793.180 7 121286477.828 7      1708.969          44.000
C28  24061011.758 5 125291999.314 5      -252.211          30.000
E04                                                                  26794198.648 5 107889135.292 5     -1761.146          30.000
E05                                                                  24752815.875 6  99669304.280 6      1196.959          38.000
E09  21638594.281 8 113711653.798 8      -656.750          51.000    21638595.734 8  87129723.998 8      -503.233          51.000
E36  24380593.914 8 128120883.100 8     -2046.031          51.000    24380598.164 8  98170557.038 8     -1567.717          51.000
> 2020 05 08 23 42  0.0000000  0 17        .000000000000
G03  22719862.477 5 119393686.091 5     -2645.617          32.000
G04  20883854.008 8 109745409.587 8     -1703.984          51.000    20883854.312 8  85515947.307 8     -1327.780          51.000
G07  23386378.289 6 122896251.953 6      3254.664          41.000    23386378.398 6  95763310.965 6      2536.105          41.000
G09  20323347.562 8 106800027.361 8       546.371          51.000    20323348.258 8  83220780.373 8       425.747          51.000
G19  23982327.883 7 126027977.028 7     -3004.738          44.000    23982327.766 6  98203583.885 6     -2341.355          39.000
R07  22003752.359 5 117787780.017 5     -2732.180          32.000
R08  19733067.125 4 105669652.649 4      -407.523          29.000
R10  21708641.359 6 115719282.167 6      3136.270          37.000
R23  20488342.148 8 109598823.654 8     -2348.473          51.000    20488345.797 6  85243532.060 6     -1826.590          39.000
C11                                                                  25629344.328 5 103198709.770 5     -2557.227          33.000
C14                                                                  21815518.055 6  87842030.474 6       629.947          37.000
C24  25656188.688 5 133598499.576 5      3293.625          35.000
C26  23281998.633 7 121235470.824 7      1700.688          44.000
C28  24062527.531 5 125299892.578 5      -264.207          32.000
E05  24743916.750 6 130030145.455 6      1562.125          37.000    24743924.617 6  99633501.367 6      1196.857          37.000
E09  21642371.445 8 113731502.862 8      -657.199          51.000    21642372.766 8  87144933.017 8      -503.538          51.000
E36  24392317.898 8 128182490.249 8     -2051.770          51.000    24392320.500 8  98217762.481 8     -1572.126          51.000
> 2020 05 08 23 42 30.0000000  0 15        .000000000000
G04  20893634.172 8 109796804.485 8     -1722.934          51.000    20893634.531 8  85555995.266 8     -1342.546          51.000
G07  23367835.547 6 122798808.705 6      3241.008          41.000    23367836.234 7  95687381.169 7      2525.461          42.000
G09  20320289.727 8 106783957.724 8       524.387          51.000    20320290.320 8  83208258.592 8       408.613          51.000
G19  23999523.703 7 126118340.232 7     -3020.113          45.000    23999523.094 7  98273996.751 7     -2353.335          42.000
R07  22019093.422 6 117869917.669 6     -2744.191          39.000
R09  21459568.211 5 114592869.157 5       468.719          32.000    21459543.281 4  89127730.357 4       364.550          29.000
R10  21691059.180 5 115625564.086 5      3110.965          35.000
R23  20501600.562 8 109669745.539 8     -2380.164          51.000    20501604.531 6  85298693.520 6     -1851.239          40.000
C11                                                                  25648421.156 4 103275530.321 4     -2564.821          29.000
C14  21810869.312 5 113574915.753 5       800.156          34.000    21810864.773 5  87823297.885 5       618.275          35.000
C24  25637235.938 5 133499815.910 5      3284.328          34.000
C26  23272262.375 7 121184773.171 7      1678.766          43.000
E05  24735035.523 6 129983475.359 6      1548.715          38.000    24735045.477 5  99597741.142 5      1186.555          31.000
E09  21646161.609 8 113751420.584 8      -671.180          51.000    21646162.867 8  87160194.649 8      -514.310          51.000
E36  24404085.734 8 128244328.861 8     -2071.238          51.000    24404085.820 8  98265145.260 8     -1587.122          49.000
> 2020 05 08 23 43  0.0000000  0 15        .000000000000
G03  22750209.219 5 119553167.470 5     -2662.039          31.000    22750215.352 5  93158308.751 5     -2074.322          32.000
G04  20903497.711 8 109848637.617 8     -1728.789          51.000    20903497.891 8  85596384.720 8     -1347.108          51.000
G07  23349348.227 6 122701655.672 6      3239.793          39.000    23349348.523 6  95611677.501 6      2524.514          40.000
G09  20317333.047 8 106768419.220 8       515.430          51.000    20317333.516 8  83196150.661 8       401.634          51.000
G19  24016782.914 7 126209036.625 7     -3022.488          45.000    24016781.117 6  98344669.225 6     -2355.189          40.000
R10  21673595.148 6 115532469.104 6      3098.723          36.000
R23  20515012.617 8 109741487.589 8     -2398.617          51.000    20515016.805 6  85354492.860 6     -1865.594          41.000
C11                                                                  25667526.562 5 103352499.655 5     -2561.502          34.000
C14  21806284.430 5 113551015.942 5       797.715          34.000    21806272.680 6  87804816.938 6       616.874          36.000
C24  25618314.891 6 133401289.343 6      3287.652          38.000
C26  23262627.984 7 121134607.630 7      1669.430          42.000
C28  24065836.633 4 125317125.614 4      -301.293          28.000
E05  24726208.594 6 129937083.868 6      1548.172          38.000
E09  21650007.023 8 113771629.318 8      -672.121          51.000    21650008.289 8  87175679.258 8      -514.975          51.000
E36  24415939.469 8 128306620.448 8     -2077.590          51.000    24415937.961 8  98312875.136 8     -1591.854          50.000
> 2020 05 08 23 43 30.0000000  0 17        .000000000000
G04  20913395.688 8 109900651.956 8     -1741.922          51.000    20913395.797 8  85636915.367 8     -1357.342          51.000
G07  23330867.180 5 122604539.938 5      3230.961          34.000    23330867.016 5  95536002.881 5      2517.635          34.000
G09  20314428.586 8 106753156.093 8       499.059          51.000    20314429.125 8  83184257.309 8       388.877          51.000
G19  24034056.266 7 126299807.560 7     -3031.926          45.000    24034053.930 6  98415399.777 6     -2362.540          41.000
R07  22049853.008 6 118034607.514 6     -2748.934          36.000
R08  19740258.945 4 105708189.412 4      -444.023          29.000
R09  21454537.148 5 114566029.079 5       419.117          34.000    21454554.414 5  89106937.556 5       325.986          34.000
R10  21656200.031 5 115439742.325 5      3079.367          35.000
R23  20528529.094 8 109813786.323 8     -2424.402          51.000    20528532.875 6  85410725.202 6     -1885.646          41.000
C11  25686610.641 5 133756923.965 5     -3316.117          30.000    25686613.086 5 103429356.221 5     -2564.468          35.000
C14  21801710.570 5 113527188.933 5       788.035          30.000    21801696.352 6  87786392.441 6       609.171          36.000
C24  25599376.438 6 133302669.155 6      3283.707          40.000
C26  23253047.828 6 121084722.954 6      1652.973          41.000
E04  26846727.852 5 141080502.313 5     -2301.500          35.000    26846721.688 5 108100626.012 5     -1763.409          33.000
E05  24717385.586 6 129890715.749 6      1539.844          38.000
E09  21653859.086 8 113791873.120 8      -680.504          51.000    21653860.359 8  87191190.743 8      -521.440          51.000
E36  24427829.617 8 128369108.251 8     -2091.348          49.000    24427829.172 8  98360755.419 8     -1602.527          51.000
> 2020 05 08 23 44  0.0000000  0 16        .000000000000
G04  20923373.281 8 109953084.888 8     -1751.961          51.000    20923373.453 8  85677772.190 8     -1365.164          51.000
G09  20311622.047 8 106738406.953 8       485.734          51.000    20311622.836 8  83172764.481 8       378.494          51.000
G19  24051388.383 7 126390888.792 7     -3038.332          44.000    24051386.766 7  98486372.155 7     -2367.531          43.000
R07  22065273.531 5 118117151.096 5     -2751.230          30.000
R09  21452256.852 4 114553853.253 4       394.496          28.000
R10  21638919.727 5 115347630.811 5      3062.375          33.000
R23  20542193.664 8 109886881.408 8     -2446.934          51.000    20542197.375 6  85467576.941 6     -1903.171          41.000
C11                                                                  25705724.422 5 103506313.454 5     -2564.888          34.000
C14                                                                  21797180.883 6  87768207.660 6       604.420          37.000
C24  25580466.031 6 133204194.476 6      3282.652          41.000
C26  23243566.727 6 121035357.694 6      1639.758          39.000
C28  24069503.102 5 125336232.046 5      -336.328          32.000
E04  26859872.367 6 141149572.249 6     -2301.652          37.000    26859869.953 5 108153549.818 5     -1763.697          35.000
E05  24708611.328 6 129844609.854 6      1535.266          37.000
E09  21657763.445 8 113812390.467 8      -685.738          51.000    21657764.539 8  87206911.825 8      -525.406          51.000
E36  24439801.398 8 128432029.862 8     -2101.895          48.000    24439803.867 8  98408968.141 8     -1610.513          51.000
> 2020 05 08 23 44 30.0000000  0 17        .000000000000
G04  20933393.531 8 110005742.340 8     -1766.172          51.000    20933393.898 8  85718803.988 8     -1376.238          51.000
G09  20308876.797 8 106723978.994 8       468.281          51.000    20308877.484 8  83161521.917 8       364.894          51.000
G19  24068742.320 7 126482084.560 7     -3049.043          45.000    24068741.977 7  98557433.842 7     -2375.875          43.000
R07  22080724.484 6 118199790.431 6     -2759.184          36.000
R09  21450114.789 6 114542419.851 6       364.066          37.000    21450107.539 4  89088533.861 4       283.163          27.000
R10  21621718.609 5 115255943.487 5      3041.988          33.000
R23  20555969.156 8 109960573.933 8     -2473.738          51.000    20555973.141 6  85524893.335 6     -1924.019          41.000
C11  25724822.492 5 133955902.883 5     -3321.547          30.000    25724823.047 5 103583221.831 5     -2568.543          35.000
C14                                                                  21792689.266 6  87750115.421 6       595.987          37.000
C21  24890728.719 5 129612563.253 5     -2418.758          30.000
C24  25561547.281 6 133105677.137 6      3277.473          41.000
C26  23234149.883 6 120986323.124 6      1621.727          40.000
C28  24071483.141 5 125346510.551 5      -356.711          31.000
E04  26873000.414 6 141218568.693 6     -2305.941          37.000
E05  24699850.258 5 129798573.708 5      1526.457          34.000    24699858.156 5  99456087.673 5      1168.949          32.000
E09  21661683.320 8 113832988.444 8      -695.246          51.000    21661684.242 8  87222694.680 8      -532.706          51.000
E36  24451820.094 8 128495191.589 8     -2116.605          51.000    24451824.609 8  98457364.826 8     -1621.850          51.000
> 2020 05 08 23 45  0.0000000  0 18        .000000000000
G04  20943517.039 8 110058942.613 8     -1767.973          51.000    20943517.742 8  85760258.758 8     -1377.641          51.000
G07  23275691.242 6 122314582.227 6      3219.207          39.000    23275686.211 6  95310041.022 6      2508.482          38.000
G09  20306253.148 8 106710191.793 8       463.461          51.000    20306253.703 8  83150778.643 8       361.138          51.000
G19  24086178.391 7 126573711.317 7     -3046.949          46.000    24086178.875 6  98628831.363 6     -2374.246          41.000
R07  22096207.883 5 118282686.152 5     -2754.281          31.000    22096204.086 5  91997661.455 5     -2142.213          30.000
R08  19748007.359 5 105749682.215 5      -468.250          32.000
R09  21448143.273 4 114531955.451 4       346.535          29.000    21448148.062 5  89080395.009 5       269.536          30.000
R10  21604658.547 5 115165009.425 5      3033.027          35.000
R23  20569916.648 8 110035185.938 8     -2487.566          51.000    20569921.008 6  85582924.871 6     -1934.774          41.000
C11                                                                  25743970.164 5 103660324.703 5     -2562.308          35.000
C14                                                                  21788280.898 5  87732361.155 5       597.615          35.000
C24  25542681.289 6 133007436.548 6      3284.543          41.000
C26  23224857.562 6 120937937.994 6      1616.473          40.000
C28  24073595.656 4 125357532.193 4      -365.172          28.000
E04  26886175.906 5 141287805.176 5     -2297.355          34.000
E05                                                                  24691169.336 5  99421111.832 5      1171.973          33.000
E09  21665679.359 8 113853986.416 8      -692.059          51.000    21665680.281 8  87238784.034 8      -530.294          51.000
E36  24463946.375 8 128558911.970 8     -2118.730          51.000    24463951.289 8  98506189.545 8     -1623.470          51.000
> 2020 05 08 23 45 30.0000000  0 14        .000000000000
G04  20953677.672 8 110112337.568 8     -1783.074          51.000    20953678.555 8  85801865.225 8     -1389.408          50.000
G07  23257372.750 6 122218311.956 6      3208.184          41.000    23257367.992 6  95235025.270 6      2499.886          39.000
G09  20303685.219 8 106696698.437 8       444.871          51.000    20303686.039 8  83140264.334 8       346.653          51.000
G19  24103630.031 7 126665419.309 7     -3058.379          47.000    24103630.664 6  98700292.182 6     -2383.152          40.000
R10  21587675.070 6 115074481.853 6      3010.488          40.000
R23  20583969.195 8 110110361.023 8     -2515.258          51.000    20583974.000 6  85641394.384 6     -1956.315          41.000
C11                                                                  25763100.008 5 103737354.586 5     -2566.479          35.000
C14  21783891.219 5 113434441.309 5       760.242          32.000    21783888.008 5  87714679.560 5       587.538          31.000
C24  25523802.609 6 132909131.808 6      3277.562          40.000
C26  23215625.062 6 120889860.688 6      1597.395          41.000
C28  24075782.977 5 125368913.781 5      -385.625          34.000
E05                                                                  24682491.438 5  99386169.049 5      1164.119          31.000
E09  21669685.352 8 113875037.392 8      -702.668          51.000    21669686.469 8  87254914.005 8      -538.423          51.000
E36  24476113.070 8 128622843.126 8     -2134.664          51.000    24476117.539 8  98555175.728 8     -1635.619          51.000
> 2020 05 08 23 46  0.0000000  0 14        .000000000000
G04  20963888.945 8 110165998.069 8     -1794.973          51.000    20963889.695 8  85843678.609 8     -1398.680          50.000
G07  23239080.438 6 122122183.840 6      3199.848          41.000    23239074.805 6  95160120.314 6      2493.391          40.000
G09  20301186.961 8 106683571.025 8       429.582          51.000    20301188.109 8  83130035.184 8       334.739          51.000
G19  24121110.258 7 126757277.722 7     -3066.266          46.000    24121110.336 6  98771870.178 6     -2389.298          41.000
R09  21444618.273 5 114513106.280 5       287.242          33.000    21444610.555 4  89065726.076 4       223.411          27.000
R10  21570783.695 6 114984438.232 6      2991.434          40.000
R23  20598140.070 8 110186169.570 8     -2539.398          51.000    20598145.367 6  85700356.588 6     -1975.088          40.000
C11                                                                  25782225.250 5 103814365.346 5     -2568.117          32.000
C14                                                                  21779525.266 5  87697126.403 5       581.494          31.000
C24  25504925.758 6 132810837.171 6      3274.551          40.000
C26  23206466.602 7 120842164.823 7      1581.531          43.000
C28  24078055.867 5 125380750.954 5      -403.848          33.000
E09  21673714.914 8 113896213.366 8      -709.859          51.000    21673716.320 8  87271139.753 8      -543.891          51.000
E36  24488333.266 8 128687056.131 8     -2147.121          51.000    24488336.930 8  98604377.863 8     -1645.161          51.000
> 2020 05 08 23 46 30.0000000  0 15        .000000000000
G04  20974170.648 8 110220028.420 8     -1805.938          51.000    20974171.273 8  85885780.178 8     -1407.224          49.000
G07  23220835.250 6 122026305.828 6      3193.137          40.000    23220828.523 6  95085410.243 6      2488.162          40.000
G09  20298778.594 8 106670915.032 8       415.121          51.000    20298779.562 8  83120173.375 8       323.471          51.000
G19  24138638.492 7 126849389.149 7     -3073.391          44.000    24138637.523 6  98843645.304 6     -2394.850          41.000
R09  21443071.109 5 114504893.763 5       260.984          35.000    21443075.414 5  89059294.512 5       202.985          30.000
R10  21554004.539 6 114894990.140 6      2972.980          39.000
R23  20612449.391 8 110262715.806 8     -2562.539          51.000    20612454.672 6  85759892.548 6     -1993.086          41.000
C11                                                                  25801365.141 5 103891436.120 5     -2569.243          32.000
C14                                                                  21775218.875 6  87679783.170 6       575.716          36.000
C21  24946530.992 4 129903133.151 4     -2427.855          28.000
C24  25486071.492 6 132712660.046 6      3271.844          40.000
C26  23197401.828 7 120794957.087 7      1566.547          44.000
C28  24080435.906 5 125393144.871 5      -420.992          33.000
E09  21677788.289 8 113917619.740 8      -716.090          51.000    21677789.812 8  87287542.040 8      -548.707          51.000
E36  24500626.797 8 128751655.422 8     -2158.477          51.000    24500629.547 8  98653875.992 8     -1653.937          51.000
> 2020 05 08 23 47  0.0000000  0 16        .000000000000
G04  20984505.633 8 110274338.693 8     -1811.082          51.000    20984506.180 8  85928099.882 8     -1411.233          48.000
G07  23202621.430 6 121930592.644 6      3191.594          41.000    23202616.102 6  95010828.604 6      2486.956          41.000
G09  20296443.195 8 106658641.853 8       406.617          51.000    20296444.016 8  83110609.857 8       316.845          51.000
G19  24156197.211 7 126941661.947 7     -3074.715          43.000    24156195.266 7  98915546.180 7     -2395.882          42.000
R07  22158234.766 5 118614765.535 5     -2769.660          32.000    22158233.766 4  92255924.289 4     -2154.180          27.000
R10  21537320.484 6 114806053.184 6      2959.930          38.000
R23  20626879.469 8 110339906.320 8     -2579.832          51.000    20626884.773 7  85819929.610 7     -2006.539          42.000
C11                                                                  25820503.148 5 103968497.570 5     -2565.588          33.000
C14  21770956.492 5 113367082.491 5       742.270          31.000    21770948.953 6  87662582.699 6       574.121          36.000
C21  24960514.117 5 129975961.862 5     -2424.340          30.000
C24  25467223.883 6 132614515.450 6      3274.988          40.000
C26  23188414.234 7 120748151.799 7      1557.293          45.000
C28  24082907.242 5 125406007.644 5      -433.004          32.000
E04  26938820.727 5 141564454.707 5     -2301.863          33.000    26938817.352 5 108471458.455 5     -1763.885          34.000
E09  21681888.719 8 113939167.803 8      -716.727          51.000    21681890.109 8  87304052.893 8      -549.222          51.000
E36  24512976.430 8 128816551.436 8     -2164.262          51.000    24512978.391 8  98703601.477 8     -1658.309          51.000
> 2020 05 08 23 47 30.0000000  0 15        .000000000000
G04  20994906.891 8 110328997.425 8     -1829.449          51.000    20994907.219 7  85970691.100 7     -1425.545          47.000
G07  23184453.078 7 121835116.486 7      3176.793          43.000    23184450.016 7  94936431.597 7      2475.423          43.000
G09  20294193.719 8 106646821.094 8       384.824          51.000    20294194.750 8  83101398.894 8       299.863          51.000
G19  24173799.352 7 127034162.806 7     -3088.848          43.000    24173796.656 7  98987624.753 7     -2406.897          42.000
R07  22173800.125 5 118698094.027 5     -2782.168          33.000
R09  21440438.742 5 114490781.441 5       205.703          31.000
R10  21520745.828 5 114717702.321 5      2933.457          35.000
R23  20641442.617 8 110417808.741 8     -2610.301          51.000    20641447.992 7  85880520.374 7     -2030.234          43.000
C11                                                                  25839652.367 5 104045601.380 5     -2571.971          33.000
C14  21766733.305 5 113345092.695 5       726.441          30.000    21766727.219 6  87645578.699 6       562.597          36.000
C24  25448396.039 6 132516475.257 6      3264.668          39.000
C26  23179517.391 7 120701820.128 7      1534.883          44.000
C28  24085481.680 5 125419407.781 5      -457.387          34.000
E09  21686029.414 8 113960927.111 8      -730.469          51.000    21686030.594 8  87320725.600 8      -559.698          51.000
E36  24525395.047 8 128881812.759 8     -2183.047          50.000    24525396.578 8  98753606.887 8     -1672.748          51.000
> 2020 05 08 23 48  0.0000000  0 17        .000000000000
G03  22904244.609 5 120362612.307 5     -2732.875          35.000    22904240.828 6  93789042.686 6     -2129.513          37.000
G04  21005361.375 8 110383936.055 8     -1838.188          51.000    21005361.516 7  86013500.414 7     -1432.354          45.000
G07  23166318.102 7 121739813.506 7      3171.734          45.000    23166316.320 7  94862169.521 7      2471.481          45.000
G09  20292017.570 8 106635385.462 8       372.590          51.000    20292018.609 8  83092488.018 8       290.330          51.000
G19  24191431.953 7 127126821.810 7     -3093.473          45.000    24191428.719 7  99059826.545 7     -2410.498          43.000
R07  22189383.648 5 118781500.296 5     -2784.203          31.000
R08  19764967.781 5 105840551.284 5      -536.973          35.000    19764978.047 4  82320437.857 4      -417.639          29.000
R09  21439334.453 5 114484922.544 5       180.930          32.000
R10  21504269.500 6 114629873.674 6      2916.973          36.000
R23  20656124.891 8 110496351.367 8     -2630.906          49.000    20656130.641 7  85941609.093 7     -2046.257          42.000
C11                                                                  25858800.125 4 104122694.549 4     -2570.932          29.000
C14                                                                  21762538.453 4  87628726.328 4       558.178          27.000
C24  25429575.852 6 132418475.567 6      3263.941          38.000
C26  23170698.562 6 120655897.543 6      1521.629          41.000
E04  26965170.695 5 141702927.137 5     -2309.230          35.000    26965169.750 5 108577565.346 5     -1769.575          34.000
E09  21690197.367 8 113982830.240 8      -734.691          51.000    21690198.578 8  87337508.520 8      -562.939          51.000
E36  24537869.461 8 128947371.046 8     -2192.391          49.000    24537871.109 8  98803839.872 8     -1679.890          51.000
> 2020 05 08 23 48 30.0000000  0 17        .000000000000
G04  21015882.211 8 110439223.511 8     -1844.816          51.000    21015882.164 7  86056581.548 7     -1437.519          45.000
G07  23148229.945 7 121644756.188 7      3168.211          47.000    23148228.938 7  94788098.881 7      2468.736          47.000
G09  20289928.141 8 106624405.073 8       362.230          51.000    20289929.078 8  83083931.879 8       282.258          51.000
G19  24209107.570 7 127219705.868 7     -3096.066          46.000    24209103.742 7  99132203.693 7     -2412.519          42.000
R08  19768006.672 5 105856809.643 5      -543.926          31.000    19768003.914 4  82333083.210 4      -423.056          27.000
R09  21438391.148 5 114479899.823 5       157.656          34.000
R10  21487905.523 5 114542644.039 5      2901.316          32.000
R23  20670939.203 8 110575602.262 8     -2649.574          51.000    20670945.680 7  86003248.662 7     -2060.780          42.000
C11                                                                  25877957.805 5 104199829.253 5     -2568.826          33.000
C14  21758407.859 5 113301744.262 5       717.910          31.000    21758398.992 5  87612067.861 5       554.433          32.000
C24  25410778.070 6 132320588.787 6      3264.840          36.000
C26  23161970.453 6 120610455.623 6      1510.641          37.000
C28  24090905.039 5 125447681.199 5      -485.543          34.000
E04  26978356.469 5 141772221.977 5     -2307.062          30.000
E05  24631071.180 5 129437155.834 5      1486.891          30.000    24631075.531 6  99179126.415 6      1139.036          37.000
E09  21694406.016 8 114004947.289 8      -736.949          51.000    21694407.398 8  87354455.344 8      -564.657          51.000
E36  24550413.141 8 129013295.504 8     -2199.801          48.000    24550416.047 8  98854353.408 8     -1685.478          51.000
> 2020 05 08 23 49  0.0000000  0 17        .000000000000
G04  21026451.547 8 110494765.844 8     -1853.488          51.000    21026451.148 7  86099861.300 7     -1444.277          44.000
G07  23130171.305 8 121549854.756 8      3162.922          48.000    23130170.703 8  94714149.715 8      2464.614          48.000
G09  20287907.594 8 106613787.151 8       350.004          51.000    20287908.594 8  83075658.191 8       272.730          51.000
G19  24226807.789 7 127312719.411 7     -3100.344          46.000    24226803.688 7  99204681.744 7     -2415.855          43.000
R07  22220611.914 4 118948679.362 4     -2785.301          28.000
R08  19771088.164 5 105873319.039 5      -552.125          33.000    19771083.438 4  82345871.706 4      -429.434          29.000
R09  21437598.086 5 114475579.511 5       132.055          30.000
R10  21471636.297 5 114455923.165 5      2884.203          34.000
R23  20685869.203 8 110655464.200 8     -2670.031          51.000    20685875.734 7  86065363.470 7     -2076.694          43.000
C11                                                                  25897107.758 5 104276932.860 5     -2568.204          32.000
C14                                                                  21754294.609 5  87595538.977 5       550.340          35.000
C24  25391985.953 5 132222725.834 5      3263.773          35.000
C26  23153318.727 7 120565404.628 7      1497.312          43.000
C28  24093761.203 5 125462539.429 5      -501.254          32.000
E05                                                                  24622613.836 6  99145051.127 6      1135.939          37.000
E09  21698637.805 8 114027185.408 8      -741.145          51.000    21698639.344 8  87371494.948 8      -567.902          51.000
E36  24563009.234 8 129079492.306 8     -2208.930          49.000    24563013.539 8  98905075.649 8     -1692.619          51.000
> 2020 05 08 23 49 30.0000000  0 15        .000000000000
G04  21037084.148 8 110550640.539 8     -1866.977          50.000    21037083.570 7  86143400.024 7     -1454.787          44.000
G07  23112157.500 8 121455191.096 8      3152.480          48.000    23112157.352 8  94640385.817 8      2456.478          48.000
G09  20285971.000 8 106603610.331 8       332.852          51.000    20285972.070 8  83067728.204 8       259.365          51.000
G19  24244546.922 7 127405938.357 7     -3109.711          44.000    24244542.906 7  99277319.852 7     -2423.151          43.000
R08  19774233.078 5 105890159.192 5      -565.492          33.000    19774229.922 5  82358969.658 5      -439.824          31.000
R10  21455479.875 5 114369795.967 5      2861.836          34.000
R23  20700927.688 8 110736013.581 8     -2695.387          50.000    20700934.383 7  86128013.019 7     -2096.409          42.000
C11                                                                  25916264.531 5 104354056.978 5     -2570.575          30.000
C14  21750239.789 5 113259203.315 5       701.223          31.000    21750238.445 6  87579200.386 6       542.091          38.000
C24  25373214.180 6 132124967.555 6      3257.871          37.000
C26  23144758.305 7 120520824.421 7      1479.184          44.000
C28  24096717.305 5 125477922.874 5      -520.449          31.000
E05                                                                  24614189.797 6  99111124.245 6      1129.216          37.000
E09  21702907.625 8 114049623.180 8      -750.227          51.000    21702909.344 8  87388687.538 8      -574.870          51.000
E36  24575672.625 8 129146039.116 8     -2222.988          50.000    24575678.086 8  98956066.056 8     -1703.362          51.000
> 2020 05 08 23 50  0.0000000  0 16        .000000000000
G04  21047769.086 8 110606790.075 8     -1876.742          50.000    21047768.875 7  86187152.901 7     -1462.397          45.000
G07  23094178.406 8 121360711.188 8      3145.770          48.000    23094178.664 8  94566765.099 8      2451.249          48.000
G09  20284107.562 8 106593818.224 8       319.402          51.000    20284108.586 8  83060098.000 8       248.888          51.000
G19  24262313.500 7 127499303.292 7     -3115.148          43.000    24262309.727 7  99350071.753 7     -2427.388          43.000
R07  22251915.773 4 119116246.466 4     -2796.855          28.000
R08  19777427.000 5 105907273.530 5      -575.727          34.000    19777427.477 5  82372280.795 5      -447.784          33.000
R09  21436469.688 6 114469507.382 6        76.078          36.000    21436481.766 4  89031919.334 4        59.181          25.000
R10  21439424.016 4 114284209.722 4      2842.949          28.000
R23  20716102.641 8 110817189.794 8     -2716.793          50.000    20716109.141 6  86191150.086 6     -2113.061          41.000
C14  21746222.477 5 113238265.038 5       694.723          32.000    21746219.008 6  87563009.578 6       536.980          37.000
C24  25354452.055 6 132027261.096 6      3255.320          39.000
C26  23136277.852 7 120476661.371 7      1464.504          46.000
C28  24099762.953 5 125493785.767 5      -536.730          31.000
E05                                                                  24605792.539 6  99077303.051 6      1124.861          37.000
E09  21707204.680 8 114072204.278 8      -755.637          51.000    21707206.523 8  87405989.940 8      -578.997          51.000
E36  24588392.383 8 129212878.572 8     -2233.379          51.000    24588398.203 8  99007280.702 8     -1711.290          51.000
> 2020 05 08 23 50 30.0000000  0 15        .000000000000
G03  22982670.555 5 120774751.809 5     -2763.168          34.000    22982677.523 5  94110221.312 5     -2153.115          34.000
G04  21058514.992 8 110663260.135 8     -1885.848          49.000    21058515.281 7  86231155.571 7     -1469.492          45.000
G07  23076243.469 8 121266465.249 8      3139.355          48.000    23076244.117 8  94493326.693 8      2446.248          48.000
G09  20282326.281 8 106584457.710 8       306.633          51.000    20282327.148 8  83052804.104 8       238.935          51.000
G19  24280116.203 7 127592858.624 7     -3119.992          43.000    24280112.430 7  99422972.014 7     -2431.163          42.000
R08  19780681.672 6 105924709.497 6      -584.602          36.000    19780683.641 5  82385842.132 5      -454.693          33.000
R09  21436121.102 5 114467636.430 5        50.484          33.000    21436131.875 5  89030449.339 5        39.266          32.000
R23  20731403.703 8 110899037.372 8     -2737.648          51.000    20731408.289 6  86254809.260 6     -2129.282          40.000
C14  21742249.055 6 113217565.244 6       687.781          36.000    21742244.766 6  87547003.178 6       532.014          39.000
C24  25335708.445 6 131929655.694 6      3253.480          40.000
C26  23127887.023 7 120432964.029 7      1450.570          45.000
C28  24102907.984 5 125510153.924 5      -552.359          32.000
E05                                                                  24597430.094 5  99043623.677 5      1121.401          34.000
E09  21711537.820 8 114094975.509 8      -760.348          51.000    21711539.844 8  87423438.028 8      -582.601          51.000
E36  24601176.656 8 129280056.523 8     -2243.059          51.000    24601182.273 8  99058754.722 8     -1718.716          51.000
> 2020 05 08 23 51  0.0000000  0 14        .000000000000
G03  22998474.391 5 120857789.213 5     -2772.508          33.000    22998477.898 5  94174921.454 5     -2160.405          31.000
G04  21069322.086 8 110720051.611 8     -1898.281          50.000    21069322.352 7  86275408.675 7     -1479.180          45.000
G07  23058354.078 8 121172457.789 8      3129.672          48.000    23058354.641 8  94420074.119 8      2438.705          48.000
G09  20280627.656 8 106575530.757 8       290.492          51.000    20280628.398 8  83045848.042 8       226.358          51.000
G19  24297954.984 7 127686603.217 7     -3128.062          44.000    24297950.672 6  99496019.743 6     -2437.451          40.000
R08  19783998.750 5 105942469.934 5      -596.879          35.000    19784000.016 5  82399655.752 5      -464.239          32.000
R09  21435925.867 5 114466584.821 5        21.488          35.000    21435928.188 5  89029631.380 5        16.710          32.000
R23  20746829.383 8 110981554.902 8     -2761.629          50.000    20746834.055 7  86318989.545 7     -2147.934          42.000
C14  21738320.844 6 113197106.673 6       677.734          36.000    21738316.289 6  87531183.309 6       524.421          37.000
C24  25316983.805 6 131832156.303 6      3248.301          39.000
C26  23119585.828 7 120389736.395 7      1433.152          44.000
E05  24589097.531 5 129216579.664 5      1456.480          32.000    24589102.570 5  99010126.000 5      1115.292          32.000
E09  21715907.477 8 114117938.849 8      -768.473          51.000    21715909.828 8  87441033.323 8      -588.842          51.000
E36  24614025.422 8 129347573.945 8     -2256.125          51.000    24614030.531 8  99110488.853 8     -1728.701          51.000
> 2020 05 08 23 51 30.0000000  0 13        .000000000000
G04  21080164.805 8 110777029.961 8     -1907.301          49.000    21080164.727 7  86319807.388 7     -1486.208          45.000
G07  23040485.914 8 121078558.929 8      3123.180          50.000    23040485.773 8  94346906.196 8      2433.650          50.000
G09  20278986.086 8 106566903.988 8       277.535          51.000    20278986.797 8  83039125.886 8       216.261          51.000
G19  24315803.945 7 127780400.835 7     -3132.387          43.000    24315799.203 6  99569108.772 6     -2440.821          39.000
R09  21435859.680 5 114466218.068 5        -4.000          33.000    21435850.914 4  89029345.838 4        -3.123          27.000
R23  20762353.898 8 111064603.338 8     -2782.078          50.000    20762359.820 7  86383582.810 7     -2163.836          42.000
C14  21734413.375 6 113176758.024 6       671.773          37.000    21734408.852 6  87515448.496 6       519.307          39.000
C24  25298254.109 6 131734633.689 6      3246.078          39.000
C26  23111349.375 6 120346848.502 6      1419.184          41.000
C28  24109464.625 4 125544317.405 4      -587.051          28.000
E05                                                                  24580785.391 5  98976636.250 5      1112.006          32.000
E09  21720288.422 8 114140960.926 8      -773.281          51.000    21720291.023 8  87458673.623 8      -592.532          51.000
E36  24626912.750 8 129415296.457 8     -2265.750          51.000    24626917.734 8  99162380.128 8     -1736.064          51.000
> 2020 05 08 23 52  0.0000000  0 12        .000000000000
G04  21091101.414 8 110834501.647 8     -1915.500          49.000    21091101.227 7  86364590.515 7     -1492.597          46.000
G07  23022697.555 8 120985078.853 8      3117.328          50.000    23022696.516 8  94274064.629 8      2429.090          50.000
G09  20277460.117 8 106558885.024 8       265.500          51.000    20277460.797 8  83032877.333 8       206.883          51.000
G19  24333721.242 7 127874556.047 7     -3136.016          43.000    24333716.141 6  99642476.424 6     -2443.649          39.000
R23  20778036.164 8 111148492.190 8     -2801.773          51.000    20778041.906 6  86448829.698 6     -2179.157          41.000
C14  21730585.602 5 113156824.982 5       665.629          35.000    21730581.352 6  87500034.964 6       514.903          39.000
C21  25101331.227 5 130709222.263 5     -2457.117          30.000
C24  25279579.117 6 131637395.591 6      3244.875          39.000
C26  23103236.312 6 120304607.143 6      1405.484          39.000
C28  24112909.555 5 125562276.470 5      -601.570          33.000
E09  21724739.156 8 114164349.329 8      -777.242          51.000    21724741.789 8  87476594.609 8      -595.561          51.000
E36  24639896.898 8 129483530.614 8     -2274.473          51.000    24639902.328 8  99214663.435 8     -1742.775          51.000
> 2020 05 08 23 52 30.0000000  0 15        .000000000000
G04  21102064.711 8 110892114.461 8     -1925.961          49.000    21102064.875 7  86409483.631 7     -1500.749          46.000
G07  23004922.383 8 120891669.412 8      3109.223          49.000    23004920.805 8  94201278.109 8      2422.771          49.000
G09  20275983.000 8 106551122.742 8       251.234          51.000    20275983.539 8  83026828.795 8       195.767          51.000
G19  24351639.398 6 127968715.132 6     -3141.879          40.000    24351634.289 6  99715847.123 6     -2448.217          37.000
R07  22330526.383 5 119537019.372 5     -2812.723          30.000    22330518.938 4  92973228.153 4     -2187.670          28.000
R09  21436202.047 5 114468103.091 5       -56.457          32.000    21436205.586 5  89030749.394 5       -43.911          33.000
R10  21360795.523 6 113865065.220 6      2746.359          37.000
R23  20793807.953 8 111232861.156 8     -2823.504          49.000    20793813.180 6  86514449.935 6     -2196.062          40.000
C14  21726769.617 5 113136960.438 5       657.887          35.000    21726766.953 6  87484674.515 6       508.662          39.000
C21  25115496.625 4 130782964.361 4     -2460.754          27.000
C24  25260892.047 6 131540097.090 6      3241.195          36.000
C26  23095180.617 6 120262666.624 6      1389.938          37.000
C28  24116419.500 5 125580576.303 5      -618.434          31.000
E09  21729192.789 8 114187753.050 8      -783.645          51.000    21729195.289 8  87494527.321 8      -600.437          51.000
E36  24652911.078 8 129551924.364 8     -2285.738          51.000    24652916.914 8  99267069.048 8     -1751.386          51.000
> 2020 05 08 23 53  0.0000000  0 13        .000000000000
G04  21113108.867 8 110950151.894 8     -1936.586          50.000    21113109.117 7  86454707.599 7     -1509.028          46.000
G07  22987214.805 8 120798617.573 8      3100.910          49.000    22987213.438 8  94128770.203 8      2416.294          49.000
G09  20274608.875 8 106543901.648 8       236.828          51.000    20274609.367 8  83021201.973 8       184.541          51.000
G19  24369611.352 5 128063160.127 5     -3148.301          35.000    24369607.211 5  99789440.644 5     -2453.224          34.000
R08  19797821.484 5 106016443.841 5      -635.859          34.000    19797825.414 5  82457240.566 5      -494.554          34.000
R10  21345417.875 6 113783090.218 6      2725.773          37.000
R23  20809722.828 8 111317996.216 8     -2845.301          50.000    20809728.422 6  86580666.110 6     -2213.009          41.000
C14  21723021.398 5 113117447.373 5       649.680          35.000    21723019.695 6  87469585.782 6       502.229          39.000
C24  25242246.258 5 131443023.131 5      3236.867          33.000
C26  23087236.539 6 120221310.856 6      1373.688          37.000
C28  24120049.391 5 125599498.551 5      -636.008          33.000
E09  21733703.406 8 114211456.578 8      -789.930          51.000    21733705.781 8  87512689.764 8      -605.337          51.000
E36  24666009.977 8 129620761.177 8     -2296.879          51.000    24666015.391 8  99319814.150 8     -1759.904          51.000
> 2020 05 08 23 53 30.0000000  0 15        .000000000000
G04  21124176.969 8 111008314.562 8     -1945.406          51.000    21124176.812 7  86500029.143 7     -1515.901          46.000
G07  22969519.062 8 120705629.051 8      3094.039          49.000    22969518.297 8  94056311.612 8      2410.940          49.000
G09  20273280.930 8 106536923.528 8       223.926          51.000    20273281.656 8  83015764.483 8       174.488          51.000
G19  24387579.461 5 128157594.716 5     -3151.527          30.000    24387577.141 4  99863022.187 4     -2455.736          29.000
R08  19801399.734 6 106035603.016 6      -645.465          36.000    19801406.148 5  82472142.209 5      -502.028          34.000
R09  21437145.516 6 114473138.539 6      -109.973          38.000    21437136.547 5  89034620.266 5       -85.537          30.000
R10  21330118.117 6 113701544.925 6      2706.465          40.000
R23  20825724.352 8 111403590.248 8     -2865.473          51.000    20825729.891 6  86647239.282 6     -2228.701          40.000
C14  21719284.547 6 113097990.987 6       643.258          38.000    21719282.836 6  87454540.878 6       497.205          40.000
C21  25143884.078 5 130930782.283 5     -2466.215          31.000
C24  25223588.602 5 131345881.010 5      3234.945          35.000
C26  23079350.070 6 120180246.270 6      1359.395          40.000
C28  24123744.680 5 125618747.410 5      -650.984          32.000
E09  21738214.336 8 114235161.766 8      -794.773          51.000    21738216.617 8  87530853.464 8      -608.982          51.000
E36  24679137.000 8 129689741.888 8     -2306.328          51.000    24679140.984 8  99372669.490 8     -1767.169          51.000
> 2020 05 08 23 54  0.0000000  0 14        .000000000000
G04  21135319.258 8 111066867.301 8     -1955.730          51.000    21135318.859 7  86545654.646 7     -1523.946          47.000
G07  22951886.578 8 120612972.291 8      3085.562          49.000    22951886.359 8  93984111.543 8      2404.334          50.000
G09  20272049.898 8 106530454.313 8       209.676          51.000    20272050.633 8  83010723.528 8       163.384          51.000
G19  24405595.219 5 128252271.924 5     -3157.234          32.000    24405593.547 5  99936796.666 5     -2460.180          33.000
R08  19805054.773 5 106055163.818 5      -655.930          35.000    19805055.773 5  82487356.124 5      -510.171          32.000
R10  21314952.312 6 113620703.500 6      2685.828          40.000
R23  20841861.844 8 111489910.865 8     -2886.914          50.000    20841866.375 6  86714377.531 6     -2245.378          39.000
C14  21715609.719 6 113078855.846 6       634.973          36.000    21715607.523 6  87439744.359 6       490.862          39.000
C21  25158106.633 5 131004842.990 5     -2469.422          30.000
C24  25204971.953 6 131248937.380 6      3230.664          37.000
C26  23071571.219 6 120139738.500 6      1343.477          41.000
C28  24127554.914 5 125638586.373 5      -668.898          35.000
E09  21742776.203 8 114259134.578 8      -801.027          51.000    21742778.492 8  87549222.238 8      -613.756          51.000
E36  24692342.195 8 129759131.408 8     -2317.234          51.000    24692344.406 8  99425838.066 8     -1775.501          51.000
> 2020 05 08 23 54 30.0000000  0 14        .000000000000
G04  21146521.711 8 111125736.562 8     -1965.664          51.000    21146521.453 7  86591526.791 7     -1531.686          47.000
G07  22934304.469 8 120520577.721 8      3077.391          51.000    22934304.453 8  93912115.778 8      2397.967          51.000
G09  20270901.844 8 106524421.457 8       195.730          51.000    20270902.445 8  83006022.602 8       152.520          51.000
G19  24423644.836 6 128347122.084 6     -3162.332          36.000    24423643.008 5 100010705.854 5     -2464.155          33.000
R08  19808769.297 5 106075052.279 5      -666.477          34.000    19808760.672 4  82502824.884 4      -518.371          28.000
R09  21438697.781 6 114481410.717 6      -164.133          36.000    21438693.844 5  89041064.319 5      -127.662          33.000
R10  21299906.414 6 113540497.982 6      2664.660          36.000
R23  20858119.094 8 111576880.641 8     -2907.762          48.000    20858124.047 6  86782020.696 6     -2261.595          39.000
C14  21711982.789 6 113059970.918 6       627.570          36.000    21711980.109 6  87425141.349 6       485.422          37.000
C24  25186381.219 6 131152123.214 6      3226.926          39.000
C26  23063886.266 7 120099717.800 7      1327.762          42.000
C28  24131466.000 6 125658942.803 6      -685.527          36.000
E09  21747375.234 8 114283302.591 8      -806.871          51.000    21747377.539 8  87567740.580 8      -618.225          51.000
E36  24705611.109 8 129828856.238 8     -2327.762          51.000    24705612.133 8  99479263.559 8     -1783.544          51.000
> 2020 05 08 23 55  0.0000000  0 13        .000000000000
G04  21157766.266 8 111184827.557 8     -1974.234          51.000    21157766.398 7  86637571.722 7     -1538.364          47.000
G07  22916755.422 8 120428354.384 8      3070.457          51.000    22916754.766 8  93840253.466 8      2392.567          51.000
G09  20269819.016 8 106518731.327 8       183.141          51.000    20269819.680 8  83001588.732 8       142.707          51.000
G19  24441709.172 6 128442048.731 6     -3166.137          39.000    24441706.867 5 100084674.514 5     -2467.129          32.000
R08  19812523.961 5 106095174.151 5      -675.527          35.000    19812517.266 5  82518442.230 5      -525.410          31.000
R09  21439678.781 5 114486710.104 5      -189.531          31.000    21439693.695 5  89045186.305 5      -147.407          33.000
R23  20874479.383 8 111664400.904 8     -2927.309          50.000    20874485.211 6  86850092.005 6     -2276.796          39.000
C14  21708385.469 5 113041244.374 5       621.223          33.000    21708382.914 6  87410660.734 6       479.967          36.000
C24  25167798.672 6 131055348.747 6      3224.215          40.000
C26  23056277.062 6 120060093.325 6      1313.535          41.000
C28  24135461.188 5 125679723.663 5      -700.258          35.000
E09  21751993.656 8 114307572.177 8      -811.445          51.000    21751995.789 8  87586336.754 8      -621.766          51.000
E36  24718925.445 8 129898821.646 8     -2336.992          51.000    24718926.117 8  99532873.408 8     -1790.664          51.000
> 2020 05 08 23 55 30.0000000  0 14        .000000000000
G04  21169045.719 8 111244102.127 8     -1977.129          51.000    21169046.117 7  86683759.697 7     -1540.623          47.000
G07  22899232.672 8 120336268.165 8      3068.926          51.000    22899230.453 8  93768498.018 8      2391.371          51.000
G09  20268794.258 8 106513346.747 8       176.121          51.000    20268795.047 8  82997392.966 8       137.237          51.000
G19  24459780.500 6 128537011.394 6     -3164.324          40.000    24459777.094 4 100158671.415 4     -2465.704          28.000
R07  22425477.695 5 120045283.191 5     -2826.797          32.000
R08  19816315.203 5 106115491.102 5      -679.070          35.000    19816317.312 5  82534244.334 5      -528.169          33.000
R09  21440801.117 6 114492706.285 6      -209.398          37.000    21440831.234 4  89049971.998 4      -162.844          27.000
R23  20890936.531 8 111752430.507 8     -2940.980          51.000    20890941.555 6  86918559.456 6     -2287.432          40.000
C14  21704809.992 5 113022640.272 5       620.191          30.000    21704809.539 6  87396274.837 6       479.351          37.000
C24  25149217.289 6 130958580.209 6      3227.176          41.000
C26  23048736.984 6 120020830.317 6      1304.570          41.000
C28  24139533.258 5 125700891.838 5      -710.449          33.000
E09  21756624.359 8 114331906.286 8      -810.379          51.000    21756626.195 8  87604982.364 8      -620.901          51.000
E36  24732277.812 8 129968989.513 8     -2340.570          51.000    24732279.047 8  99586638.388 8     -1793.397          51.000
> 2020 05 08 23 56  0.0000000  0 15        .000000000000
G03  23158447.203 5 121698460.508 5     -2838.125          32.000
G04  21180419.141 8 111303870.202 8     -1998.906          51.000    21180419.516 7  86730332.220 7     -1557.589          47.000
G07  22881795.742 8 120244633.307 8      3048.328          51.000    22881792.023 8  93697094.289 8      2375.321          51.000
G09  20267886.828 8 106508578.680 8       150.172          51.000    20267887.609 8  82993677.591 8       117.017          51.000
G19  24477917.523 7 128632318.552 7     -3181.098          42.000    24477912.648 4 100232936.626 4     -2478.777          27.000
R08  19820203.594 5 106136320.516 5      -701.219          35.000    19820209.180 5  82550444.985 5      -545.392          34.000
R09  21442113.164 6 114499715.856 6      -249.062          37.000    21442146.531 5  89055423.816 5      -193.706          34.000
R23  20907547.031 8 111841282.235 8     -2973.953          50.000    20907551.336 6  86987666.352 6     -2313.072          40.000
C14                                                                  21701319.500 6  87382222.613 6       463.759          38.000
C24  25130696.531 6 130862128.718 6      3211.152          37.000
C26  23041326.180 6 119982238.957 6      1276.922          41.000
C28  24143733.375 5 125722754.994 5      -739.188          33.000
E05  24507497.953 5 128787770.805 5      1396.461          32.000    24507502.078 5  98681543.173 5      1070.270          33.000
E09  21761326.523 8 114356615.992 8      -828.457          51.000    21761328.102 8  87623915.773 8      -634.789          51.000
E36  24745727.219 8 130039669.776 8     -2363.031          51.000    24745729.703 8  99640795.996 8     -1810.652          51.000
> 2020 05 08 23 56 30.0000000  0 16        .000000000000
G04  21191796.656 8 111363659.550 8     -2000.465          51.000    21191796.914 7  86776921.315 7     -1558.804          46.000
G07  22864355.227 8 120152981.380 8      3048.230          51.000    22864351.094 8  93625677.231 8      2375.245          51.000
G09  20267007.094 8 106503955.932 8       144.617          51.000    20267007.969 8  82990075.457 8       112.689          51.000
G19  24496029.664 6 128727496.482 6     -3177.586          41.000    24496024.133 4 100307123.265 4     -2476.035          26.000
R08  19824098.602 5 106157182.305 5      -703.293          34.000    19824103.766 5  82566670.805 5      -547.006          33.000
R09  21443526.344 4 114507260.769 4      -268.465          29.000    21443556.438 5  89061292.116 5      -208.806          34.000
R23  20924220.211 8 111930473.261 8     -2985.883          51.000    20924224.648 6  87057037.144 6     -2322.353          40.000
C14  21697824.438 5 112986261.666 5       600.703          34.000    21697823.094 6  87368143.828 6       464.191          37.000
C21  25229426.867 4 131376237.282 4     -2481.258          28.000
C24  25112148.258 5 130765530.344 5      3215.141          34.000
C26  23033954.750 6 119943854.362 6      1268.859          39.000
C28  24147975.781 6 125744845.656 6      -747.340          36.000
E04  27189662.227 5 142882640.362 5     -2315.500          34.000
E05                                                                  24499482.742 5  98649257.394 5      1071.925          35.000
E09  21766010.453 8 114381230.175 8      -825.949          51.000    21766012.055 8  87642775.991 8      -632.891          51.000
E36  24759183.984 8 130110390.226 8     -2365.047          50.000    24759188.039 8  99694984.411 8     -1812.185          51.000
> 2020 05 08 23 57  0.0000000  0 17        .000000000000
G04  21203259.039 8 111423894.352 8     -2013.262          50.000    21203259.070 7  86823857.520 7     -1568.775          46.000
G07  22846992.547 8 120061740.752 8      3036.453          50.000    22846989.070 8  93554580.626 8      2366.067          50.000
G09  20266235.953 8 106499903.758 8       127.555          51.000    20266237.008 8  82986917.927 8        99.393          51.000
G19  24514197.375 6 128822967.221 6     -3185.434          41.000    24514191.102 4 100381516.016 4     -2482.156          29.000
R07  22473197.047 5 120300804.778 5     -2845.062          34.000
R08  19828080.633 5 106178510.041 5      -716.621          35.000    19828085.758 5  82583259.028 5      -557.375          33.000
R09  21445152.383 6 114515910.986 6      -298.102          38.000    21445115.445 4  89067796.834 4      -231.866          28.000
R10  21226326.781 5 113148318.225 5      2560.984          32.000
R23  20941037.461 8 112020432.900 8     -3009.422          51.000    20941042.062 6  87127005.725 6     -2340.661          40.000
C14  21694402.688 6 112968442.627 6       589.676          36.000    21694401.305 6  87354364.966 6       455.576          39.000
C24  25093654.633 5 130669209.559 5      3207.781          35.000
C26  23026704.266 6 119906099.820 6      1250.160          40.000
C28  24152342.031 5 125767584.980 5      -767.062          32.000
E04  27202896.125 5 142952185.663 5     -2319.574          33.000    27202892.953 5 109534776.634 5     -1777.324          34.000
E05                                                                  24491524.383 5  98617224.983 5      1064.637          34.000
E09  21770757.070 8 114406174.245 8      -835.039          51.000    21770758.969 8  87661888.972 8      -639.868          51.000
E36  24772729.172 8 130181575.145 8     -2378.641          51.000    24772734.367 8  99749528.698 8     -1822.586          51.000
> 2020 05 08 23 57 30.0000000  0 15        .000000000000
G04  21214779.398 8 111484434.311 8     -2022.055          50.000    21214779.391 7  86871031.512 7     -1575.627          45.000
G07  22829681.938 8 119970774.621 8      3028.621          50.000    22829679.516 8  93483697.904 8      2359.964          50.000
G09  20265546.906 8 106496282.831 8       114.320          51.000    20265547.906 8  82984096.426 8        89.081          51.000
G19  24532393.703 6 128918589.547 6     -3188.734          39.000    24532386.969 5 100456026.820 5     -2484.740          30.000
R08  19832124.320 6 106200162.049 6      -726.293          37.000    19832129.344 5  82600099.507 5      -564.891          34.000
R10  21211971.398 5 113071810.881 5      2540.777          32.000
R23  20957971.430 8 112111015.757 8     -3028.844          51.000    20957975.656 6  87197459.056 6     -2355.767          39.000
C14  21691028.883 6 112950874.415 6       582.246          38.000    21691028.023 6  87340780.072 6       450.363          41.000
C24  25075185.055 5 130573031.359 5      3204.328          33.000
C26  23019548.703 6 119868839.394 6      1234.551          40.000
C28  24156806.562 5 125790834.364 5      -782.543          34.000
E04                                                                  27216137.125 6 109588099.315 6     -1777.396          37.000
E05  24483609.602 5 128662235.161 5      1384.832          35.000    24483605.641 5  98585339.624 5      1061.012          34.000
E09  21775540.023 8 114431308.954 8      -840.004          51.000    21775542.117 8  87681148.029 8      -643.648          51.000
E36  24786336.672 8 130253084.171 8     -2388.074          51.000    24786341.961 8  99804321.332 8     -1829.832          51.000
> 2020 05 08 23 58  0.0000000  0 15        .000000000000
G04  21226347.273 8 111545224.071 8     -2030.902          51.000    21226347.289 7  86918400.144 7     -1582.521          44.000
G07  22812413.969 8 119880031.497 8      3020.652          51.000    22812412.219 8  93412988.973 8      2353.755          51.000
G09  20264929.594 8 106493038.750 8       101.512          51.000    20264930.430 8  82981568.582 8        79.100          51.000
G19  24550607.773 6 129014305.949 6     -3192.719          37.000    24550601.648 5 100530610.973 5     -2487.842          33.000
R08  19836219.039 6 106222083.442 6      -735.633          37.000    19836223.633 5  82617149.465 5      -572.162          33.000
R10  21197728.570 6 112995910.441 6      2519.750          38.000
R23  20975010.938 8 112202162.941 8     -3047.949          51.000    20975013.844 6  87268351.302 6     -2370.630          38.000
C14  21687693.461 6 112933504.126 6       574.992          38.000    21687692.984 6  87327348.218 6       444.995          41.000
C24  25056729.367 6 130476945.013 6      3200.691          36.000
C26  23012478.156 6 119832021.094 6      1219.391          40.000
C28  24161358.727 5 125814539.562 5      -797.793          32.000
E04                                                                  27229376.898 6 109641412.457 6     -1777.091          39.000
E05                                                                  24475714.375 5  98553560.180 5      1057.391          34.000
E09  21780349.031 8 114456580.114 8      -844.969          51.000    21780351.047 8  87700511.637 8      -647.441          51.000
E36  24799996.000 8 130324861.982 8     -2397.488          51.000    24800000.539 8  99859319.913 8     -1836.989          51.000
> 2020 05 08 23 58 30.0000000  0 17        .000000000000
G04  21237964.234 8 111606271.651 8     -2037.566          50.000    21237964.156 7  86965969.678 7     -1587.714          44.000
G06  21087901.523 5 110817685.215 5       409.938          35.000    21087903.891 5  86351425.016 5       319.432          34.000
G07  22795191.141 8 119789524.101 8      3014.508          51.000    22795189.500 8  93342463.735 8      2348.970          51.000
G09  20264385.758 8 106490180.611 8        90.473          51.000    20264386.516 8  82979341.465 8        70.498          51.000
G19  24568840.602 5 129110122.525 5     -3193.906          32.000    24568835.148 5 100605273.300 5     -2488.755          31.000
R08  19840366.438 6 106244283.832 6      -742.871          39.000    19840368.430 5  82634416.445 5      -577.789          32.000
R09  21450832.703 6 114546232.814 6      -374.449          37.000    21450816.008 4  89091479.568 4      -291.244          29.000
R10  21183605.602 5 112920630.402 5      2500.699          34.000
R23  20992156.234 8 112293880.230 8     -3065.086          50.000    20992159.031 6  87339686.974 6     -2383.953          38.000
C14  21684398.094 6 112916341.739 6       570.270          40.000    21684398.148 6  87314077.239 6       440.911          41.000
C21  25286767.938 5 131674840.029 5     -2491.715          30.000
C24  25038293.883 6 130380962.448 6      3199.262          37.000
C26  23005494.875 6 119795655.826 6      1206.078          41.000
E04                                                                  27242616.227 6 109694723.232 6     -1775.729          40.000
E05                                                                  24467850.062 5  98521893.060 5      1054.430          31.000
E09  21785185.750 8 114481996.899 8      -848.066          51.000    21785187.656 8  87719986.830 8      -649.781          51.000
E36  24813708.258 8 130396916.622 8     -2404.789          51.000    24813711.859 8  99914530.603 8     -1842.634          51.000
> 2020 05 08 23 59  0.0000000  0 15        .000000000000
G04  21249662.742 8 111667747.635 8     -2052.625          51.000    21249662.625 7  87013873.033 7     -1599.448          44.000
G06  21085654.602 5 110805883.640 5       384.258          33.000    21085657.891 5  86342228.907 5       299.419          33.000
G07  22778046.367 8 119699426.633 8      3000.023          51.000    22778044.391 8  93272257.950 8      2337.684          51.000
G09  20263947.922 8 106487879.947 8        71.203          51.000    20263948.766 8  82977548.754 8        55.486          51.000
G19  24587125.172 5 129206213.355 5     -3203.199          30.000
R08  19844598.023 6 106266938.124 6      -758.695          38.000    19844598.891 5  82652036.464 5      -590.096          32.000
R09  21453056.477 5 114558085.542 5      -407.473          34.000
R10  21169631.641 6 112846149.294 6      2473.430          36.000
R23  21009439.664 8 112386338.869 8     -3090.438          51.000    21009443.453 6  87411599.253 6     -2403.674          38.000
C14  21681175.633 6 112899558.252 6       556.938          41.000    21681175.188 6  87301099.184 6       430.665          40.000
C24  25019910.641 5 130285256.776 5      3189.551          35.000
C26  22998632.273 6 119759915.691 6      1184.578          41.000
E04                                                                  27255887.711 6 109748163.376 6     -1780.712          38.000
E09  21790082.742 8 114507731.018 8      -859.348          51.000    21790084.711 8  87739705.175 8      -658.452          51.000
E36  24827505.617 8 130469418.648 8     -2420.418          51.000    24827508.414 8  99970084.081 8     -1854.612          51.000
> 2020 05 08 23 59 30.0000000  0 15        .000000000000
G04  21261379.961 8 111729321.984 8     -2057.828          50.000    21261379.961 7  87061853.033 7     -1603.499          44.000
G06  21083489.852 5 110794509.877 5       368.133          34.000    21083489.945 5  86333366.305 5       286.860          34.000
G07  22760917.477 8 119609413.079 8      2995.348          50.000    22760915.188 8  93202117.564 8      2334.040          50.000
G09  20263553.516 8 106485807.729 8        61.477          51.000    20263554.430 8  82975934.046 8        47.904          51.000
G19  24605398.156 5 129302237.805 5     -3203.816          33.000
R07  22553148.992 5 120728779.736 5     -2860.176          33.000    22553149.352 4  93900156.083 4     -2224.581          26.000
R08  19848851.758 6 106289711.376 6      -765.184          38.000    19848852.852 5  82669749.024 5      -595.143          33.000
R09  21455393.438 4 114570602.504 4      -429.945          28.000
R10  21155746.391 5 112772137.874 5      2455.406          32.000
R23  21026799.375 8 112479200.303 8     -3105.910          51.000    21026802.414 6  87483824.772 6     -2415.711          37.000
C14  21677963.312 6 112882828.615 6       553.039          41.000    21677961.922 6  87288162.828 6       427.569          39.000
C26  22991826.641 6 119724476.508 6      1172.414          40.000
E04  27269125.555 5 143300221.617 5     -2320.582          35.000    27269128.188 5 109801481.030 5     -1778.147          34.000
E09  21794977.359 8 114533453.583 8      -860.988          51.000    21794979.531 8  87759414.665 8      -659.718          51.000
E36  24841324.961 8 130542037.967 8     -2426.320          51.000    24841327.195 8 100025727.438 8     -1859.120          51.000
