     3.02           OBSERVATION DATA    M (MIXED)           RINEX VERSION / TYPE
SAVERINEX           SC600               20200510 025930 LCL PGM / RUN BY / DATE
       G = GPS       R = GLONASS       C = COMPASS          COMMENT
       S = SBAS      J = QZSS          E = GALILEO          COMMENT
BEAN                                                        MARKER NAME
1                                                           MARKER NUMBER
GEODETIC                                                    MARKER TYPE
Unige DICCA         GTER                                    OBSERVER / AGENCY
SC60291900056       SC600               2.12(191226)        REC # / TYPE / VERS
                    HEMA45          NONE                    ANT # / TYPE
  4509407.8091   693652.4678  4442337.6214                  APPROX POSITION XYZ
        0.0000        0.0000        0.0000                  ANTENNA: DELTA H/E/N
G    8 C1C L1C D1C S1C C2Y L2Y D2Y S2Y                      SYS / # / OBS TYPES
R    8 C1C L1C D1C S1C C2P L2P D2P S2P                      SYS / # / OBS TYPES
C    8 C1I L1I D1I S1I C7I L7I D7I S7I                      SYS / # / OBS TYPES
E    8 C1C L1C D1C S1C C7Q L7Q D7Q S7Q                      SYS / # / OBS TYPES
DBHZ                                                        COMMENT
     30.000                                                 INTERVAL
  2020    05    10    00    00    0.0000000     GPS         TIME OF FIRST OBS
  2020    05    10    00    59   30.0000000     GPS         TIME OF LAST OBS
     0                                                      RCV CLOCK OFFS APPL
G L1C  0.00000                                              SYS / PHASE SHIFT
G L2Y  0.00000                                              SYS / PHASE SHIFT
R L1C  0.00000                                              SYS / PHASE SHIFT
R L2P  0.25000                                              SYS / PHASE SHIFT
C L1I  0.00000                                              SYS / PHASE SHIFT
C L7I  0.00000                                              SYS / PHASE SHIFT
E L1C  0.50000                                              SYS / PHASE SHIFT
E L7Q -0.25000                                              SYS / PHASE SHIFT
 13 R01  1 R02 -4 R07  5 R08  6 R09 -2 R10 -7 R11  0 R12 -1 GLONASS SLOT / FRQ #
    R16 -1 R17  4 R21  4 R22 -3 R23  3                      GLONASS SLOT / FRQ #
 C1C   71.950 C2C   71.950 C2P   71.950                     GLONASS COD/PHS/BIS
    18                                                      LEAP SECONDS
*** Above antenna height is from mark to ANTENNA BOTTOM.    COMMENT
    17     4        0.0000        ANT MEASURE TYPE/HEIGT    COMMENT
    0.0000    0.0000    0.0458    0.0405    0.0000          COMMENT
                    BASE STATION                            COMMENT
                                                            END OF HEADER
> 2020 05 10 00 00  0.0000000  0 12        .000000000000
G04  21371329.914 8 112307121.642 8     -2133.938          48.000    21371330.047 7  87512079.572 7     -1662.808          44.000
G06  21067666.750 7 110711317.218 7       182.570          42.000    21067667.703 7  86268563.820 7       142.263          42.000
G07  22606407.773 8 118797460.397 8      2916.473          50.000    22606405.844 8  92569417.687 8      2272.576          51.000
G09  20263719.195 8 106486668.446 8       -54.551          51.000    20263719.922 8  82976604.015 8       -42.507          51.000
R01  20061841.125 8 107242016.512 8     -1340.762          48.000    20061844.805 7  83410486.750 7     -1042.815          45.000
R02  20865141.039 5 111340397.814 5      2128.395          33.000
R24  21786677.289 6 116503166.942 6     -3779.523          41.000    21786686.156 6  90613584.408 6     -2939.626          39.000
C11  24331094.273 6 126698376.127 6     -1855.934          41.000    24331091.297 6  97971226.029 6     -1434.969          37.000
C21  21887051.211 8 113971608.076 8      -426.391          51.000
E12  22811041.359 8 119872831.419 8     -1619.602          49.000    22811039.984 8  91850602.143 8     -1240.949          51.000
E19  23915843.734 8 125678614.182 8      -248.262          49.000    23915843.742 8  96299215.730 8      -190.185          51.000
E21  27109544.930 7 142461614.520 7      2686.984          42.000    27109548.203 6 109158938.146 6      2059.047          41.000
> 2020 05 10 00 00 30.0000000  0 14        .000000000000
G04  21383558.062 8 112371381.250 8     -2146.469          48.000    21383558.664 7  87562152.003 7     -1672.573          44.000
G06  21066702.484 6 110706248.708 6       158.863          41.000    21066702.539 6  86264614.300 6       123.787          41.000
G07  22589805.992 8 118710216.588 8      2903.066          49.000    22589803.328 8  92501435.527 8      2262.133          49.000
G09  20264089.148 8 106488612.596 8       -71.602          51.000    20264089.836 8  82978118.949 8       -55.793          51.000
R01  20069412.312 8 107282489.255 8     -1353.949          49.000    20069415.734 7  83441965.546 7     -1053.072          45.000
R02  20853218.664 4 111276757.604 4      2117.492          28.000
R11  21187287.812 6 113218435.238 6      2469.031          36.000    21187297.469 6  88058804.698 6      1920.361          37.000
R24  21807936.945 7 116616851.372 7     -3796.191          43.000    21807948.117 6  90702005.647 6     -2952.593          37.000
C11  24341846.727 6 126754362.678 6     -1873.094          41.000    24341844.305 6  98014518.301 6     -1448.096          39.000
C21  21889551.625 8 113984628.225 8      -438.195          51.000
E04  25806866.805 5 135615998.754 5      1931.320          35.000    25806866.234 5 103913544.975 5      1479.651          31.000
E12  22820345.242 8 119921723.370 8     -1636.406          50.000    22820343.938 8  91888064.792 8     -1253.798          51.000
E19  23917299.430 8 125686264.257 8      -258.289          49.000    23917299.375 8  96305077.474 8      -197.862          51.000
E21  27094240.273 6 142381186.200 6      2678.301          41.000    27094241.547 6 109097311.285 6      2052.234          40.000
> 2020 05 10 00 01  0.0000000  0 15        .000000000000
G04  21395834.828 7 112435895.740 7     -2154.609          47.000    21395835.289 7  87612423.028 7     -1678.916          44.000
G06  21065854.023 6 110701789.400 6       138.531          41.000    21065852.008 6  86261139.504 6       107.946          41.000
G07  22573257.617 7 118623256.433 7      2894.043          47.000    22573255.039 7  92433674.351 7      2255.098          47.000
G09  20264534.281 8 106490951.893 8       -84.320          51.000    20264534.969 8  82979941.776 8       -65.704          51.000
R01  20077035.797 8 107323242.623 8     -1362.906          49.000    20077039.516 7  83473662.594 7     -1060.038          46.000
R02  20841327.781 4 111213334.491 4      2111.320          29.000    20841331.898 4  86499262.594 4      1642.141          27.000
R11  21173488.391 6 113144677.298 6      2447.871          40.000    21173493.305 6  88001437.350 6      1903.900          37.000
R12  23417046.875 5 125089646.164 5      4397.000          35.000
R24  21829269.211 7 116730914.167 7     -3808.398          43.000    21829278.859 5  90790721.139 5     -2962.091          31.000
C11  24352674.211 6 126810743.608 6     -1885.762          41.000    24352671.680 6  98058115.602 6     -1458.200          40.000
C21  21892097.641 8 113997886.383 8      -445.758          51.000
E04  25795860.133 6 135558123.876 6      1927.352          36.000    25795856.062 5 103869219.211 5      1476.706          32.000
E12  22829722.883 8 119971001.496 8     -1648.883          50.000    22829722.008 8  91925823.351 8     -1263.487          51.000
E19  23918789.719 8 125694096.192 8      -263.938          50.000    23918789.734 8  96311078.572 8      -202.274          51.000
E21  27078963.469 6 142300904.677 6      2673.781          41.000    27078963.375 6 109035796.916 6      2048.709          40.000
> 2020 05 10 00 01 30.0000000  0 14        .000000000000
G04  21408158.812 8 112500657.914 8     -2162.359          48.000    21408159.062 7  87662887.032 7     -1684.955          43.000
G06  21065120.266 7 110697934.118 7       118.973          42.000    21065117.945 7  86258135.329 7        92.706          42.000
G07  22556762.492 7 118536576.935 7      2884.883          47.000    22556760.758 8  92366131.849 8      2247.961          48.000
G09  20265053.312 8 106493679.998 8       -96.926          51.000    20265054.023 8  82982067.574 8       -75.527          51.000
R01  20084710.883 8 107364270.643 8     -1371.719          50.000    20084714.797 7  83505573.264 7     -1066.889          46.000
R11  21159803.914 7 113071548.478 7      2427.598          43.000    21159808.586 6  87944559.444 6      1888.132          36.000
R12  23392356.391 5 124957763.408 5      4396.910          33.000    23392361.172 5  97189406.855 5      3419.822          31.000
R24  21850669.992 6 116845345.028 6     -3819.879          40.000    21850673.367 4  90879722.800 4     -2971.023          29.000
C11  24363576.031 6 126867511.375 6     -1898.430          39.000    24363573.680 7  98102011.999 7     -1467.778          42.000
C21  21894688.195 8 114011377.198 8      -453.094          51.000
E04  25784875.758 6 135500363.692 6      1923.871          36.000    25784867.648 5 103824961.481 5      1474.090          33.000
E12  22839172.672 8 120020658.974 8     -1661.082          49.000    22839172.281 8  91963872.598 8     -1272.774          51.000
E19  23920313.500 8 125702104.034 8      -269.422          50.000    23920313.695 8  96317214.450 8      -206.389          51.000
E21  27063712.984 6 142220766.507 6      2669.465          38.000    27063713.352 6 108974392.382 6      2045.320          41.000
> 2020 05 10 00 02  0.0000000  0 15        .000000000000
G04  21420523.641 7 112565634.819 7     -2171.988          47.000    21420523.727 7  87713518.365 7     -1692.458          43.000
G06  21064495.672 7 110694651.882 7        97.410          42.000    21064493.281 7  86255577.752 7        75.904          42.000
G07  22540315.953 8 118450148.724 8      2874.262          49.000    22540314.766 8  92298785.165 8      2239.684          49.000
G09  20265640.336 8 106496764.840 8      -111.258          51.000    20265641.078 8  82984471.339 8       -86.694          51.000
R01  20092431.195 8 107405540.803 8     -1382.281          51.000    20092435.219 7  83537672.263 7     -1075.108          46.000
R11  21146233.305 7 112999020.501 7      2404.988          43.000    21146234.867 6  87888148.795 6      1870.549          36.000
R12  23367667.906 5 124825894.496 5      4392.266          34.000    23367671.320 5  97086842.267 5      3416.210          32.000
R24  21872132.141 6 116960107.525 6     -3833.215          41.000    21872131.477 5  90968982.509 5     -2981.392          34.000
C11  24374545.812 6 126924632.590 6     -1912.590          40.000    24374544.086 7  98146181.725 7     -1478.903          43.000
C21  21897317.656 8 114025069.745 8      -462.262          51.000
C22  24964493.258 5 129996678.725 5     -2415.164          34.000
E04  25773905.211 6 135442777.913 6      1918.484          36.000    25773892.250 5 103780783.711 5      1469.852          33.000
E12  22848687.883 8 120070663.287 8     -1675.020          48.000    22848687.867 8  92002187.609 8     -1283.531          51.000
E19  23921864.750 8 125710256.083 8      -276.727          50.000    23921865.117 8  96323460.827 8      -212.031          51.000
E21  27048483.898 6 142140742.532 6      2662.840          38.000    27048485.953 7 108913075.306 7      2040.501          42.000
> 2020 05 10 00 02 30.0000000  0 15        .000000000000
G04  21432946.875 7 112630919.854 7     -2181.609          45.000    21432947.258 7  87764389.842 7     -1699.955          44.000
G06  21063997.961 7 110692038.220 7        75.535          42.000    21063996.531 6  86253541.092 6        58.859          41.000
G07  22523936.203 8 118364069.165 8      2862.988          51.000    22523935.125 8  92231710.193 8      2230.900          51.000
G09  20266313.188 8 106500300.704 8      -125.672          51.000    20266313.969 8  82987226.563 8       -97.926          51.000
R01  20100214.977 8 107447149.700 8     -1392.996          51.000    20100218.922 7  83570034.727 7     -1083.441          46.000
R11  21132792.406 7 112927193.652 7      2382.109          44.000    21132793.203 6  87832283.509 6      1852.752          36.000
R12  23343002.000 5 124694140.465 5      4389.609          33.000    23343004.586 5  96984366.981 5      3414.147          31.000
R24  21893674.008 6 117075294.055 6     -3847.199          41.000    21893672.133 6  91058571.984 6     -2992.266          36.000
C11  24385600.695 6 126982199.440 6     -1926.859          38.000    24385600.477 7  98190696.041 7     -1489.752          43.000
C21  21900004.133 8 114039058.389 8      -471.629          51.000
E04  25762965.539 5 135385295.651 5      1913.258          34.000    25762946.477 5 103736726.861 5      1465.883          33.000
E12  22858286.664 7 120121108.240 7     -1689.238          46.000    22858286.602 8  92040840.247 8     -1294.357          51.000
E19  23923461.398 8 125718647.112 8      -284.145          50.000    23923461.953 8  96329890.316 8      -217.742          51.000
E21  27033295.219 6 142060929.931 6      2656.730          36.000    27033299.312 7 108851920.163 7      2035.461          42.000
E33  27205154.438 5 142964052.113 5     -3239.422          35.000    27205152.062 5 109543873.672 5     -2481.807          34.000
> 2020 05 10 00 03  0.0000000  0 16        .000000000000
G04  21445421.242 7 112696474.638 7     -2188.055          45.000    21445422.172 7  87815471.500 7     -1704.978          43.000
G06  21063620.531 6 110690056.489 6        57.223          40.000    21063619.977 6  86251996.896 6        44.589          40.000
G07  22507616.086 8 118278303.643 8      2855.082          51.000    22507615.039 8  92164879.950 8      2224.739          51.000
G09  20267064.766 8 106504249.950 8      -137.062          51.000    20267065.430 8  82990303.904 8      -106.805          51.000
R01  20108054.969 8 107489059.265 8     -1400.383          51.000    20108058.930 7  83602631.050 7     -1089.190          46.000
R11  21119474.977 6 112856034.010 6      2362.125          40.000    21119476.203 5  87776937.121 5      1837.211          35.000
R12  23318353.203 5 124562467.655 5      4389.293          31.000    23318346.227 4  96881891.358 4      3413.895          25.000
R24  21915287.422 6 117190862.502 6     -3856.715          40.000    21915284.273 6  91148458.534 6     -2999.667          36.000
C11  24396732.711 5 127040173.192 5     -1937.828          33.000    24396734.898 6  98235525.022 6     -1498.397          41.000
C21  21902740.367 8 114053306.715 8      -477.723          51.000
C26  24818635.617 6 129237153.431 6      3319.832          38.000
E04                                                                  25752029.625 5 103692778.392 5      1464.351          32.000
E12  22867962.344 7 120171955.730 7     -1700.121          47.000    22867961.469 8  92079801.289 8     -1302.684          50.000
E19  23925096.359 8 125727239.631 8      -288.305          50.000    23925097.016 8  96336474.191 8      -220.894          51.000
E21  27018140.219 6 141981293.912 6      2653.109          38.000    27018146.117 7 108790900.313 7      2032.950          42.000
E33  27223646.250 5 143061226.622 5     -3239.246          33.000    27223647.219 5 109618338.228 5     -2481.948          35.000
> 2020 05 10 00 03 30.0000000  0 15        .000000000000
G04  21457934.625 7 112762233.373 7     -2196.332          44.000    21457935.883 7  87866712.083 7     -1711.428          43.000
G06  21063350.633 6 110688642.992 6        36.594          37.000    21063350.562 6  86250895.454 6        28.515          38.000
G07  22491343.719 8 118192790.059 8      2845.203          51.000    22491342.414 8  92098246.033 8      2217.044          51.000
G09  20267882.734 8 106508547.627 8      -150.133          51.000    20267883.180 8  82993652.730 8      -116.987          51.000
R01  20115938.930 8 107531203.593 8     -1409.773          51.000    20115942.797 7  83635409.967 7     -1096.490          46.000
R11  21106271.180 6 112785479.838 6      2340.621          41.000    21106273.672 5  87722061.710 5      1820.489          34.000
R24  21936959.031 6 117306742.885 6     -3868.793          39.000    21936955.391 6  91238587.700 6     -3009.061          37.000
C11  24407929.602 5 127098488.109 5     -1950.164          30.000    24407933.203 6  98280617.793 6     -1508.262          36.000
C21  21905514.086 8 114067751.280 8      -485.746          51.000
C26  24799515.461 6 129137599.999 6      3316.621          39.000
E04                                                                  25741128.414 4 103648858.275 4      1461.151          29.000
E12  22877702.859 7 120223140.255 7     -1712.703          47.000    22877700.703 8  92119020.591 8     -1312.322          50.000
E19  23926757.461 8 125735969.220 8      -294.293          50.000    23926758.156 8  96343163.091 8      -225.404          51.000
E21  27003008.195 6 141901772.427 6      2647.766          40.000    27003014.914 7 108729968.207 7      2028.864          43.000
E33  27242139.680 5 143158409.312 5     -3240.375          33.000    27242142.969 5 109692809.021 5     -2483.253          35.000
> 2020 05 10 00 04  0.0000000  0 15        .000000000000
G04  21470493.383 7 112828229.213 7     -2203.457          44.000    21470494.258 7  87918137.415 7     -1716.976          43.000
G06  21063195.695 6 110687832.598 6        17.473          39.000    21063196.070 6  86250264.000 6        13.615          39.000
G07  22475126.180 8 118107565.400 8      2836.297          51.000    22475123.688 8  92031837.282 8      2210.105          51.000
G09  20268773.359 8 106513227.647 8      -162.008          51.000    20268773.609 8  82997299.506 8      -126.240          51.000
R01  20123873.367 8 107573617.811 8     -1417.934          51.000    20123877.086 7  83668398.805 7     -1102.840          45.000
R11  21093187.805 6 112715570.102 6      2319.691          38.000    21093188.414 4  87667687.463 4      1804.204          27.000
R24  21958694.641 6 117422966.175 6     -3879.402          37.000    21958690.977 6  91328983.592 6     -3017.313          38.000
C11                                                                  24419199.531 5  98325999.326 5     -1517.294          30.000
C21  21908332.250 8 114082426.606 8      -492.672          51.000
C22  25020304.945 5 130287290.139 5     -2427.777          33.000
C26  24780412.320 6 129038132.932 6      3314.617          39.000
E12  22887513.852 7 120274695.317 7     -1724.168          47.000    22887511.094 8  92158523.798 8     -1321.113          50.000
E19  23928451.320 8 125744870.165 8      -299.215          50.000    23928451.977 8  96349983.299 8      -229.215          51.000
E21  26987905.203 6 141822402.293 6      2643.465          41.000    26987912.414 7 108669152.128 7      2025.614          45.000
E33  27260642.672 5 143255644.096 5     -3241.461          33.000    27260643.945 6 109767311.313 6     -2483.681          37.000
> 2020 05 10 00 04 30.0000000  0 16        .000000000000
G04  21483091.945 7 112894434.134 7     -2203.105          43.000    21483092.000 6  87969725.651 6     -1716.706          40.000
G06  21063151.078 6 110687599.193 6         5.277          39.000    21063151.438 6  86250082.192 6         4.112          38.000
G07  22458958.789 8 118022605.279 8      2834.797          50.000    22458954.461 8  91965634.648 8      2208.936          50.000
G09  20269731.664 8 106518262.848 8      -166.508          51.000    20269731.688 8  83001223.034 8      -129.746          51.000
R01  20131853.195 8 107616274.800 8     -1418.598          51.000    20131856.930 7  83701576.449 7     -1103.354          46.000
R11  21080219.727 6 112646281.081 6      2306.434          38.000    21080218.148 4  87613784.149 4      1793.902          28.000
R24  21980486.812 5 117539500.749 5     -3882.484          32.000    21980484.312 6  91419621.583 6     -3019.716          37.000
C11                                                                  24430533.398 5  98371647.555 5     -1520.644          33.000
C21  21911189.773 8 114097306.712 8      -492.230          51.000
C22  25034302.633 5 130360158.344 5     -2423.426          31.000
C26  24761321.586 6 128938728.332 6      3319.496          40.000
E04  25719403.750 5 135156380.189 5      1908.902          33.000
E12  22897389.695 7 120326593.162 7     -1728.371          47.000    22897387.422 8  92198289.678 8     -1324.327          50.000
E19  23930172.742 8 125753915.623 8      -296.625          50.000    23930173.266 8  96356914.235 8      -227.275          51.000
E21  26972826.258 7 141743159.214 7      2646.551          42.000    26972833.273 7 108608433.433 7      2027.918          44.000
E33                                                                  27279147.516 6 109841823.419 6     -2478.296          38.000
> 2020 05 10 00 05  0.0000000  0 15        .000000000000
G04  21495751.023 7 112960957.674 7     -2219.660          43.000    21495750.281 6  88021562.160 6     -1729.608          38.000
G06  21063237.859 6 110688054.300 6       -23.898          41.000    21063237.844 6  86250436.811 6       -18.622          40.000
G07  22442862.641 8 117938023.007 8      2816.145          48.000    22442857.898 8  91899726.406 8      2194.398          48.000
G09  20270778.492 8 106523763.611 8      -188.352          51.000    20270778.422 8  83005509.340 8      -146.767          51.000
R01  20139899.547 8 107659287.137 8     -1436.750          51.000    20139903.328 7  83735030.470 7     -1117.472          45.000
R11  21067391.625 6 112577729.843 6      2275.629          39.000    21067390.523 4  87560466.561 4      1769.934          26.000
R24  22002356.773 4 117656455.329 4     -3902.918          29.000    22002355.836 6  91510586.237 6     -3035.606          37.000
C11  24441960.195 5 127275677.089 5     -1988.227          33.000    24441957.141 5  98417646.117 5     -1536.897          35.000
C21  21914107.633 8 114112501.847 8      -508.930          51.000
C26  24742265.133 7 128839498.665 7      3307.910          42.000
E04  25708572.742 5 135099465.866 5      1895.734          34.000
E12  22907351.648 8 120378943.648 8     -1749.715          48.000    22907350.234 8  92238402.400 8     -1340.658          50.000
E19  23931942.703 8 125763216.440 8      -311.328          50.000    23931943.133 8  96364040.845 8      -238.580          51.000
E21  26957792.805 6 141664156.501 6      2632.426          41.000    26957799.039 7 108547898.903 7      2016.988          43.000
E33                                                                  27297675.117 6 109916429.096 6     -2486.156          39.000
> 2020 05 10 00 05 30.0000000  0 16        .000000000000
G03  23616377.273 5 124104892.893 5     -2992.777          34.000    23616384.234 5  96705130.794 5     -2332.028          34.000
G04  21508442.766 7 113027653.504 7     -2225.711          42.000    21508441.906 6  88073532.934 6     -1734.320          40.000
G06  21063428.594 7 110689053.262 7       -41.980          42.000    21063428.188 7  86251215.191 7       -32.709          42.000
G07  22426811.039 8 117853676.324 8      2807.785          48.000    22426807.484 8  91834001.694 8      2187.881          48.000
G09  20271886.055 8 106529584.299 8      -199.227          51.000    20271885.953 8  83010044.941 8      -155.241          51.000
R01  20147984.773 8 107702506.923 8     -1443.977          51.000    20147988.719 7  83768645.845 7     -1123.093          45.000
R11  21054673.984 6 112509771.908 6      2255.539          39.000    21054672.031 5  87507610.323 5      1754.305          31.000
C11  24453442.953 5 127335470.639 5     -1997.965          33.000    24453440.711 6  98463882.281 6     -1545.011          38.000
C21  21917058.539 8 114127868.674 8      -514.969          51.000
C22  25062368.523 5 130506340.513 5     -2436.797          32.000
C26  24723215.586 7 128740302.907 7      3306.094          42.000
E04  25697758.273 6 135042626.756 6      1893.820          36.000    25697753.781 6 103474194.708 6      1450.831          36.000
E12  22917372.117 8 120431600.700 8     -1760.184          49.000    22917371.055 8  92278750.034 8     -1348.787          49.000
E19  23933733.492 8 125772627.334 8      -315.312          50.000    23933733.969 8  96371251.797 8      -241.657          51.000
E21  26942777.977 6 141585251.482 6      2628.652          41.000    26942783.508 7 108487439.228 7      2014.090          42.000
E33                                                                  27316198.711 6 109991016.037 6     -2485.689          39.000
> 2020 05 10 00 06  0.0000000  0 15        .000000000000
G04  21521188.352 6 113094631.568 6     -2238.398          40.000    21521187.641 6  88125723.630 6     -1744.207          39.000
G06  21063743.688 7 110690707.831 7       -67.008          43.000    21063743.133 7  86252504.472 7       -52.211          43.000
G07  22410826.344 8 117769678.900 8      2793.133          49.000    22410824.406 8  91768549.148 8      2176.467          50.000
G09  20273075.648 8 106535835.679 8      -216.664          51.000    20273075.602 8  83014916.149 8      -168.829          51.000
R01  20156129.953 8 107746047.368 8     -1457.816          51.000    20156133.711 7  83802510.623 7     -1133.857          44.000
R11  21042090.641 6 112442524.646 6      2228.441          37.000    21042090.070 5  87455306.838 5      1733.229          34.000
R24  22046280.312 5 117891371.893 5     -3927.867          32.000    22046272.734 6  91693251.759 6     -3055.008          39.000
C11  24465004.742 5 127395679.801 5     -2014.559          32.000    24465003.820 6  98510439.827 6     -1557.951          38.000
C21  21920063.852 8 114143517.838 8      -527.418          51.000
C26  24704194.266 7 128641253.840 7      3298.129          42.000
E04  25686976.758 6 134985958.352 6      1885.273          38.000    25686970.000 6 103430773.497 6      1444.614          36.000
E12  22927471.711 8 120484674.493 8     -1777.109          48.000    22927470.734 8  92319416.956 8     -1361.687          49.000
E19  23935566.422 8 125782259.639 8      -325.848          50.000    23935567.016 8  96378632.399 8      -249.684          51.000
E21  26927803.406 6 141506557.823 6      2618.660          41.000    26927808.016 6 108427141.490 6      2006.314          40.000
E33                                                                  27334738.852 6 110065668.268 6     -2490.376          39.000
> 2020 05 10 00 06 30.0000000  0 16        .000000000000
G04  21533977.023 6 113161836.018 6     -2241.684          37.000    21533976.711 6  88178090.734 6     -1746.763          36.000
G06  21064173.234 7 110692963.922 7       -82.996          42.000    21064173.227 6  86254262.478 6       -64.669          41.000
G07  22394898.547 8 117685978.538 8      2787.414          49.000    22394898.172 8  91703328.080 8      2172.011          50.000
G09  20274336.703 8 106542462.654 8      -224.914          51.000    20274336.867 8  83020080.041 8      -175.258          51.000
R01  20164324.664 8 107789852.828 8     -1462.324          51.000    20164328.352 7  83836581.525 7     -1137.363          44.000
R11  21029630.336 6 112375935.987 6      2210.801          41.000    21029630.859 5  87403515.710 5      1719.518          34.000
R12  23146114.938 5 123642377.240 5      4374.320          33.000    23146120.672 4  96166328.134 4      3402.240          27.000
R24  22068331.391 5 118009288.905 5     -3933.770          34.000    22068323.516 6  91784964.901 6     -3059.602          38.000
C11  24476633.914 5 127456248.573 5     -2022.699          30.000    24476635.453 6  98557275.458 6     -1564.161          39.000
C21  21923113.141 8 114159395.801 8      -530.895          51.000
C26  24685190.961 7 128542300.095 7      3299.012          42.000
E04  25676214.664 6 134929399.419 6      1885.719          38.000    25676207.781 5 103387436.262 5      1444.671          31.000
E12  22937639.711 7 120538109.464 7     -1784.980          47.000    22937638.453 8  92360360.651 8     -1367.712          49.000
E19  23937431.094 8 125792058.451 8      -327.160          50.000    23937431.766 8  96386140.587 8      -250.741          51.000
E21  26912858.727 6 141428023.366 6      2617.383          40.000    26912861.172 6 108366965.755 6      2005.503          36.000
E33                                                                  27353284.594 6 110140342.792 6     -2487.883          39.000
> 2020 05 10 00 07  0.0000000  0 15        .000000000000
G06  21064719.750 6 110695837.529 6      -107.543          39.000    21064721.594 6  86256501.628 6       -83.803          40.000
G07  22379030.711 8 117602592.517 8      2772.484          48.000    22379031.344 8  91638351.951 8      2160.377          48.000
G09  20275672.164 8 106549480.271 8      -242.035          51.000    20275672.211 8  83025548.326 8      -188.599          51.000
R01  20172571.852 8 107833939.096 8     -1476.051          51.000    20172575.609 7  83870870.854 7     -1148.039          44.000
R11  21017297.016 7 112310025.573 7      2183.871          42.000    21017296.586 5  87352252.006 5      1698.563          32.000
R12  23121577.453 6 123511293.425 6      4365.785          38.000    23121583.766 5  96064381.101 5      3395.611          32.000
R24  22090443.758 5 118127534.636 5     -3948.613          35.000    22090434.812 6  91876933.732 6     -3071.144          37.000
C11  24488336.141 5 127517190.423 5     -2039.402          35.000    24488338.555 6  98604399.547 6     -1577.176          36.000
C21  21926209.414 8 114175518.345 8      -543.273          51.000
C26  24666209.586 7 128443459.618 7      3290.867          42.000
E04  25665476.055 6 134872965.801 6      1877.227          37.000
E12  22947879.359 7 120591920.126 7     -1801.809          47.000    22947878.195 8  92401592.198 8     -1380.550          50.000
E19  23939330.375 8 125802039.408 8      -337.582          50.000    23939331.102 8  96393788.330 8      -258.673          51.000
E21  26897947.766 6 141349666.076 6      2607.113          41.000    26897944.547 5 108306925.840 5      1997.928          33.000
E33                                                                  27371838.367 6 110215050.336 6     -2492.133          38.000
> 2020 05 10 00 07 30.0000000  0 17        .000000000000
G04  21559649.883 5 113296724.709 5     -2251.141          35.000    21559652.672 5  88283173.283 5     -1754.136          34.000
G06  21065340.734 6 110699104.203 6      -118.266          39.000    21065344.219 6  86259047.075 6       -92.155          38.000
G07  22363180.656 8 117519299.620 8      2771.898          49.000    22363181.695 8  91573448.381 8      2159.921          49.000
G09  20277039.109 8 106556663.143 8      -245.152          51.000    20277038.906 8  83031145.363 8      -191.028          51.000
R01  20180828.773 8 107878077.566 8     -1475.160          51.000    20180833.031 7  83905200.755 7     -1147.347          44.000
R11  21005048.086 7 112244568.225 7      2171.445          42.000    21005046.789 5  87301340.849 5      1688.905          33.000
R12  23097015.797 6 123380083.939 6      4372.766          39.000    23097021.617 5  95962329.252 5      3401.037          33.000
R24  22112574.477 5 118245876.187 5     -3949.328          33.000    22112565.242 5  91968977.108 5     -3071.700          35.000
C11  24500068.594 6 127578280.523 6     -2041.977          36.000    24500069.539 5  98651638.249 5     -1578.533          35.000
C21  21929310.008 8 114191663.057 8      -541.336          51.000
C22  25118704.086 4 130799682.208 4     -2444.867          28.000
C26  24647208.117 7 128344512.249 7      3297.031          42.000
E04  25654718.820 5 134816456.932 5      1883.195          31.000    25654714.133 6 103300891.947 6      1443.279          36.000
E12  22958148.016 8 120645880.526 8     -1804.047          48.000    22958146.938 8  92442938.469 8     -1382.256          50.000
E19  23941221.438 8 125811977.519 8      -333.422          50.000    23941222.250 8  96401403.238 8      -255.413          51.000
E21  26883028.344 7 141271263.403 7      2611.418          42.000    26883023.078 6 108246851.176 6      2001.052          36.000
E33                                                                  27390356.180 6 110289617.397 6     -2485.261          36.000
> 2020 05 10 00 08  0.0000000  0 16        .000000000000
G04  21572606.328 6 113364802.872 6     -2267.605          38.000    21572606.570 5  88336229.831 5     -1766.965          34.000
G06  21066153.945 6 110703380.452 6      -146.477          40.000    21066157.930 6  86262379.263 6      -114.138          40.000
G07  22347466.078 8 117436717.982 8      2753.645          50.000    22347466.766 8  91509099.048 8      2145.697          50.000
G09  20278554.492 8 106564626.915 8      -265.742          51.000    20278554.500 8  83037350.904 8      -207.072          51.000
R01  20189212.836 8 107922894.686 8     -1492.219          51.000    20189217.289 7  83940058.513 7     -1160.618          44.000
R11  20993001.695 6 112180194.641 6      2140.684          39.000    20992999.914 5  87251272.542 5      1664.979          33.000
R12  23072547.141 6 123249379.792 6      4361.215          38.000    23072554.617 6  95860670.471 6      3392.059          37.000
R24  22134837.594 5 118364936.190 5     -3967.625          34.000    22134829.141 6  92061579.273 6     -3085.934          36.000
C11  24511946.711 6 127640127.487 6     -2061.656          37.000    24511945.766 5  98699462.305 5     -1593.925          34.000
C21  21932532.047 8 114208441.068 8      -557.168          51.000
C26  24628304.016 7 128246071.239 7      3285.621          42.000
E04                                                                  25644055.578 6 103257970.878 6      1433.782          38.000
E12  22968562.391 8 120700605.832 8     -1824.133          48.000    22968561.445 8  92484870.826 8     -1397.670          50.000
E19  23943221.570 8 125822488.850 8      -347.223          50.000    23943222.633 8  96409457.377 8      -266.033          51.000
E21  26868218.391 7 141193434.067 7      2597.434          42.000    26868215.711 6 108187215.723 6      1990.316          40.000
E33                                                                  27408955.680 5 110364514.990 5     -2492.409          35.000
> 2020 05 10 00 08 30.0000000  0 19        .000000000000
G03  23719543.734 5 124647041.452 5     -3027.305          32.000    23719541.734 5  97127560.873 5     -2358.939          33.000
G04  21585560.047 6 113432883.163 6     -2273.895          38.000    21585558.148 5  88389250.572 5     -1771.869          33.000
G06  21067036.555 6 110708019.661 6      -165.430          40.000    21067040.719 6  86265994.240 6      -128.909          40.000
G07  22331764.219 8 117354202.566 8      2744.449          50.000    22331763.930 8  91444801.341 8      2138.535          50.000
G09  20280095.195 8 106572723.988 8      -277.016          51.000    20280095.469 8  83043660.314 8      -215.856          51.000
R01  20197600.688 8 107967732.309 8     -1499.895          51.000    20197604.969 7  83974932.238 7     -1166.585          43.000
R02  20667730.109 5 110286967.297 5      2007.695          31.000
R11  20981034.281 5 112116249.661 5      2119.648          35.000    20981033.539 5  87201537.636 5      1648.609          35.000
R12  23048051.781 6 123118527.702 6      4359.516          39.000    23048057.477 6  95758896.634 6      3390.734          37.000
R24  22157107.430 6 118484051.925 6     -3976.461          36.000    22157104.828 6  92154224.862 6     -3092.803          36.000
C11  24523847.164 6 127702088.135 6     -2071.648          37.000    24523845.070 6  98747374.220 6     -1602.292          37.000
C21  21935752.609 8 114225211.514 8      -563.688          51.000
C22  25147010.938 5 130947081.004 5     -2457.965          32.000
C26  24609374.234 6 128147497.990 6      3283.129          40.000
E04                                                                  25633371.867 6 103214950.495 6      1431.884          38.000
E12  22978998.570 7 120755447.808 7     -1834.824          47.000    22978997.805 8  92526892.590 8     -1405.979          50.000
E19  23945207.656 8 125832926.136 8      -351.539          50.000    23945209.000 8  96417454.775 8      -269.361          51.000
E21  26853394.680 6 141115533.244 6      2593.012          41.000    26853395.250 7 108127525.488 7      1986.856          42.000
E33  27427516.477 5 144132567.860 5     -3252.199          34.000    27427515.461 5 110439246.054 5     -2491.933          35.000
> 2020 05 10 00 09  0.0000000  0 18        .000000000000
G03  23736852.906 5 124738001.710 5     -3032.617          32.000    23736846.672 5  97198422.915 5     -2363.081          32.000
G04  21598566.609 5 113501233.687 5     -2280.789          35.000    21598565.180 5  88442512.310 5     -1777.232          32.000
G06  21068045.805 6 110713324.716 6      -186.418          40.000    21068049.461 6  86270128.012 6      -145.264          40.000
G07  22316132.781 8 117272058.341 8      2733.812          49.000    22316131.500 8  91380792.886 8      2130.247          49.000
G09  20281718.789 8 106581256.336 8      -289.852          51.000    20281718.922 8  83050308.895 8      -225.858          51.000
R01  20206050.016 8 108012898.020 8     -1509.078          51.000    20206054.227 7  84010061.130 7     -1173.724          42.000
R02  20656475.508 5 110226902.475 5      1999.434          34.000
R11  20969204.125 5 112053045.341 5      2096.133          31.000    20969205.781 5  87152378.549 5      1630.316          34.000
R12  23023587.148 6 122987839.789 6      4354.723          37.000    23023592.039 6  95657250.514 6      3387.007          37.000
R24  22179444.625 6 118603526.914 6     -3986.352          36.000    22179449.141 6  92247149.918 6     -3100.493          36.000
C11  24535826.797 6 127764460.328 6     -2084.059          39.000    24535823.672 5  98795604.386 5     -1611.729          34.000
C21  21939029.586 8 114242274.653 8      -571.902          51.000
C26  24590476.523 6 128049094.918 6      3279.023          37.000
E04                                                                  25622719.711 5 103172062.768 5      1428.691          35.000
E12  22989513.922 8 120810707.873 8     -1847.172          48.000    22989513.406 8  92569234.713 8     -1415.404          49.000
E19  23947237.250 8 125843592.028 8      -357.531          50.000    23947238.742 8  96425627.340 8      -273.979          51.000
E21  26838614.984 6 141037865.929 6      2586.684          39.000    26838618.023 7 108068014.139 7      1982.058          43.000
E33  27446095.438 5 144230181.940 5     -3253.441          34.000    27446092.391 5 110514041.214 5     -2493.106          35.000
> 2020 05 10 00 09 30.0000000  0 17        .000000000000
G04  21611615.008 5 113569803.610 5     -2290.270          34.000    21611615.078 6  88495950.541 6     -1784.620          36.000
G06  21069170.211 6 110719236.080 6      -209.562          40.000    21069173.336 6  86274734.271 6      -163.295          40.000
G07  22300560.906 8 117190228.655 8      2720.453          48.000    22300559.586 8  91317029.517 8      2119.837          48.000
G09  20283413.789 8 106590163.624 8      -305.184          51.000    20283413.797 8  83057249.646 8      -237.805          51.000
R01  20214549.289 8 108058331.129 8     -1520.930          51.000    20214553.109 6  84045397.997 6     -1182.945          41.000
R02  20645256.992 5 110167053.715 5      1989.602          33.000
R11  20957501.711 5 111990542.356 5      2070.340          30.000    20957505.289 5  87103750.399 5      1610.267          32.000
R12  22999143.930 5 122857259.730 5      4348.629          34.000    22999147.352 6  95555688.315 6      3382.267          36.000
R24  22201839.367 6 118723296.279 6     -3999.148          39.000    22201849.703 6  92340303.917 6     -3110.449          36.000
C11  24547873.188 6 127827182.846 6     -2098.734          38.000    24547869.367 6  98844105.412 6     -1622.781          36.000
C21  21942351.461 8 114259571.681 8      -582.441          51.000
C26  24571599.336 5 127950805.476 5      3272.504          33.000
E04                                                                  25612092.617 5 103129276.985 5      1424.114          32.000
E12  23000097.328 8 120866325.182 8     -1861.809          49.000    23000096.453 8  92611850.584 8     -1426.658          48.000
E19  23949298.984 8 125854426.415 8      -365.898          50.000    23949300.281 8  96433929.012 8      -280.349          51.000
E21  26823867.922 5 140960374.814 5      2578.020          35.000    26823873.328 7 108008637.777 7      1975.443          42.000
E33  27464675.891 5 144327845.409 5     -3257.008          32.000    27464673.273 5 110588853.528 5     -2495.602          34.000
> 2020 05 10 00 10  0.0000000  0 17        .000000000000
G04  21624694.227 5 113638535.268 5     -2296.633          34.000    21624692.836 5  88549488.543 5     -1789.584          32.000
G06  21070399.547 6 110725696.504 6      -227.754          40.000    21070402.297 6  86279768.406 6      -177.468          40.000
G07  22285038.414 8 117108657.944 8      2711.484          49.000    22285037.391 8  91253467.914 8      2112.845          49.000
G09  20285169.172 8 106599387.892 8      -315.992          51.000    20285169.219 8  83064437.384 8      -246.228          51.000
R01  20223087.500 8 108103972.880 8     -1528.160          50.000    20223090.891 6  84080897.128 6     -1188.569          40.000
R11  20945918.484 6 111928648.614 6      2049.379          38.000    20945922.891 5  87055610.729 5      1593.961          32.000
R12  22974712.672 5 122726733.835 5      4346.562          32.000    22974712.961 5  95454168.339 5      3380.663          34.000
R24  22224279.281 6 118843297.310 6     -4007.035          39.000    22224293.625 6  92433638.044 6     -3116.583          36.000
C11  24559975.125 6 127890196.674 6     -2108.270          39.000    24559971.500 5  98892831.643 5     -1630.529          35.000
C21  21945707.266 8 114277046.132 8      -588.574          51.000
C22  25189590.773 5 131168838.585 5     -2469.070          34.000
C26  24552733.625 5 127852575.357 5      3269.664          33.000
E04  25601481.172 5 134536691.293 5      1856.277          30.000    25601479.172 6 103086519.826 6      1422.190          37.000
E12  23010737.766 8 120922241.230 8     -1872.000          50.000    23010736.586 8  92654695.305 8     -1434.357          48.000
E19  23951381.938 8 125865372.044 8      -369.910          51.000    23951382.836 8  96442315.918 8      -283.432          51.000
E21  26809141.789 5 140882992.908 5      2573.246          33.000    26809150.398 6 107949354.141 6      1972.181          39.000
E33                                                                  27483246.547 5 110663637.777 5     -2494.758          35.000
> 2020 05 10 00 10 30.0000000  0 17        .000000000000
G04  21637830.086 6 113707567.215 6     -2304.168          36.000    21637827.562 4  88603307.110 4     -1795.474          29.000
G06  21071757.445 5 110732833.812 5      -247.480          35.000    21071759.820 5  86285329.917 5      -192.842          34.000
G07  22269590.133 8 117027475.398 8      2700.781          51.000    22269589.102 8  91190208.781 8      2104.505          51.000
G09  20287008.992 8 106609055.980 8      -328.367          51.000    20287009.047 8  83071970.966 8      -255.871          51.000
R01  20231688.859 8 108149952.983 8     -1537.016          49.000    20231692.156 6  84116659.417 6     -1195.457          39.000
R11  20934477.367 6 111867515.705 6      2026.152          39.000    20934483.289 5  87008063.018 5      1575.899          30.000
R12  22950316.117 6 122596396.229 6      4342.992          36.000    22950313.977 5  95352794.718 5      3377.886          32.000
R24  22246787.656 6 118963655.260 6     -4016.770          40.000    22246804.453 5  92527249.795 5     -3124.151          34.000
C11  24572157.102 7 127953626.040 7     -2119.812          42.000    24572152.781 5  98941879.278 5     -1639.322          35.000
C21  21949121.430 8 114294824.687 8      -596.477          51.000
C22  25203826.945 5 131242964.963 5     -2470.047          30.000
C26  24533905.336 6 127754533.353 6      3266.141          36.000
E04  25590895.734 5 134481068.754 5      1851.613          33.000    25590896.977 6 103043903.956 6      1419.256          37.000
E12  23021459.219 8 120978582.244 8     -1883.969          50.000    23021457.672 7  92697865.676 7     -1443.548          47.000
E19  23953510.352 8 125876556.222 8      -375.605          50.000    23953510.914 8  96450885.605 8      -287.775          51.000
E21  26794467.031 6 140805869.828 6      2567.199          36.000    26794474.383 6 107890262.768 6      1967.329          36.000
E33  27501835.594 5 144523121.457 5     -3256.867          32.000    27501835.742 5 110738490.444 5     -2495.405          35.000
> 2020 05 10 00 11  0.0000000  0 16        .000000000000
G04  21651013.922 5 113776849.351 5     -2312.426          35.000
G06  21073239.055 6 110740619.907 6      -269.355          39.000    21073240.070 6  86291397.008 6      -209.884          39.000
G07  22254211.234 8 116946656.165 8      2688.887          51.000    22254210.125 8  91127232.771 8      2095.239          51.000
G09  20288927.664 8 106619138.889 8      -342.062          51.000    20288927.719 8  83079827.779 8      -266.542          51.000
R01  20240348.117 8 108196242.342 8     -1547.141          49.000    20240351.414 6  84152662.247 6     -1203.332          39.000
R11  20923175.383 6 111807118.473 6      2001.789          39.000    20923178.000 4  86961096.304 4      1556.950          26.000
R12  22925949.164 5 122466222.634 5      4337.426          35.000    22925945.375 4  95251548.720 4      3373.556          25.000
R24  22269357.430 6 119084336.853 6     -4026.730          41.000    22269375.836 5  92621113.244 5     -3131.905          34.000
C11  24584413.242 7 128017440.789 7     -2132.570          42.000    24584407.766 5  98991224.839 5     -1649.075          34.000
C21  21952588.695 8 114312879.601 8      -605.469          51.000
C26  24515109.828 6 127656653.982 6      3260.902          38.000
E04  25580340.336 6 134425602.471 6      1847.094          37.000    25580342.938 5 103001407.719 5      1415.470          34.000
E12  23032255.930 8 121035318.660 8     -1896.809          50.000    23032253.922 7  92741339.034 7     -1453.381          47.000
E19  23955678.656 8 125887950.396 8      -382.305          50.000    23955679.180 8  96459616.210 8      -292.920          51.000
E21  26779836.062 6 140728975.416 6      2560.270          41.000    26779840.227 5 107831343.754 5      1962.025          33.000
E33                                                                  27520436.398 6 110813388.521 6     -2496.767          36.000
> 2020 05 10 00 11 30.0000000  0 17        .000000000000
G06  21074790.812 6 110748772.368 6      -292.336          38.000    21074791.055 6  86297749.555 6      -227.794          38.000
G07  22238847.922 8 116865919.563 8      2675.355          51.000    22238846.609 8  91064321.159 8      2084.693          51.000
G09  20290871.414 8 106629353.644 8      -357.121          51.000    20290871.539 8  83087787.328 8      -278.276          51.000
R01  20249011.438 7 108242553.660 7     -1558.727          47.000    20249014.922 6  84188682.143 6     -1212.343          38.000
R02  20600766.695 4 109929637.360 4      1959.438          29.000
R11  20911958.055 6 111747172.598 6      1975.867          38.000    20911958.523 4  86914465.892 4      1536.789          29.000
R12  22901559.469 5 122335930.394 5      4330.727          32.000
R24  22291933.312 6 119205050.729 6     -4038.961          40.000    22291950.578 5  92715001.841 5     -3141.414          33.000
C11  24596688.750 7 128081359.048 7     -2146.496          42.000    24596681.172 5  99040650.370 5     -1659.789          33.000
C21  21956055.344 8 114330931.466 8      -615.922          51.000
C22  25232330.531 5 131391359.747 5     -2482.871          32.000
C26  24496292.523 6 127558660.014 6      3254.203          39.000
E04  25569762.664 5 134370015.183 5      1840.852          35.000
E12  23043073.891 8 121092166.913 8     -1911.137          49.000    23043071.695 7  92784898.073 7     -1464.366          47.000
E19  23957833.133 8 125899271.952 8      -390.473          50.000    23957833.656 8  96468291.185 8      -299.244          51.000
E21  26765194.594 6 140652025.803 6      2551.691          41.000    26765193.523 5 107772382.537 5      1955.354          35.000
E33                                                                  27538994.945 6 110888114.430 6     -2498.976          36.000
> 2020 05 10 00 12  0.0000000  0 16        .000000000000
G06  21076536.125 6 110757941.379 6      -311.016          40.000    21076536.703 6  86304894.219 6      -242.347          40.000
G07  22223624.180 8 116785917.991 8      2666.203          51.000    22223622.820 8  91001982.294 8      2077.561          51.000
G09  20292963.859 8 106640349.608 8      -367.836          51.000    20292964.125 8  83096355.622 8      -286.625          51.000
R01  20257802.719 7 108289548.308 7     -1566.074          47.000    20257806.211 6  84225233.532 6     -1218.058          38.000
R11  20900949.203 6 111688342.877 6      1954.488          36.000    20900950.750 5  86868709.552 5      1520.164          33.000
R17  20842371.188 5 111531758.899 5     -1116.016          34.000
R24  22314637.680 6 119326454.006 6     -4046.164          36.000    22314653.281 5  92809426.596 5     -3147.016          32.000
C11  24609107.133 7 128146022.716 7     -2155.961          42.000    24609099.273 6  99090652.315 6     -1667.244          38.000
C21  21959645.242 8 114349624.755 8      -622.180          51.000
C22  25246646.352 4 131465911.983 4     -2485.102          27.000
C26  24477576.781 6 127461198.088 6      3251.422          37.000
E04  25559285.180 5 134314950.096 5      1838.191          34.000
E12  23054036.477 8 121149775.804 8     -1921.258          49.000    23054033.922 7  92829039.929 7     -1472.061          47.000
E19  23960097.539 8 125911170.822 8      -394.430          50.000    23960097.828 8  96477408.494 8      -302.180          51.000
E21  26750666.227 6 140575673.315 6      2546.945          40.000    26750663.938 6 107713878.745 6      1951.642          38.000
E33                                                                  27557634.445 6 110963164.966 6     -2497.973          37.000
> 2020 05 10 00 12 30.0000000  0 15        .000000000000
G06  21078355.008 6 110767497.204 6      -319.863          38.000    21078354.898 6  86312340.294 6      -249.247          38.000
G07  22208420.641 8 116706023.495 8      2666.809          50.000    22208419.570 8  90939726.845 8      2078.033          51.000
G09  20295084.953 8 106651496.257 8      -368.469          51.000    20295085.414 8  83105041.334 8      -287.119          51.000
R01  20266601.695 7 108336584.880 7     -1562.953          46.000    20266606.031 6  84261817.520 6     -1215.630          38.000
R02  20578811.258 6 109812452.026 6      1957.848          36.000    20578803.531 4  85409679.216 4      1522.764          28.000
R11  20890030.477 6 111629991.853 6      1942.797          41.000    20890032.156 5  86823325.389 5      1511.061          34.000
R17  20848680.508 5 111565564.598 5     -1131.094          33.000
C11  24621548.273 6 128210805.515 6     -2155.992          41.000    24621541.391 6  99140746.408 6     -1667.268          41.000
C21  21963238.562 8 114368335.649 8      -618.629          51.000
C26  24458843.609 5 127363646.526 5      3258.852          34.000
E04                                                                  25548784.938 5 102874361.835 5      1414.806          35.000
E12  23065023.648 8 121207514.202 8     -1921.324          49.000    23065020.742 8  92873281.014 8     -1472.115          48.000
E19  23962351.953 8 125923017.027 8      -388.562          50.000    23962351.781 8  96486485.462 8      -297.721          51.000
E21  26736131.258 6 140499290.386 6      2552.141          39.000    26736130.078 6 107655351.606 6      1955.533          40.000
E33                                                                  27576234.422 6 111038056.281 6     -2489.604          38.000
> 2020 05 10 00 13  0.0000000  0 14        .000000000000
G06  21080294.594 7 110777685.809 7      -350.273          42.000    21080294.273 7  86320279.433 7      -272.940          43.000
G07  22193284.547 8 116626484.590 8      2645.348          49.000    22193283.570 8  90877748.465 8      2061.310          49.000
G09  20297281.398 8 106663038.970 8      -391.246          51.000    20297281.984 8  83114035.652 8      -304.867          51.000
R01  20275455.383 7 108383913.754 7     -1582.414          43.000    20275460.656 6  84298628.869 6     -1230.766          37.000
R02  20567887.328 4 109754117.957 4      1940.121          29.000
R11  20879248.531 6 111572372.990 6      1908.211          39.000    20879250.156 6  86778510.690 6      1484.164          36.000
C11  24634058.477 6 128275949.115 6     -2177.441          41.000    24634052.102 6  99191119.631 6     -1683.742          41.000
C21  21966881.891 8 114387308.338 8      -636.691          51.000
C26  24440141.227 5 127266251.873 5      3244.188          33.000
E04                                                                  25538311.789 6 102832197.896 6      1403.689          36.000
E12  23076081.922 8 121265626.856 8     -1943.160          49.000    23076079.031 8  92917808.885 8     -1488.924          48.000
E19  23964643.031 8 125935056.408 8      -404.395          50.000    23964642.516 8  96495710.436 8      -309.888          51.000
E21  26721637.039 6 140423125.414 6      2534.926          36.000    26721637.773 6 107596991.388 6      1942.612          40.000
E33                                                                  27594840.695 6 111112975.647 6     -2497.698          38.000
> 2020 05 10 00 13 30.0000000  0 13        .000000000000
G06  21082351.406 7 110788490.906 7      -369.723          43.000    21082350.266 7  86328698.935 7      -288.099          43.000
G07  22178213.406 8 116547287.367 8      2635.062          48.000    22178212.477 8  90816036.319 8      2053.292          48.000
G09  20299549.891 8 106674960.693 8      -402.922          51.000    20299550.664 8  83123325.303 8      -313.965          51.000
R01  20284360.898 7 108431518.432 7     -1590.590          42.000    20284366.133 6  84335654.735 6     -1237.125          38.000
R11  20868601.102 6 111515472.910 6      1885.164          39.000    20868602.023 5  86734254.936 5      1466.233          34.000
R24  22382944.688 5 119691665.079 5     -4070.844          32.000
C11  24646633.781 6 128341435.144 6     -2187.992          40.000    24646628.133 6  99241757.622 6     -1691.819          41.000
C21  21970572.227 8 114406526.970 8      -644.008          51.000
E04                                                                  25527863.180 5 102790129.447 5      1401.079          35.000
E12  23087208.117 8 121324096.161 8     -1954.156          50.000    23087205.914 8  92962610.023 8     -1497.343          49.000
E19  23966967.586 8 125947272.549 8      -409.414          50.000    23966967.156 8  96505070.854 8      -313.704          51.000
E21  26707181.477 6 140347164.240 6      2529.074          37.000    26707183.586 7 107538787.339 7      1938.185          42.000
E33                                                                  27613449.688 6 111187909.281 6     -2497.216          37.000
> 2020 05 10 00 14  0.0000000  0 13        .000000000000
G06  21084520.469 7 110799888.229 7      -391.453          43.000    21084517.633 7  86337579.994 7      -305.028          42.000
G07  22163203.156 8 116468409.341 8      2622.184          49.000    22163202.180 8  90754572.912 8      2043.260          49.000
G09  20301885.766 8 106687236.507 8      -416.781          51.000    20301886.852 8  83132890.868 8      -324.765          51.000
R01  20293313.430 6 108479373.686 6     -1601.094          41.000    20293318.750 6  84372875.507 6     -1245.295          37.000
R11  20858083.156 6 111459269.812 6      1860.344          40.000    20858085.570 6  86690541.383 6      1446.934          37.000
R24  22405804.352 4 119813911.292 4     -4079.590          29.000
C11  24659268.578 6 128407237.420 6     -2200.266          37.000    24659264.609 7  99292640.143 7     -1701.418          43.000
C21  21974305.344 8 114425967.824 8      -653.402          51.000
E04  25517438.328 5 134095041.036 5      1824.145          31.000    25517435.312 6 102748138.101 6      1397.242          36.000
E12  23098397.516 8 121382896.567 8     -1967.164          50.000    23098396.203 8  93007664.850 8     -1507.343          49.000
E19  23969321.023 8 125959640.875 8      -416.539          49.000    23969321.023 8  96514547.879 8      -319.133          51.000
E21  26692761.125 6 140271384.835 6      2521.227          40.000    26692763.742 7 107480722.624 7      1931.900          42.000
E33                                                                  27632056.883 6 111262837.441 6     -2499.006          36.000
> 2020 05 10 00 14 30.0000000  0 15        .000000000000
G03  23929192.727 5 125748733.221 5     -3090.531          31.000    23929217.086 5  97986121.983 5     -2408.206          31.000
G06  21086808.977 7 110811913.877 7      -409.391          45.000    21086806.414 7  86346950.603 7      -319.006          44.000
G07  22148261.250 8 116389889.347 8      2613.309          49.000    22148259.578 8  90693388.540 8      2036.347          50.000
G09  20304295.875 8 106699901.838 8      -426.664          51.000    20304296.992 8  83142759.943 8      -332.469          51.000
R01  20302319.602 6 108527516.293 6     -1607.621          38.000    20302324.023 6  84410319.767 6     -1250.372          36.000
R11  20847703.914 6 111403803.776 6      1838.516          41.000    20847706.328 5  86647401.192 5      1429.957          33.000
R12  22756025.555 6 121558622.843 6      4305.742          38.000    22756029.539 5  94545562.181 5      3348.914          35.000
R24  22428714.867 5 119936429.851 5     -4086.109          31.000    22428722.422 4  93283910.847 4     -3178.091          26.000
C11  24671967.969 5 128473389.472 5     -2208.094          31.000    24671968.312 7  99343793.142 7     -1708.130          43.000
C21  21978088.234 8 114445667.030 8      -659.020          51.000
E04                                                                  25507035.789 5 102706251.640 5      1396.350          32.000
E12  23109656.836 8 121442062.878 8     -1976.371          50.000    23109655.789 8  93053000.056 8     -1514.350          48.000
E19  23971710.273 8 125972197.495 8      -419.738          49.000    23971710.789 8  96524169.190 8      -321.588          51.000
E21  26678383.188 6 140195825.569 6      2516.875          40.000    26678385.594 7 107422826.602 7      1928.560          42.000
E33                                                                  27650671.203 6 111337786.404 6     -2496.955          38.000
> 2020 05 10 00 15  0.0000000  0 16        .000000000000
G03  23946862.477 5 125841591.538 5     -3101.895          35.000    23946852.977 5  98058358.705 5     -2417.061          32.000
G06  21089216.969 7 110824568.016 7      -436.012          45.000    21089215.719 7  86356810.967 7      -339.749          45.000
G07  22133388.141 8 116311729.991 8      2595.203          51.000    22133386.078 8  90632485.203 8      2022.236          51.000
G09  20306780.102 8 106712956.296 8      -445.625          51.000    20306780.906 8  83152932.238 8      -347.240          51.000
R01  20311379.375 6 108575946.611 6     -1623.281          37.000    20311383.883 6  84447987.766 6     -1262.552          36.000
R02  20524563.844 5 109522952.041 5      1906.691          30.000
R11  20837462.727 7 111349077.928 7      1807.738          42.000    20837461.109 5  86604836.761 5      1406.019          30.000
R12  22731872.727 7 121429595.279 7      4293.934          44.000    22731874.641 5  94445207.417 5      3339.726          33.000
R24  22451664.727 5 120059128.814 5     -4101.477          31.000    22451677.602 4  93379350.197 4     -3190.043          25.000
C11  24684734.844 4 128539897.467 4     -2226.152          29.000    24684738.211 7  99395215.088 7     -1721.565          44.000
C21  21981920.820 8 114465625.252 8      -673.535          51.000
C26  24365597.656 5 126878067.035 5      3219.965          33.000
E12  23120985.727 8 121501594.108 8     -1994.418          51.000    23120984.320 8  93098614.873 8     -1528.238          48.000
E19  23974135.516 8 125984942.544 8      -431.828          49.000    23974136.320 8  96533934.881 8      -330.896          51.000
E21  26664047.414 7 140120489.047 7      2503.496          43.000    26664049.359 6 107365101.245 6      1918.308          41.000
E33                                                                  27669291.367 6 111412755.182 6     -2502.352          38.000
> 2020 05 10 00 15 30.0000000  0 17        .000000000000
G03  23964559.031 5 125934587.176 5     -3101.395          35.000    23964559.031 5  98130849.745 5     -2416.674          35.000
G06  21091737.508 7 110837815.880 7      -451.012          46.000    21091736.977 7  86367133.964 7      -351.438          46.000
G07  22118577.695 8 116233898.515 8      2589.211          51.000    22118575.555 8  90571837.344 8      2017.567          51.000
G09  20309331.602 8 106726364.370 8      -452.398          51.000    20309332.344 8  83163380.092 8      -352.518          51.000
R01  20320486.312 6 108624628.756 6     -1627.074          36.000    20320491.234 5  84485851.688 5     -1265.502          35.000
R02  20513840.383 5 109465782.057 5      1905.109          32.000
R11  20827354.305 6 111295060.305 6      1789.230          38.000    20827352.898 5  86562823.123 5      1391.630          34.000
R12  22707747.203 7 121300716.309 7      4294.020          42.000    22707747.344 5  94344968.212 5      3339.793          30.000
R17  20889753.688 5 111785247.611 5     -1300.047          30.000    20889759.289 4  86944127.808 4     -1011.148          26.000
R24  22474669.625 5 120182144.399 5     -4104.039          31.000
C11                                                                  24697568.078 7  99446877.697 7     -1725.710          43.000
C21  21985796.750 8 114485808.357 8      -676.109          51.000
C26  24347033.422 5 126781390.768 5      3220.680          35.000
E12  23132376.992 8 121561454.076 8     -2000.402          50.000    23132375.125 8  93144481.573 8     -1532.680          48.000
E19  23976590.023 8 125997840.924 8      -431.988          49.000    23976590.891 8  96543818.045 8      -331.043          51.000
E21  26649748.273 7 140045342.769 7      2502.113          43.000    26649749.188 6 107307521.648 6      1917.129          40.000
E33                                                                  27687908.164 6 111487715.944 6     -2498.398          36.000
> 2020 05 10 00 16  0.0000000  0 15        .000000000000
G03  23982282.773 6 126027723.524 6     -3105.738          37.000    23982281.812 5  98203423.679 5     -2420.050          32.000
G06  21094372.109 7 110851661.046 7      -470.684          45.000    21094371.977 7  86377922.461 7      -366.766          46.000
G07  22103830.570 8 116156400.413 8      2578.566          51.000    22103828.719 8  90511449.235 8      2009.276          51.000
G09  20311951.016 8 106740129.242 8      -463.820          51.000    20311951.969 8  83174105.976 8      -361.418          51.000
R01  20329641.766 5 108673566.872 5     -1634.906          34.000    20329645.625 5  84523914.662 5     -1271.597          34.000
R11  20817378.125 5 111241757.582 5      1765.426          35.000    20817378.234 5  86521365.417 5      1373.100          35.000
R12  22683651.125 7 121171994.786 7      4288.859          42.000    22683652.258 5  94244851.565 5      3335.783          31.000
R17  20897115.617 5 111824646.742 5     -1325.262          34.000
C11  24710457.875 6 128673825.741 6     -2241.703          37.000    24710458.148 7  99498782.293 7     -1733.433          42.000
C21  21989716.695 8 114506220.464 8      -683.352          51.000
C26  24328494.586 6 126684851.713 6      3216.543          37.000
E12  23143830.922 8 121621645.378 8     -2010.934          49.000    23143828.844 8  93190602.171 8     -1540.860          48.000
E19  23979074.508 8 126010896.621 8      -436.895          49.000    23979075.336 8  96553821.758 8      -334.742          51.000
E21  26635486.516 7 139970392.859 7      2495.801          43.000    26635485.328 5 107250092.479 5      1912.585          35.000
E33                                                                  27706522.430 5 111562670.330 5     -2497.473          35.000
> 2020 05 10 00 16 30.0000000  0 15        .000000000000
G03  24000031.961 5 126120993.419 5     -3111.891          35.000    24000034.680 5  98276101.529 5     -2424.850          33.000
G06  21097118.664 7 110866097.114 7      -491.293          45.000    21097119.648 7  86389171.293 7      -382.826          45.000
G07  22089145.570 8 116079231.839 8      2566.328          48.000    22089144.773 8  90451317.882 8      1999.739          48.000
G09  20314636.930 8 106754243.772 8      -476.742          51.000    20314637.930 8  83185104.315 8      -371.487          51.000
R01  20338843.711 5 108722754.212 5     -1644.250          31.000    20338847.719 5  84562171.541 5     -1278.864          35.000
R11  20807534.883 6 111189166.366 6      1740.555          37.000    20807538.281 6  86480461.051 6      1353.762          38.000
R12  22659584.148 6 121043428.275 6      4282.465          38.000    22659586.078 5  94144855.459 5      3330.809          31.000
R17  20904618.758 5 111864815.582 5     -1352.422          31.000
C11  24723408.719 6 128741254.107 6     -2253.055          39.000    24723406.773 7  99550922.195 7     -1742.153          43.000
C21  21993679.352 8 114526855.579 8      -691.961          51.000
C26  24309981.219 6 126588445.972 6      3210.949          40.000
E12  23155346.141 7 121682160.206 7     -2022.953          47.000    23155344.680 8  93236970.667 8     -1550.058          49.000
E19  23981587.641 8 126024102.822 8      -443.090          49.000    23981588.352 8  96563940.800 8      -339.480          51.000
E21  26621261.031 6 139895635.091 6      2488.289          40.000    26621257.258 5 107192810.565 5      1906.695          32.000
E33                                                                  27725133.867 5 111637612.184 5     -2498.078          35.000
> 2020 05 10 00 17  0.0000000  0 14        .000000000000
G06  21099976.664 7 110881117.393 7      -512.777          45.000    21099978.039 7  86400875.433 7      -399.567          45.000
G07  22074521.969 7 116002388.431 7      2553.750          47.000    22074522.250 7  90391439.873 7      1989.935          47.000
G09  20317387.914 8 106768700.857 8      -490.070          51.000    20317388.891 8  83196369.584 8      -381.873          51.000
R01  20348091.836 5 108772184.163 5     -1654.105          32.000    20348095.266 5  84600617.060 5     -1286.526          34.000
R11  20797825.852 6 111137282.838 6      1714.855          36.000    20797828.883 5  86440107.112 5      1333.773          34.000
R17  20912266.867 5 111905745.262 5     -1379.438          34.000
C11  24736416.062 6 128808978.165 6     -2264.715          41.000    24736412.484 7  99603290.707 7     -1751.194          43.000
C21  21997683.688 8 114547707.746 8      -701.078          51.000
C26  24291492.477 7 126492169.769 7      3204.633          44.000
E04                                                                  25455353.211 6 102498142.519 6      1379.685          36.000
E12  23166921.328 7 121742990.834 7     -2035.352          47.000    23166920.875 8  93283581.143 8     -1559.504          49.000
E19  23984128.172 8 126037453.086 8      -449.840          50.000    23984128.766 8  96574170.221 8      -344.685          51.000
E21  26607071.289 6 139821065.391 6      2480.129          39.000    26607065.188 5 107135625.859 5      1900.026          31.000
E33                                                                  27743740.117 5 111712535.300 5     -2498.823          35.000
> 2020 05 10 00 17 30.0000000  0 16        .000000000000
G02  22842762.312 6 120039574.274 6      1624.336          38.000
G06  21102974.344 7 110896872.328 7      -533.031          45.000    21102976.297 7  86413151.975 7      -415.352          44.000
G07  22059989.969 7 115926023.243 7      2541.922          47.000    22059990.789 7  90331934.518 7      1980.718          47.000
G09  20320232.625 8 106783650.356 8      -502.105          51.000    20320233.711 8  83208018.538 8      -391.251          51.000
R01  20357413.523 5 108822009.477 5     -1662.793          32.000    20357416.336 5  84639370.149 5     -1293.280          31.000
R11  20788277.930 6 111086263.037 6      1690.512          40.000    20788282.094 6  86400425.106 6      1314.842          36.000
R17  20920088.000 5 111947586.545 5     -1405.531          33.000
R24  22567100.422 4 120676426.702 4     -4135.457          29.000
C11  24749508.000 6 128877144.884 6     -2275.176          40.000    24749504.008 7  99656001.520 7     -1759.470          44.000
C21  22001758.609 8 114568926.428 8      -709.027          51.000
C26  24273057.391 7 126396174.804 7      3199.488          46.000
E04                                                                  25445100.633 5 102456859.458 5      1376.162          34.000
E12  23178584.867 7 121804286.448 7     -2046.582          46.000    23178585.508 8  93330547.931 8     -1568.178          49.000
E19  23986724.719 8 126051097.809 8      -455.367          50.000    23986725.328 8  96584625.276 8      -348.948          51.000
E21  26592946.094 6 139746836.563 6      2472.844          37.000    26592939.945 5 107078747.217 5      1894.935          34.000
E33                                                                  27762369.656 5 111787553.891 5     -2499.009          34.000
> 2020 05 10 00 18  0.0000000  0 17        .000000000000
G02  22833511.602 5 119990885.444 5      1609.500          32.000
G06  21106053.875 7 110913056.213 7      -553.234          45.000    21106055.703 7  86425762.785 7      -431.095          46.000
G07  22045491.562 8 115849832.904 8      2529.875          49.000    22045492.312 8  90272565.435 8      1971.328          49.000
G09  20323112.836 8 106798786.151 8      -514.258          51.000    20323113.883 8  83219812.660 8      -400.720          51.000
R01  20366749.945 5 108871919.723 5     -1672.562          31.000    20366752.203 5  84678189.241 5     -1300.882          31.000
R02  20460816.758 5 109182812.565 5      1866.082          34.000
R11  20778835.211 6 111035799.520 6      1666.484          36.000    20778839.812 5  86361175.791 5      1296.155          30.000
R17  20928020.117 5 111990026.552 5     -1431.340          30.000
R24  22590340.195 5 120800666.626 5     -4142.891          32.000    22590352.266 4  93956133.945 4     -3222.251          29.000
C11  24762625.711 6 128945449.430 6     -2286.051          40.000    24762622.453 7  99708818.853 7     -1767.541          45.000
C21  22005846.039 8 114590209.392 8      -717.230          51.000
C26  24254618.484 8 126300160.978 8      3193.980          49.000
E04                                                                  25434834.164 5 102415530.409 5      1372.863          34.000
E12  23190278.820 7 121865740.290 7     -2057.863          45.000    23190280.117 8  93377635.968 8     -1576.870          49.000
E19  23989319.203 8 126064731.524 8      -461.129          49.000    23989319.922 8  96595071.893 8      -353.324          51.000
E21  26578826.336 5 139672679.478 5      2465.863          34.000    26578825.047 6 107021899.492 6      1889.128          40.000
E33                                                                  27780964.969 5 111862436.661 5     -2498.772          32.000
> 2020 05 10 00 18 30.0000000  0 15        .000000000000
G03  24071321.500 5 126495632.806 5     -3131.934          32.000    24071320.484 5  98568033.385 5     -2440.449          31.000
G06  21109272.312 7 110929968.372 7      -572.664          46.000    21109273.734 7  86438941.075 7      -446.232          46.000
G07  22031083.922 8 115774118.966 8      2518.930          49.000    22031083.992 8  90213567.573 8      1962.802          49.000
G09  20326085.367 8 106814407.008 8      -525.621          51.000    20326086.219 8  83231984.757 8      -409.575          51.000
R01  20376159.133 5 108922219.196 5     -1679.934          33.000    20376162.570 5  84717311.072 5     -1306.618          32.000
R11  20769554.609 6 110986199.449 6      1642.207          37.000    20769557.891 5  86322598.001 5      1277.278          32.000
R12  22563654.469 5 120530970.443 5      4257.621          34.000    22563659.359 5  93746335.476 5      3311.489          31.000
R24  22613595.211 4 120925055.330 4     -4149.359          28.000    22613611.305 4  94052892.777 4     -3227.276          25.000
C11  24775825.828 6 129014186.204 6     -2295.195          39.000    24775823.828 7  99761970.489 7     -1774.824          44.000
C21  22010002.797 8 114611853.724 8      -724.359          51.000
C26  24236233.742 8 126204427.612 8      3189.539          50.000
E12  23202060.070 7 121927650.487 7     -2068.066          46.000    23202061.195 8  93425073.661 8     -1584.568          49.000
E19  23991968.477 8 126078653.221 8      -465.676          50.000    23991969.414 8  96605739.169 8      -356.820          51.000
E21  26564770.125 6 139598821.764 6      2459.340          37.000    26564774.023 6 106965311.792 6      1884.372          41.000
E33                                                                  27799583.148 5 111937400.870 5     -2497.811          32.000
> 2020 05 10 00 19  0.0000000  0 15        .000000000000
G03  24089217.594 5 126589671.299 5     -3136.941          30.000
G06  21112601.953 7 110947465.475 7      -593.559          45.000    21112603.711 7  86452575.169 7      -462.516          45.000
G07  22016739.922 8 115698739.939 8      2506.469          50.000    22016739.352 8  90154830.657 8      1953.093          50.000
G09  20329122.812 8 106830369.202 8      -538.332          51.000    20329123.664 8  83244422.830 8      -419.480          51.000
R01  20385614.570 6 108972762.780 6     -1689.203          36.000    20385618.086 5  84756622.698 5     -1313.822          30.000
R11  20760408.922 6 110937320.326 6      1616.504          41.000    20760410.953 4  86284580.956 4      1257.275          29.000
R12  22539768.719 5 120403360.512 5      4250.086          30.000    22539774.250 5  93647083.358 5      3305.622          32.000
R17  20944357.203 4 112077490.773 4     -1482.355          28.000
C11  24789081.070 6 129083211.369 6     -2306.082          40.000    24789079.305 7  99815345.107 7     -1783.287          44.000
C21  22014201.719 8 114633718.057 8      -733.027          51.000
C26  24217875.961 8 126108835.514 8      3183.520          50.000
E12  23213900.891 7 121989872.624 7     -2079.727          47.000    23213900.969 8  93472750.379 8     -1593.605          49.000
E19  23994645.344 8 126092720.089 8      -471.766          50.000    23994646.453 8  96616517.680 8      -361.486          51.000
E21  26550754.133 6 139525168.721 6      2451.145          40.000    26550759.781 6 106908876.318 6      1878.150          41.000
E33                                                                  27818195.781 5 112012346.623 5     -2497.985          31.000
> 2020 05 10 00 19 30.0000000  0 12        .000000000000
G06  21116043.094 7 110965548.583 7      -612.984          47.000    21116045.039 7  86466665.896 7      -477.650          47.000
G07  22002460.695 8 115623700.216 8      2495.320          51.000    22002459.281 8  90096358.146 8      1944.405          51.000
G09  20332225.375 8 106846673.367 8      -549.551          51.000    20332226.297 8  83257127.382 8      -428.221          51.000
R01  20395116.531 6 109023551.093 6     -1697.242          36.000    20395117.938 5  84796124.746 5     -1320.071          31.000
R11  20751398.688 6 110889166.186 6      1592.898          41.000    20751397.383 5  86247127.647 5      1238.921          34.000
C11  24802391.570 6 129152523.922 6     -2315.605          40.000    24802389.672 7  99868941.986 7     -1790.495          45.000
C21  22018443.258 8 114655804.081 8      -740.211          51.000
C26  24199545.875 8 126013388.560 8      3178.793          49.000
E12  23225800.930 7 122052406.689 7     -2089.879          47.000    23225799.828 8  93520666.063 8     -1601.306          49.000
E19  23997350.047 8 126106933.451 8      -476.488          49.000    23997351.172 8  96627408.432 8      -365.140          51.000
E21  26536778.164 7 139451717.853 7      2444.828          42.000    26536783.328 6 106852595.817 6      1873.103          38.000
E33                                                                  27836801.953 5 112087266.814 5     -2497.365          31.000
> 2020 05 10 00 20  0.0000000  0 13        .000000000000
G06  21119591.125 8 110984191.701 8      -630.723          48.000    21119593.000 8  86481193.027 8      -491.472          48.000
G07  21988241.797 8 115548976.324 8      2485.609          51.000    21988239.922 8  90038131.732 8      1936.838          51.000
G09  20335388.109 8 106863293.128 8      -558.934          51.000    20335388.836 8  83270077.845 8      -435.533          51.000
R01  20404658.109 5 109074558.393 5     -1703.844          32.000    20404661.508 5  84835796.992 5     -1325.218          33.000
R11  20742518.055 6 110841713.590 6      1570.008          41.000    20742517.984 5  86210220.139 5      1221.117          32.000
R12  22492089.188 5 120148722.311 5      4240.336          34.000    22492090.648 6  93448998.363 6      3298.039          36.000
R17  20961257.180 5 112167920.479 5     -1531.129          31.000
C11  24815751.578 6 129222096.233 6     -2323.250          41.000    24815749.914 7  99922739.716 7     -1796.563          46.000
C21  22022722.586 8 114678086.771 8      -745.895          51.000
C26  24181239.125 8 125918063.867 8      3175.547          48.000
E12  23237755.164 7 122115225.634 7     -2098.633          47.000    23237752.977 8  93568800.043 8     -1608.106          49.000
E19  24000077.688 8 126121267.230 8      -479.793          49.000    24000078.648 8  96638391.444 8      -367.661          51.000
E21  26522836.633 6 139378445.865 6      2439.441          40.000
> 2020 05 10 00 20 30.0000000  0 14        .000000000000
G06  21123246.406 8 111003398.143 8      -658.922          49.000    21123248.188 8  86496159.086 8      -513.443          49.000
G07  21974083.922 8 115474573.181 8      2465.359          51.000    21974081.930 8  89980155.274 8      1921.059          51.000
G09  20338611.430 8 106880231.346 8      -579.238          51.000    20338611.906 8  83283276.463 8      -451.351          51.000
R01  20414240.211 5 109125788.188 5     -1720.820          32.000    20414245.367 5  84875642.405 5     -1338.413          31.000
R11  20733770.766 6 110794969.193 6      1536.832          41.000    20733770.617 4  86173863.322 4      1195.311          29.000
R12  22468288.977 6 120021615.442 6      4224.664          40.000    22468295.664 6  93350137.471 6      3285.847          39.000
R17  20969915.344 5 112214217.545 5     -1564.336          31.000
C11  24829161.625 6 129291929.497 6     -2341.512          41.000    24829161.008 7  99976739.186 7     -1810.379          47.000
C21  22027040.344 8 114700569.958 8      -762.035          51.000
C22  25492480.062 4 132746036.726 4     -2542.516          27.000
C26  24162957.117 7 125822867.531 7      3161.727          47.000
E12  23249763.742 7 122178331.605 7     -2117.598          47.000    23249761.539 8  93617153.937 8     -1622.536          49.000
E19  24002828.891 8 126135724.990 8      -493.238          49.000    24002829.719 8  96649469.460 8      -377.966          51.000
E21  26508930.078 6 139305358.480 6      2424.051          39.000
> 2020 05 10 00 21  0.0000000  0 15        .000000000000
G06  21127071.781 8 111023498.743 8      -672.008          48.000    21127072.742 8  86511821.911 8      -523.642          48.000
G07  21960050.203 8 115400824.265 8      2460.273          51.000    21960048.414 8  89922688.606 8      1917.096          51.000
G09  20341958.203 8 106897818.511 8      -584.176          51.000    20341958.656 8  83296980.755 8      -455.202          51.000
R02  20398595.086 5 108850804.853 5      1824.191          30.000    20398604.023 4  84661778.614 4      1418.800          27.000
R11  20725218.258 6 110749272.269 6      1519.023          36.000
R12  22444588.117 7 119895015.801 7      4224.660          43.000    22444595.805 6  93251671.091 6      3285.844          39.000
R17  20978764.391 5 112261598.036 5     -1583.117          34.000
R24  22730473.906 5 121550019.781 5     -4181.312          31.000    22730470.227 4  94538909.357 4     -3252.135          29.000
C11  24842684.352 6 129362349.763 6     -2344.227          40.000    24842684.898 7 100031192.604 7     -1812.853          47.000
C21  22031459.578 8 114723582.274 8      -763.121          51.000
C26  24144763.391 7 125728130.272 7      3163.051          45.000
E04  25373836.367 6 133340404.538 6      1770.996          40.000
E12  23261889.633 7 122242054.412 7     -2121.492          46.000    23261888.211 8  93665980.507 8     -1625.520          50.000
E19  24005666.758 8 126150637.741 8      -491.816          50.000    24005667.516 8  96660896.110 8      -376.801          51.000
E21  26495121.984 5 139232789.276 5      2423.402          35.000
> 2020 05 10 00 21 30.0000000  0 13        .000000000000
G06  21130957.766 8 111043919.955 8      -694.969          48.000    21130958.438 8  86527734.548 8      -541.534          48.000
G07  21946031.906 8 115327159.242 8      2445.148          50.000    21946030.508 8  89865287.295 8      1905.307          50.000
G09  20345319.289 8 106915480.767 8      -598.895          51.000    20345319.930 8  83310743.556 8      -466.668          51.000
R01  20433619.273 5 109229404.261 5     -1734.844          31.000    20433618.938 5  84956202.943 5     -1349.323          32.000
R11  20716752.734 6 110704042.677 6      1490.746          38.000    20716772.484 4  86103218.353 4      1159.466          25.000
R12  22420874.930 7 119768345.548 7      4214.434          44.000    22420883.125 6  93153149.830 6      3277.893          39.000
R24  22753940.398 5 121675509.248 5     -4190.406          31.000    22753939.914 4  94636511.757 4     -3259.208          29.000
C11  24856209.969 6 129432786.723 6     -2356.797          39.000    24856212.070 8 100085658.946 8     -1822.549          48.000
C21  22035871.430 8 114746556.063 8      -773.965          51.000
C26  24126548.977 7 125633286.672 7      3154.273          44.000
E04  25363731.938 5 133287294.656 5      1764.129          33.000    25363735.000 5 102129245.002 5      1351.912          31.000
E12  23274023.359 7 122305819.517 7     -2135.152          46.000    23274023.289 8  93714839.486 8     -1635.954          51.000
E19  24008482.234 8 126165432.360 8      -500.102          51.000    24008482.883 8  96672232.244 8      -383.102          51.000
> 2020 05 10 00 22  0.0000000  0 12        .000000000000
G04  21951005.234 5 115353287.568 5     -2447.660          35.000
G06  21135017.211 8 111065252.640 8      -700.555          48.000    21135017.797 8  86544357.445 8      -545.887          48.000
G07  21932142.234 8 115254170.966 8      2447.520          50.000    21932141.188 8  89808413.308 8      1907.158          50.000
G09  20348807.008 8 106933808.737 8      -596.121          51.000    20348807.734 8  83325025.085 8      -464.510          51.000
R11  20708489.086 6 110659884.389 6      1480.320          38.000    20708499.742 4  86068830.729 4      1151.360          29.000
R12  22397262.172 7 119642210.288 7      4221.734          44.000    22397269.227 6  93055044.658 6      3283.574          39.000
R17  20996849.961 5 112358387.006 5     -1621.980          35.000
C11  24869851.008 6 129503824.009 6     -2352.578          39.000    24869854.297 8 100140589.452 8     -1818.975          49.000
C21  22040388.242 8 114770077.671 8      -767.598          51.000
C26  24108427.195 7 125538925.206 7      3162.688          42.000
E12  23286277.703 7 122370216.847 7     -2131.316          47.000    23286278.383 8  93764182.894 8     -1633.012          50.000
E19  24011387.781 8 126180700.121 8      -490.953          50.000    24011388.242 8  96683930.920 8      -376.239          51.000
> 2020 05 10 00 22 30.0000000  0 15        .000000000000
G03  24215231.773 5 127251895.860 5     -3170.457          33.000    24215230.820 5  99157321.234 5     -2470.486          31.000
G06  21139112.805 7 111086775.703 7      -733.992          47.000    21139113.250 7  86561128.659 7      -571.942          47.000
G07  21918244.930 8 115181140.517 8      2421.773          51.000    21918243.883 8  89751506.484 8      1887.096          51.000
G09  20352283.953 8 106952080.922 8      -621.395          51.000    20352284.641 8  83339263.141 8      -484.204          51.000
R11  20700289.422 6 110616066.957 6      1440.852          36.000    20700294.336 4  86034750.502 4      1120.659          28.000
R12  22373613.492 7 119515882.136 7      4200.527          45.000    22373618.867 6  92956789.392 6      3267.077          41.000
R17  21006046.258 5 112407629.033 5     -1660.445          33.000
R24  22801014.742 4 121927264.245 4     -4200.844          29.000    22801019.938 5  94832313.574 5     -3267.329          30.000
C11  24883470.875 6 129574745.283 6     -2375.367          41.000    24883474.008 8 100195430.314 8     -1836.706          48.000
C21  22044873.133 8 114793433.258 8      -788.930          51.000
C22  25551130.508 5 133051421.157 5     -2550.160          31.000
C26  24090260.641 6 125444334.247 6      3143.500          41.000
E04  25343615.562 6 133181592.258 6      1757.391          36.000    25343616.188 5 102048239.452 5      1346.488          32.000
E12  23298515.070 8 122434524.189 8     -2155.426          48.000    23298515.922 8  93813457.343 8     -1651.560          50.000
E19  24014246.094 8 126195720.129 8      -509.875          50.000    24014246.430 8  96695439.751 8      -390.665          51.000
> 2020 05 10 00 23  0.0000000  0 15        .000000000000
G03  24233349.922 6 127347099.121 6     -3174.293          36.000    24233344.461 5  99231469.635 5     -2473.475          35.000
G04  21979141.930 6 115501163.535 6     -2472.660          36.000
G06  21143365.070 8 111109121.959 8      -753.039          48.000    21143365.414 8  86578541.310 8      -586.784          48.000
G07  21904460.812 8 115108703.579 8      2410.203          51.000    21904459.469 8  89695062.125 8      1878.080          51.000
G09  20355870.680 8 106970929.877 8      -632.367          51.000    20355871.305 8  83353950.632 8      -492.754          51.000
R11  20692274.180 5 110573236.893 5      1416.699          34.000    20692276.805 5  86001438.202 5      1101.877          31.000
R12  22350050.461 7 119390009.342 7      4193.699          46.000    22350055.477 7  92858888.318 7      3261.766          44.000
R17  21015413.688 4 112457744.783 4     -1684.352          29.000
R24  22824607.930 5 122053417.323 5     -4206.242          34.000    22824609.883 5  94930432.684 5     -3271.519          31.000
C11  24897188.414 6 129646175.692 6     -2383.859          41.000    24897191.336 8 100250664.843 8     -1843.381          48.000
C21  22049446.766 8 114817250.696 8      -796.055          51.000
C26  24072169.578 6 125350143.865 6      3138.340          41.000
E04  25333596.227 5 133128946.173 5      1754.438          34.000    25333602.719 6 102007907.145 6      1343.932          36.000
E12  23310855.758 8 122499373.394 8     -2165.152          48.000    23310855.906 8  93863146.979 8     -1658.902          48.000
E19  24017177.602 8 126211125.519 8      -514.312          50.000    24017177.914 8  96707243.882 8      -394.096          51.000
> 2020 05 10 00 23 30.0000000  0 16        .000000000000
G03  24251482.008 5 127442371.769 5     -3176.414          34.000    24251478.633 5  99305707.978 5     -2475.128          34.000
G06  21147718.477 8 111131999.291 8      -771.371          49.000    21147718.758 8  86596367.779 8      -601.068          49.000
G07  21890734.461 8 115036570.499 8      2399.336          51.000    21890732.664 8  89638854.526 8      1869.612          51.000
G09  20359511.664 8 106990063.276 8      -642.508          51.000    20359512.352 8  83368859.779 8      -500.655          51.000
R02  20347884.734 5 108580213.565 5      1787.160          30.000
R10  22560667.664 6 120261047.515 6     -2736.500          37.000
R11  20684388.242 5 110531100.434 5      1392.430          30.000    20684392.984 5  85968665.364 5      1083.007          33.000
R12  22326518.164 7 119264300.207 7      4187.613          47.000    22326523.000 7  92761114.561 7      3257.033          45.000
R24  22848217.844 5 122179671.580 5     -4210.082          33.000    22848220.266 5  95028630.441 5     -3274.505          33.000
C11  24910948.008 7 129717824.032 7     -2391.832          42.000    24910950.562 8 100306067.861 8     -1849.444          48.000
C21  22054053.750 8 114841241.416 8      -802.617          51.000
C26  24054101.172 7 125256067.550 7      3134.066          43.000
E04                                                                  25323597.531 5 101967611.829 5      1342.564          33.000
E12  23323243.750 8 122564471.416 8     -2174.055          49.000    23323242.805 7  93913027.274 7     -1665.822          47.000
E19  24020126.789 8 126226624.584 8      -518.160          49.000    24020127.156 8  96719119.791 8      -397.035          50.000
E21  26426546.094 5 138872438.328 5      2384.875          33.000
> 2020 05 10 00 24  0.0000000  0 15        .000000000000
G03  24269646.188 5 127537813.993 5     -3187.188          35.000    24269640.234 5  99380078.484 5     -2483.529          32.000
G06  21152192.055 8 111155507.769 8      -796.840          50.000    21152192.445 8  86614686.047 8      -620.917          50.000
G07  21877085.195 8 114964843.665 8      2381.438          51.000    21877082.695 8  89582963.491 8      1855.666          51.000
G09  20363225.781 8 107009580.942 8      -659.738          51.000    20363226.531 8  83384068.360 8      -514.082          51.000
R10  22576137.648 5 120343513.230 5     -2762.359          34.000
R11  20676651.070 6 110489761.693 6      1362.031          36.000    20676655.875 5  85936513.032 5      1059.355          31.000
R12  22303036.492 8 119138861.518 8      4173.930          48.000    22303041.047 7  92663551.127 7      3246.390          45.000
R24  22871866.180 5 122306125.175 5     -4222.742          31.000    22871866.648 5  95126983.187 5     -3284.355          33.000
C11  24924767.875 6 129789787.626 6     -2406.863          41.000    24924770.320 7 100361714.641 7     -1861.006          47.000
C21  22058713.391 8 114865505.383 8      -816.141          51.000
C26  24036076.070 7 125162207.507 7      3122.180          45.000
E04                                                                  25313617.266 5 101927430.846 5      1335.602          33.000
E12  23335697.875 8 122629917.369 8     -2190.035          49.000    23335696.508 7  93963174.160 7     -1678.187          47.000
E19  24023112.852 8 126242317.685 8      -529.164          49.000    24023113.281 8  96731144.373 8      -405.401          50.000
E21  26412963.367 5 138801076.368 5      2371.605          35.000    26412961.906 5 106354049.860 5      1816.827          31.000
> 2020 05 10 00 24 30.0000000  0 16        .000000000000
G04  22021653.695 6 115724570.771 6     -2497.312          37.000
G06  21156788.922 8 111179664.375 8      -820.074          50.000    21156789.570 8  86633509.350 8      -639.019          50.000
G07  21863516.750 8 114893543.259 8      2365.480          49.000    21863513.945 8  89527404.743 8      1843.232          49.000
G09  20367016.164 8 107029499.674 8      -674.758          51.000    20367016.789 8  83399589.456 8      -525.785          51.000
R02  20327918.719 5 108473668.114 5      1762.910          32.000
R10  22591730.484 4 120426637.114 4     -2785.402          28.000
R11  20669069.594 5 110449241.181 5      1332.910          35.000    20669072.641 5  85904997.052 5      1036.717          35.000
R12  22279609.328 8 119013715.796 8      4162.508          49.000    22279613.852 7  92566215.542 7      3237.506          45.000
R24  22895557.188 4 122432830.555 4     -4230.180          28.000    22895553.062 5  95225501.382 5     -3290.140          33.000
C11  24938650.875 6 129862081.548 6     -2419.359          41.000    24938653.586 8 100417616.870 8     -1870.681          48.000
C21  22063428.805 8 114890060.386 8      -827.410          51.000
C26  24018097.133 7 125068583.596 7      3112.859          46.000
E04  25303660.234 5 132971632.258 5      1735.566          33.000    25303668.312 5 101887377.771 5      1329.993          32.000
E12  23348221.102 8 122695727.315 8     -2203.703          49.000    23348220.117 7  94013599.947 7     -1688.549          47.000
E19  24026139.211 8 126258222.569 8      -537.602          49.000    24026139.617 8  96743331.239 8      -412.021          50.000
E21  26399435.117 5 138730005.295 5      2360.516          35.000    26399439.250 5 106299592.812 5      1808.240          34.000
> 2020 05 10 00 25  0.0000000  0 16        .000000000000
G04  22035897.719 6 115799422.080 6     -2496.461          37.000
G06  21161495.570 8 111204399.095 8      -833.363          50.000    21161496.688 8  86652783.172 8      -649.371          50.000
G07  21850016.141 7 114822601.589 7      2359.500          47.000    21850014.070 7  89472125.541 7      1838.574          47.000
G09  20370869.539 8 107049749.343 8      -679.762          51.000    20370870.133 8  83415368.406 8      -529.684          51.000
R01  20502919.289 5 109599832.810 5     -1793.488          34.000    20502908.812 4  85244275.052 4     -1394.935          26.000
R10  22607433.797 5 120510343.841 5     -2799.074          32.000
R11  20661629.320 6 110409470.832 6      1313.809          38.000    20661631.484 5  85874064.601 5      1021.851          35.000
R12  22256224.281 8 118888797.201 8      4160.828          49.000    22256228.688 7  92469056.596 7      3236.197          43.000
R17  21054339.516 5 112666027.559 5     -1784.336          34.000    21054353.000 4  87629158.791 4     -1387.817          26.000
C11  24952583.766 6 129934634.607 6     -2422.012          41.000    24952586.438 8 100473719.484 8     -1872.820          48.000
C21  22068187.141 8 114914837.949 8      -828.934          51.000
C26  24000151.250 7 124975129.620 7      3113.078          47.000
E04  25293733.727 5 132919457.250 5      1738.074          34.000    25293739.789 5 101847407.539 5      1331.981          33.000
E12  23360799.883 8 122761830.385 8     -2207.738          49.000    23360799.727 7  94064250.338 7     -1691.503          47.000
E19  24029192.719 8 126274269.602 8      -536.473          49.000    24029192.969 8  96755627.010 8      -411.060          50.000
E21  26385951.344 5 138659109.965 5      2358.555          33.000    26385962.172 6 106245307.171 6      1807.225          36.000
> 2020 05 10 00 25 30.0000000  0 14        .000000000000
G04  22050168.891 5 115874419.444 5     -2498.273          33.000
G06  21166308.570 8 111229693.849 8      -848.254          50.000    21166310.453 8  86672493.362 8      -660.977          50.000
G07  21836580.797 8 114752002.420 8      2351.777          48.000    21836579.992 8  89417113.220 8      1832.554          48.000
G09  20374782.328 8 107070311.591 8      -686.430          51.000    20374783.266 8  83431390.937 8      -534.880          51.000
R10  22623242.586 5 120594616.173 5     -2814.664          33.000
R11  20654326.344 5 110370434.853 5      1294.176          32.000    20654325.336 5  85843703.339 5      1006.584          31.000
R12  22232878.859 8 118764092.607 8      4157.512          49.000    22232883.203 6  92372064.150 6      3233.623          39.000
C11  24966562.773 7 130007427.145 7     -2426.328          42.000    24966565.242 8 100530007.287 8     -1876.034          49.000
C21  22072985.000 8 114939821.054 8      -831.996          51.000
C26  23982235.398 8 124881830.652 8      3111.625          48.000
E04  25283824.750 5 132867394.511 5      1739.836          33.000    25283826.977 5 101807493.767 5      1332.472          31.000
E12  23373430.742 8 122828207.498 8     -2212.969          48.000    23373430.828 7  94115110.715 7     -1695.541          46.000
E19  24032270.070 8 126290441.006 8      -536.812          50.000    24032270.117 8  96768018.082 8      -411.318          50.000
E21                                                                  26372524.438 5 106191181.203 5      1804.519          33.000
> 2020 05 10 00 26  0.0000000  0 11        .000000000000
G06  21171242.695 8 111255623.315 8      -885.801          51.000    21171245.008 8  86692698.145 8      -690.231          51.000
G07  21823226.055 8 114681824.010 8      2321.453          50.000    21823226.227 8  89362428.751 8      1808.928          49.000
G09  20378768.789 8 107091261.044 8      -715.516          51.000    20378769.984 8  83447715.184 8      -557.545          51.000
R01  20523142.914 5 109707953.444 5     -1823.598          30.000    20523144.523 4  85328418.564 4     -1418.348          26.000
R12  22209588.859 8 118639682.990 8      4131.105          50.000    22209591.391 6  92275301.192 6      3213.088          37.000
C11  24980602.414 7 130080531.442 7     -2452.766          44.000    24980604.258 8 100586536.188 8     -1896.664          50.000
C21  22077836.797 8 114965084.711 8      -857.484          51.000
C26  23964364.070 8 124788763.898 8      3087.543          49.000
E04                                                                  25273946.383 5 101767708.402 5      1315.956          30.000
E12  23386127.797 8 122894932.551 8     -2240.844          48.000    23386127.523 7  94166237.702 7     -1716.944          46.000
E19  24035385.570 8 126306812.145 8      -559.840          50.000    24035385.453 8  96780562.198 8      -429.046          51.000
> 2020 05 10 00 26 30.0000000  0 12        .000000000000
G06  21176280.133 8 111282094.574 8      -893.805          51.000    21176282.344 8  86713325.126 8      -696.471          51.000
G07  21809934.695 8 114611975.729 8      2320.398          51.000    21809935.297 8  89308001.520 8      1808.106          51.000
G09  20382811.422 8 107112504.651 8      -715.285          51.000    20382812.477 8  83464268.636 8      -557.365          51.000
R11  20640150.492 5 110294708.673 5      1235.855          33.000    20640165.414 5  85784814.477 5       961.221          31.000
R12  22186337.695 8 118515479.153 8      4134.293          50.000    22186336.688 6  92178698.295 6      3215.564          39.000
R17  21084987.688 4 112829997.340 4     -1858.531          29.000    21084988.008 4  87756684.500 4     -1445.524          27.000
C11  24994684.273 7 130153853.788 7     -2449.953          44.000    24994685.250 8 100643233.660 8     -1894.592          50.000
C21  22082725.086 8 114990537.764 8      -853.824          51.000
C22  25669218.773 4 133666388.088 4     -2574.961          29.000
C26  23946520.062 8 124695840.379 8      3092.809          50.000
E12  23398873.484 8 122961911.704 8     -2239.156          48.000    23398872.984 7  94217559.377 7     -1715.756          46.000
E19  24038521.508 8 126323290.500 8      -553.434          51.000    24038521.383 8  96793188.460 8      -424.089          51.000
> 2020 05 10 00 27  0.0000000  0 13        .000000000000
G06  21181472.266 8 111309379.303 8      -898.395          51.000    21181474.164 8  86734585.954 8      -700.048          51.000
G07  21796758.641 8 114542731.838 8      2322.738          51.000    21796759.180 8  89254045.262 8      1809.926          51.000
G09  20386961.742 8 107134314.002 8      -711.750          51.000    20386962.633 8  83481262.936 8      -554.610          51.000
R11  20633318.133 6 110258208.863 6      1225.145          40.000    20633326.117 5  85756425.695 5       952.884          31.000
R12  22163177.664 8 118391762.822 8      4140.785          50.000    22163176.125 7  92082474.541 7      3220.614          42.000
R17  21095504.977 5 112886301.982 5     -1867.328          33.000    21095507.984 4  87800473.390 4     -1452.369          26.000
C11  25008859.109 7 130227661.670 7     -2444.008          44.000    25008859.664 8 100700306.561 8     -1889.786          49.000
C21  22087701.547 8 115016450.490 8      -846.996          51.000
C26  23928755.734 8 124603332.454 8      3101.121          51.000
E04  25254272.531 5 132712132.684 5      1737.047          35.000
E12  23411719.383 8 123029415.837 8     -2234.191          49.000    23411718.734 7  94269283.321 7     -1711.871          47.000
E19  24041729.656 8 126340148.433 8      -543.641          50.000    24041729.625 8  96806105.573 8      -416.496          51.000
E21  26332513.070 5 138378303.237 5      2340.191          32.000    26332514.406 6 106030122.981 6      1792.813          41.000
> 2020 05 10 00 27 30.0000000  0 12        .000000000000
G06  21186710.578 8 111336908.450 8      -927.133          49.000    21186712.445 8  86756037.211 8      -722.441          50.000
G07  21783589.828 8 114473525.718 8      2300.703          51.000    21783589.930 8  89200118.433 8      1792.759          51.000
G09  20391111.367 8 107156119.954 8      -732.242          51.000    20391112.273 8  83498254.595 8      -570.578          51.000
R11  20626570.195 6 110222134.393 6      1189.797          39.000    20626576.273 5  85728367.762 5       925.398          35.000
R12  22140001.203 8 118267960.860 8      4122.574          48.000    22140001.117 7  91986184.128 7      3206.447          45.000
C11  25023018.742 7 130301389.521 7     -2461.754          44.000    25023018.602 8 100757317.626 8     -1903.445          49.000
C21  22092657.953 8 115042259.948 8      -864.004          51.000
C22  25698935.836 5 133821102.254 5     -2575.605          31.000
C26  23910963.266 8 124510679.423 8      3085.523          51.000
E12  23424557.031 8 123096875.076 8     -2253.238          48.000    23424556.336 8  94320972.866 8     -1726.531          48.000
E19  24044901.711 8 126356817.482 8      -557.875          49.000    24044901.898 8  96818877.966 8      -427.463          51.000
E21  26319232.188 6 138308504.216 6      2322.426          36.000    26319235.727 7 105976652.777 7      1779.449          42.000
> 2020 05 10 00 28  0.0000000  0 13        .000000000000
G06  21192085.281 8 111365154.189 8      -955.496          50.000    21192087.281 8  86778046.856 8      -744.542          50.000
G07  21770518.391 8 114404832.476 8      2279.363          51.000    21770517.453 8  89146591.256 8      1776.127          51.000
G09  20395350.141 8 107178394.713 8      -752.211          51.000    20395351.148 8  83515611.558 8      -586.135          51.000
R11  20619990.758 6 110186968.106 6      1155.012          36.000    20619994.172 6  85701016.187 6       898.345          36.000
R12  22116899.547 8 118144558.557 8      4104.719          48.000    22116901.273 7  91890204.563 7      3192.559          47.000
R17  21116843.836 5 113000484.222 5     -1933.129          31.000
C11  25037252.758 7 130375503.562 7     -2478.746          44.000    25037251.633 8 100814627.276 8     -1916.709          50.000
C21  22097684.375 8 115068435.153 8      -880.453          51.000
C22  25713808.086 4 133898546.240 4     -2586.293          29.000
C26  23893233.352 8 124418352.418 8      3070.289          51.000
E12  23437475.680 8 123164760.810 8     -2271.836          48.000    23437475.367 8  94372989.176 8     -1740.736          49.000
E19  24048127.672 8 126373770.478 8      -571.582          49.000    24048128.070 8  96831867.928 8      -438.034          51.000
E21  26306021.320 5 138239100.324 5      2305.000          35.000    26306029.492 6 105923473.086 6      1766.462          41.000
> 2020 05 10 00 28 30.0000000  0 11        .000000000000
G06  21197593.750 8 111394102.078 8      -977.918          50.000    21197596.055 8  86800603.663 8      -762.014          50.000
G07  21757541.914 8 114336640.119 8      2263.309          51.000    21757539.758 8  89093454.364 8      1763.617          51.000
G09  20399675.312 8 107201123.814 8      -766.562          51.000    20399676.367 8  83533322.539 8      -597.321          51.000
R02  20249758.305 4 108056613.319 4      1700.020          27.000    20249771.023 4  84044057.265 4      1322.234          28.000
R12  22093871.031 7 118021546.674 7      4092.379          46.000    22093874.344 8  91794528.643 8      3182.961          48.000
C11  25051557.383 7 130449987.938 7     -2490.199          44.000    25051555.680 8 100872223.284 8     -1925.731          50.000
C21  22102778.719 8 115094962.898 8      -891.535          51.000
C26  23875563.547 8 124326340.393 8      3060.508          49.000
E12  23450472.375 8 123233057.791 8     -2284.883          48.000    23450472.328 8  94425320.598 8     -1750.703          49.000
E19  24051405.047 8 126390993.706 8      -580.000          48.000    24051405.531 8  96845064.942 8      -444.404          51.000
E21  26292882.664 5 138170034.024 5      2293.660          35.000    26292893.539 6 105870575.088 6      1757.372          39.000
> 2020 05 10 00 29  0.0000000  0 15        .000000000000
G06  21203205.695 8 111423593.155 8      -992.172          50.000    21203208.289 8  86823583.716 8      -773.121          50.000
G07  21744630.812 8 114268792.728 8      2255.621          51.000    21744627.898 8  89040586.275 8      1757.627          51.000
G09  20404056.688 8 107224148.215 8      -772.570          51.000    20404057.695 8  83551263.621 8      -602.003          51.000
R01  20585026.102 5 110038777.832 5     -1864.047          34.000    20585026.211 4  85585704.041 4     -1449.814          27.000
R02  20240196.414 6 108005611.321 6      1698.418          36.000    20240204.109 5  84004357.100 5      1320.995          31.000
R11  20607326.906 4 110119264.973 4      1105.777          29.000    20607301.289 4  85648274.367 4       860.049          27.000
R12  22070885.625 7 117898769.257 7      4088.531          45.000    22070890.961 8  91699035.030 8      3179.966          48.000
R17  21138771.508 5 113117832.719 5     -1978.738          35.000    21138790.164 4  87980598.461 4     -1539.022          26.000
C11  25065901.844 7 130524683.407 7     -2493.410          44.000    25065900.141 8 100929982.539 8     -1928.163          50.000
C21  22107910.938 8 115121686.665 8      -894.297          51.000
C26  23857924.141 7 124234489.029 7      3058.902          46.000
E04  25215093.094 5 132506210.470 5      1706.340          33.000
E12  23463516.727 8 123301606.216 8     -2289.246          48.000    23463516.398 8  94477844.686 8     -1754.098          49.000
E19  24054703.742 8 126408328.677 8      -579.816          48.000    24054704.242 8  96858347.584 8      -444.260          51.000
E21  26279785.602 5 138101209.284 5      2289.988          34.000    26279797.492 5 105817839.185 5      1755.040          34.000
> 2020 05 10 00 29 30.0000000  0 16        .000000000000
G04  22165570.172 5 116480848.885 5     -2550.410          33.000
G06  21208933.898 8 111453693.664 8     -1013.516          51.000    21208936.047 8  86847038.663 8      -789.752          50.000
G07  21731798.312 8 114201358.894 8      2240.898          50.000    21731795.445 8  88988040.406 8      1746.152          50.000
G09  20408506.875 8 107247534.239 8      -785.562          51.000    20408507.875 8  83569486.493 8      -612.127          51.000
R01  20595515.484 5 110094854.538 5     -1873.969          34.000    20595521.000 4  85629319.155 4     -1457.537          27.000
R02  20230682.055 5 107954811.402 5      1689.082          33.000    20230685.078 5  83964845.983 5      1313.718          30.000
R11  20601178.797 5 110086433.245 5      1077.434          31.000    20601194.117 5  85622823.894 5       838.010          30.000
R12  22047958.156 8 117776298.814 8      4077.105          48.000    22047964.797 7  91603780.231 7      3171.082          47.000
R17  21149946.625 5 113177570.057 5     -2005.074          31.000    21149940.305 4  88027026.680 4     -1559.502          26.000
R24  23133854.438 5 123707132.432 5     -4270.699          31.000
C11  25080299.000 7 130599654.063 7     -2503.566          44.000    25080297.305 8 100987954.586 8     -1935.874          49.000
C21  22113093.750 8 115148673.290 8      -903.918          51.000
C26  23840328.469 7 124142867.272 7      3050.137          42.000
E12  23476621.156 7 123370471.626 7     -2300.707          47.000    23476620.578 8  94530611.663 8     -1762.885          49.000
E19  24058036.562 8 126425842.537 8      -586.660          48.000    24058036.984 8  96871767.298 8      -449.573          51.000
E21  26266743.375 5 138032665.121 5      2280.312          33.000
> 2020 05 10 00 30  0.0000000  0 16        .000000000000
G04  22180141.773 5 116557430.904 5     -2554.715          31.000
G06  21214771.078 8 111484367.037 8     -1031.488          50.000    21214772.367 8  86870939.978 8      -803.760          50.000
G07  21719037.852 8 114134304.477 8      2229.195          48.000    21719036.008 7  88935790.185 7      1737.032          47.000
G09  20413018.984 8 107271245.354 8      -795.348          51.000    20413020.062 8  83587962.683 8      -619.751          51.000
R01  20606051.953 6 110151173.377 6     -1880.938          38.000    20606056.016 4  85673122.690 4     -1462.951          28.000
R02  20221194.453 5 107904185.454 5      1682.863          32.000
R10  22770518.203 4 121379674.706 4     -2993.836          29.000
R11  20595193.562 5 110054481.823 5      1052.797          35.000    20595206.211 5  85597973.269 5       818.854          31.000
R12  22025083.688 8 117654103.460 8      4068.949          50.000    22025089.555 7  91508739.430 7      3164.738          45.000
R24  23157820.875 5 123835282.049 5     -4272.363          33.000
C11  25094741.680 7 130674862.195 7     -2510.535          44.000    25094739.953 8 101046110.267 8     -1941.290          50.000
C21  22118320.242 8 115175887.692 8      -910.578          51.000
C26  23822767.031 5 124051442.262 5      3044.191          34.000
E12  23489778.664 7 123439616.708 7     -2309.172          46.000    23489778.125 8  94583592.944 8     -1769.300          49.000
E19  24061396.562 8 126443499.405 8      -590.617          48.000    24061396.875 8  96885296.584 8      -452.590          51.000
E21  26253748.719 5 137964380.212 5      2272.613          32.000
> 2020 05 10 00 30 30.0000000  0 15        .000000000000
G02  22631497.836 5 118929323.783 5      1216.031          34.000
G04  22194741.820 5 116634147.761 5     -2559.758          35.000
G06  21220714.984 8 111515601.351 8     -1050.516          51.000    21220715.492 8  86895278.375 8      -818.584          51.000
G07  21706347.820 7 114067621.102 7      2216.539          46.000    21706347.523 7  88883829.104 7      1727.173          46.000
G09  20417590.719 8 107295269.732 8      -806.066          51.000    20417591.828 8  83606682.983 8      -628.104          51.000
R01  20616631.352 6 110207723.435 6     -1889.027          39.000    20616634.570 4  85717106.000 4     -1469.240          29.000
R10  22787448.562 5 121469878.853 5     -3012.465          31.000
R11  20589359.320 6 110023294.613 6      1027.012          36.000    20589359.914 5  85573716.473 5       798.784          32.000
R12  22002259.742 8 117532176.915 8      4059.734          51.000    22002264.281 7  91413907.734 7      3157.571          46.000
R24  23181803.141 5 123963514.019 5     -4275.535          31.000    23181809.516 3  96416092.275 3     -3325.410          23.000
C11  25109227.344 7 130750294.342 7     -2518.137          44.000    25109225.852 8 101104439.156 8     -1947.198          50.000
C21  22123588.148 8 115203319.209 8      -918.039          51.000
C26  23805238.859 5 123960205.494 5      3038.297          35.000
E12  23502986.797 7 123509028.809 7     -2318.113          45.000    23502987.070 8  94636778.839 8     -1776.223          50.000
E19  24064781.641 8 126461288.257 8      -595.172          48.000    24064781.859 8  96898927.007 8      -456.038          51.000
> 2020 05 10 00 31  0.0000000  0 14        .000000000000
G02  22624595.531 5 118893048.340 5      1200.188          34.000
G04  22209368.891 5 116711014.209 5     -2565.566          33.000
G06  21226767.930 8 111547408.867 8     -1070.211          51.000    21226768.164 8  86920063.428 8      -833.934          51.000
G07  21693731.625 8 114001323.105 8      2203.105          48.000    21693731.961 8  88832168.333 8      1716.706          48.000
G09  20422224.383 8 107319619.721 8      -817.547          51.000    20422225.453 8  83625656.995 8      -637.050          51.000
R01  20627255.164 6 110264517.686 6     -1897.891          36.000    20627259.203 4  85761279.255 4     -1476.140          29.000
R10  22804455.031 5 121560529.195 5     -3031.438          35.000
R11  20583669.516 5 109992886.695 5      1000.035          32.000    20583672.039 6  85550065.913 6       777.805          37.000
R12  21979489.320 8 117410537.066 8      4049.441          50.000    21979493.031 7  91319299.028 7      3149.569          46.000
C11  25123758.094 7 130825961.215 7     -2526.465          44.000    25123757.094 8 101162949.564 8     -1953.720          50.000
C21  22128900.164 8 115230981.230 8      -926.340          51.000
C26  23787757.227 6 123869172.265 6      3030.082          41.000
E12  23516247.914 7 123578719.506 7     -2328.113          45.000    23516249.125 8  94690178.232 8     -1783.876          50.000
E19  24068194.305 8 126479222.000 8      -600.680          49.000    24068194.516 8  96912668.440 8      -460.195          51.000
> 2020 05 10 00 31 30.0000000  0 13        .000000000000
G06  21232917.023 8 111579722.812 8     -1096.535          51.000    21232917.766 8  86945243.099 8      -854.446          51.000
G07  21681177.281 8 113935346.840 8      2182.816          51.000    21681177.086 8  88780758.277 8      1700.896          51.000
G09  20426907.211 8 107344228.644 8      -835.648          51.000    20426908.242 8  83644832.771 8      -651.155          51.000
R01  20637913.000 6 110321488.997 6     -1913.168          41.000    20637914.539 4  85805598.274 4     -1488.013          27.000
R02  20192997.180 5 107753677.893 5      1651.672          35.000    20192996.766 4  83808432.431 4      1284.637          27.000
R10  22821550.898 6 121651656.448 6     -3056.586          39.000
R12  21956760.867 8 117289121.748 8      4032.203          50.000    21956763.656 7  91224864.926 7      3136.158          46.000
C11  25138320.820 7 130901795.068 7     -2541.332          45.000    25138320.492 8 101221589.092 8     -1965.249          51.000
C21  22134243.953 8 115258808.777 8      -941.293          51.000
C26  23770304.492 7 123778279.789 7      3016.609          44.000
E12  23529549.555 7 123648621.354 7     -2344.645          46.000    23529550.656 8  94743739.400 8     -1796.561          49.000
E19  24071621.961 8 126497234.655 8      -612.844          49.000    24071622.398 8  96926470.353 8      -469.614          51.000
E21  26215030.469 5 137760919.839 5      2239.668          33.000    26215039.695 5 105557088.328 5      1716.064          35.000
> 2020 05 10 00 32  0.0000000  0 14        .000000000000
G06  21239216.406 8 111612825.563 8     -1109.887          51.000    21239217.680 8  86971037.457 8      -864.847          51.000
G07  21668738.422 8 113869977.283 8      2175.531          51.000    21668737.102 8  88729820.990 8      1695.219          51.000
G09  20431693.039 8 107369379.095 8      -840.645          51.000    20431694.156 8  83664430.511 8      -655.051          51.000
R01  20648657.336 6 110378925.881 6     -1915.820          36.000    20648659.758 4  85850271.361 4     -1490.089          29.000
R02  20183709.633 5 107704141.334 5      1650.309          33.000
R10  22838789.383 6 121743544.565 6     -3068.879          39.000
R12  21934129.031 8 117168223.449 8      4028.223          48.000    21934130.734 7  91130832.970 7      3133.065          44.000
R24  23253861.789 5 124348852.935 5     -4286.551          33.000    23253861.219 5  96715773.677 5     -3333.987          30.000
C11  25152969.172 7 130978074.246 7     -2543.406          45.000    25152969.195 8 101280572.974 8     -1966.699          51.000
C21  22139673.609 8 115287082.912 8      -943.301          51.000
C26  23752933.484 7 123687811.388 7      3015.191          45.000
E12  23542945.633 8 123719016.113 8     -2347.945          48.000    23542945.680 8  94797678.236 8     -1799.078          48.000
E19  24075118.633 8 126515609.536 8      -611.805          49.000    24075119.320 8  96940549.807 8      -468.702          51.000
E21  26202258.828 5 137693779.387 5      2236.363          35.000    26202256.914 5 105505643.116 5      1714.164          31.000
> 2020 05 10 00 32 30.0000000  0 17        .000000000000
G04  22253455.188 6 116942680.790 6     -2582.426          36.000    22253457.680 5  91124187.985 5     -2012.280          33.000
G06  21245614.742 8 111646447.975 8     -1130.008          51.000    21245616.562 8  86997236.755 8      -880.526          51.000
G07  21656364.227 8 113804947.787 8      2161.391          51.000    21656361.680 8  88679148.689 8      1684.204          51.000
G09  20436530.875 8 107394802.026 8      -852.535          51.000    20436531.984 8  83684240.577 8      -664.316          51.000
G30  23573166.977 6 123877818.790 6      3549.613          37.000
R01  20659437.250 4 110436555.131 4     -1924.527          29.000    20659440.828 5  85895094.146 5     -1496.858          30.000
R10  22856118.688 6 121835917.663 6     -3087.344          36.000
R11  20567513.453 5 109906558.125 5       918.332          35.000
R12  21911543.781 8 117047574.510 8      4016.832          48.000    21911544.555 7  91036994.955 7      3124.203          42.000
R17  21219664.492 4 113550709.927 4     -2143.422          27.000
R24  23277916.188 5 124477528.879 5     -4290.793          31.000    23277922.812 5  96815854.912 5     -3337.283          31.000
C11  25167651.555 7 131054530.568 7     -2552.008          44.000    25167651.734 8 101339693.819 8     -1973.374          51.000
C21  22145138.258 8 115315538.216 8      -952.082          51.000
C26  23735592.773 7 123597503.669 7      3007.008          46.000
E12  23556384.531 8 123789633.932 8     -2358.156          49.000    23556383.133 8  94851787.971 8     -1806.827          48.000
E19  24078633.172 8 126534078.309 8      -617.676          49.000    24078634.062 8  96954701.218 8      -473.362          51.000
E21  26189522.242 5 137626847.976 5      2226.871          34.000
> 2020 05 10 00 33  0.0000000  0 16        .000000000000
G04  22268210.289 6 117020219.821 6     -2588.598          38.000
G06  21252118.219 8 111680623.583 8     -1149.902          51.000    21252120.297 8  87023867.093 8      -896.028          51.000
G07  21644061.648 8 113740294.973 8      2147.344          51.000    21644057.961 8  88628769.893 8      1673.258          51.000
G09  20441427.102 8 107420531.115 8      -864.250          51.000    20441428.047 8  83704289.210 8      -673.442          51.000
G30  23552915.156 6 123771394.835 6      3544.207          39.000    23552915.602 6  96445249.715 6      2761.717          39.000
R01  20670260.508 6 110494411.705 6     -1933.762          39.000    20670265.680 5  85940093.626 5     -1504.031          31.000
R11  20562425.703 6 109879370.854 6       891.965          38.000    20562436.469 5  85461758.599 5       693.753          31.000
R12  21889011.547 8 116927214.233 8      4005.762          48.000    21889012.633 7  90943381.394 7      3115.589          42.000
R17  21231758.172 5 113615433.028 5     -2167.223          33.000    21231766.164 4  88367573.256 4     -1685.612          28.000
R24  23301987.805 5 124606221.213 5     -4293.961          31.000    23301999.898 5  96915961.548 5     -3339.747          31.000
C11  25182373.703 7 131131195.862 7     -2560.523          44.000    25182374.586 8 101398976.266 8     -1979.859          51.000
C21  22150644.422 8 115344209.139 8      -960.758          51.000
C26  23718289.672 7 123507393.332 7      2998.883          47.000
E12  23569871.930 8 123860507.679 8     -2368.223          49.000    23569869.406 8  94906093.822 8     -1814.549          48.000
E19  24082172.086 8 126552675.366 8      -623.582          49.000    24082173.133 8  96968950.908 8      -477.795          51.000
E21  26176830.266 5 137560177.076 5      2217.590          35.000
> 2020 05 10 00 33 30.0000000  0 16        .000000000000
G04  22282996.859 6 117097925.150 6     -2593.090          36.000
G06  21258733.984 8 111715389.810 8     -1169.305          51.000    21258735.477 8  87050957.651 8      -911.147          51.000
G07  21631837.992 8 113676059.021 8      2133.520          51.000    21631833.562 8  88578715.924 8      1662.483          51.000
G09  20446388.734 8 107446604.107 8      -875.418          51.000    20446389.320 8  83724605.835 8      -682.144          51.000
G30  23532695.281 6 123665135.201 6      3538.660          38.000    23532695.336 6  96362450.067 6      2757.401          38.000
R01  20681133.125 4 110552535.019 4     -1941.906          28.000    20681138.602 5  85985300.589 5     -1510.381          31.000
R11  20557489.711 6 109852994.048 6       865.191          40.000    20557496.023 6  85441243.326 6       672.927          36.000
R12  21866541.203 8 116807186.442 8      3994.684          49.000    21866543.516 7  90850026.436 7      3106.976          43.000
R17  21243976.367 5 113680771.876 5     -2190.215          35.000    21243970.664 4  88418385.300 4     -1703.503          25.000
R24  23326080.312 5 124735048.958 5     -4296.781          31.000    23326088.344 5  97016160.847 5     -3341.944          30.000
C11  25197142.539 7 131208105.715 7     -2568.441          43.000    25197144.242 8 101458447.844 8     -1986.006          50.000
C21  22156199.289 8 115373134.167 8      -969.043          51.000
C26  23701031.609 8 123417520.944 8      2991.203          48.000
E12  23583414.711 8 123931674.259 8     -2377.734          49.000    23583411.703 8  94960624.046 8     -1821.799          48.000
E19  24085742.711 8 126571439.230 8      -628.844          50.000    24085743.891 8  96983328.415 8      -481.859          51.000
E21  26164193.719 5 137493777.543 5      2207.969          34.000    26164197.008 5 105352379.587 5      1691.883          31.000
> 2020 05 10 00 34  0.0000000  0 19        .000000000000
G02  22585189.961 6 118685971.825 6      1103.137          37.000
G04  22297806.156 6 117175749.636 6     -2595.492          38.000
G06  21265452.844 8 111750699.471 8     -1185.477          51.000    21265453.305 8  87078471.649 8      -923.748          51.000
G07  21619684.789 8 113612195.355 8      2122.910          51.000    21619680.477 8  88528952.052 8      1654.216          51.000
G09  20451406.828 8 107472973.978 8      -883.387          51.000    20451407.125 8  83745153.796 8      -688.353          51.000
G30  23512499.867 6 123558996.016 6      3536.887          36.000    23512496.203 6  96279744.281 6      2756.016          36.000
R01  20692047.695 6 110610849.839 6     -1948.211          36.000    20692053.672 5  86030678.360 5     -1515.269          32.000
R02  20146971.547 5 107508064.520 5      1619.957          33.000    20146969.906 4  83617417.173 4      1259.964          25.000
R10  22908699.133 5 122116193.596 5     -3138.590          32.000
R11  20552697.273 6 109827382.477 6       841.652          40.000    20552700.594 6  85421323.257 6       654.622          37.000
R12  21844126.320 8 116687448.967 8      3986.930          51.000    21844128.641 7  90756897.298 7      3100.945          43.000
R17  21256313.992 5 113746757.357 5     -2210.312          30.000    21256309.273 4  88469712.311 4     -1719.129          27.000
R24  23350182.961 5 124863918.826 5     -4295.906          33.000    23350189.039 5  97116393.010 5     -3341.260          30.000
C11  25211949.344 7 131285211.968 7     -2572.965          42.000    25211951.141 8 101518071.282 8     -1989.571          50.000
C21  22161794.086 8 115402267.837 8      -974.086          51.000
C26  23683810.289 7 123327843.171 7      2986.520          47.000
E12  23597003.891 8 124003085.798 8     -2383.898          49.000    23597000.539 7  95015341.983 7     -1826.692          47.000
E19  24089336.297 8 126590323.554 8      -631.012          50.000    24089337.484 8  96997798.230 8      -483.496          51.000
E21  26151603.062 5 137427604.063 5      2200.930          33.000    26151599.938 5 105301668.422 5      1687.229          31.000
> 2020 05 10 00 34 30.0000000  0 14        .000000000000
G06  21272261.633 8 111786482.772 8     -1222.270          50.000    21272261.867 8  87106354.713 8      -952.418          50.000
G07  21607589.844 8 113548637.122 8      2092.043          51.000    21607586.133 8  88479426.171 8      1630.163          51.000
G09  20456468.172 8 107499571.188 8      -912.168          51.000    20456468.484 8  83765878.905 8      -710.780          51.000
R01  20702991.031 6 110669342.189 6     -1974.309          38.000    20702996.422 5  86076172.438 5     -1535.570          32.000
R11  20548035.461 6 109802467.728 6       797.027          41.000    20548039.008 6  85401945.127 6       619.913          41.000
R12  21821753.445 8 116567936.383 8      3957.973          51.000    21821755.055 6  90663943.056 6      3078.423          40.000
R17  21268741.031 5 113813329.281 5     -2249.988          31.000
R24  23374278.141 5 124992757.018 5     -4315.520          30.000    23374284.281 4  97216600.443 4     -3356.512          28.000
C11  25226780.883 7 131362444.165 7     -2597.734          42.000    25226782.156 8 101577792.112 8     -2008.836          49.000
C21  22167415.750 8 115431542.349 8      -999.566          51.000
C26  23666613.156 7 123238294.327 7      2961.387          47.000
E12  23610626.039 8 124074671.972 8     -2410.703          48.000    23610622.664 7  95070193.715 7     -1847.147          47.000
E19  24092939.688 8 126609259.433 8      -653.637          50.000    24092940.750 8  97012307.544 8      -500.856          51.000
E21  26139045.812 6 137361621.989 6      2174.879          36.000    26139045.516 6 105251110.749 6      1666.355          36.000
> 2020 05 10 00 35  0.0000000  0 15        .000000000000
G04  22327540.156 5 117332038.397 5     -2606.227          33.000
G06  21279248.422 8 111823200.183 8     -1224.426          51.000    21279249.578 8  87134965.668 8      -954.098          51.000
G07  21595641.164 8 113485847.628 8      2095.270          51.000    21595638.273 8  88430499.285 8      1632.678          51.000
G09  20461660.383 8 107526856.458 8      -905.777          51.000    20461660.844 8  83787140.161 8      -705.801          51.000
R01  20714048.703 5 110728453.520 5     -1964.980          32.000    20714054.945 5  86122147.849 5     -1528.324          31.000
R02  20128882.500 5 107411609.801 5      1603.152          33.000    20128887.867 4  83542357.184 4      1246.902          27.000
R11  20543592.352 6 109778720.540 6       787.500          39.000    20543594.508 6  85383475.257 6       612.506          37.000
R12  21799511.383 8 116449122.591 8      3963.984          50.000    21799512.055 6  90571532.309 6      3083.099          41.000
R24  23398454.695 5 125122029.148 5     -4301.105          30.000
C11  25241724.047 7 131440257.144 7     -2588.543          43.000    25241724.938 8 101637962.008 8     -2001.611          49.000
C21  22173152.461 8 115461415.373 8      -990.742          51.000
C26  23649529.164 8 123149334.196 8      2970.500          48.000
E12  23624368.961 7 124146892.658 7     -2402.789          47.000    23624366.094 7  95125531.620 7     -1841.125          47.000
E19  24096640.734 8 126628708.499 8      -641.758          50.000    24096641.578 8  97027210.065 8      -491.739          51.000
E21                                                                  26126612.969 6 105201042.716 6      1672.326          36.000
> 2020 05 10 00 35 30.0000000  0 14        .000000000000
G02  22566787.367 5 118589268.157 5      1050.844          33.000
G06  21286296.039 8 111860235.979 8     -1245.602          51.000    21286298.461 8  87163824.732 8      -970.599          51.000
G07  21583722.016 8 113423213.885 8      2079.422          50.000    21583719.938 8  88381693.782 8      1620.329          50.000
G09  20466866.375 8 107554214.407 8      -918.875          51.000    20466866.867 8  83808458.046 8      -716.006          51.000
G30  23452107.781 5 123241669.909 5      3517.617          30.000
R01  20725106.289 6 110787558.556 6     -1975.832          37.000    20725111.344 5  86168118.447 5     -1536.758          30.000
R11  20539252.266 6 109755517.801 6       758.441          40.000    20539251.969 6  85365428.619 6       589.905          39.000
R12  21777283.133 8 116330387.508 8      3950.625          48.000    21777283.875 6  90479182.843 6      3072.711          41.000
C11  25256661.438 6 131518039.388 6     -2597.715          41.000    25256661.797 7 101698108.201 7     -2008.893          47.000
C21  22178887.281 8 115491278.159 8     -1000.980          51.000
C26  23632441.875 8 123060356.152 8      2960.527          49.000
E12  23638115.344 7 124219131.586 7     -2414.098          47.000    23638113.172 7  95180883.519 7     -1849.658          47.000
E19  24100322.422 8 126648056.210 8      -648.973          50.000    24100323.227 8  97042034.933 8      -497.274          51.000
E21  26114179.492 5 137230939.392 5      2171.039          35.000    26114183.844 6 105150994.949 6      1663.371          36.000
> 2020 05 10 00 36  0.0000000  0 16        .000000000000
G02  22560828.094 5 118557926.954 5      1034.523          33.000
G04  22357381.125 5 117488816.432 5     -2616.852          33.000
G06  21293454.234 8 111897852.329 8     -1263.285          51.000    21293457.391 8  87193136.189 8      -984.378          51.000
G07  21571883.312 8 113361001.357 8      2066.898          51.000    21571881.758 8  88333216.497 8      1610.570          51.000
G09  20472136.180 8 107581907.561 8      -928.453          51.000    20472136.656 8  83830037.120 8      -723.470          51.000
G30  23432039.453 6 123136181.687 6      3513.660          37.000    23432041.375 6  95950284.233 6      2737.914          38.000
R01  20736212.406 6 110846925.301 6     -1982.992          37.000    20736215.445 5  86214292.612 5     -1542.330          30.000
R11  20535063.156 7 109733128.241 7       732.980          43.000    20535062.812 5  85348014.671 5       570.096          31.000
R12  21755121.023 8 116212003.381 8      3940.566          50.000    21755121.898 7  90387106.299 7      3064.885          43.000
R24  23446746.102 5 125380264.527 5     -4305.809          30.000
C11  25271642.328 6 131596049.508 6     -2604.004          40.000    25271642.250 7 101758430.574 7     -2013.505          47.000
C21  22184670.281 8 115521391.971 8     -1007.738          51.000
C26  23615401.836 8 122971623.576 8      2954.004          49.000
E12  23651915.000 7 124291650.421 7     -2421.656          47.000    23651913.391 7  95236449.915 7     -1855.573          47.000
E19  24104034.867 8 126667565.519 8      -652.730          50.000    24104035.734 8  97056983.614 8      -500.102          51.000
E21  26101805.633 6 137165914.720 6      2163.062          37.000    26101809.633 6 105101170.853 6      1657.322          36.000
> 2020 05 10 00 36 30.0000000  0 17        .000000000000
G03  24731837.336 5 129966681.680 5     -3290.145          30.000
G06  21300729.969 8 111936085.339 8     -1284.047          51.000    21300733.125 8  87222928.154 8     -1000.556          51.000
G07  21560132.328 8 113299248.429 8      2051.344          51.000    21560130.945 8  88285097.347 8      1598.453          51.000
G09  20477476.703 8 107609972.322 8      -941.035          51.000    20477477.289 8  83851905.760 8      -733.274          51.000
G30  23412007.891 6 123030905.126 6      3506.285          38.000    23412008.758 6  95868250.575 6      2732.170          38.000
R01  20747374.453 6 110906591.293 6     -1993.293          38.000    20747377.148 4  86260699.458 4     -1550.336          29.000
R02  20102078.852 5 107268522.579 5      1576.055          32.000    20102097.180 4  83431124.889 4      1225.820          28.000
R11  20531032.469 7 109711591.497 7       704.332          43.000    20531031.445 4  85331242.797 4       547.814          24.000
R12  21733033.578 8 116094012.582 8      3927.098          50.000    21733034.719 7  90295335.698 7      3054.409          46.000
R24  23470916.719 5 125509510.619 5     -4309.199          31.000
C11  25286673.664 6 131674321.820 6     -2612.625          40.000    25286673.344 7 101818955.677 7     -2020.392          47.000
C21  22190508.484 8 115551793.975 8     -1017.500          51.000
C22  25969448.336 5 135229714.730 5     -2635.695          30.000
C26  23598416.375 8 122883175.743 8      2944.137          49.000
E12  23665775.000 7 124364484.743 7     -2432.543          46.000    23665774.094 8  95292258.044 8     -1863.843          48.000
E19  24107785.141 8 126687273.747 8      -659.582          50.000    24107786.070 8  97072084.718 8      -505.388          51.000
E21  26089495.734 6 137101221.241 6      2151.613          38.000    26089498.570 6 105051600.509 6      1648.576          37.000
> 2020 05 10 00 37  0.0000000  0 15        .000000000000
G06  21308112.242 8 111974877.718 8     -1305.805          51.000    21308114.719 8  87253155.970 8     -1017.510          51.000
G07  21548458.359 8 113237900.519 8      2034.828          51.000    21548457.086 8  88237293.803 8      1585.583          51.000
G09  20482877.117 8 107638351.763 8      -954.793          51.000    20482877.758 8  83874019.619 8      -743.991          51.000
G30  23392005.273 6 122925786.681 6      3498.160          37.000    23392005.594 6  95786340.072 6      2725.839          38.000
R01  20758580.961 5 110966499.525 5     -2004.449          34.000    20758585.453 5  86307294.717 5     -1559.019          30.000
R02  20093230.078 5 107221343.808 5      1565.348          35.000    20093230.859 4  83394369.793 4      1217.493          25.000
R11  20527151.312 7 109690851.759 7       674.668          43.000    20527149.586 4  85315108.935 4       524.745          28.000
R12  21711010.094 8 115976362.767 8      3912.449          50.000    21711011.250 7  90203830.331 7      3043.016          47.000
C11  25301744.867 7 131752798.395 7     -2622.691          43.000    25301744.023 8 101879638.705 8     -2027.989          48.000
C21  22196390.883 8 115582428.898 8     -1028.492          51.000
C22  25984661.570 4 135308812.594 4     -2641.141          29.000
C26  23581475.500 8 122794959.518 8      2933.238          50.000
E12  23679684.203 7 124437576.785 7     -2444.219          47.000    23679683.906 8  95348263.634 8     -1872.783          48.000
E19  24111562.555 8 126707124.623 8      -667.539          50.000    24111563.430 8  97087295.118 8      -511.506          51.000
E21  26077238.102 6 137036804.695 6      2139.270          36.000    26077240.180 5 105002242.455 5      1638.941          35.000
> 2020 05 10 00 37 30.0000000  0 14        .000000000000
G06  21315597.039 8 112014209.152 8     -1327.590          51.000    21315598.719 8  87283803.814 8     -1034.486          51.000
G07  21536858.219 8 113176940.586 8      2018.016          51.000    21536856.836 8  88189792.562 8      1572.480          51.000
G09  20488333.570 8 107667025.854 8      -968.180          51.000    20488334.047 8  83896363.080 8      -754.426          51.000
G30  23372029.172 6 122820809.670 6      3489.379          38.000    23372029.742 6  95704539.804 6      2718.997          38.000
R01  20769829.594 6 111026630.517 6     -2015.797          36.000    20769834.430 4  86354063.238 4     -1567.842          28.000
R11  20523414.953 7 109670890.703 7       644.824          43.000    20523413.125 5  85299583.263 5       501.530          34.000
R12  21689047.625 7 115859039.145 7      3897.625          47.000    21689048.539 8  90112578.623 8      3031.486          48.000
C11  25316851.531 7 131831457.684 7     -2632.562          42.000    25316850.094 8 101940463.024 8     -2035.510          48.000
C21  22202314.555 8 115613278.060 8     -1039.254          51.000
C22  25999862.148 5 135387965.518 5     -2646.879          33.000
C26  23564576.008 8 122706958.357 8      2922.430          51.000
E12  23693638.773 8 124510905.724 8     -2455.742          48.000    23693638.523 8  95404450.756 8     -1881.553          48.000
E19  24115363.477 8 126727098.954 8      -675.336          50.000    24115364.289 8  97102600.116 8      -517.456          51.000
E21  26065029.398 6 136972648.128 6      2126.535          36.000    26065030.695 6 104953083.547 6      1629.627          37.000
> 2020 05 10 00 38  0.0000000  0 16        .000000000000
G06  21323204.055 8 112054183.383 8     -1340.465          51.000    21323205.477 8  87314952.539 8     -1044.518          51.000
G07  21525352.070 8 113116475.378 8      2009.879          51.000    21525350.641 8  88142676.818 8      1566.139          51.000
G09  20493865.984 8 107696098.966 8      -973.012          51.000    20493866.383 8  83919017.461 8      -758.191          51.000
G30  23352100.188 6 122716081.509 6      3489.410          38.000    23352100.781 6  95622933.447 6      2719.021          38.000
R01  20781140.305 5 111087091.032 5     -2018.359          34.000    20781145.477 4  86401088.000 4     -1569.838          29.000
R11  20519845.047 6 109651816.583 6       623.539          37.000    20519845.828 6  85284747.900 6       484.981          37.000
R12  21667164.938 7 115742153.172 7      3891.781          45.000    21667167.523 8  90021667.260 8      3026.938          48.000
R17  21359530.281 4 114299081.426 4     -2389.141          29.000
C11  25332012.664 7 131910401.374 7     -2633.555          43.000    25332011.008 8 102001507.263 8     -2036.374          48.000
C21  22208300.188 8 115644445.758 8     -1041.555          51.000
C22  26015096.562 5 135467277.400 5     -2643.848          32.000
C26  23547738.227 8 122619278.617 8      2919.895          51.000
E04  25043436.641 5 131604156.736 5      1635.129          35.000    25043436.070 5 100839537.919 5      1252.855          33.000
E12  23707657.898 7 124584574.873 7     -2458.570          47.000    23707657.609 8  95460898.543 8     -1883.843          48.000
E19  24119207.922 8 126747301.810 8      -674.566          50.000    24119208.781 8  97118080.221 8      -516.900          51.000
E21  26052891.305 6 136908858.569 6      2122.637          36.000    26052893.555 6 104904205.882 6      1626.595          38.000
> 2020 05 10 00 38 30.0000000  0 15        .000000000000
G06  21330910.836 8 112094682.099 8     -1359.984          51.000    21330912.391 8  87346509.983 8     -1059.725          51.000
G07  21513917.766 8 113056389.015 8      1995.207          50.000    21513916.453 8  88095856.273 8      1554.707          50.000
G09  20499451.898 8 107725453.147 8      -984.480          51.000    20499452.508 8  83941890.857 8      -767.128          51.000
G30  23332196.797 6 122611487.652 6      3482.895          39.000    23332197.086 6  95541431.736 6      2713.944          39.000
R01  20792490.547 5 111147761.694 5     -2028.055          33.000    20792495.500 4  86448276.256 4     -1577.373          24.000
R11  20516419.281 6 109633511.580 6       595.977          38.000    20516419.773 6  85270510.708 6       463.534          37.000
R12  21645341.898 8 115625590.224 8      3878.695          48.000    21645346.844 8  89931007.127 8      3016.763          49.000
C11  25347205.266 7 131989510.908 7     -2641.145          43.000    25347203.758 8 102062679.743 8     -2042.116          49.000
C21  22214325.211 8 115675816.371 8     -1050.391          51.000
C22  26030337.578 5 135546632.093 5     -2646.809          30.000
C26  23530940.516 8 122531806.725 8      2910.926          51.000
E04  25034107.398 6 131555159.350 6      1630.848          37.000    25034118.656 5 100802019.484 5      1249.862          31.000
E12  23721718.773 7 124658465.488 7     -2467.938          46.000    23721718.203 7  95517516.000 7     -1890.975          47.000
E19  24123073.617 8 126767615.965 8      -680.207          50.000    24123074.531 8  97133645.601 8      -521.219          51.000
E21  26040800.438 5 136845329.880 5      2112.680          32.000    26040803.070 6 104855521.206 6      1618.468          38.000
> 2020 05 10 00 39  0.0000000  0 16        .000000000000
G02  22527136.688 5 118380857.366 5       936.055          34.000
G06  21338718.102 8 112135709.472 8     -1375.348          51.000    21338719.922 8  87378479.386 8     -1071.696          51.000
G07  21502556.875 8 112996688.903 8      1984.668          49.000    21502555.938 8  88049336.689 8      1546.495          50.000
G09  20505092.172 8 107755092.995 8      -991.707          51.000    20505093.047 8  83964986.856 8      -772.759          51.000
G30  23312320.352 6 122507035.947 6      3480.176          39.000    23312319.391 6  95460040.805 6      2711.828          39.000
R11  20513138.203 6 109615982.105 6       572.445          40.000    20513138.781 6  85256876.797 6       445.235          37.000
R12  21623583.508 8 115509360.419 8      3869.738          50.000    21623588.578 8  89840606.177 8      3009.796          49.000
R17  21386551.320 6 114443659.344 6     -2429.648          37.000
C11  25362429.844 7 132068789.309 7     -2644.418          43.000    25362428.820 8 102123982.842 8     -2044.814          49.000
C21  22220390.180 8 115707395.550 8     -1055.082          51.000
C22  26045585.516 4 135626197.127 4     -2646.977          26.000
C26  23514184.422 8 122444550.472 8      2905.914          51.000
E04  25024798.164 5 131506242.262 5      1629.980          35.000
E12  23735822.117 7 124732581.338 7     -2473.312          45.000    23735820.906 7  95574306.022 7     -1895.109          46.000
E19  24126961.586 8 126788046.914 8      -682.012          51.000    24126962.492 8  97149300.476 8      -522.586          51.000
E21                                                                  26028761.289 6 104807035.254 6      1613.865          37.000
> 2020 05 10 00 39 30.0000000  0 14        .000000000000
G04  22462688.289 5 118042217.335 5     -2651.551          35.000
G06  21346653.477 8 112177411.478 8     -1397.141          51.000    21346655.594 8  87410974.464 8     -1088.681          51.000
G07  21491297.438 7 112937523.692 7      1967.094          47.000    21491297.602 7  88003233.914 7      1532.797          47.000
G09  20510814.688 8 107785164.971 8     -1005.465          51.000    20510815.602 8  83988419.567 8      -783.479          51.000
G30  23292499.242 6 122402876.184 6      3471.223          36.000    23292497.398 5  95378877.391 5      2704.852          35.000
R11  20510030.469 6 109599379.137 6       542.395          37.000    20510032.078 6  85243963.499 6       421.868          37.000
R12  21601916.891 8 115393618.135 8      3854.117          51.000    21601921.703 8  89750584.435 8      2997.644          48.000
R17  21400267.867 6 114517028.685 6     -2454.234          39.000
C11  25377714.086 6 132148380.019 6     -2654.328          41.000    25377713.766 8 102185527.412 8     -2052.326          49.000
C21  22226522.906 8 115739329.519 8     -1066.340          51.000
C26  23497497.992 8 122357658.140 8      2894.312          51.000
E12  23749995.570 7 124807067.861 7     -2484.918          44.000    23749994.023 7  95631380.097 7     -1903.938          46.000
E19  24130899.734 8 126808741.734 8      -690.102          50.000    24130900.680 8  97165157.548 8      -528.782          51.000
E21                                                                  26016797.188 6 104758862.440 6      1603.676          36.000
> 2020 05 10 00 40  0.0000000  0 14        .000000000000
G06  21354682.742 8 112219607.309 8     -1416.242          51.000    21354684.977 8  87443854.328 8     -1103.565          51.000
G07  21480105.945 7 112878715.607 7      1952.633          46.000    21480107.117 7  87957409.405 7      1521.529          47.000
G09  20516585.117 8 107815488.727 8     -1016.527          51.000    20516585.828 8  84012048.458 8      -792.102          51.000
G30  23272700.047 5 122298831.239 5      3464.875          35.000    23272698.359 5  95297803.510 5      2699.906          34.000
R02  20041178.406 5 106943535.959 5      1517.867          34.000
R11  20507063.453 5 109583521.707 5       515.152          33.000    20507063.672 6  85231629.837 6       400.677          36.000
R12  21580308.219 8 115278185.418 8      3840.922          50.000    21580312.750 8  89660803.429 8      2987.384          48.000
R17  21414082.172 5 114590966.812 5     -2475.500          34.000
C11  25393023.328 6 132228102.703 6     -2661.113          39.000    25393024.156 8 102247174.019 8     -2057.784          49.000
C21  22232689.742 8 115771440.705 8     -1074.855          51.000
C26  23480847.562 8 122270954.267 8      2885.457          51.000
E12  23764204.945 7 124881743.981 7     -2493.992          45.000    23764204.125 7  95688599.453 7     -1910.873          47.000
E19  24134853.883 8 126829521.045 8      -695.629          50.000    24134854.953 8  97181079.346 8      -532.937          51.000
E21  26004872.211 5 136656524.433 5      2082.355          31.000    26004877.203 5 104710866.684 5      1595.520          35.000
> 2020 05 10 00 40 30.0000000  0 15        .000000000000
G06  21362820.328 8 112262372.554 8     -1421.809          51.000    21362822.438 8  87477177.876 8     -1107.903          51.000
G07  21468997.711 8 112820343.163 8      1951.715          48.000    21468998.977 8  87911924.380 8      1520.820          48.000
G09  20522417.914 8 107846140.413 8     -1013.832          51.000    20522418.516 8  84035932.870 8      -789.999          51.000
G30  23252938.648 6 122194980.571 6      3471.980          36.000    23252937.180 6  95216880.912 6      2705.436          36.000
R02  20032668.391 4 106898125.787 4      1522.445          28.000    20032672.414 4  83143027.173 4      1184.124          26.000
R11  20504249.391 6 109568488.491 6       500.586          37.000    20504251.375 5  85219937.433 5       389.339          35.000
R12  21558772.930 8 115163145.195 8      3841.559          50.000    21558777.359 8  89571327.670 8      2987.879          48.000
R17  21428014.742 5 114665547.970 5     -2483.215          33.000
C11  25408371.930 6 132308031.036 6     -2654.535          40.000    25408374.094 8 102308979.676 8     -2052.637          49.000
C21  22238905.422 8 115803805.598 8     -1069.914          51.000
C22  26091455.922 5 135865065.513 5     -2644.891          32.000
C26  23464248.102 8 122184517.453 8      2889.965          48.000
E12  23778465.406 7 124956684.856 7     -2489.094          46.000    23778465.555 8  95746021.667 8     -1907.270          48.000
E19  24138838.672 8 126850461.432 8      -687.375          50.000    24138839.867 8  97197124.580 8      -526.708          51.000
E21  25993014.656 5 136594209.797 5      2086.055          34.000    25993015.773 5 104663108.439 5      1598.136          35.000
> 2020 05 10 00 41  0.0000000  0 14        .000000000000
G06  21371058.742 8 112305667.085 8     -1462.910          51.000    21371060.711 8  87510913.858 8     -1139.930          51.000
G07  21457965.648 8 112762369.165 8      1914.871          49.000    21457965.648 8  87866749.890 8      1492.110          49.000
G09  20528305.547 8 107877080.468 8     -1047.027          51.000    20528306.273 8  84060041.988 8      -815.865          51.000
G30  23233207.258 6 122091287.849 6      3442.863          40.000    23233205.359 6  95136081.410 6      2682.751          39.000
R01  20849963.180 5 111455025.573 5     -2077.930          30.000
R12  21537304.516 8 115048462.631 8      3805.555          50.000    21537309.156 7  89482130.078 7      2959.876          47.000
R17  21442059.539 5 114740729.008 5     -2526.973          34.000
C11  25423752.805 7 132388124.158 7     -2683.164          42.000    25423755.797 8 102370912.775 8     -2074.980          49.000
C21  22245162.367 8 115836386.119 8     -1100.422          51.000
C22  26106781.406 4 135944861.160 4     -2669.984          28.000
C26  23447692.273 7 122098311.702 7      2858.945          45.000
E12  23792769.227 8 125031850.043 8     -2520.082          48.000    23792769.891 8  95803615.769 8     -1930.975          49.000
E19  24142846.719 8 126871524.318 8      -714.980          49.000    24142847.984 8  97213263.670 8      -547.893          51.000
E21  25981205.109 5 136532154.553 5      2053.402          34.000    25981206.969 5 104615559.632 5      1573.108          35.000
> 2020 05 10 00 41 30.0000000  0 14        .000000000000
G06  21379420.641 8 112349609.574 8     -1470.977          51.000    21379422.703 8  87545154.732 8     -1146.216          51.000
G07  21447032.812 8 112704915.041 8      1910.996          51.000    21447031.094 8  87821980.515 8      1489.091          51.000
G09  20534270.750 8 107908428.081 8     -1047.117          51.000    20534271.719 8  84084468.690 8      -815.935          51.000
G30  23213528.648 6 121987875.510 6      3446.773          41.000    23213526.758 6  95055500.367 6      2685.794          41.000
R01  20861599.547 5 111517287.006 5     -2076.965          32.000
R12  21515926.438 8 114934264.342 8      3803.008          50.000    21515931.672 7  89393309.192 7      2957.898          45.000
R17  21456241.547 6 114816628.772 6     -2537.488          38.000
C11  25439188.172 7 132468498.561 7     -2679.398          44.000    25439191.328 8 102433063.360 8     -2071.787          48.000
C21  22251483.367 8 115869301.480 8     -1098.273          51.000
C22  26122093.344 5 136024593.316 5     -2663.289          30.000
C26  23431202.523 7 122012458.379 7      2860.430          43.000
E12  23807138.633 8 125107357.856 8     -2518.094          50.000    23807139.328 8  95861472.389 8     -1929.419          49.000
E19  24146900.906 8 126892829.720 8      -709.758          49.000    24146902.109 8  97229588.572 8      -543.754          51.000
E21  25969472.172 5 136470496.599 5      2053.086          33.000    25969473.133 4 104568306.690 4      1573.419          29.000
> 2020 05 10 00 42  0.0000000  0 16        .000000000000
G02  22496931.312 5 118222164.422 5       831.055          31.000
G04  22538703.070 5 118441668.688 5     -2673.398          30.000
G06  21387851.922 8 112393915.838 8     -1489.004          51.000    21387854.000 8  87579679.103 8     -1160.263          51.000
G07  21436145.656 8 112647699.701 8      1897.148          51.000    21436143.227 8  87777397.155 8      1478.297          51.000
G09  20540259.594 8 107939899.721 8     -1057.219          51.000    20540260.586 8  84108992.036 8      -823.807          51.000
G30  23193849.469 6 121884463.278 6      3441.184          41.000    23193848.594 6  94974919.435 6      2681.442          41.000
R01  20873256.781 5 111579604.123 5     -2084.160          34.000    20873280.820 4  86784145.960 4     -1621.016          29.000
R11  20496705.680 5 109528177.511 5       406.906          34.000    20496705.273 5  85188579.286 5       316.474          31.000
R12  21494585.727 7 114820267.506 7      3790.320          47.000    21494590.812 6  89304645.035 6      2948.030          39.000
R17  21470504.891 6 114892955.621 6     -2557.746          36.000    21470510.375 4  89361248.343 4     -1989.358          26.000
C11  25454623.469 7 132548871.660 7     -2685.027          44.000    25454626.273 7 102495212.940 7     -2076.140          47.000
C21  22257814.688 8 115902271.803 8     -1105.914          51.000
C26  23414728.109 7 121926679.567 7      2851.988          47.000
E12  23821519.203 8 125182923.812 8     -2525.812          50.000    23821519.727 8  95919373.564 8     -1935.423          49.000
E19  24150947.438 8 126914094.796 8      -714.180          48.000    24150948.594 8  97245882.597 8      -547.196          51.000
E21  25957759.328 5 136408946.051 5      2043.641          32.000
> 2020 05 10 00 42 30.0000000  0 13        .000000000000
G06  21396439.664 8 112439043.970 8     -1507.727          51.000    21396441.766 8  87614843.884 8     -1174.852          51.000
G07  21425391.453 8 112591184.447 8      1882.441          49.000    21425389.273 8  87733359.291 8      1466.837          48.000
G09  20546359.375 8 107971954.047 8     -1067.891          51.000    20546359.992 8  84133969.432 8      -832.123          51.000
G30  23174258.141 6 121781513.097 6      3434.141          41.000    23174258.336 6  94894698.521 6      2675.954          41.000
R01  20885011.125 5 111642444.801 5     -2093.398          34.000
R11  20494528.477 5 109516552.481 5       379.734          34.000    20494538.289 6  85179537.633 6       295.355          37.000
R12  21473369.492 7 114706943.525 7      3776.723          42.000    21473371.102 6  89216504.344 6      2937.457          36.000
R17  21484932.977 5 114970173.411 5     -2578.328          35.000    21484938.445 4  89421306.269 4     -2005.357          27.000
C11  25470145.008 6 132629696.212 6     -2691.383          41.000    25470147.516 7 102557711.581 7     -2081.094          47.000
C21  22264244.172 8 115935752.672 8     -1114.309          51.000
C26  23398357.531 8 121841432.926 8      2842.793          48.000
E12  23835997.688 8 125259005.674 8     -2534.316          51.000    23835997.758 8  95977670.020 8     -1941.867          49.000
E19  24155073.695 8 126935779.030 8      -719.418          48.000    24155074.883 8  97262497.792 8      -551.287          51.000
> 2020 05 10 00 43  0.0000000  0 13        .000000000000
G06  21405107.805 8 112484594.092 8     -1525.797          51.000    21405109.609 8  87650337.471 8     -1188.933          51.000
G07  21414694.336 7 112534972.044 7      1868.398          47.000    21414692.875 7  87689557.440 7      1455.895          47.000
G09  20552494.023 8 108004191.783 8     -1077.930          51.000    20552494.328 8  84159089.744 8      -839.945          51.000
G30  23154679.758 6 121678628.997 6      3427.969          39.000    23154680.156 6  94814529.076 6      2671.144          38.000
R01  20896788.680 5 111705403.301 5     -2100.691          33.000    20896798.352 4  86881916.760 4     -1633.871          27.000
R11  20492483.219 6 109505613.853 6       352.668          40.000    20492486.969 6  85171029.658 6       274.291          37.000
R12  21452203.062 7 114593892.303 7      3763.590          43.000    21452206.594 6  89128575.626 6      2927.234          41.000
R17  21499451.094 6 115047872.702 6     -2598.371          40.000    21499460.539 5  89481739.124 5     -2020.952          30.000
C11  25485676.086 6 132710575.015 6     -2697.172          38.000    25485678.258 7 102620252.133 7     -2085.697          45.000
C21  22270696.078 8 115969349.518 8     -1122.152          51.000
C26  23382014.484 8 121756325.999 8      2834.207          49.000
E12  23850497.773 8 125335203.221 8     -2542.141          50.000    23850496.820 8  96036055.132 8     -1947.844          49.000
E19  24159203.906 8 126957483.991 8      -724.148          48.000    24159205.117 8  97279128.854 8      -554.855          51.000
> 2020 05 10 00 43 30.0000000  0 13        .000000000000
G06  21413879.891 8 112530690.067 8     -1546.348          51.000    21413881.266 8  87686256.397 8     -1204.946          51.000
G07  21404079.227 8 112479189.134 8      1851.523          49.000    21404078.195 8  87646090.240 8      1442.746          49.000
G09  20558687.281 8 108036737.508 8     -1090.684          51.000    20558687.688 8  84184450.054 8      -849.883          51.000
G30  23135138.883 6 121575938.709 6      3418.816          37.000    23135138.523 6  94734510.670 6      2664.016          37.000
R01  20908613.586 6 111768607.444 6     -2111.539          36.000    20908622.930 4  86931075.402 4     -1642.302          28.000
R11  20490588.953 5 109495489.630 5       322.891          34.000    20490595.883 6  85163155.344 6       251.146          39.000
R12  21431115.453 8 114481245.607 8      3747.512          48.000    21431120.367 7  89040961.539 7      2914.731          45.000
R17  21514084.078 6 115126177.381 6     -2620.949          40.000    21514089.367 4  89542642.692 4     -2038.522          27.000
C11  25501241.492 6 132791629.764 6     -2705.461          41.000    25501242.086 7 102682928.742 7     -2092.001          44.000
C21  22277194.156 8 116003186.921 8     -1132.727          51.000
C26  23365722.508 8 121671485.399 8      2822.715          49.000
E12  23865043.078 8 125411640.132 8     -2552.547          49.000    23865041.156 8  96094623.659 8     -1955.875          49.000
E19  24163361.891 8 126979334.729 8      -731.414          48.000    24163363.156 8  97295871.627 8      -560.482          51.000
> 2020 05 10 00 44  0.0000000  0 14        .000000000000
G06  21422759.078 8 112577349.522 8     -1564.055          51.000    21422760.398 8  87722614.398 8     -1218.744          51.000
G07  21393550.070 8 112423856.620 8      1837.488          50.000    21393548.859 8  87602973.994 8      1431.809          50.000
G09  20564942.625 8 108069609.503 8     -1100.641          51.000    20564943.227 8  84210064.597 8      -857.642          51.000
G30  23115639.594 5 121473463.793 5      3413.289          35.000    23115638.086 5  94654660.120 5      2659.706          35.000
R11  20488852.000 6 109486200.062 6       296.434          38.000    20488854.539 6  85155929.972 6       230.556          40.000
R12  21410109.391 8 114369027.438 8      3734.078          50.000    21410114.375 7  88953680.751 7      2904.283          47.000
R17  21528832.680 6 115205103.250 6     -2640.777          38.000    21528836.398 5  89604029.449 5     -2053.938          31.000
C11  25516844.344 7 132872876.905 7     -2710.988          42.000    25516843.414 7 102745754.116 7     -2096.085          45.000
C21  22283741.789 8 116037284.058 8     -1140.281          51.000
C22  26199034.477 5 136425247.838 5     -2678.105          32.000
C26  23349485.109 7 121586932.387 7      2814.168          47.000
E12  23879637.125 8 125488333.749 8     -2560.020          49.000    23879635.109 8  96153388.888 8     -1961.615          49.000
E19  24167551.453 8 127001350.741 8      -735.961          49.000    24167552.719 8  97312741.033 8      -563.948          51.000
E21                                                                  25911647.805 5 104335470.884 5      1532.857          32.000
> 2020 05 10 00 44 30.0000000  0 16        .000000000000
G06  21431744.180 8 112624566.324 8     -1584.363          51.000    21431745.758 8  87759406.705 8     -1234.569          51.000
G07  21383105.875 8 112368971.634 8      1820.926          49.000    21383104.234 8  87560206.478 8      1418.903          49.000
G09  20571258.953 8 108102802.288 8     -1112.906          51.000    20571259.820 8  84235929.096 8      -867.200          51.000
G30  23096179.742 6 121371202.027 6      3403.695          36.000    23096179.023 5  94574975.617 5      2652.227          34.000
R01  20932420.836 5 111895795.626 5     -2129.461          31.000
R02  19966312.539 5 106544068.936 5      1439.000          31.000    19966318.812 4  82867635.267 4      1119.222          28.000
R11  20487269.727 5 109477741.016 5       267.543          35.000    20487273.445 6  85149350.781 6       208.089          41.000
R12  21389183.469 8 114257237.676 8      3717.906          51.000    21389188.172 8  88866733.158 8      2891.705          48.000
R17  21543694.180 6 115284641.497 6     -2662.586          40.000    21543703.211 5  89665892.554 5     -2070.900          32.000
C05  39778895.234 5 207139140.687 5       -21.578          35.000    39778892.156 6 160173114.509 6       -17.145          38.000
C11  25532482.719 7 132954309.300 7     -2718.680          42.000    25532481.219 7 102808722.786 7     -2102.165          46.000
C21  22290338.719 8 116071636.567 8     -1150.488          51.000
C26  23333302.180 8 121502664.746 8      2803.039          48.000
E12  23894278.891 8 125565277.644 8     -2570.121          48.000    23894277.672 8  96212345.909 8     -1969.326          50.000
E19  24171771.562 8 127023527.037 8      -742.988          49.000    24171772.797 8  97329733.256 8      -569.315          51.000
E21  25900255.609 5 136106765.244 5      1987.625          35.000
> 2020 05 10 00 45  0.0000000  0 15        .000000000000
G06  21440836.508 8 112672347.503 8     -1602.453          50.000    21440838.734 8  87796638.796 8     -1248.665          51.000
G07  21372748.531 8 112314543.718 8      1806.348          49.000    21372746.555 8  87517795.126 8      1407.544          49.000
G09  20577637.719 8 108136323.687 8     -1123.082          51.000    20577638.914 8  84262049.655 8      -875.129          51.000
G30  23076761.289 6 121269164.564 6      3396.898          38.000    23076764.836 6  94495465.774 6      2646.931          38.000
R01  20944379.852 5 111959792.511 5     -2138.395          31.000    20944388.172 4  87079815.931 4     -1663.193          29.000
R02  19958243.914 5 106501012.436 5      1430.402          30.000
R12  21368339.555 8 114145889.488 8      3703.828          51.000    21368344.461 8  88780129.044 8      2880.755          49.000
R17  21558673.211 7 115364797.015 7     -2682.441          43.000    21558683.695 5  89728235.719 5     -2086.346          33.000
C05  39779016.883 5 207139778.702 5       -21.762          35.000    39779013.953 6 160173604.762 6       -16.692          38.000
C11  25548157.422 6 133035932.956 6     -2724.273          41.000    25548156.258 7 102871839.398 7     -2106.687          46.000
C21  22296986.641 8 116106253.277 8     -1158.609          51.000
C26  23317176.922 8 121418693.249 8      2793.812          50.000
E12  23908969.547 7 125642478.672 7     -2578.090          47.000    23908969.312 8  96271499.957 8     -1975.384          50.000
E19  24176023.883 8 127045872.356 8      -748.012          50.000    24176024.992 8  97346854.992 8      -573.176          51.000
E21  25888931.836 5 136047257.207 5      1977.551          35.000    25888935.305 5 104244001.363 5      1515.105          35.000
> 2020 05 10 00 45 30.0000000  0 16        .000000000000
G04  22646243.008 6 119006773.415 6     -2697.613          37.000
G06  21450013.477 8 112720575.426 8     -1610.926          48.000    21450016.508 8  87834219.005 8     -1255.267          48.000
G07  21362456.273 8 112260458.210 8      1801.113          49.000    21362454.375 8  87475650.593 8      1403.465          49.000
G09  20584056.758 8 108170056.778 8     -1123.883          51.000    20584058.195 8  84288335.169 8      -875.753          51.000
G30  23057362.484 6 121167237.696 6      3399.691          39.000    23057368.258 6  94416042.198 6      2649.110          39.000
R01  20956382.852 5 112023893.953 5     -2136.914          31.000    20956390.508 4  87129704.530 4     -1662.044          28.000
R11  20484560.094 6 109463248.545 6       221.898          37.000    20484555.828 7  85138077.026 7       172.582          43.000
R12  21347556.617 8 114034869.517 8      3699.242          50.000    21347561.477 8  88693780.150 8      2877.185          49.000
R17  21573746.086 7 115445447.792 7     -2692.406          43.000    21573754.227 5  89790964.078 5     -2094.094          30.000
C05  39779119.250 5 207140311.930 5       -11.969          35.000    39779116.406 6 160174017.080 6        -9.382          38.000
C11  25563846.398 6 133117630.522 6     -2720.449          40.000    25563845.695 7 102935013.158 7     -2103.557          45.000
C21  22303663.250 8 116141019.471 8     -1157.324          51.000
C26  23301087.766 8 121334905.137 8      2793.883          51.000
E12  23923686.828 7 125719818.977 7     -2576.195          47.000    23923686.875 8  96330760.749 8     -1973.998          49.000
E19  24180286.305 8 127068270.662 8      -743.383          51.000    24180287.289 8  97364017.327 8      -569.605          51.000
E21  25877647.789 6 135987983.501 6      1976.375          36.000    25877655.633 5 104198583.931 5      1514.476          34.000
> 2020 05 10 00 46  0.0000000  0 16        .000000000000
G06  21459336.539 8 112769570.670 8     -1642.359          49.000    21459339.781 8  87872397.125 8     -1279.761          49.000
G07  21352290.852 8 112207039.055 8      1772.809          50.000    21352289.328 8  87434025.288 8      1381.409          50.000
G09  20590577.336 8 108204322.871 8     -1147.699          51.000    20590578.609 8  84315036.020 8      -894.314          51.000
G30  23038045.898 6 121065746.049 6      3379.078          38.000    23038053.250 6  94336957.736 6      2633.048          39.000
R01  20968472.289 5 112088520.512 5     -2158.723          33.000
R11  20483458.984 6 109457403.039 6       181.102          36.000    20483461.953 7  85133530.536 7       140.854          43.000
R12  21326897.094 8 113924509.879 8      3671.109          50.000    21326901.625 8  88607944.845 8      2855.304          49.000
R17  21588972.664 7 115526917.844 7     -2725.848          44.000    21588976.430 4  89854329.597 4     -2120.104          28.000
C05  39779263.547 5 207141063.670 5       -25.102          35.000    39779260.914 6 160174598.371 6       -19.413          38.000
C11  25579610.453 6 133199718.679 6     -2739.336          39.000    25579610.219 7 102998488.930 7     -2118.147          44.000
C21  22310430.047 8 116176254.600 8     -1178.965          51.000
C22  26260882.109 5 136747303.828 5     -2694.871          31.000
C26  23285095.430 8 121251622.010 8      2771.090          51.000
E12  23938491.977 7 125797619.020 7     -2597.484          47.000    23938491.680 8  96390373.781 8     -1990.298          49.000
E19  24184620.062 8 127091043.782 8      -761.859          50.000    24184621.016 8  97381466.854 8      -583.759          51.000
E21  25866471.656 6 135929255.421 6      1952.086          39.000    25866476.781 5 104153584.489 5      1495.883          35.000
> 2020 05 10 00 46 30.0000000  0 15        .000000000000
G06  21468746.906 8 112819023.081 8     -1659.418          50.000    21468749.359 8  87910931.477 8     -1293.053          50.000
G07  21342193.914 8 112153978.642 8      1759.352          51.000    21342192.812 8  87392679.489 8      1370.923          51.000
G09  20597140.641 8 108238812.584 8     -1156.758          51.000    20597141.469 8  84341911.118 8      -901.370          51.000
G30  23018754.703 6 120964383.346 6      3373.086          39.000    23018762.875 6  94257973.777 6      2628.379          39.000
R11  20482502.656 5 109452294.791 5       153.996          32.000    20482505.172 7  85129557.491 7       119.790          44.000
R12  21306303.812 8 113814501.171 8      3657.684          51.000    21306307.445 8  88522382.523 8      2844.865          48.000
R17  21604293.430 7 115608889.061 7     -2744.094          45.000    21604293.258 5  89918084.905 5     -2134.298          31.000
C05  39779391.062 5 207141727.319 5       -23.527          35.000    39779388.531 6 160175112.331 6       -18.480          38.000
C11  25595389.977 6 133281889.176 6     -2743.551          39.000    25595390.344 7 103062028.339 7     -2121.636          43.000
C21  22317228.203 8 116211653.186 8     -1186.031          51.000
C26  23269141.227 8 121168540.430 8      2762.715          51.000
E04  24888061.695 5 130787646.045 5      1563.359          33.000
E12  23953325.703 8 125875568.388 8     -2604.195          48.000    23953325.062 8  96450101.201 8     -1995.410          49.000
E19  24188966.438 8 127113883.387 8      -765.797          51.000    24188967.430 8  97398967.329 8      -586.788          51.000
E21  25855341.078 5 135870766.112 5      1942.188          34.000    25855340.469 4 104108744.025 4      1488.358          29.000
> 2020 05 10 00 47  0.0000000  0 14        .000000000000
G06  21478249.477 8 112868958.353 8     -1672.555          51.000    21478251.062 8  87949842.062 8     -1303.289          51.000
G07  21332170.906 8 112101305.907 8      1749.129          50.000    21332169.977 8  87351635.796 8      1362.958          50.000
G09  20603751.602 8 108273552.436 8     -1162.281          51.000    20603752.281 8  84368981.132 8      -905.674          51.000
G30  22999494.875 6 120863179.368 6      3370.539          41.000    22999502.375 7  94179113.479 7      2626.394          42.000
R01  20992755.484 5 112218256.389 5     -2169.312          33.000    20992759.273 4  87280897.306 4     -1687.243          27.000
R11  20481689.812 6 109447952.447 6       131.543          38.000    20481692.398 7  85126180.068 7       102.305          42.000
R12  21285782.148 8 113704875.835 8      3647.641          50.000    21285784.766 7  88437118.397 7      2837.054          46.000
R17  21619712.242 7 115691385.449 7     -2758.719          43.000    21619711.484 5  89982248.680 5     -2145.673          33.000
C05  39779507.109 5 207142332.068 5       -18.789          35.000    39779504.680 6 160175579.991 6       -14.943          38.000
C11  25611190.289 6 133364166.520 6     -2744.598          40.000    25611190.586 7 103125650.364 7     -2122.333          43.000
C21  22324062.984 8 116247242.516 8     -1189.582          51.000
C26  23253230.484 8 121085689.781 8      2757.723          50.000
E12  23968192.523 7 125953692.622 7     -2607.164          47.000    23968191.695 8  96509962.625 8     -1997.709          49.000
E19  24193330.578 8 127136816.693 8      -766.020          51.000    24193331.594 8  97416539.604 8      -586.998          51.000
> 2020 05 10 00 47 30.0000000  0 15        .000000000000
G04  22708250.094 5 119332663.611 5     -2725.020          34.000
G06  21487852.766 8 112919421.383 8     -1694.438          51.000    21487853.773 8  87989163.874 8     -1320.341          51.000
G07  21322230.500 8 112049068.650 8      1730.426          50.000    21322229.945 8  87310931.458 8      1348.387          50.000
G09  20610418.812 8 108308588.122 8     -1176.363          51.000    20610419.578 8  84396281.668 8      -916.647          51.000
G30  22980275.516 7 120762182.965 7      3359.531          43.000    22980282.031 7  94100414.927 7      2617.814          43.000
R02  19918661.070 5 106289754.377 5      1384.281          35.000    19918663.289 4  82669827.920 4      1076.663          29.000
R11  20481029.633 5 109444423.677 5       100.188          34.000    20481031.797 6  85123435.312 6        77.921          41.000
R12  21265341.109 8 113595685.607 8      3628.746          49.000    21265343.875 7  88352192.706 7      2822.358          46.000
R17  21635235.469 6 115774450.116 6     -2781.727          40.000    21635236.992 5  90046854.501 5     -2163.562          34.000
C05  39779620.680 5 207142923.364 5       -22.734          35.000    39779618.281 6 160176037.197 6       -17.833          38.000
C11  25627019.875 6 133446594.309 6     -2753.598          40.000    25627019.703 7 103189388.731 7     -2129.305          44.000
C21  22330943.250 8 116283069.010 8     -1201.668          51.000
C26  23237372.148 8 121003118.444 8      2744.133          48.000
E12  23983100.648 7 126032036.474 7     -2618.703          45.000    23983100.094 8  96569992.324 8     -2006.521          49.000
E19  24197721.312 8 127159890.119 8      -775.023          51.000    24197722.250 8  97434219.231 8      -593.873          51.000
> 2020 05 10 00 48  0.0000000  0 16        .000000000000
G04  22723805.367 6 119414405.100 6     -2726.383          36.000
G06  21497561.812 8 112970439.721 8     -1709.145          51.000    21497562.742 8  88028918.405 8     -1331.801          51.000
G07  21312378.656 8 111997297.391 8      1718.695          51.000    21312378.523 8  87270590.240 8      1339.243          51.000
G09  20617147.641 8 108343948.116 8     -1183.301          51.000    20617148.453 8  84423834.909 8      -922.053          51.000
G30  22961102.422 7 120661425.871 7      3355.297          46.000    22961108.109 7  94021902.893 7      2614.517          46.000
R11  20480532.961 6 109441737.164 6        76.438          38.000    20480530.742 6  85121343.682 6        59.445          39.000
R12  21244987.672 8 113486964.773 8      3617.004          49.000    21244991.117 7  88267632.072 7      2813.225          46.000
R17  21650867.742 6 115858109.079 6     -2797.746          39.000    21650872.508 5  90111922.639 5     -2176.025          34.000
C05  39779737.211 5 207143530.288 5       -19.871          35.000    39779734.781 6 160176506.495 6       -15.227          38.000
C11  25642883.516 6 133529199.106 6     -2755.969          41.000    25642883.250 7 103253263.941 7     -2130.842          45.000
C21  22337874.570 8 116319161.879 8     -1206.777          51.000
C26  23221573.398 8 120920857.685 8      2737.664          50.000
E04  24861322.258 5 130647137.314 5      1555.617          32.000
E12  23998055.352 7 126110627.415 7     -2623.129          45.000    23998055.547 8  96630211.357 8     -2009.837          48.000
E19  24202144.336 8 127183133.200 8      -776.879          51.000    24202145.172 8  97452028.864 8      -595.286          51.000
E21  25822292.469 5 135697062.990 5      1913.199          34.000    25822291.445 6 103975660.001 6      1466.197          38.000
> 2020 05 10 00 48 30.0000000  0 16        .000000000000
G02  22443699.367 5 117942452.791 5       606.762          31.000
G04  22739360.469 5 119496145.047 5     -2728.438          32.000
G06  21507355.859 8 113021906.340 8     -1725.027          51.000    21507356.711 8  88069022.258 8     -1344.174          51.000
G07  21302595.922 8 111945888.580 8      1705.477          51.000    21302595.703 8  87230531.412 8      1328.943          51.000
G09  20623917.984 8 108379526.195 8     -1191.703          51.000    20623918.758 8  84451558.087 8      -928.600          51.000
G30  22941955.695 7 120560805.066 7      3349.684          47.000    22941960.500 7  93943497.080 7      2610.143          47.000
R11  20480165.609 6 109439788.648 6        50.668          38.000    20480165.094 6  85119828.074 6        39.405          36.000
R12  21224703.453 8 113378610.592 8      3603.520          51.000    21224706.914 7  88183356.574 7      2802.737          46.000
R17  21666589.633 6 115942250.856 6     -2814.879          37.000    21666596.047 5  90177366.336 5     -2189.344          33.000
C05  39779836.734 5 207144048.494 5       -17.809          35.000    39779834.250 6 160176907.232 6       -13.919          38.000
C11  25658760.531 6 133611873.937 6     -2759.027          41.000    25658760.648 7 103317193.359 7     -2133.476          47.000
C21  22344836.984 8 116355417.016 8     -1213.270          51.000
C26  23205815.750 8 120838805.376 8      2729.555          51.000
E12  24013036.789 7 126189358.277 7     -2628.820          44.000    24013037.609 7  96690537.619 7     -2014.216          47.000
E19  24206579.602 8 127206440.288 8      -780.039          50.000    24206580.312 8  97469887.538 8      -597.776          51.000
E21  25811386.359 5 135639750.601 5      1904.246          31.000    25811389.078 6 103931744.577 6      1459.011          41.000
> 2020 05 10 00 49  0.0000000  0 14        .000000000000
G06  21517272.766 8 113074020.655 8     -1752.672          50.000    21517273.734 8  88109630.851 8     -1365.718          50.000
G07  21292920.641 8 111895044.102 8      1680.688          51.000    21292920.062 8  87190912.337 8      1309.627          51.000
G09  20630767.977 8 108415522.697 8     -1211.629          51.000    20630768.719 8  84479607.304 8      -944.126          51.000
G30  22922873.727 7 120460524.130 7      3332.273          47.000    22922876.422 7  93865356.143 7      2596.580          45.000
R11  20479977.859 5 109438781.782 5        13.109          31.000    20479976.438 5  85119044.761 5        10.193          35.000
R12  21204527.562 8 113270832.013 8      3578.215          51.000    21204530.109 7  88099528.768 7      2783.056          46.000
R17  21682438.688 6 116027076.138 6     -2843.707          39.000    21682446.219 5  90243341.603 5     -2211.772          33.000
C05  39779957.547 5 207144677.609 5       -27.891          35.000    39779955.094 6 160177393.678 6       -21.141          38.000
C11  25674688.727 7 133694815.632 7     -2773.973          42.000    25674689.586 8 103381329.131 8     -2144.870          48.000
C21  22351868.656 8 116392033.944 8     -1231.297          51.000
C26  23190137.531 8 120757163.071 8      2709.781          51.000
E12  24028082.938 7 126268428.407 7     -2646.047          43.000    24028083.812 7  96751123.819 7     -2027.452          45.000
E19  24211065.352 8 127230012.545 8      -794.785          50.000    24211065.906 8  97487949.395 8      -609.057          51.000
E21                                                                  25800567.211 6 103888171.593 6      1442.926          39.000
> 2020 05 10 00 49 30.0000000  0 16        .000000000000
G06  21527295.930 8 113126693.597 8     -1761.934          50.000    21527297.172 8  88150674.726 8     -1372.935          50.000
G07  21283336.344 8 111844678.572 8      1674.004          51.000    21283335.516 8  87151666.496 8      1304.422          51.000
G09  20637680.797 8 108451849.462 8     -1213.359          51.000    20637681.523 8  84507913.861 8      -945.475          51.000
G30  22903840.125 7 120360498.076 7      3332.906          44.000    22903837.273 7  93787413.891 7      2597.073          44.000
R01  21054247.383 5 112547027.797 5     -2211.270          31.000    21054243.164 4  87536549.917 4     -1719.876          28.000
R11  20479945.938 6 109438627.848 6        -6.086          36.000    20479948.781 6  85118925.063 6        -4.734          36.000
R12  21184443.406 8 113163544.798 8      3571.172          51.000    21184445.641 7  88016083.156 7      2777.581          46.000
R17  21698400.969 7 116112492.181 7     -2853.828          43.000    21698406.758 5  90309776.198 5     -2219.647          34.000
C05  39780082.992 5 207145331.088 5       -19.523          35.000    39780080.664 6 160177898.995 6       -14.752          39.000
C11  25690651.141 7 133777935.244 7     -2770.473          43.000    25690652.719 8 103445602.511 8     -2142.281          50.000
C21  22358953.305 8 116428926.358 8     -1231.301          51.000
C26  23174522.180 8 120675846.504 8      2708.125          51.000
E04  24834777.117 5 130507626.851 5      1544.582          35.000
E12  24043176.703 7 126347748.649 7     -2644.961          43.000    24043176.539 7  96811901.641 7     -2026.700          44.000
E19  24215584.875 8 127253762.745 8      -791.457          50.000    24215585.312 8  97506147.590 8      -606.447          51.000
E21  25789808.789 5 135526360.997 5      1880.426          31.000    25789813.477 6 103844875.540 6      1440.974          37.000
> 2020 05 10 00 50  0.0000000  0 16        .000000000000
G06  21537407.828 8 113179831.954 8     -1781.066          50.000    21537409.523 8  88192081.222 8     -1387.844          50.000
G07  21273825.992 8 111794701.286 8      1657.234          51.000    21273825.133 8  87112723.190 8      1291.351          51.000
G09  20644638.867 8 108488414.137 8     -1224.980          51.000    20644639.531 8  84536405.802 8      -954.530          51.000
G30  22884837.023 6 120260637.836 6      3323.777          39.000    22884832.094 6  93709600.760 6      2589.959          39.000
R01  21066679.734 5 112613509.014 5     -2221.715          30.000    21066675.609 4  87588241.588 4     -1727.994          25.000
R11  20480059.109 6 109439234.044 6       -34.969          40.000    20480061.938 6  85119396.588 6       -27.201          37.000
R12  21164434.234 8 113056660.231 8      3553.852          51.000    21164437.266 7  87932950.741 7      2764.110          47.000
R17  21714456.883 7 116198401.770 7     -2874.215          43.000    21714461.453 6  90376594.686 6     -2235.500          37.000
C05  39780195.773 5 207145918.453 5       -20.465          35.000    39780193.484 6 160178353.193 6       -15.949          38.000
C11  25706629.820 7 133861139.466 7     -2776.824          43.000    25706631.984 8 103509941.313 8     -2147.401          50.000
C21  22366073.469 8 116466003.857 8     -1241.176          51.000
C26  23158952.328 8 120594767.255 8      2696.562          51.000
E04  24825975.812 5 130461383.955 5      1538.906          32.000
E12  24058300.469 7 126427225.715 7     -2654.062          43.000    24058298.812 7  96872799.596 7     -2033.644          44.000
E19  24220120.797 8 127277599.316 8      -798.129          49.000    24220121.125 8  97524411.968 8      -611.559          51.000
E21  25779110.195 5 135470131.825 5      1867.766          32.000    25779111.508 5 103801787.669 5      1430.954          33.000
> 2020 05 10 00 50 30.0000000  0 15        .000000000000
G06  21547622.883 8 113233512.816 8     -1797.797          50.000    21547624.742 8  88233910.443 8     -1400.881          50.000
G07  21264404.789 8 111745192.317 8      1643.066          51.000    21264403.984 8  87074144.796 8      1280.315          51.000
G09  20651656.992 8 108525294.761 8     -1233.914          51.000    20651657.695 8  84565143.945 8      -961.491          51.000
G30  22865879.156 6 120161024.710 6      3316.969          39.000    22865877.164 6  93631980.097 6      2584.648          39.000
R02  19872791.375 5 106044991.709 5      1333.414          32.000
R11  20480329.703 6 109440680.853 6       -61.758          40.000    20480331.297 6  85120521.780 6       -48.037          38.000
R12  21144516.414 8 112950263.089 8      3539.082          51.000    21144520.258 7  87850197.449 7      2752.622          47.000
R17  21730619.062 6 116284880.955 6     -2891.344          40.000    21730622.547 6  90443856.259 6     -2248.823          37.000
C05  39780310.922 5 207146517.100 5       -19.871          35.000    39780308.742 6 160178816.870 6       -15.139          38.000
C11  25722639.352 7 133944503.964 7     -2780.930          45.000    25722641.852 8 103574404.026 8     -2150.234          49.000
C21  22373244.367 8 116503344.800 8     -1248.449          51.000
C26  23143442.836 8 120514005.803 8      2687.434          49.000
E12  24073469.023 7 126506936.618 7     -2660.297          43.000    24073467.258 7  96933876.761 7     -2038.403          45.000
E19  24224688.094 8 127301601.106 8      -802.199          48.000    24224688.398 8  97542802.952 8      -614.684          51.000
E21  25768474.031 5 135414244.035 5      1857.617          31.000    25768480.180 5 103758969.854 5      1423.246          32.000
> 2020 05 10 00 51  0.0000000  0 14        .000000000000
G06  21557937.086 8 113287714.863 8     -1815.352          50.000    21557938.883 8  88276145.801 8     -1414.560          50.000
G07  21255069.258 8 111696133.584 8      1627.840          51.000    21255068.531 8  87035917.212 8      1268.447          51.000
G09  20658731.375 8 108562471.079 8     -1244.121          51.000    20658732.266 8  84594112.494 8      -969.445          51.000
G30  22846966.750 7 120061641.469 7      3308.973          44.000    22846966.695 7  93554538.578 7      2578.420          44.000
R11  20480754.078 6 109442948.302 6       -89.039          37.000    20480756.523 6  85122285.502 6       -69.247          39.000
R12  21124687.250 8 112844337.814 8      3522.922          51.000    21124690.828 7  87767811.163 7      2740.053          46.000
R17  21746880.688 6 116371905.752 6     -2910.043          38.000    21746885.734 6  90511542.295 6     -2263.364          37.000
C05  39780424.656 5 207147109.787 5       -19.691          35.000    39780422.539 6 160179275.193 6       -15.320          39.000
C11  25738675.781 7 134028007.100 7     -2785.781          45.000    25738678.195 8 103638973.932 8     -2154.134          49.000
C21  22380462.195 8 116540930.161 8     -1256.895          51.000
C26  23127990.555 8 120433545.007 8      2676.930          49.000
E12  24088678.195 7 126586860.065 7     -2667.676          43.000    24088677.797 7  96995116.788 7     -2044.009          46.000
E19  24229283.141 8 127325748.746 8      -807.320          48.000    24229283.406 8  97561305.691 8      -618.581          51.000
E21  25757907.031 5 135358714.188 5      1846.168          33.000
> 2020 05 10 00 51 30.0000000  0 14        .000000000000
G06  21568350.094 8 113342437.621 8     -1830.766          48.000    21568351.898 8  88318786.880 8     -1426.574          48.000
G07  21245819.742 8 111647527.500 8      1614.719          50.000    21245819.383 8  86998042.318 8      1258.222          50.000
G09  20665862.148 8 108599943.497 8     -1252.031          51.000    20665863.148 8  84623311.779 8      -975.609          51.000
G30  22828099.719 7 119962491.730 7      3303.070          45.000    22828100.227 7  93477279.028 7      2573.821          45.000
R11  20481332.859 6 109446038.235 6      -114.324          38.000    20481333.109 6  85124688.750 6       -88.919          38.000
R12  21104947.344 8 112738890.110 8      3509.012          51.000    21104949.508 7  87685796.343 7      2729.231          44.000
R17  21763244.648 6 116459473.303 6     -2926.227          39.000    21763248.914 5  90579650.377 5     -2275.954          35.000
C05  39780537.445 5 207147696.893 5       -17.375          35.000    39780535.281 6 160179729.173 6       -13.306          38.000
C11  25754738.742 7 134111647.502 7     -2788.230          45.000    25754740.672 8 103703649.982 8     -2155.967          48.000
C21  22387726.938 8 116578761.403 8     -1263.137          51.000
C26  23112597.523 8 120353388.361 8      2668.816          51.000
E12  24103927.828 7 126666995.528 7     -2672.715          43.000    24103928.969 7  97056519.277 7     -2047.864          47.000
E19  24233906.188 7 127350043.434 7      -810.242          47.000    24233906.445 8  97579921.117 8      -620.928          51.000
E21  25747400.992 5 135303505.119 5      1836.504          33.000    25747408.664 6 103674134.929 6      1407.242          37.000
> 2020 05 10 00 52  0.0000000  0 15        .000000000000
G06  21578860.977 8 113397674.643 8     -1850.742          48.000    21578863.156 8  88361828.690 8     -1442.137          48.000
G07  21236655.555 8 111599371.107 8      1596.812          50.000    21236655.992 8  86960517.863 8      1244.269          50.000
G09  20673048.227 8 108637706.621 8     -1264.473          51.000    20673049.180 8  84652737.598 8      -985.300          51.000
G30  22809276.719 7 119863573.293 7      3292.582          47.000    22809277.289 7  93400199.736 7      2565.648          47.000
R11  20482064.766 6 109449945.516 6      -145.109          37.000    20482064.398 6  85127727.773 6      -112.863          39.000
R12  21085296.109 8 112633919.993 8      3489.996          48.000    21085296.703 7  87604152.947 7      2714.441          43.000
R17  21779708.305 5 116547574.878 5     -2946.844          35.000    21779711.000 5  90648173.782 5     -2291.990          34.000
C05  39780648.359 5 207148274.182 5       -19.883          35.000    39780646.188 6 160180175.583 6       -15.650          38.000
C11  25770826.672 7 134195418.159 7     -2795.469          45.000    25770827.906 8 103768426.746 8     -2161.468          48.000
C21  22395038.344 8 116616834.262 8     -1274.023          51.000
C26  23097262.484 8 120273533.555 8      2655.887          51.000
E04  24791012.750 5 130277643.736 5      1523.379          33.000
E12  24119216.945 7 126747336.583 7     -2682.410          44.000    24119218.297 7  97118079.324 7     -2055.329          47.000
E19  24238556.328 7 127374480.481 7      -817.863          47.000    24238556.688 8  97598645.596 8      -626.624          51.000
E21                                                                  25736965.531 6 103632089.389 6      1396.677          39.000
> 2020 05 10 00 52 30.0000000  0 17        .000000000000
G06  21589476.766 8 113453462.215 8     -1866.918          49.000    21589479.492 8  88405299.487 8     -1454.741          49.000
G07  21227584.547 8 111551703.442 8      1582.594          51.000    21227585.352 8  86923374.233 8      1233.190          51.000
G09  20680296.672 8 108675797.776 8     -1273.242          51.000    20680297.430 8  84682419.018 8      -992.137          51.000
G30  22790505.273 7 119764926.665 7      3285.438          47.000    22790505.875 7  93323332.242 7      2560.081          47.000
R01  21129570.234 5 112949655.121 5     -2261.484          32.000    21129576.906 4  87849756.983 4     -1758.935          24.000
R02  19843219.648 4 105887194.890 4      1296.426          29.000    19843213.289 4  82356704.634 4      1008.319          26.000
R11  20482955.555 6 109454708.782 6      -171.047          38.000    20482956.953 6  85131432.675 6      -133.033          39.000
R12  21065741.719 8 112529470.433 8      3474.641          48.000    21065743.016 7  87522914.406 7      2702.498          44.000
R17  21796277.266 6 116636244.998 6     -2963.121          38.000    21796279.930 5  90717139.419 5     -2304.653          34.000
C05  39780764.617 5 207148879.471 5       -18.820          35.000    39780762.375 6 160180643.617 6       -14.484          38.000
C11  25786945.906 7 134279354.241 7     -2798.758          43.000    25786946.664 7 103833331.437 7     -2164.159          47.000
C21  22402403.500 8 116655186.721 8     -1281.254          51.000
C26  23081992.914 8 120194020.582 8      2646.562          51.000
E04  24782331.555 5 130232029.181 5      1519.980          33.000    24782320.617 5  99788140.016 5      1164.768          35.000
E12  24134552.281 7 126827919.509 7     -2688.305          45.000    24134552.656 7  97179824.697 7     -2059.894          46.000
E19  24243240.844 7 127399098.084 7      -821.910          47.000    24243241.359 8  97617508.427 8      -629.617          51.000
E21                                                                  25726590.453 6 103590331.051 6      1388.407          37.000
> 2020 05 10 00 53  0.0000000  0 17        .000000000000
G06  21600187.867 8 113509749.372 8     -1885.086          50.000    21600190.797 8  88449159.610 8     -1468.898          50.000
G07  21218597.578 8 111504476.557 8      1566.293          50.000    21218598.148 8  86886574.068 8      1220.488          50.000
G09  20687598.125 8 108714167.066 8     -1284.195          51.000    20687598.477 8  84712317.172 8     -1000.672          51.000
G30  22771776.375 7 119666505.109 7      3276.262          46.000    22771777.203 7  93246640.130 7      2552.931          46.000
R01  21142285.906 5 113017641.890 5     -2271.320          30.000
R02  19835969.398 5 105848536.157 5      1286.637          35.000    19835966.758 4  82326629.321 4      1000.717          29.000
R11  20483997.953 6 109460278.647 6      -199.879          39.000    20483998.445 6  85135764.734 6      -155.464          38.000
R12  21046276.586 8 112425495.864 8      3457.297          49.000    21046279.289 7  87442045.254 7      2689.006          46.000
R17  21812945.133 6 116725429.879 6     -2982.043          41.000    21812945.406 5  90786505.421 5     -2319.367          32.000
C05  39780876.938 6 207149464.380 6       -19.426          36.000    39780874.758 6 160181095.937 6       -15.526          39.000
C11  25803086.773 7 134363404.714 7     -2804.184          42.000    25803087.141 7 103898324.577 7     -2168.345          46.000
C21  22409813.227 8 116693770.402 8     -1290.641          51.000
C26  23066779.648 8 120114803.056 8      2634.957          50.000
E04                                                                  24773660.344 5  99753261.274 5      1160.671          35.000
E12  24149923.680 7 126908693.484 7     -2696.305          43.000    24149922.812 7  97241716.408 7     -2066.018          46.000
E19  24247950.438 7 127423847.156 7      -827.758          47.000    24247951.008 8  97636472.005 8      -634.274          51.000
E21                                                                  25716279.992 6 103548823.792 6      1379.011          40.000
> 2020 05 10 00 53 30.0000000  0 15        .000000000000
G06  21610993.531 8 113566532.224 8     -1902.824          51.000    21610996.133 8  88493405.996 8     -1482.720          51.000
G07  21209694.305 8 111457689.685 8      1550.262          51.000    21209694.367 8  86850116.790 8      1207.996          51.000
G09  20694951.969 8 108752811.671 8     -1294.504          51.000    20694952.055 8  84742429.858 8     -1008.704          51.000
G30  22753089.992 7 119568308.985 7      3267.582          45.000    22753091.000 7  93170123.682 7      2546.168          44.000
R11  20485190.125 7 109466652.649 7      -227.742          42.000    20485191.750 6  85140722.374 6      -177.133          38.000
R12  21026902.133 8 112321998.736 8      3440.035          51.000    21026906.289 8  87361547.458 8      2675.583          49.000
R17  21829708.047 6 116815122.995 6     -2999.887          40.000    21829704.820 4  90856237.142 4     -2333.248          27.000
C05  39780984.953 5 207150026.981 5       -19.906          35.000    39780982.844 6 160181530.981 6       -15.637          39.000
C11  25819248.750 7 134447565.049 7     -2809.043          42.000    25819248.516 7 103963402.671 7     -2172.094          45.000
C21  22417266.984 8 116732583.541 8     -1299.422          51.000
C26  23051622.234 7 120035881.182 7      2623.848          47.000
E04                                                                  24765015.023 5  99718459.227 5      1157.160          31.000
E12  24165329.953 6 126989654.536 6     -2703.508          40.000    24165328.438 7  97303751.469 7     -2071.660          45.000
E19  24252684.797 8 127448725.762 8      -833.246          48.000    24252685.180 8  97655534.825 8      -638.494          51.000
E21  25706030.023 5 135086089.735 5      1787.773          35.000    25706034.219 6 103507567.431 6      1369.628          41.000
> 2020 05 10 00 54  0.0000000  0 16        .000000000000
G04  22912216.898 5 120404510.530 5     -2773.191          32.000
G06  21621904.133 8 113623866.157 8     -1918.832          51.000    21621906.281 8  88538081.774 8     -1495.194          51.000
G07  21200886.008 8 111411401.242 8      1536.070          51.000    21200885.688 8  86814047.876 8      1196.938          51.000
G09  20702368.914 8 108791788.020 8     -1303.297          51.000    20702369.078 8  84772801.054 8     -1015.556          51.000
G30  22734457.781 7 119470397.923 7      3260.324          45.000    22734458.586 7  93093829.350 7      2540.512          45.000
R01  21167866.109 5 113154329.755 5     -2286.816          35.000    21167867.664 5  88008950.454 5     -1778.629          30.000
R11  20486544.273 6 109473888.774 6      -254.000          40.000    20486545.602 6  85146350.471 6      -197.553          36.000
R12  21007629.172 8 112219041.617 8      3424.379          51.000    21007634.016 8  87281469.706 8      2663.406          49.000
R17  21846574.445 6 116905378.560 6     -3016.309          40.000
C05  39781099.680 5 207150624.211 5       -18.809          35.000    39781097.570 6 160181992.769 6       -14.665          39.000
C11  25835442.453 6 134531889.585 6     -2811.922          41.000    25835441.445 7 104028607.738 7     -2174.477          44.000
C21  22424775.828 8 116771683.077 8     -1306.641          51.000
C26  23036532.406 7 119957313.846 7      2614.504          47.000
E12  24180780.820 6 127070858.128 6     -2709.230          36.000    24180780.508 7  97365972.393 7     -2075.880          44.000
E19  24257454.695 8 127473791.152 8      -837.133          48.000    24257454.820 8  97674740.766 8      -641.427          51.000
E21  25695858.648 5 135032633.274 5      1776.703          33.000    25695862.477 6 103466607.173 6      1361.469          40.000
> 2020 05 10 00 54 30.0000000  0 16        .000000000000
G02  22409506.281 5 117762751.021 5       392.949          32.000
G06  21632898.594 8 113681641.115 8     -1936.969          51.000    21632900.156 8  88583101.214 8     -1509.326          51.000
G07  21192152.188 8 111365504.516 8      1519.477          50.000    21192151.906 8  86778284.200 8      1184.011          50.000
G09  20709828.258 8 108830987.172 8     -1314.141          51.000    20709828.680 8  84803345.855 8     -1024.003          51.000
G30  22715859.875 7 119372666.100 7      3250.840          47.000    22715860.812 7  93017674.687 7      2533.122          47.000
R01  21180712.641 5 113223006.107 5     -2296.188          34.000    21180716.602 5  88062365.358 5     -1785.924          30.000
R11  20488039.047 7 109481877.021 7      -282.789          44.000    20488040.727 6  85152563.619 6      -219.947          36.000
R12  20988437.523 8 112116518.901 8      3406.281          51.000    20988442.000 8  87201729.845 8      2649.330          49.000
R17  21863524.727 6 116996082.103 6     -3034.695          41.000    21863513.320 4  90996958.486 4     -2360.319          27.000
C05  39781200.531 5 207151150.084 5       -19.926          35.000    39781198.383 6 160182398.634 6       -15.550          39.000
C11  25851646.688 6 134616268.673 6     -2817.309          39.000    25851645.039 7 104093854.956 7     -2178.404          43.000
C21  22432319.242 8 116810962.108 8     -1316.090          51.000
C26  23021491.812 8 119878996.164 8      2602.574          48.000
E12  24196256.078 6 127152194.181 6     -2717.133          36.000    24196258.055 7  97428294.922 7     -2081.995          43.000
E19  24262239.594 8 127498935.324 8      -843.297          49.000    24262239.438 8  97694007.071 8      -646.118          50.000
E21                                                                  25685743.688 6 103425861.524 6      1351.535          38.000
> 2020 05 10 00 55  0.0000000  0 15        .000000000000
G06  21643996.922 8 113739963.488 8     -1957.641          51.000    21643998.359 8  88628547.190 8     -1525.437          51.000
G07  21183513.492 8 111320108.864 8      1500.348          49.000    21183513.570 8  86742910.973 8      1169.102          49.000
G09  20717350.469 8 108870516.683 8     -1327.738          51.000    20717350.938 8  84834148.068 8     -1034.601          51.000
G30  22697317.461 8 119275224.172 8      3238.785          49.000    22697319.141 8  92941745.913 8      2523.729          49.000
R01  21193614.172 5 113291968.370 5     -2308.078          35.000    21193614.656 5  88116002.661 5     -1795.172          31.000
R11  20489695.398 6 109490727.391 6      -313.746          40.000    20489697.617 5  85159447.312 5      -244.019          35.000
R12  20969347.945 8 112014544.821 8      3385.285          50.000    20969351.961 8  87122416.704 8      2633.003          48.000
R17  21880577.141 6 117087339.710 6     -3055.781          38.000    21880571.969 5  91067939.681 5     -2376.719          31.000
C05  39781307.984 5 207151710.098 5       -23.379          35.000    39781305.977 6 160182831.688 6       -18.362          39.000
C11  25867880.797 5 134700807.043 5     -2825.238          35.000    25867879.742 7 104159225.384 7     -2184.563          43.000
C21  22439917.430 8 116850528.233 8     -1328.098          51.000
C26  23006521.133 8 119801037.588 8      2588.074          50.000
E12  24211779.266 6 127233769.416 6     -2727.434          40.000    24211781.180 7  97490800.653 7     -2090.043          43.000
E19  24267060.039 8 127524266.427 8      -851.996          49.000    24267059.688 8  97713416.614 8      -652.801          50.000
E21  25675697.117 5 134926698.279 5      1748.570          33.000    25675698.539 6 103385414.794 6      1339.954          36.000
> 2020 05 10 00 55 30.0000000  0 16        .000000000000
G04  22959779.672 4 120654455.443 4     -2790.777          29.000
G06  21655196.125 8 113798816.267 8     -1976.859          51.000    21655197.578 8  88674406.491 8     -1540.410          51.000
G07  21174967.594 8 111275200.209 8      1482.508          49.000    21174967.773 8  86707917.213 8      1155.201          49.000
G09  20724932.453 8 108910360.677 8     -1339.859          51.000    20724932.852 8  84865195.324 8     -1044.046          51.000
G30  22678827.977 8 119178059.471 8      3227.762          49.000    22678830.484 8  92866033.158 8      2515.139          49.000
R01  21206566.539 5 113361201.022 5     -2318.602          34.000    21206566.125 5  88169850.314 5     -1803.354          31.000
R11  20491510.047 7 109500424.181 7      -343.949          44.000    20491513.625 5  85166989.381 5      -267.516          32.000
R12  20950358.250 8 111913108.769 8      3365.801          48.000    20950362.344 7  87043521.981 7      2617.845          47.000
R17  21897726.930 6 117179131.848 6     -3075.211          37.000    21897727.953 5  91139333.617 5     -2391.831          34.000
C05  39781419.516 5 207152290.533 5       -25.582          35.000    39781417.516 6 160183280.515 6       -20.159          39.000
C11  25884140.859 5 134785487.302 5     -2831.785          31.000    25884142.000 7 104224705.583 7     -2189.311          43.000
C21  22447567.836 8 116890366.753 8     -1338.867          51.000
C26  22991617.516 8 119723425.449 8      2574.766          50.000
E12  24227345.648 7 127315566.904 7     -2736.641          42.000    24227346.539 7  97553476.622 7     -2096.918          42.000
E19  24271913.133 8 127549769.543 8      -859.332          48.000    24271912.734 8  97732957.960 8      -658.413          50.000
E21                                                                  25665724.797 6 103345256.816 6      1328.964          36.000
> 2020 05 10 00 56  0.0000000  0 15        .000000000000
G06  21666508.188 8 113858261.418 8     -1987.242          51.000    21666510.023 8  88720727.360 8     -1548.500          51.000
G07  21166526.852 8 111230843.524 8      1473.555          50.000    21166526.891 8  86673353.549 8      1148.224          50.000
G09  20732586.227 8 108950582.270 8     -1342.805          51.000    20732586.617 8  84896536.809 8     -1046.341          51.000
G30  22660403.820 8 119081238.194 8      3225.879          50.000    22660406.555 8  92790588.008 8      2513.672          50.000
R01  21219579.859 5 113430769.388 5     -2320.047          30.000    21219582.984 5  88223959.001 5     -1804.484          31.000
R11  20493494.648 6 109511031.623 6      -364.422          41.000    20493498.438 5  85175239.802 5      -283.436          30.000
R12  20931481.492 8 111812279.914 8      3355.078          49.000    20931486.289 7  86965099.488 7      2609.502          46.000
R17  21914989.945 6 117271519.426 6     -3085.078          40.000    21914994.812 6  91211190.567 6     -2399.505          37.000
C05  39781546.969 6 207152953.882 6       -19.414          36.000    39781545.094 6 160183794.239 6       -15.314          39.000
C11  25900440.953 5 134870370.356 5     -2829.254          34.000    25900443.328 7 104290342.549 7     -2187.136          42.000
C21  22455282.844 8 116930541.182 8     -1340.641          51.000
C26  22976792.836 8 119646225.223 8      2570.605          51.000
E12  24242966.516 7 127397648.598 7     -2736.613          42.000    24242966.219 6  97616370.384 6     -2096.805          41.000
E19  24276811.031 8 127575508.655 8      -857.785          48.000    24276810.773 8  97752680.143 8      -657.246          50.000
E21                                                                  25655836.055 6 103305437.844 6      1324.839          37.000
> 2020 05 10 00 56 30.0000000  0 14        .000000000000
G06  21677897.906 8 113918113.970 8     -2003.602          51.000    21677900.102 8  88767365.674 8     -1561.248          51.000
G07  21158156.445 8 111186856.955 8      1458.273          49.000    21158156.336 8  86639078.267 8      1136.314          49.000
G09  20740276.883 8 108990997.667 8     -1352.137          51.000    20740277.352 8  84928029.300 8     -1053.613          51.000
G30  22642010.500 8 118984579.701 8      3217.508          50.000    22642012.773 8  92715269.718 8      2507.152          50.000
R11  20495615.766 6 109522364.059 6      -391.512          39.000    20495617.750 5  85184053.893 5      -304.506          33.000
R12  20912685.750 8 111711876.358 8      3337.875          51.000    20912689.141 7  86887007.816 7      2596.125          43.000
R17  21932331.289 6 117364311.756 6     -3101.516          41.000    21932334.891 6  91283362.335 6     -2412.290          37.000
C05  39781655.898 5 207153520.914 5       -18.664          35.000    39781653.984 6 160184232.665 6       -14.532          39.000
C11  25916746.398 6 134955272.430 6     -2831.973          36.000    25916748.445 7 104355994.214 7     -2189.873          42.000
C21  22463027.688 8 116970870.470 8     -1348.562          51.000
C26  22962012.031 8 119569257.801 8      2559.871          48.000
E12  24258606.203 6 127479829.726 6     -2742.816          41.000    24258605.188 6  97679340.334 6     -2101.528          41.000
E19  24281718.961 8 127601300.798 8      -862.273          48.000    24281718.867 8  97772442.952 8      -660.682          50.000
E21  25645994.414 6 134770608.264 6      1717.277          36.000    25645997.070 6 103265818.892 6      1316.081          37.000
> 2020 05 10 00 57  0.0000000  0 15        .000000000000
G06  21689383.430 8 113978469.903 8     -2020.172          51.000    21689385.844 8  88814396.275 8     -1574.160          51.000
G07  21149875.273 8 111143338.906 8      1442.648          49.000    21149874.930 8  86605168.108 8      1124.142          49.000
G09  20748022.938 8 109031704.096 8     -1361.711          51.000    20748023.578 8  84959748.591 8     -1061.073          51.000
G30  22623667.227 8 118888184.358 8      3208.629          51.000    22623668.648 8  92640156.484 8      2500.233          51.000
R02  19779778.617 4 105548680.084 4      1211.062          29.000
R11  20497891.141 6 109534520.169 6      -418.953          39.000    20497894.070 5  85193508.813 5      -325.849          35.000
R12  20893989.992 8 111612002.197 8      3320.340          51.000    20893990.578 6  86809327.950 6      2582.487          41.000
R17  21949766.961 7 117457604.512 7     -3118.062          43.000    21949768.422 6  91355923.392 6     -2425.160          36.000
C05  39781764.742 5 207154087.961 5       -19.227          35.000    39781762.969 6 160184671.154 6       -14.616          39.000
C11  25933074.414 6 135040288.124 6     -2835.859          36.000    25933075.680 6 104421733.742 6     -2192.915          41.000
C21  22470821.086 8 117011451.984 8     -1357.004          51.000
C26  22947294.492 7 119492622.464 7      2548.934          47.000
E12  24274283.008 7 127562206.446 7     -2749.207          42.000    24274281.945 6  97742460.134 6     -2106.505          41.000
E19  24286655.633 7 127627244.015 7      -867.293          47.000    24286655.672 8  97792321.527 8      -664.621          50.000
E21                                                                  25636226.266 6 103226476.377 6      1306.773          40.000
> 2020 05 10 00 57 30.0000000  0 15        .000000000000
G06  21700962.586 8 114039318.728 8     -2036.531          51.000    21700965.211 8  88861810.980 8     -1586.907          51.000
G07  21141682.195 8 111100283.241 8      1427.398          50.000    21141681.406 8  86571618.237 8      1112.259          50.000
G09  20755822.680 8 109072692.315 8     -1371.023          51.000    20755823.461 8  84991687.451 8     -1068.330          51.000
G30  22605372.930 8 118792045.989 8      3200.258          51.000    22605373.602 8  92565243.503 8      2493.707          51.000
R01  21258837.031 4 113640678.961 4     -2343.496          29.000
R11  20500318.438 5 109547491.215 5      -445.879          34.000    20500321.664 5  85203597.561 5      -346.780          35.000
R12  20875392.531 8 111512653.123 8      3302.809          51.000    20875391.305 7  86732056.537 7      2568.854          43.000
R17  21967293.992 7 117551384.591 7     -3134.238          42.000    21967292.742 6  91428863.439 6     -2437.741          36.000
C05  39781872.094 5 207154646.806 5       -18.719          35.000    39781870.250 6 160185103.284 6       -14.299          39.000
C11  25949422.234 6 135125406.638 6     -2839.090          36.000    25949422.828 6 104487552.766 6     -2195.162          41.000
C21  22478661.125 8 117052277.506 8     -1364.926          51.000
C26  22932639.648 7 119416312.991 7      2538.105          47.000
E12  24289995.172 7 127644768.455 7     -2755.219          43.000    24289994.281 6  97805721.935 6     -2110.971          41.000
E19  24291619.547 8 127653329.798 8      -871.902          48.000    24291619.523 8  97812309.335 8      -668.096          50.000
E21  25626518.148 5 134668256.828 5      1693.918          35.000    25626524.406 6 103187405.239 6      1297.793          41.000
> 2020 05 10 00 58  0.0000000  0 15        .000000000000
G06  21712637.781 8 114100672.802 8     -2053.750          50.000    21712640.273 8  88909619.377 8     -1600.325          50.000
G07  21133579.781 8 111057705.065 8      1411.094          50.000    21133578.727 8  86538440.440 8      1099.557          50.000
G09  20763678.719 8 109113975.820 8     -1381.227          51.000    20763679.492 8  85023856.414 8     -1076.280          51.000
G30  22587130.562 8 118696181.269 8      3190.695          50.000    22587130.906 8  92490543.757 8      2486.259          50.000
R02  19766286.391 5 105476623.094 5      1191.305          34.000    19766265.734 5  82037353.094 5       926.564          31.000
R11  20502901.555 6 109561291.252 6      -474.164          40.000    20502902.570 5  85214330.899 5      -368.797          32.000
R12  20856896.516 8 111413847.884 8      3284.207          51.000    20856895.695 7  86655208.059 7      2554.386          45.000
R17  21984913.914 7 117645662.436 7     -3151.195          43.000    21984911.750 6  91502190.603 6     -2450.933          38.000
C05  39781980.602 5 207155211.840 5       -19.172          35.000    39781978.805 6 160185540.222 6       -14.792          39.000
C11  25965791.719 5 135210639.750 5     -2843.363          35.000    25965792.281 6 104553460.362 6     -2198.630          40.000
C21  22486550.867 8 117093361.482 8     -1374.070          51.000
C26  22918050.977 8 119340345.661 8      2526.172          48.000
E12  24305744.945 7 127727528.207 7     -2762.148          42.000    24305744.164 6  97869135.240 6     -2116.571          40.000
E19  24296613.484 8 127679572.729 8      -877.715          48.000    24296613.297 8  97832417.557 8      -672.538          50.000
E21  25616885.789 6 134617635.872 6      1680.824          36.000    25616892.391 6 103148617.702 6      1288.030          39.000
> 2020 05 10 00 58 30.0000000  0 16        .000000000000
G06  21724410.711 8 114162540.729 8     -2069.879          50.000    21724413.055 8  88957828.156 8     -1612.893          50.000
G07  21125570.430 8 111015615.841 8      1395.738          51.000    21125569.148 8  86505643.666 8      1087.591          51.000
G09  20771592.859 8 109155564.514 8     -1390.457          51.000    20771593.523 8  85056263.179 8     -1083.473          51.000
G30  22568942.414 8 118600603.143 8      3182.047          48.000    22568942.781 8  92416067.331 8      2479.520          48.000
R01  21285255.359 5 113781883.739 5     -2361.684          31.000
R02  19759615.250 6 105441021.415 6      1182.508          36.000    19759585.672 4  82009662.751 4       919.725          24.000
R11  20505641.102 6 109575930.362 6      -501.316          37.000    20505641.812 6  85225716.948 6      -389.907          36.000
R12  20838504.602 8 111315601.554 8      3266.449          51.000    20838505.352 7  86578794.295 7      2540.572          47.000
R17  22002627.242 6 117740444.306 6     -3166.945          41.000    22002625.438 6  91575909.855 6     -2463.180          40.000
C05  39782092.281 5 207155793.848 5       -19.176          35.000    39782090.531 6 160185990.268 6       -14.589          39.000
C11  25982183.734 5 135295995.372 5     -2846.148          33.000    25982185.539 6 104619462.724 6     -2200.971          40.000
C21  22494492.492 8 117134714.653 8     -1382.047          51.000
C26  22903531.094 8 119264733.205 8      2515.395          50.000
E12  24321533.789 6 127810494.548 6     -2767.969          41.000    24321532.758 6  97932706.820 6     -2121.019          39.000
E19  24301639.305 8 127705983.375 8      -882.156          48.000    24301639.039 8  97852654.281 8      -675.905          49.000
E21  25607325.914 5 134567405.318 5      1669.672          31.000    25607332.234 6 103110123.128 6      1278.838          36.000
> 2020 05 10 00 59  0.0000000  0 15        .000000000000
G06  21736273.609 8 114224882.072 8     -2086.055          48.000    21736275.711 8  89006405.835 8     -1625.497          48.000
G07  21117647.117 8 110973977.773 8      1380.172          51.000    21117645.305 8  86473198.440 8      1075.459          51.000
G09  20779557.594 8 109197419.227 8     -1399.645          51.000    20779558.172 8  85088877.239 8     -1090.632          51.000
G30  22550801.133 7 118505275.640 7      3173.227          45.000    22550802.320 7  92341786.126 7      2472.641          45.000
R02  19752989.844 5 105405690.323 5      1172.840          33.000    19752992.852 4  81982253.134 4       912.209          25.000
R11  20508529.539 6 109591369.270 6      -528.094          41.000    20508532.828 5  85237725.051 5      -410.740          35.000
R12  20820211.305 8 111217879.618 8      3248.418          51.000    20820212.477 8  86502788.334 8      2526.547          48.000
R17  22020425.742 7 117835686.977 7     -3182.660          42.000    22020425.703 6  91649987.492 6     -2475.402          41.000
C05                                                                  39782198.328 6 160186424.101 6       -14.453          39.000
C11  25998591.008 5 135381433.098 5     -2850.004          33.000    25998594.711 6 104685528.582 6     -2203.438          37.000
C21  22502478.422 8 117176299.238 8     -1390.121          51.000
C26  22889072.578 8 119189439.753 8      2504.301          51.000
E12  24337353.555 6 127893627.241 6     -2773.906          38.000    24337351.648 6  97996405.863 6     -2125.649          38.000
E19  24306689.750 8 127732523.516 8      -887.070          48.000    24306689.469 8  97872990.232 8      -679.688          50.000
E21  25597832.344 5 134517513.539 5      1656.844          34.000    25597837.594 5 103071893.527 5      1269.808          31.000
> 2020 05 10 00 59 30.0000000  0 15        .000000000000
G06  21748231.242 8 114287721.135 8     -2102.148          48.000    21748233.555 8  89055371.363 8     -1638.035          48.000
G07  21109814.992 8 110932818.875 8      1364.836          51.000    21109812.555 8  86441126.624 8      1063.512          51.000
G09  20787577.797 8 109239565.669 8     -1408.855          51.000    20787578.555 8  85121718.628 8     -1097.806          51.000
G30  22532712.797 7 118410227.474 7      3164.488          44.000    22532715.109 7  92267722.569 7      2465.835          44.000
R02  19746419.641 5 105370657.988 5      1163.312          32.000    19746416.688 4  81954981.154 4       904.802          28.000
R11  20511573.688 6 109607633.962 6      -555.215          38.000    20511574.977 5  85250375.342 5      -431.837          32.000
R12  20802021.633 8 111120713.024 8      3230.344          51.000    20802023.758 8  86427214.301 8      2512.490          48.000
R17  22038314.359 6 117931413.132 6     -3197.977          41.000    22038315.688 6  91724441.161 6     -2487.315          41.000
C05  39782308.781 5 207156921.393 5       -18.582          35.000    39782307.188 6 160186862.153 6       -13.982          39.000
C11  26015018.180 5 135466976.637 5     -2852.906          32.000    26015023.930 5 104751676.270 5     -2205.483          35.000
C21  22510513.523 8 117218141.725 8     -1398.215          51.000
C26  22874680.742 8 119114493.646 8      2493.234          51.000
E12                                                                  24353206.234 6  98060251.222 6     -2129.869          38.000
E19  24311769.828 8 127759219.589 8      -891.605          48.000    24311769.703 8  97893445.650 8      -683.181          49.000
E21  25588410.398 5 134468001.547 5      1644.855          34.000
