     3.02           OBSERVATION DATA    M (MIXED)           RINEX VERSION / TYPE
SAVERINEX           SC600               20200507 055931 LCL PGM / RUN BY / DATE
       G = GPS       R = GLONASS       C = COMPASS          COMMENT
       S = SBAS      J = QZSS          E = GALILEO          COMMENT
BEAN                                                        MARKER NAME
1                                                           MARKER NUMBER
GEODETIC                                                    MARKER TYPE
Unige DICCA         GTER                                    OBSERVER / AGENCY
SC60291900056       SC600               2.12(191226)        REC # / TYPE / VERS
                    HEMA45          NONE                    ANT # / TYPE
  4509407.8091   693652.4678  4442337.6214                  APPROX POSITION XYZ
        0.0000        0.0000        0.0000                  ANTENNA: DELTA H/E/N
G    8 C1C L1C D1C S1C C2Y L2Y D2Y S2Y                      SYS / # / OBS TYPES
R    8 C1C L1C D1C S1C C2P L2P D2P S2P                      SYS / # / OBS TYPES
C    8 C1I L1I D1I S1I C7I L7I D7I S7I                      SYS / # / OBS TYPES
E    8 C1C L1C D1C S1C C7Q L7Q D7Q S7Q                      SYS / # / OBS TYPES
DBHZ                                                        COMMENT
     30.000                                                 INTERVAL
  2020    05    07    03    00    0.0000000     GPS         TIME OF FIRST OBS
  2020    05    07    03    59   30.0000000     GPS         TIME OF LAST OBS
     0                                                      RCV CLOCK OFFS APPL
G L1C  0.00000                                              SYS / PHASE SHIFT
G L2Y  0.00000                                              SYS / PHASE SHIFT
R L1C  0.00000                                              SYS / PHASE SHIFT
R L2P  0.25000                                              SYS / PHASE SHIFT
C L1I  0.00000                                              SYS / PHASE SHIFT
C L7I  0.00000                                              SYS / PHASE SHIFT
E L1C  0.50000                                              SYS / PHASE SHIFT
E L7Q -0.25000                                              SYS / PHASE SHIFT
 14 R04  6 R05  1 R06 -4 R07  5 R08  6 R09 -2 R10 -7 R11  0 GLONASS SLOT / FRQ #
    R15  0 R16 -1 R19  3 R20  2 R21  4 R22 -3               GLONASS SLOT / FRQ #
 C1C   71.950 C2C   71.950 C2P   71.950                     GLONASS COD/PHS/BIS
    18                                                      LEAP SECONDS
*** Above antenna height is from mark to ANTENNA BOTTOM.    COMMENT
    17     4        0.0000        ANT MEASURE TYPE/HEIGT    COMMENT
    0.0000    0.0000    0.0458    0.0405    0.0000          COMMENT
                    BASE STATION                            COMMENT
                                                            END OF HEADER
> 2020 05 07 03 00  0.0000000  0 14        .000000000000
G02  24202756.070 7 127186325.637 7     -2661.379          42.000    24202751.602 6  99106227.809 6     -2073.805          37.000
G05  20621711.516 7 108367817.339 7       650.914          44.000    20621708.398 7  84442439.206 7       507.206          44.000
G07  21505378.469 8 113011519.290 8     -1792.758          49.000    21505376.969 8  88060924.346 8     -1396.954          49.000
G28  23005382.703 6 120894144.711 6      3113.055          38.000    23005387.688 6  94203227.604 6      2425.754          36.000
G30  20357699.234 8 106980448.224 8       116.934          51.000    20357700.633 8  83361408.235 8        91.117          51.000
R07  20044206.195 8 107298202.014 8     -1721.402          51.000    20044208.055 8  83454181.717 8     -1338.868          48.000
R09  19583085.281 8 104572579.909 8     -1159.742          50.000    19583085.969 8  81334232.787 8      -902.022          50.000
R10  19661921.031 8 104809081.465 8      2130.004          50.000
C05  39790007.094 5 207197007.088 5        -1.258          35.000    39790005.695 6 160217860.034 6         -.810          41.000
C20  22041068.805 7 114773616.624 7       852.645          45.000
C23  23402410.766 6 121862491.472 6     -2048.953          39.000
E01  26249037.016 8 137939602.751 8      3017.957          48.000    26249040.969 7 105694053.426 7      2312.422          47.000
E19  23906701.516 7 125630567.106 7      -376.242          47.000    23906703.789 8  96262387.255 8      -288.328          51.000
E21  24169089.773 8 127009453.834 8       884.289          51.000    24169093.555 8  97318962.152 8       677.575          51.000
> 2020 05 07 03 00 30.0000000  0 14        .000000000000
G02  24217967.602 6 127266257.156 6     -2666.477          39.000    24217962.109 5  99168512.106 5     -2077.774          35.000
G05  20618050.609 7 108348579.409 7       631.777          44.000    20618047.117 7  84427448.617 7       492.294          44.000
G07  21515645.891 8 113065474.666 8     -1803.570          50.000    21515644.539 8  88102967.514 8     -1405.379          50.000
G28  22987634.500 6 120800878.986 6      3106.195          40.000    22987639.727 6  94130553.010 6      2420.412          39.000
G30  20357079.266 8 106977189.129 8       100.832          51.000    20357080.555 8  83358868.687 8        78.573          51.000
R07  20053902.141 8 107350103.715 8     -1738.191          51.000    20053903.531 7  83494549.680 7     -1351.927          47.000
R09  19589671.977 8 104607752.810 8     -1184.574          51.000    19589672.969 8  81361589.483 8      -921.336          50.000
R10  19650002.773 8 104745548.557 8      2106.105          50.000
C05  39790015.852 5 207197053.699 5        -1.418          35.000    39790014.359 6 160217895.320 6        -1.323          41.000
C20  22036194.820 7 114748237.258 7       839.996          45.000
C23  23414249.469 6 121924133.974 6     -2060.031          40.000
E01  26231827.578 8 137849160.914 8      3011.961          49.000    26231830.445 8 105624753.846 8      2307.911          48.000
E19  23908873.539 7 125641979.557 7      -384.238          47.000    23908875.406 8  96271131.851 8      -294.356          51.000
E21  24164085.008 8 126983155.058 8       869.414          51.000    24164088.539 8  97298811.143 8       666.162          51.000
> 2020 05 07 03 01  0.0000000  0 14        .000000000000
G02  24233209.180 6 127346348.633 6     -2672.129          37.000    24233202.938 6  99230921.009 6     -2082.178          36.000
G05  20614498.633 7 108329914.382 7       612.871          44.000    20614495.500 7  84412904.424 7       477.559          44.000
G07  21525974.422 8 113119751.095 8     -1814.176          50.000    21525973.047 8  88145260.839 8     -1413.643          50.000
G28  22969929.453 7 120707836.656 7      3097.809          44.000    22969934.086 6  94058052.471 6      2413.877          39.000
G30  20356550.398 8 106974409.100 8        85.043          51.000    20356551.688 8  83356702.450 8        66.267          51.000
R07  20063691.539 8 107402506.716 8     -1754.820          51.000    20063692.555 7  83535307.545 7     -1364.860          46.000
R09  19596396.867 8 104643663.332 8     -1208.988          50.000    19596397.938 8  81389519.904 8      -940.324          50.000
R10  19638218.148 8 104682730.624 8      2082.309          48.000
C05  39790026.523 5 207197108.545 5        -1.668          35.000    39790025.102 6 160217938.503 6        -1.368          41.000
C20  22031392.961 7 114723234.839 7       827.391          45.000
C23  23426151.633 6 121986113.107 6     -2071.105          37.000
E01  26214650.703 8 137758893.004 8      3006.320          48.000    26214652.859 8 105555587.548 8      2303.583          49.000
E19  23911089.508 7 125653623.438 7      -391.652          47.000    23911090.906 8  96280053.785 8      -300.067          51.000
E21  24159164.266 8 126957296.983 8       854.961          51.000    24159167.625 8  97278997.821 8       655.061          51.000
> 2020 05 07 03 01 30.0000000  0 14        .000000000000
G02  24248477.820 4 127426610.720 4     -2676.711          28.000    24248470.719 4  99293433.301 4     -2085.737          25.000
G05  20611052.945 7 108311807.475 7       593.934          45.000    20611050.312 7  84398795.152 7       462.805          45.000
G07  21536360.867 8 113174332.102 8     -1824.777          50.000    21536359.180 8  88187791.495 8     -1421.904          50.000
G28  22952264.711 7 120615005.158 7      3090.609          45.000    22952268.156 6  93985716.220 6      2408.267          39.000
G30  20356109.477 8 106972092.094 8        69.172          51.000    20356110.688 8  83354897.003 8        53.900          51.000
R07  20073571.453 8 107455395.007 8     -1771.344          51.000    20073572.594 7  83576442.888 7     -1377.712          47.000
R09  19603256.273 8 104680293.214 8     -1233.172          50.000    19603257.227 8  81418009.810 8      -959.134          50.000
R10  19626564.148 7 104620613.478 7      2058.523          47.000
C05  39790036.328 5 207197159.443 5        -1.820          35.000    39790034.852 6 160217977.863 6        -1.374          41.000
C20  22026661.406 7 114698595.325 7       815.086          46.000
C23  23438114.414 5 122048411.658 5     -2082.719          32.000
E01  26197503.875 8 137668785.378 8      3000.758          48.000    26197505.727 8 105486544.032 8      2299.330          49.000
E19  23913346.602 8 125665483.783 8      -399.094          48.000    23913347.555 8  96289141.573 8      -305.769          51.000
E21  24154324.609 8 126931864.616 8       840.484          51.000    24154327.328 8  97259510.708 8       644.002          51.000
> 2020 05 07 03 02  0.0000000  0 13        .000000000000
G05  20607713.234 7 108294256.398 7       575.922          46.000    20607710.539 7  84385118.976 7       448.767          46.000
G07  21546804.008 8 113229211.220 8     -1834.180          49.000    21546802.078 8  88230554.444 8     -1429.231          49.000
G28  22934640.133 7 120522384.499 7      3083.992          46.000    22934641.938 6  93913544.287 6      2403.111          39.000
G30  20355755.867 8 106970233.941 8        54.352          51.000    20355756.922 8  83353449.075 8        42.352          51.000
R07  20083541.086 8 107508764.460 8     -1786.871          50.000    20083542.695 8  83617952.480 8     -1389.789          48.000
R09  19610249.414 8 104717636.792 8     -1256.672          50.000    19610250.477 8  81447054.813 8      -977.411          51.000
R10  19615041.523 7 104559196.023 7      2035.840          46.000
C05  39790044.461 5 207197201.941 5        -1.258          35.000    39790043.047 6 160218010.703 6         -.816          41.000
C20  22021999.273 7 114674316.484 7       803.449          47.000
C23  23450139.195 6 122111024.292 6     -2092.375          36.000
E01  26180386.484 7 137578836.178 7      2995.699          47.000    26180389.359 8 105417621.898 8      2295.442          50.000
E19  23915644.273 8 125677557.404 8      -405.887          49.000    23915644.805 8  96298392.779 8      -311.022          51.000
E21  24149565.641 8 126906854.886 8       826.793          51.000    24149567.164 8  97240347.420 8       633.469          51.000
> 2020 05 07 03 02 30.0000000  0 14        .000000000000
G05  20604465.625 7 108277188.995 7       560.668          46.000    20604462.734 7  84371819.711 7       436.884          46.000
G07  21557289.773 8 113284314.514 8     -1840.695          50.000    21557287.797 8  88273492.095 8     -1434.308          50.000
G13  22319725.602 5 117290945.764 5      2531.484          32.000
G28  22917042.266 8 120429904.152 8      3080.074          48.000    22917042.242 6  93841481.696 6      2400.058          39.000
G30  20355475.672 8 106968761.325 8        42.492          51.000    20355476.664 8  83352301.584 8        33.114          51.000
R07  20093586.914 8 107562541.440 8     -1799.516          51.000    20093588.688 8  83659779.034 8     -1399.623          48.000
R09  19617361.906 8 104755618.045 8     -1276.867          50.000    19617363.453 8  81476595.820 8      -993.116          51.000
R10  19603636.672 7 104498405.788 7      2015.574          45.000
C05  39790037.164 5 207197163.901 5         2.125          35.000    39790035.719 6 160217981.280 6         1.985          40.000
C20  22017392.141 7 114650327.544 7       794.516          47.000
C23  23462210.000 6 122173877.320 6     -2099.473          39.000
E01  26163285.352 7 137488974.404 7      2993.719          47.000    26163289.844 8 105348766.749 8      2293.900          50.000
E19  23917968.773 8 125689772.267 8      -409.715          49.000    23917968.844 8  96307752.225 8      -313.934          50.000
E21  24144873.445 8 126882195.514 8       815.906          51.000    24144874.281 8  97221452.591 8       625.199          51.000
> 2020 05 07 03 03  0.0000000  0 15        .000000000000
G02  24294436.328 5 127668132.058 5     -2702.602          35.000    24294437.375 5  99481658.266 5     -2105.923          34.000
G05  20601359.836 7 108260868.179 7       525.727          45.000    20601356.977 7  84359102.200 7       409.657          45.000
G07  21567867.617 8 113339901.507 8     -1866.750          51.000    21567865.773 8  88316806.629 8     -1454.610          51.000
G28  22899521.328 8 120337828.305 8      3056.461          48.000    22899519.859 6  93769734.322 6      2381.658          41.000
G30  20355318.438 8 106967934.455 8        10.992          51.000    20355319.242 8  83351657.298 8         8.565          51.000
R07  20103758.586 8 107616991.107 8     -1832.137          51.000    20103760.234 8  83702128.799 8     -1424.995          48.000
R09  19624643.227 8 104794499.469 8     -1317.008          51.000    19624644.812 8  81506836.930 8     -1024.339          51.000
R10  19592400.391 8 104438509.891 8      1975.605          49.000
C05  39790064.047 5 207197303.922 5       -13.188          35.000    39790062.680 6 160218089.579 6       -10.394          41.000
C20  22012890.633 7 114626888.260 7       766.398          47.000
C23  23474374.828 5 122237227.276 5     -2125.848          33.000
E01  26146251.000 7 137399462.645 7      2972.004          47.000    26146256.805 8 105280179.785 8      2277.217          49.000
E19  23920369.875 8 125702389.595 8      -433.207          49.000    23920369.562 8  96317420.054 8      -331.932          50.000
E21  24140297.609 8 126858147.794 8       785.465          51.000    24140298.219 8  97203026.457 8       601.799          51.000
E27  25962454.070 6 136433616.778 6     -1977.043          36.000    25962455.992 5 104540054.856 5     -1514.934          34.000
> 2020 05 07 03 03 30.0000000  0 16        .000000000000
G02  24309818.305 6 127748959.286 6     -2692.629          39.000    24309819.992 6  99544640.586 6     -2098.152          38.000
G05  20598351.477 7 108245060.935 7       521.223          45.000    20598348.914 7  84346784.851 7       406.148          45.000
G07  21578492.758 8 113395736.844 8     -1862.375          50.000    21578491.078 8  88360314.680 8     -1451.198          50.000
G13  22290942.203 5 117139691.274 5      2518.891          30.000
G28  22882033.188 8 120245926.153 8      3063.406          48.000    22882030.914 7  93698122.268 7      2387.070          42.000
G30  20355239.594 8 106967519.007 8         9.957          51.000    20355239.867 8  83351333.582 8         7.762          51.000
R07  20114011.539 8 107671875.482 8     -1833.801          51.000    20114013.148 8  83744816.663 8     -1426.289          49.000
R09  19632048.203 8 104834041.367 8     -1326.133          51.000    19632050.125 8  81537591.754 8     -1031.437          51.000
R10  19581288.469 8 104379272.589 8      1966.492          51.000
C05  39790080.703 5 207197390.584 5          .738          35.000    39790079.305 6 160218156.578 6          .764          41.000
C20  22008450.742 8 114603768.388 8       768.289          48.000
C23  23486590.102 5 122300840.800 5     -2121.750          31.000
E01  26129239.383 7 137310068.975 7      2980.789          46.000    26129246.258 8 105211683.295 8      2284.017          48.000
E19  23922803.188 8 125715176.340 8      -426.137          49.000    23922802.781 8  96327217.688 8      -326.422          51.000
E21  24135793.945 8 126834478.501 8       785.645          51.000    24135794.031 8  97184890.249 8       601.999          51.000
E27  25973710.719 5 136492767.826 5     -1973.363          35.000    25973712.766 5 104585378.347 5     -1511.731          34.000
> 2020 05 07 03 04  0.0000000  0 14        .000000000000
G02  24325212.773 6 127829849.631 6     -2700.281          40.000    24325212.578 6  99607671.978 6     -2104.118          36.000
G05  20595438.352 7 108229752.734 7       499.305          46.000    20595436.453 7  84334856.355 7       389.069          46.000
G07  21589161.906 8 113451803.597 8     -1875.574          50.000    21589160.227 8  88404003.079 8     -1461.483          50.000
G28  22864575.555 8 120154185.484 8      3052.445          48.000    22864573.469 7  93626636.020 7      2378.529          43.000
G30  20355235.820 8 106967498.883 8        -8.621          51.000    20355235.992 8  83351317.917 8        -6.718          51.000
R07  20124342.359 8 107727178.463 8     -1853.164          50.000    20124344.453 8  83787830.078 8     -1441.350          49.000
R09  19639573.617 8 104874225.835 8     -1352.879          51.000    19639575.195 8  81568846.348 8     -1052.239          51.000
R10  19570297.508 8 104320680.163 8      1939.609          50.000
C05                                                                  39790082.781 6 160218170.508 6        -1.707          41.000
C20  22004069.258 7 114580953.844 7       752.684          47.000
C23  23498853.984 5 122364700.782 5     -2136.238          35.000
E01  26112247.742 7 137220779.679 7      2971.781          46.000    26112255.234 7 105143266.775 7      2277.241          45.000
E19  23925265.797 8 125728117.448 8      -436.656          49.000    23925265.625 8  96337133.619 8      -334.602          50.000
E21  24131359.195 8 126811172.614 8       768.051          51.000    24131359.359 8  97167032.496 8       588.560          51.000
> 2020 05 07 03 04 30.0000000  0 14        .000000000000
G02  24340635.633 7 127910890.523 7     -2703.293          42.000    24340634.141 6  99670820.719 6     -2106.465          37.000
G05  20592637.734 7 108215035.271 7       481.320          46.000    20592635.711 7  84323388.226 7       375.055          46.000
G07  21599891.914 8 113508190.400 8     -1884.211          51.000    21599890.078 8  88447940.871 8     -1468.213          51.000
G28  22847166.281 7 120062699.437 7      3045.977          47.000    22847164.969 7  93555348.187 7      2373.488          43.000
G30  20355324.281 8 106967963.812 8       -22.914          51.000    20355324.656 8  83351680.210 8       -17.855          51.000
R07  20134768.930 8 107782992.284 8     -1868.289          51.000    20134771.148 8  83831240.796 8     -1453.117          49.000
R09  19647236.031 8 104915142.010 8     -1375.438          51.000    19647237.023 8  81600670.037 8     -1069.785          51.000
R10  19559444.547 8 104262826.142 8      1916.797          51.000
C05  39790091.680 5 207197448.474 5         -.742          35.000    39790090.227 6 160218200.597 6         -.719          41.000
C20  21999763.633 7 114558535.470 7       741.215          47.000
C23  23511181.867 5 122428894.957 5     -2144.609          35.000
E01  26095293.672 7 137131686.847 7      2967.215          47.000    26095300.430 6 105075000.844 6      2273.449          39.000
E19  23927774.906 8 125741303.715 8      -442.988          49.000    23927775.148 8  96347237.370 8      -339.424          50.000
E21  24127010.516 8 126788320.897 8       754.797          51.000    24127011.375 8  97149522.752 8       578.390          51.000
> 2020 05 07 03 05  0.0000000  0 14        .000000000000
G02  24356079.727 6 127992045.236 6     -2707.613          39.000    24356077.578 6  99734058.168 6     -2109.829          38.000
G05  20589943.039 7 108200875.131 7       462.238          45.000    20589940.836 7  84312354.365 7       360.186          45.000
G07  21610676.023 8 113564861.572 8     -1894.336          51.000    21610674.211 8  88492100.230 8     -1476.106          51.000
G28  22829799.312 7 119971437.102 7      3037.855          47.000    22829798.773 7  93484234.647 7      2367.157          44.000
G30  20355498.375 8 106968879.025 8       -38.488          51.000    20355498.594 8  83352393.366 8       -29.991          51.000
R07  20145284.508 8 107839281.811 8     -1884.828          51.000    20145286.578 8  83875021.508 8     -1465.977          49.000
R09  19655028.500 8 104956753.053 8     -1399.125          51.000    19655029.555 8  81633034.192 8     -1088.208          51.000
R10  19548723.969 8 104205677.262 8      1892.723          51.000
C05  39790096.719 5 207197474.633 5        -1.586          35.000    39790095.211 6 160218220.817 6        -1.072          41.000
C20  21995527.938 8 114536480.721 8       728.562          48.000
C23  23523567.875 6 122493387.686 6     -2155.215          36.000
E01  26078371.336 8 137042758.104 8      2960.930          49.000    26078371.312 6 105006860.841 6      2268.573          36.000
E19  23930324.242 8 125754701.695 8      -450.750          49.000    23930324.812 8  96357503.347 8      -345.377          50.000
E21  24122741.672 8 126765889.650 8       740.113          51.000    24122743.195 8  97132335.191 8       567.109          51.000
> 2020 05 07 03 05 30.0000000  0 15        .000000000000
G02  24371548.648 6 128073333.691 6     -2711.176          38.000    24371545.555 6  99797399.779 6     -2112.608          38.000
G05  20587358.688 7 108187295.786 7       443.469          46.000    20587357.055 7  84301773.043 7       345.560          46.000
G07  21621518.297 8 113621838.263 8     -1903.855          51.000    21621516.586 8  88536497.661 8     -1483.524          51.000
G09  23712224.609 5 124608580.717 5     -2889.215          32.000
G28  22812479.586 7 119880423.895 7      3030.160          47.000    22812479.531 7  93413315.236 7      2361.164          42.000
G30  20355762.297 8 106970266.582 8       -53.668          51.000    20355762.539 8  83353474.582 8       -41.819          51.000
R07  20155893.359 8 107896070.172 8     -1900.758          51.000    20155895.320 8  83919190.215 8     -1478.367          49.000
R09  19662955.016 8 104999079.493 8     -1422.246          51.000    19662955.797 8  81665954.748 8     -1106.191          51.000
R10  19538140.234 8 104149258.670 8      1868.965          50.000
C05                                                                  39790102.156 6 160218248.594 6         -.613          41.000
C20  21991367.273 8 114514813.320 8       716.363          50.000
C23  23536015.203 6 122558199.750 6     -2165.059          39.000
E01  26061485.102 8 136954017.867 8      2955.289          50.000    26061480.031 6 104938865.148 6      2264.541          41.000
E19  23932918.297 8 125768334.337 8      -457.957          48.000    23932919.023 8  96367949.118 8      -350.779          50.000
E21  24118557.242 8 126743901.976 8       726.023          51.000    24118559.180 8  97115487.495 8       556.241          51.000
> 2020 05 07 03 06  0.0000000  0 14        .000000000000
G02  24387037.633 5 128154732.377 5     -2717.102          31.000    24387034.711 4  99860827.318 4     -2117.225          29.000
G05  20584881.281 7 108174278.116 7       422.508          45.000    20584879.852 7  84291629.402 7       329.227          45.000
G07  21632414.555 8 113679098.361 8     -1915.566          51.000    21632412.750 8  88581115.940 8     -1492.649          51.000
G28  22795204.188 8 119789642.185 8      3019.977          48.000    22795203.547 7  93342576.231 7      2353.225          42.000
G30  20356112.008 8 106972105.142 8       -70.957          51.000    20356112.586 8  83354907.248 8       -55.288          51.000
R07  20166591.250 8 107953336.094 8     -1919.066          51.000    20166593.195 8  83963730.324 8     -1492.607          48.000
R09  19671010.930 8 105042097.950 8     -1447.691          51.000    19671011.914 8  81699413.567 8     -1125.979          51.000
R10  19527689.789 8 104093550.976 8      1842.816          50.000
C05  39790108.508 5 207197535.920 5        -2.906          35.000    39790106.984 6 160218268.198 6        -2.229          41.000
C20  21987277.336 8 114493514.142 8       701.598          50.000
C23  23548518.844 6 122623308.954 6     -2177.539          40.000
E01  26044630.945 8 136865447.280 8      2947.285          50.000    26044627.375 7 104870999.422 7      2258.318          45.000
E19  23935553.266 8 125782181.812 8      -467.438          48.000    23935553.859 8  96378559.527 8      -358.148          49.000
E21  24114453.422 8 126722337.645 8       709.508          51.000    24114455.781 8  97098964.178 8       543.655          51.000
> 2020 05 07 03 06 30.0000000  0 13        .000000000000
G05  20582520.430 7 108161871.760 7       405.500          46.000    20582519.359 7  84281962.111 7       315.974          46.000
G07  21643373.742 8 113736689.526 8     -1922.996          51.000    21643371.906 8  88625992.176 8     -1498.439          51.000
G28  22777983.359 8 119699144.057 8      3014.102          50.000    22777981.578 7  93272058.227 7      2348.654          42.000
G30  20356556.828 8 106974443.186 8       -84.016          51.000    20356557.484 8  83356729.104 8       -65.467          51.000
R07  20177387.445 8 108011129.341 8     -1933.035          51.000    20177389.422 8  84008680.601 8     -1503.475          48.000
R09  19679205.328 8 105085855.761 8     -1468.656          51.000    19679205.820 8  81733447.421 8     -1142.291          50.000
R10  19517382.289 8 104038605.779 8      1821.059          49.000
C05  39790120.797 5 207197599.503 5         -.496          35.000    39790119.148 6 160218317.368 6         -.369          40.000
C20  21983267.406 8 114472633.093 8       691.277          50.000
C23  23561088.344 6 122688762.041 6     -2185.340          38.000
E01  26027818.461 8 136777097.196 8      2943.508          50.000    26027817.531 8 104803302.615 8      2255.466          48.000
E19  23938238.539 8 125796293.758 8      -472.598          48.000    23938239.000 8  96389372.565 8      -362.075          49.000
E21  24110439.727 8 126701246.150 8       697.441          51.000    24110442.484 8  97082803.172 8       534.400          51.000
> 2020 05 07 03 07  0.0000000  0 14        .000000000000
G02  24418119.648 5 128318086.101 5     -2721.637          35.000
G05  20580258.102 7 108149982.486 7       386.836          47.000    20580257.141 7  84272697.754 7       301.434          47.000
G07  21654377.406 8 113794514.312 8     -1932.133          51.000    21654375.727 8  88671050.443 8     -1505.558          51.000
G28  22760799.258 8 119608837.058 8      3006.250          51.000    22760797.070 7  93201689.162 7      2342.532          44.000
G30  20357078.344 8 106977184.557 8       -98.840          51.000    20357078.938 8  83358865.244 8       -77.018          51.000
R07  20188264.078 8 108069352.691 8     -1948.766          51.000    20188265.859 7  84053965.412 7     -1515.707          47.000
R09  19687519.523 8 105130253.689 8     -1491.355          51.000    19687520.141 8  81767979.168 8     -1159.940          50.000
R10  19507199.594 8 103984327.780 8      1797.328          49.000
C05  39790122.156 5 207197607.283 5          .301          35.000    39790120.633 6 160218323.023 6         -.142          41.000
C20  21979319.812 8 114452076.886 8       678.961          49.000
C23  23573705.727 6 122754462.668 6     -2195.043          36.000
E01  26011030.070 8 136688873.944 8      2937.844          51.000    26011031.242 8 104735702.978 8      2251.057          51.000
E19  23940956.078 8 125810575.130 8      -479.578          48.000    23940956.859 8  96400315.439 8      -367.595          50.000
E21  24106497.953 8 126680532.442 8       683.414          51.000    24106500.953 8  97066931.650 8       523.583          51.000
> 2020 05 07 03 07 30.0000000  0 14        .000000000000
G02  24433655.609 5 128399713.242 5     -2724.910          33.000
G05  20578106.625 7 108138676.526 7       367.918          47.000    20578105.578 7  84263887.917 7       286.689          47.000
G07  21665437.609 8 113852636.169 8     -1941.504          50.000    21665435.906 8  88716340.212 8     -1512.860          50.000
G28  22743664.383 8 119518789.128 8      2998.137          51.000    22743662.344 7  93131521.950 7      2336.210          46.000
G30  20357688.930 8 106980393.567 8      -113.879          51.000    20357689.492 8  83361365.765 8       -88.737          51.000
R07  20199233.570 8 108128071.715 8     -1964.633          51.000    20199234.773 7  84099635.711 7     -1528.048          47.000
R09  19695965.562 8 105175355.108 8     -1514.191          51.000    19695966.133 8  81803058.055 8     -1177.704          50.000
R10  19497155.055 8 103930784.557 8      1773.430          50.000
C05  39790125.008 5 207197622.257 5          .508          35.000    39790123.547 6 160218335.010 6          .027          41.000
C20  21975446.992 8 114431911.164 8       666.613          50.000
C23  23586382.336 6 122820473.400 6     -2204.469          37.000
E01  25994278.617 8 136600844.230 8      2931.957          51.000    25994281.195 8 104668251.639 8      2246.588          51.000
E19  23943718.398 8 125825091.340 8      -486.918          48.000    23943719.688 8  96411438.240 8      -373.135          50.000
E21  24102640.695 8 126660261.841 8       669.246          51.000    24102643.539 8  97051399.631 8       512.739          51.000
> 2020 05 07 03 08  0.0000000  0 14        .000000000000
G02  24449229.867 5 128481550.499 5     -2730.668          30.000
G05  20576067.023 7 108127959.202 7       347.441          47.000    20576066.383 7  84255536.742 7       270.734          47.000
G07  21676554.945 8 113911058.518 8     -1952.379          50.000    21676552.961 8  88761864.104 8     -1521.334          50.000
G28  22726579.984 8 119429008.179 8      2988.172          49.000    22726578.266 7  93061562.765 7      2328.446          46.000
G30  20358389.281 8 106984074.270 8      -130.559          51.000    20358390.047 8  83364233.863 8      -101.734          51.000
R07  20210296.164 8 108187291.108 8     -1982.348          50.000    20210297.328 8  84145695.194 8     -1541.829          48.000
R09  19704543.625 8 105221162.169 8     -1538.641          51.000    19704544.508 8  81838685.806 8     -1196.717          51.000
R10  19487249.656 8 103877982.736 8      1747.723          51.000
C05  39790130.555 5 207197649.806 5        -1.172          35.000    39790129.000 6 160218357.050 6         -.794          41.000
C20  21971650.500 8 114412141.864 8       652.410          51.000
C23  23599118.961 6 122886797.272 6     -2215.941          39.000
E01  25977565.320 8 136513014.539 8      2924.340          51.000    25977568.484 8 104600953.562 8      2240.809          51.000
E19  23946526.406 8 125839847.813 8      -495.840          48.000    23946528.141 8  96422745.137 8      -379.842          51.000
E21  24098868.891 8 126640439.473 8       653.340          51.000    24098871.383 8  97036211.055 8       500.593          51.000
> 2020 05 07 03 08 30.0000000  0 13        .000000000000
G05  20574136.500 8 108117814.433 8       328.621          48.000    20574136.047 8  84247631.725 8       256.068          48.000
G07  21687726.008 8 113969763.022 8     -1961.438          50.000    21687724.070 8  88807607.874 8     -1528.393          50.000
G28  22709543.234 8 119339480.385 8      2979.965          48.000    22709542.164 7  92991800.848 7      2322.051          46.000
G30  20359176.062 8 106988209.131 8      -145.453          51.000    20359177.070 8  83367455.855 8      -113.340          51.000
R07  20221448.938 8 108246993.820 8     -1998.191          49.000    20221450.367 8  84192130.649 8     -1554.149          48.000
R09  19713250.250 8 105267655.400 8     -1561.242          51.000    19713251.258 8  81874847.226 8     -1214.299          50.000
R10  19477480.180 8 103825906.040 8      1723.820          50.000
C05  39790135.328 5 207197674.807 5        -1.000          35.000    39790133.781 6 160218376.387 6         -.643          41.000
C20  21967927.195 8 114392753.606 8       639.891          51.000
C23  23611912.430 6 122953415.778 6     -2225.816          38.000
E01  25960887.250 8 136425369.844 8      2918.312          51.000    25960890.250 8 104533797.229 8      2236.175          51.000
E19  23949377.016 8 125854828.421 8      -503.109          48.000    23949379.227 8  96434223.776 8      -385.532          51.000
E21  24095179.055 8 126621048.879 8       639.168          51.000    24095181.609 8  97021353.337 8       489.725          51.000
> 2020 05 07 03 09  0.0000000  0 13        .000000000000
G05  20572315.430 8 108108243.951 8       309.113          48.000    20572315.133 8  84240174.194 8       240.867          48.000
G07  21698950.641 8 114028748.576 8     -1971.078          50.000    21698949.117 8  88853570.667 8     -1535.905          50.000
G28  22692554.898 7 119250208.856 7      2971.258          46.000    22692554.547 7  92922238.601 7      2315.266          45.000
G30  20360049.203 8 106992798.006 8      -160.789          51.000    20360050.102 8  83371031.608 8      -125.290          51.000
R07  20232691.820 8 108307180.001 8     -2014.383          49.000    20232693.734 8  84238942.190 8     -1566.742          48.000
R09  19722084.922 8 105314832.733 8     -1584.035          51.000    19722085.953 8  81911540.733 8     -1232.027          50.000
R10  19467847.117 8 103774557.321 8      1699.250          50.000
C05  39790139.523 6 207197697.897 6        -1.008          36.000    39790137.992 6 160218393.486 6         -.674          41.000
C20  21964277.289 8 114373748.209 8       626.922          51.000
C23  23624762.227 6 123020327.676 6     -2235.098          37.000
E01  25944244.844 8 136337912.413 8      2911.895          51.000    25944247.312 8 104466784.400 8      2231.174          51.000
E19  23952270.539 8 125870033.840 8      -510.906          48.000    23952273.141 8  96445874.676 8      -391.432          51.000
E21  24091571.531 8 126602090.936 8       624.500          51.000    24091574.359 8  97006827.129 8       478.480          51.000
> 2020 05 07 03 09 30.0000000  0 13        .000000000000
G05  20570603.391 8 108099245.298 8       290.984          48.000    20570602.531 8  84233162.241 8       226.741          49.000
G07  21710227.883 8 114088010.091 8     -1979.309          50.000    21710226.570 8  88899748.468 8     -1542.318          50.000
G28  22675615.000 7 119161193.681 7      2963.492          44.000    22675615.523 7  92852876.100 7      2309.215          43.000
G30  20361008.016 8 106997836.982 8      -174.699          51.000    20361009.008 8  83374958.091 8      -136.129          51.000
R07  20244024.125 8 108367845.757 8     -2029.410          51.000    20244026.625 7  84286126.686 7     -1578.430          47.000
R09  19731046.688 8 105362688.283 8     -1605.637          51.000    19731047.469 8  81948761.727 8     -1248.829          50.000
R10  19458350.453 8 103723934.814 8      1676.012          50.000
C05  39790142.648 6 207197713.129 6          .121          36.000    39790141.133 6 160218406.010 6          .175          41.000
C20  21960700.562 8 114355123.706 8       615.180          51.000
C23  23637666.805 6 123087528.072 6     -2244.215          39.000
E01  25927637.719 8 136250640.787 8      2906.695          51.000    25927639.375 8 104399913.949 8      2227.184          51.000
E19  23955206.422 8 125885461.652 8      -517.348          48.000    23955209.117 8  96457695.998 8      -396.358          51.000
E21  24088045.891 8 126583562.774 8       611.137          51.000    24088048.648 8  96992630.229 8       468.295          51.000
> 2020 05 07 03 10  0.0000000  0 13        .000000000000
G05  20568998.078 8 108090808.534 8       271.801          48.000    20568996.477 8  84226588.129 8       211.793          48.000
G07  21721555.352 8 114147536.102 8     -1988.672          49.000    21721554.047 8  88946132.371 8     -1549.614          49.000
G28  22658721.383 6 119072427.344 6      2954.289          38.000    22658723.336 6  92783707.517 6      2302.043          38.000
G30  20362050.320 8 107003314.402 8      -189.934          51.000    20362051.633 8  83379226.244 8      -148.000          51.000
R07  20255444.500 8 108428980.044 8     -2045.715          51.000    20255447.164 8  84333675.568 8     -1591.112          48.000
R09  19740132.812 8 105411208.301 8     -1628.477          51.000    19740133.930 8  81986499.539 8     -1266.593          50.000
R10  19448987.680 8 103674027.957 8      1651.543          49.000
C05  39790142.477 5 207197712.692 5          .266          35.000    39790140.930 6 160218405.707 6          .030          41.000
C20  21957195.102 8 114336870.575 8       602.148          51.000
C23  23650624.273 6 123155004.432 6     -2253.969          39.000
E01  25911063.953 8 136163545.846 8      2900.117          51.000    25911064.906 8 104333178.872 8      2222.177          51.000
E19  23958182.609 8 125901101.502 8      -524.969          48.000    23958185.242 8  96469679.793 8      -402.273          51.000
E21  24084599.914 8 126565453.794 8       596.586          51.000    24084602.539 8  96978754.521 8       457.118          51.000
> 2020 05 07 03 10 30.0000000  0 14        .000000000000
G05  20567509.758 8 108082987.183 8       252.445          49.000    20567508.078 8  84220493.574 8       196.711          49.000
G07  21732942.742 8 114207377.544 8     -1997.883          49.000    21732941.570 8  88992762.074 8     -1556.792          49.000
G13  22093012.742 5 116099565.293 5      2436.418          31.000
G28  22641886.078 6 118983965.337 6      2945.773          38.000    22641887.922 6  92714776.117 6      2295.405          38.000
G30  20363186.078 8 107009282.509 8      -205.230          51.000    20363187.125 8  83383876.734 8      -159.920          51.000
R07  20266962.539 8 108490636.492 8     -2061.938          51.000    20266965.133 7  84381630.566 7     -1603.729          47.000
R09  19749353.125 8 105460444.133 8     -1651.012          51.000    19749354.344 8  82024794.085 8     -1284.120          51.000
R10  19439769.820 8 103624892.871 8      1626.988          48.000
C05  39790149.383 6 207197748.286 6          .312          36.000    39790147.797 6 160218433.215 6          .130          41.000
C20  21953771.453 8 114319042.475 8       589.137          51.000
C23  23663645.258 6 123222807.303 6     -2263.316          37.000
E01  25894533.547 8 136076682.311 8      2893.520          49.000    25894534.805 8 104266621.091 8      2217.160          51.000
E19  23961209.297 8 125917006.680 8      -532.629          49.000    23961211.820 8  96481866.884 8      -408.115          51.000
E21  24081243.633 8 126547817.261 8       582.008          51.000    24081246.273 8  96965240.832 8       445.948          51.000
> 2020 05 07 03 11  0.0000000  0 13        .000000000000
G05  20566124.781 8 108075709.141 8       232.836          49.000    20566122.984 8  84214822.373 8       181.431          50.000
G07  21744375.922 8 114267459.627 8     -2007.391          48.000    21744374.914 8  89039579.290 8     -1564.200          48.000
G28  22625097.070 6 118895737.825 6      2936.168          41.000    22625096.609 6  92646027.425 6      2287.923          36.000
G30  20364401.109 8 107015667.379 8      -220.422          51.000    20364401.875 8  83388851.972 8      -171.754          51.000
R07  20278564.172 8 108552740.170 8     -2078.324          51.000    20278566.688 8  84429933.426 8     -1616.474          48.000
R09  19758692.906 8 105510318.758 8     -1673.898          51.000    19758694.352 8  82063585.479 8     -1301.921          51.000
R10  19430682.836 7 103576456.405 7      1602.148          47.000
C05  39790149.188 5 207197747.500 5          .102          35.000    39790147.641 6 160218432.614 6         -.082          41.000
C20  21950415.688 8 114301568.209 8       575.863          51.000
C23  23676715.656 5 123290862.442 5     -2273.637          34.000
E01  25878032.930 8 135989978.783 8      2886.770          48.000    25878035.648 8 104200185.897 8      2211.895          51.000
E19  23964272.711 8 125933104.776 8      -540.578          49.000    23964275.047 8  96494201.808 8      -414.149          51.000
E21  24077963.633 8 126530580.375 8       567.184          51.000    24077966.164 8  96952033.352 8       434.619          51.000
> 2020 05 07 03 11 30.0000000  0 13        .000000000000
G05  20564836.906 8 108068941.428 8       206.645          50.000    20564835.047 8  84209548.842 8       161.025          50.000
G07  21755848.195 8 114327746.792 8     -2023.270          48.000    21755847.070 8  89086556.324 8     -1576.574          48.000
G28  22608347.125 7 118807713.441 7      2920.461          43.000    22608344.500 5  92577437.045 5      2275.687          34.000
G30  20365688.781 8 107022434.513 8      -242.402          51.000    20365690.000 8  83394125.071 8      -188.885          51.000
R07  20290242.609 8 108615256.230 8     -2101.449          51.000    20290245.172 8  84478557.019 8     -1634.461          48.000
R09  19768145.586 8 105560794.946 8     -1703.129          51.000    19768146.781 8  82102844.724 8     -1324.656          51.000
R10  19421720.695 7 103528685.589 7      1570.652          46.000
C05  39790135.594 5 207197676.933 5        -6.492          35.000    39790134.156 6 160218378.050 6        -5.207          41.000
C20  21947121.734 8 114284415.472 8       556.016          51.000
C23  23689826.867 6 123359134.674 6     -2289.547          36.000
E01  25861557.297 8 135903403.185 8      2873.137          50.000    25861561.219 8 104133848.711 8      2201.617          51.000
E19  23967366.555 8 125949362.306 8      -555.008          49.000    23967368.633 8  96506658.888 8      -425.278          51.000
E21  24074753.070 8 126513709.597 8       545.801          51.000    24074755.875 8  96939106.390 8       418.253          51.000
> 2020 05 07 03 12  0.0000000  0 13        .000000000000
G05  20563691.055 8 108062921.033 8       194.629          49.000    20563689.664 8  84204857.609 8       151.659          49.000
G07  21767404.266 8 114388473.995 8     -2025.094          48.000    21767402.938 8  89133876.238 8     -1577.995          48.000
G28  22591681.406 7 118720131.575 7      2918.457          43.000    22591678.266 6  92509191.524 6      2274.125          36.000
G30  20367094.078 8 107029819.408 8      -249.957          51.000    20367095.656 8  83399879.543 8      -194.772          51.000
R07  20302043.211 8 108678425.367 8     -2109.934          51.000    20302045.352 8  84527688.612 8     -1641.059          48.000
R09  19777755.281 8 105612110.253 8     -1717.945          51.000    19777756.023 8  82142756.629 8     -1336.180          51.000
R10  19412928.492 7 103481821.275 7      1553.555          46.000
C05  39790153.727 6 207197770.936 6          .559          36.000    39790152.148 6 160218450.729 6          .465          41.000
C20  21943934.906 8 114267819.621 8       550.336          51.000
C23  23703023.492 6 123427856.421 6     -2292.012          36.000
E01  25845152.266 8 135817193.491 8      2874.066          51.000    25845156.609 8 104067791.923 8      2202.213          51.000
E19  23970535.938 8 125966016.447 8      -555.219          50.000    23970537.773 8  96519419.869 8      -425.430          51.000
E21  24071656.828 8 126497441.418 8       538.730          50.000    24071660.094 8  96926641.176 8       412.793          51.000
> 2020 05 07 03 12 30.0000000  0 14        .000000000000
G05  20562621.008 8 108057298.933 8       173.840          50.000    20562619.742 8  84200476.738 8       135.457          49.000
G07  21778977.375 8 114449290.174 8     -2035.551          48.000    21778975.703 7  89181265.484 7     -1586.143          47.000
G13  22037626.930 5 115808528.307 5      2411.785          31.000
G28  22575034.359 7 118632645.752 7      2907.605          45.000    22575031.164 6  92441020.753 6      2265.667          39.000
G30  20368550.312 8 107037471.581 8      -266.445          51.000    20368551.609 8  83405842.266 8      -207.623          51.000
R07  20313899.516 8 108741890.676 8     -2127.465          51.000    20313901.500 8  84577050.507 8     -1654.695          49.000
R09  19787455.250 8 105663906.546 8     -1741.457          51.000    19787455.969 8  82183042.629 8     -1354.464          51.000
R10  19404240.641 7 103435510.091 7      1527.438          46.000
C05  39790136.812 5 207197682.997 5        -1.012          35.000    39790135.312 6 160218382.733 6         -.595          41.000
C20  21940788.609 8 114251435.351 8       535.770          51.000
C23  23716239.727 5 123496679.306 5     -2302.645          34.000
E01  25828751.125 8 135731001.754 8      2865.781          51.000    25828755.281 8 104001748.902 8      2195.840          51.000
E19  23973714.406 8 125982717.843 8      -564.449          49.000    23973715.961 8  96532217.058 8      -432.530          51.000
E21  24068609.047 8 126481426.454 8       522.672          50.000    24068612.344 8  96914369.961 8       400.462          51.000
> 2020 05 07 03 13  0.0000000  0 14        .000000000000
G05  20561683.992 8 108052374.664 8       155.121          51.000    20561682.531 8  84196639.649 8       120.877          50.000
G07  21790623.867 7 114510492.513 7     -2043.805          47.000    21790621.828 7  89228955.633 7     -1592.572          47.000
G13  22023874.891 4 115736262.822 4      2406.773          28.000
G28  22558463.172 7 118545557.434 7      2898.934          46.000    22558460.203 6  92373159.696 6      2258.906          41.000
G30  20370114.188 8 107045688.999 8      -280.723          51.000    20370115.539 8  83412245.454 8      -218.742          51.000
R07  20325867.844 8 108805956.019 8     -2142.699          51.000    20325869.539 8  84626879.083 8     -1666.547          48.000
R09  19797301.430 8 105716484.724 8     -1762.930          51.000    19797302.203 8  82223936.776 8     -1371.168          51.000
R10  19395713.641 7 103390056.312 7      1503.602          47.000
C05  39790141.867 5 207197710.340 5          .469          35.000    39790140.422 6 160218403.106 6          .012          41.000
C20  21937740.094 8 114235559.893 8       523.383          51.000
C23  23729531.445 4 123565897.063 4     -2311.277          29.000
E01  25812410.570 8 135645128.458 8      2859.848          51.000    25812414.000 8 103935949.880 8      2191.339          51.000
E19  23976958.664 8 125999765.842 8      -571.270          50.000    23976959.820 8  96545279.805 8      -437.756          50.000
E21  24065666.516 8 126465963.676 8       508.953          51.000    24065669.875 8  96902521.849 8       389.998          51.000
> 2020 05 07 03 13 30.0000000  0 13        .000000000000
G05  20560865.180 8 108048071.388 8       136.820          50.000    20560863.609 8  84193286.453 8       106.616          50.000
G07  21802328.672 7 114572001.893 7     -2051.836          46.000    21802326.375 7  89276885.022 7     -1598.833          46.000
G28  22541953.219 7 118458792.270 7      2890.426          47.000    22541950.062 7  92305550.466 7      2252.280          42.000
G30  20371770.688 8 107054393.401 8      -294.535          51.000    20371772.234 8  83419028.121 8      -229.508          51.000
R07  20337933.461 8 108870542.307 8     -2157.734          51.000    20337934.711 8  84677112.814 8     -1678.238          48.000
R09  19807279.000 8 105769763.301 8     -1783.742          51.000    19807279.727 8  82265375.670 8     -1387.355          51.000
R10  19387333.695 8 103345382.823 8      1479.844          48.000
C05  39790154.117 5 207197773.344 5          .652          35.000    39790152.672 6 160218452.589 6          .652          40.000
C20  21934774.562 8 114220117.708 8       511.195          51.000
C23  23742886.719 5 123635440.398 5     -2319.383          31.000
E01  25796116.156 8 135559497.880 8      2853.965          51.000    25796118.633 8 103870336.841 8      2186.804          51.000
E19  23980254.102 8 126017083.324 8      -578.066          49.000    23980254.648 8  96558549.052 8      -442.943          49.000
E21  24062814.492 8 126450975.851 8       495.316          51.000    24062817.719 8  96891037.667 8       379.576          51.000
> 2020 05 07 03 14  0.0000000  0 13        .000000000000
G05  20560139.344 8 108044257.259 8       117.000          50.000    20560137.703 8  84190314.396 8        91.169          50.000
G07  21814066.469 7 114633683.975 7     -2061.012          46.000    21814064.094 7  89324948.958 7     -1605.983          46.000
G28  22525479.711 8 118372220.287 8      2880.457          48.000    22525476.648 7  92238091.755 7      2244.512          44.000
G30  20373494.367 8 107063451.094 8      -309.777          51.000    20373495.820 8  83426086.061 8      -241.382          51.000
R07  20350070.930 8 108935513.810 8     -2174.129          51.000    20350071.664 7  84727646.181 7     -1690.986          47.000
R09  19817361.727 8 105823604.292 8     -1806.035          51.000    19817362.461 8  82307252.017 8     -1404.694          51.000
R10  19379074.562 8 103301355.850 8      1454.637          48.000
C05  39790148.320 5 207197743.470 5          .820          35.000    39790146.984 6 160218429.495 6          .387          41.000
C20  21931867.219 8 114204978.284 8       497.629          51.000
C23  23756278.789 5 123705158.925 5     -2329.324          35.000
E01  25779842.914 8 135473978.873 8      2846.730          51.000    25779844.523 8 103804809.311 8      2181.225          51.000
E19  23983575.602 8 126034538.076 8      -586.164          49.000    23983575.508 8  96571923.471 8      -449.160          49.000
E21  24060027.906 8 126436330.292 8       480.406          51.000    24060030.461 8  96879815.748 8       368.112          51.000
> 2020 05 07 03 14 30.0000000  0 14        .000000000000
G05  20559526.641 8 108041037.477 8       100.340          50.000    20559524.961 8  84187805.475 8        78.190          50.000
G07  21825856.875 7 114695642.308 7     -2066.891          45.000    21825854.773 7  89373228.167 7     -1610.564          45.000
G13  21982813.734 5 115520459.563 5      2391.887          33.000
G28  22509063.008 8 118285949.375 8      2873.516          48.000    22509060.508 7  92170867.658 7      2239.103          46.000
G30  20375305.078 8 107072966.410 8      -321.879          51.000    20375306.539 8  83433500.610 8      -250.812          51.000
R07  20362299.820 8 109000976.976 8     -2187.363          49.000    20362300.914 8  84778561.964 8     -1701.283          48.000
R09  19827569.344 8 105878111.752 8     -1825.059          51.000    19827570.133 8  82349646.718 8     -1419.490          51.000
R10  19370956.836 7 103258083.354 7      1432.715          47.000
C05  39790144.609 5 207197723.994 5         3.324          35.000    39790143.305 6 160218414.441 6         2.302          41.000
C20  21929038.406 8 114190246.969 8       487.027          51.000
C23  23769722.492 6 123775163.304 6     -2335.402          36.000
E01  25763611.102 8 135388678.247 8      2842.539          51.000    25763611.453 8 103739449.118 8      2178.002          50.000
E19  23986943.320 8 126052235.650 8      -591.188          49.000    23986942.781 8  96585483.941 8      -452.949          49.000
E21  24057326.531 8 126422132.328 8       468.629          51.000    24057328.250 8  96868936.803 8       359.115          51.000
> 2020 05 07 03 15  0.0000000  0 14        .000000000000
G05  20559007.516 8 108038310.116 8        60.840          50.000    20559006.016 8  84185680.257 8        47.408          50.000
G07  21837679.797 7 114757772.156 7     -2095.512          43.000    21837678.164 7  89421641.053 7     -1632.866          43.000
G28  22492684.219 8 118199879.595 8      2843.750          48.000    22492682.500 7  92103800.292 7      2215.909          46.000
G30  20377183.125 8 107082835.216 8      -356.656          51.000    20377184.656 8  83441190.590 8      -277.914          51.000
R07  20374600.375 8 109066826.345 8     -2223.664          48.000    20374602.156 7  84829778.140 7     -1729.516          47.000
R09  19837881.320 8 105933177.906 8     -1866.996          51.000    19837882.305 8  82392475.977 8     -1452.108          51.000
R10  19362961.039 8 103215461.195 8      1387.656          48.000
C05                                                                  39790121.930 6 160218328.355 6       -12.662          41.000
C20  21926268.469 8 114175822.613 8       454.070          51.000
C23  23783199.242 5 123845349.309 5     -2364.395          35.000
E01  25747401.352 8 135303494.455 8      2815.652          51.000    25747400.359 8 103674178.449 8      2157.421          50.000
E19  23990337.789 8 126070073.444 8      -618.742          49.000    23990336.969 8  96599151.872 8      -474.200          49.000
E21  24054690.570 8 126408278.893 8       434.215          51.000    24054691.734 8  96858321.864 8       332.701          51.000
E27  26248219.148 5 137935321.067 5     -2218.953          34.000
> 2020 05 07 03 15 30.0000000  0 15        .000000000000
G05  20558650.289 8 108036433.255 8        60.969          51.000    20558649.016 8  84184217.770 8        47.508          51.000
G07  21849603.016 7 114820430.202 7     -2084.918          43.000    21849601.820 7  89470465.539 7     -1624.608          43.000
G28  22476412.336 8 118114371.505 8      2853.418          49.000    22476411.156 7  92037170.608 7      2223.443          45.000
G30  20379196.383 8 107093414.867 8      -351.855          51.000    20379198.070 8  83449434.476 8      -274.173          51.000
R07  20387040.930 8 109133426.023 8     -2219.750          49.000    20387043.336 7  84881577.922 7     -1726.472          47.000
R08  19492898.922 5 104383598.102 5      1298.719          35.000    19492898.688 5  81187217.787 5      1010.112          32.000
R09  19848365.727 8 105989163.915 8     -1868.652          51.000    19848366.672 8  82436020.661 8     -1453.393          51.000
R10  19355155.672 8 103173854.243 8      1382.762          49.000
C05  39790152.461 5 207197765.118 5         3.176          35.000    39790151.109 6 160218445.845 6         2.483          41.000
C20  21923625.805 8 114162061.271 8       460.133          51.000
C23  23796779.305 5 123916070.063 5     -2353.652          34.000
E01  25731282.219 8 135218787.371 8      2828.266          51.000    25731280.305 8 103609273.048 8      2167.131          49.000
E19  23993826.969 8 126088410.100 8      -606.898          48.000    23993826.398 8  96613202.027 8      -465.101          49.000
E21  24052188.484 8 126395128.356 8       439.242          51.000    24052188.766 8  96848245.490 8       336.601          51.000
E27  26260844.359 5 138001667.781 5     -2207.852          34.000
> 2020 05 07 03 16  0.0000000  0 15        .000000000000
G05  20558366.422 8 108034941.818 8        38.914          51.000    20558365.438 8  84183055.609 8        30.323          51.000
G07  21861537.836 7 114883148.858 7     -2095.707          43.000    21861536.555 7  89519337.234 7     -1633.015          44.000
G28  22460158.844 7 118028962.396 7      2841.012          47.000    22460158.703 7  91970618.064 7      2213.772          44.000
G30  20381256.031 8 107104238.557 8      -369.113          51.000    20381257.617 8  83457868.522 8      -287.621          51.000
R07  20399533.344 8 109200300.796 8     -2238.070          50.000    20399536.391 7  84933591.645 7     -1740.721          47.000
R08  19485675.078 5 104344928.842 5      1279.621          33.000    19485676.352 5  81157141.686 5       995.258          32.000
R09  19858933.062 8 106045593.420 8     -1892.754          51.000    19858934.227 8  82479910.305 8     -1472.139          51.000
R10  19347452.438 8 103132790.591 8      1355.395          50.000
C05  39790143.547 5 207197718.177 5          .633          35.000    39790142.211 6 160218409.931 6          .456          41.000
C20  21921021.953 8 114148502.411 8       444.289          51.000
C23  23810374.992 5 123986862.251 5     -2364.766          33.000
E01  25715165.406 8 135134092.780 8      2818.699          50.000    25715163.461 8 103544377.230 8      2159.720          50.000
E19  23997322.430 8 126106780.031 8      -617.328          48.000    23997322.398 8  96627277.671 8      -472.913          49.000
E21  24049731.258 8 126382214.892 8       422.156          51.000    24049730.875 8  96838350.783 8       323.461          51.000
E27  26273484.227 5 138068090.585 5     -2219.590          34.000
> 2020 05 07 03 16 30.0000000  0 15        .000000000000
G05  20558200.695 8 108034071.630 8        18.367          50.000    20558199.859 8  84182377.538 8        14.312          50.000
G07  21873528.906 7 114946162.253 7     -2105.570          44.000    21873527.344 7  89568438.577 7     -1640.704          44.000
G28  22443969.273 7 117943890.441 7      2829.793          47.000    22443970.570 7  91904328.229 7      2205.033          44.000
G30  20383406.789 8 107115540.824 8      -384.996          51.000    20383408.195 8  83466675.470 8      -299.997          51.000
R07  20412122.703 8 109267690.485 8     -2255.137          51.000    20412125.305 7  84986005.825 7     -1753.995          46.000
R08  19478550.500 6 104306784.957 6      1262.523          36.000    19478552.273 5  81127474.171 5       981.963          33.000
R09  19869627.758 8 106102702.570 8     -1915.199          51.000    19869628.930 8  82524328.549 8     -1489.599          51.000
R10  19339896.367 8 103092509.842 8      1329.379          51.000
C05  39790141.320 5 207197706.760 5         -.465          35.000    39790139.914 6 160218401.097 6         -.208          41.000
C20  21918502.047 8 114135380.374 8       429.812          51.000
C23  23824027.883 5 124057964.277 5     -2375.176          30.000
E01  25699095.961 8 135049647.722 8      2810.434          49.000    25699094.922 8 103479672.600 8      2153.458          51.000
E19  24000869.289 8 126125419.349 8      -626.062          48.000    24000869.266 8  96641559.748 8      -479.698          49.000
E21  24047363.719 8 126369774.003 8       406.539          51.000    24047363.695 8  96828818.188 8       311.540          51.000
E27  26286183.164 5 138134822.179 5     -2229.535          35.000
> 2020 05 07 03 17  0.0000000  0 15        .000000000000
G05  20558145.094 8 108033779.113 8         -.180          51.000    20558144.289 8  84182149.603 8         -.140          51.000
G07  21885567.305 7 115009424.040 7     -2113.230          43.000    21885565.641 7  89617733.456 7     -1646.670          44.000
G28  22427836.523 7 117859114.049 7      2820.617          47.000    22427838.477 7  91838268.704 7      2197.887          42.000
G30  20385639.875 8 107127276.065 8      -398.566          51.000    20385641.594 8  83475819.828 8      -310.571          51.000
R07  20424799.648 8 109335548.823 8     -2270.047          51.000    20424801.805 7  85038784.520 7     -1765.592          47.000
R08  19471517.453 6 104269123.467 6      1247.039          38.000    19471520.008 5  81098181.924 5       969.919          34.000
R09  19880440.711 8 106160443.379 8     -1935.449          51.000    19880441.875 8  82569238.079 8     -1505.349          51.000
R10  19332478.883 8 103052967.806 8      1305.578          51.000
C05  39790137.484 5 207197686.257 5          .359          35.000    39790135.906 6 160218385.234 6          .547          41.000
C20  21916057.758 8 114122652.063 8       417.480          51.000
C23  23837729.438 5 124129315.112 5     -2382.621          32.000
E01  25683065.508 8 134965409.244 8      2804.246          48.000    25683066.164 8 103415126.260 8      2148.708          51.000
E19  24004459.102 8 126144283.734 8      -632.719          48.000    24004458.719 8  96656014.295 8      -484.831          49.000
E21  24045077.812 8 126357761.192 8       393.090          51.000    24045078.398 8  96819613.600 8       301.220          51.000
E27  26298932.445 5 138201816.402 5     -2237.734          35.000
> 2020 05 07 03 17 30.0000000  0 15        .000000000000
G05  20558201.375 8 108034073.737 8       -19.504          51.000    20558200.633 8  84182379.178 8       -15.198          51.000
G07  21897654.328 7 115072941.798 7     -2121.383          42.000    21897652.938 7  89667227.803 7     -1653.026          42.000
G28  22411762.656 7 117774645.016 7      2810.629          47.000    22411764.148 6  91772448.751 6      2190.103          39.000
G30  20387957.008 8 107139452.619 8      -413.082          51.000    20387958.734 8  83485308.055 8      -321.882          51.000
R07  20437565.805 8 109403884.590 8     -2285.730          51.000    20437567.844 8  85091934.541 8     -1777.790          48.000
R08  19464575.336 5 104231956.414 5      1230.590          35.000    19464579.367 5  81069274.185 5       957.119          35.000
R09  19891373.164 8 106218821.870 8     -1956.441          51.000    19891374.383 8  82614643.595 8     -1521.677          51.000
R10  19325201.836 8 103014174.878 8      1280.785          51.000
C05  39790133.547 5 207197666.719 5          .648          35.000    39790132.062 6 160218369.372 6          .655          41.000
C20  21913691.109 8 114110327.597 8       404.203          51.000
C23  23851482.211 5 124200930.986 5     -2391.207          34.000
E01  25667076.391 8 134881388.142 8      2797.207          48.000    25667078.727 8 103350746.454 8      2143.362          51.000
E19  24008093.562 8 126163382.960 8      -640.309          48.000    24008093.258 8  96670648.785 8      -490.689          49.000
E21  24042875.172 8 126346185.707 8       378.750          51.000    24042876.125 8  96810744.090 8       290.166          51.000
E27  26311733.102 6 138269081.749 6     -2246.797          36.000
> 2020 05 07 03 18  0.0000000  0 14        .000000000000
G05  20558349.258 8 108034850.001 8       -22.156          51.000    20558348.398 8  84182984.056 8       -17.262          51.000
G07  21909769.570 7 115136608.125 7     -2112.781          42.000    21909768.461 7  89716837.948 7     -1646.320          43.000
G28  22395727.641 7 117690380.725 7      2817.172          46.000    22395727.789 6  91706788.400 6      2195.202          37.000
G30  20390337.812 8 107151963.860 8      -410.809          51.000    20390339.227 8  83495057.066 8      -320.111          51.000
R07  20450400.500 8 109472589.442 8     -2284.285          51.000    20450402.312 8  85145371.672 8     -1776.666          48.000
R08  19457707.602 6 104195178.703 6      1231.383          38.000    19457709.969 5  81040669.291 5       957.745          34.000
R09  19902404.281 8 106277727.812 8     -1960.359          51.000    19902405.602 8  82660459.351 8     -1524.724          51.000
R10  19318045.094 8 102976024.699 8      1272.883          51.000
C05  39790109.578 5 207197542.075 5        17.633          35.000    39790108.086 6 160218272.602 6        13.532          41.000
C20  21911382.023 8 114098303.392 8       407.430          51.000
E01  25651108.945 8 134797480.449 8      2806.746          48.000    25651112.297 8 103286453.533 8      2150.591          51.000
E19  24011752.609 8 126182611.661 8      -631.367          48.000    24011752.641 8  96685382.475 8      -483.841          49.000
E21  24040735.531 8 126334941.930 8       380.930          51.000    24040736.742 8  96802128.742 8       291.887          51.000
E27  26324565.023 5 138336522.010 5     -2238.941          34.000
> 2020 05 07 03 18 30.0000000  0 14        .000000000000
G05  20558612.266 8 108036231.621 8       -61.602          51.000    20558611.039 8  84184060.647 8       -48.001          51.000
G07  21921936.203 7 115200545.092 7     -2141.141          43.000    21921935.258 7  89766658.991 7     -1668.421          43.000
G28  22379755.211 7 117606447.327 7      2786.871          42.000    22379754.961 6  91641385.818 6      2171.588          40.000
G30  20392805.562 8 107164932.125 8      -445.355          51.000    20392807.055 8  83505162.210 8      -347.030          51.000
R07  20463327.305 8 109541788.400 8     -2320.348          51.000    20463329.219 8  85199193.090 8     -1804.715          49.000
R08  19450936.469 6 104158918.138 6      1194.648          38.000    19450938.320 5  81012466.654 5       929.168          35.000
R09  19913557.266 8 106337283.495 8     -2001.395          51.000    19913558.508 8  82706780.428 8     -1556.640          51.000
R10  19311032.172 8 102938642.853 8      1227.902          50.000
C05  39790088.898 5 207197434.200 5        -2.238          35.000    39790087.453 6 160218189.560 6        -1.489          41.000
C20  21909154.016 8 114086702.715 8       374.207          51.000
C23  23879136.852 5 124344966.252 5     -2411.770          31.000
E01  25635187.016 8 134713811.058 8      2779.586          48.000    25635190.664 8 103222343.200 8      2129.893          51.000
E19  24015459.961 8 126202093.794 8      -658.930          48.000    24015460.242 8  96700310.335 8      -504.879          49.000
E21  24038682.469 8 126324153.201 8       346.727          51.000    24038683.750 8  96793862.073 8       265.698          51.000
> 2020 05 07 03 19  0.0000000  0 15        .000000000000
G05  20558998.727 8 108038262.462 8       -76.773          51.000    20558997.312 8  84185643.108 8       -59.823          51.000
G07  21934162.281 7 115264794.290 7     -2144.977          44.000    21934160.867 7  89816723.281 7     -1671.410          44.000
G28  22363853.133 6 117522890.706 6      2780.266          36.000    22363854.688 5  91576276.802 5      2166.441          35.000
G30  20395368.383 8 107178399.611 8      -455.457          51.000    20395369.812 8  83515656.353 8      -354.899          51.000
R07  20476354.562 8 109611524.619 8     -2331.738          51.000    20476356.680 8  85253432.387 8     -1813.574          48.000
R08  19444271.242 6 104123221.219 6      1182.133          39.000    19444272.336 6  80984702.371 6       919.434          36.000
R09  19924839.266 8 106397529.478 8     -2017.984          51.000    19924840.555 8  82753638.447 8     -1569.543          51.000
R10  19304171.414 8 102902073.571 8      1207.312          48.000
C05  39790079.992 5 207197387.287 5         2.258          35.000    39790078.477 6 160218153.285 6         1.667          40.000
C20  21907015.742 8 114075569.300 8       365.023          51.000
C23  23893030.438 5 124417336.478 5     -2415.828          33.000
E01  25619319.133 8 134630424.709 8      2776.582          49.000    25619322.742 8 103158449.759 8      2127.463          51.000
E19  24019223.977 8 126221872.924 8      -662.547          49.000    24019224.398 8  96715465.776 8      -507.636          50.000
E21  24036724.188 8 126313862.728 8       336.438          51.000    24036725.609 8  96785977.167 8       257.766          51.000
E27  26350398.180 5 138472277.805 5     -2271.703          33.000
> 2020 05 07 03 19 30.0000000  0 15        .000000000000
G05  20559507.109 8 108040933.503 8       -97.898          51.000    20559505.484 8  84187724.432 8       -76.284          51.000
G07  21946445.945 7 115329344.739 7     -2154.879          44.000    21946443.742 7  89867022.322 7     -1679.123          43.000
G28  22348022.820 6 117439704.513 6      2768.410          38.000    22348025.234 6  91511456.320 6      2157.203          39.000
G30  20398024.258 8 107192356.092 8      -471.625          51.000    20398025.477 8  83526531.539 8      -367.497          51.000
R07  20489480.078 8 109681788.251 8     -2349.070          51.000    20489482.305 7  85308081.878 7     -1827.055          47.000
R08  19437709.047 6 104088080.731 6      1163.789          39.000    19437710.500 6  80957370.894 6       905.169          37.000
R09  19936248.547 8 106458453.606 8     -2040.332          50.000    19936249.328 8  82801023.849 8     -1586.925          50.000
R10  19297461.336 8 102866309.061 8      1180.508          48.000
C05  39790080.961 6 207197391.746 6          .738          36.000    39790079.320 6 160218156.739 6          .583          41.000
C20  21904965.750 8 114064895.020 8       349.938          51.000
C23  23906985.375 5 124490014.438 5     -2426.508          30.000
E01  25603503.844 8 134547313.780 8      2767.520          50.000    25603506.906 8 103094767.345 8      2120.507          51.000
E19  24023042.875 8 126241940.282 8      -672.078          50.000    24023043.266 8  96730842.066 8      -514.969          50.000
E21  24034858.820 8 126304061.196 8       320.367          51.000    24034860.586 8  96778466.924 8       245.452          51.000
E27  26363405.648 5 138540631.963 5     -2282.262          34.000
> 2020 05 07 03 20  0.0000000  0 15        .000000000000
G05  20560128.492 8 108044198.535 8      -116.117          51.000    20560126.711 8  84190268.625 8       -90.481          51.000
G07  21958777.922 7 115394148.374 7     -2161.734          44.000    21958774.953 7  89917518.623 7     -1684.468          42.000
G13  21834941.453 5 114743402.767 5      2321.332          31.000
G28  22332256.219 7 117356844.835 7      2759.000          44.000    22332258.391 7  91446890.318 7      2149.870          43.000
G30  20400763.977 8 107206753.973 8      -484.621          51.000    20400765.234 8  83537750.683 8      -377.624          51.000
R07  20502695.562 8 109752530.964 8     -2363.418          51.000    20502697.562 7  85363103.969 7     -1838.217          47.000
R08  19431242.047 6 104053452.057 6      1148.320          39.000    19431245.000 6  80930437.473 6       893.135          38.000
R09  19947774.883 8 106520005.286 8     -2059.379          49.000    19947776.055 8  82848897.425 8     -1601.736          51.000
R10  19290893.570 8 102831301.954 8      1157.012          49.000
C05  39790082.734 5 207197401.545 5         1.359          35.000    39790081.172 6 160218164.283 6         1.710          41.000
C20  21902995.297 8 114054634.738 8       337.750          51.000
E01  25587732.375 8 134464433.229 8      2761.496          51.000    25587734.891 8 103031261.470 8      2116.011          51.000
E19  24026907.922 8 126262249.722 8      -678.289          50.000    24026908.023 8  96746403.837 8      -519.680          50.000
E21  24033077.656 8 126294702.050 8       307.352          51.000    24033079.547 8  96771295.638 8       235.521          51.000
E27  26376463.953 5 138609253.997 5     -2288.590          33.000
> 2020 05 07 03 20 30.0000000  0 15        .000000000000
G05  20560855.766 8 108048021.014 8      -133.270          51.000    20560854.320 8  84193247.176 8      -103.846          51.000
G07  21971150.578 7 115459166.890 7     -2167.441          42.000    21971147.125 7  89968182.390 7     -1688.915          42.000
G28  22316545.242 8 117274277.418 8      2750.730          48.000    22316547.094 8  91382552.077 8      2143.426          48.000
G30  20403580.531 8 107221555.420 8      -496.625          51.000    20403581.727 8  83549284.292 8      -386.981          51.000
R07  20515993.453 8 109823714.826 8     -2376.648          50.000    20515995.383 7  85418469.147 7     -1848.504          46.000
R08  19424864.602 6 104019299.801 6      1134.258          38.000    19424867.617 6  80903874.573 6       882.197          38.000
R09  19959411.438 8 106582143.802 8     -2077.578          50.000    19959412.562 8  82897227.374 8     -1615.894          50.000
R10  19284461.242 8 102797015.856 8      1134.387          48.000
C05  39790078.617 5 207197380.119 5         4.375          35.000    39790077.078 6 160218147.744 6         3.661          41.000
C20  21901097.484 8 114044752.953 8       326.477          51.000
C23  23935052.039 4 124636096.745 4     -2437.977          29.000
E01  25571997.930 8 134381747.894 8      2756.395          51.000    25572000.188 8 102967905.180 8      2111.983          51.000
E19  24030811.906 8 126282764.577 8      -683.836          50.000    24030811.977 8  96762123.011 8      -523.951          50.000
E21  24031373.789 8 126285748.434 8       295.148          51.000    24031375.578 8  96764435.074 8       226.126          51.000
E27  26389565.305 5 138678101.612 5     -2295.570          31.000    26389573.586 5 106259875.613 5     -1759.192          32.000
> 2020 05 07 03 21  0.0000000  0 15        .000000000000
G05  20561704.391 8 108052481.413 8      -172.387          51.000    20561703.242 8  84196722.794 8      -134.330          51.000
G07  21983578.945 6 115524478.403 6     -2194.484          40.000    21983575.805 6  90019074.478 6     -1709.988          40.000
G28  22300905.867 8 117192085.289 8      2720.445          50.000    22300906.938 8  91318506.238 8      2119.824          48.000
G30  20406488.891 8 107236839.429 8      -530.531          51.000    20406489.914 8  83561193.915 8      -413.401          51.000
R07  20529388.758 8 109895420.160 8     -2412.207          50.000    20529390.648 7  85474239.959 7     -1876.161          47.000
R08  19418592.570 6 103985707.768 6      1097.324          40.000    19418594.430 6  80877747.430 6       853.471          39.000
R09  19971172.555 8 106644947.655 8     -2117.871          49.000    19971173.742 8  82946074.834 8     -1647.230          50.000
R10  19278179.391 8 102763531.994 8      1089.496          48.000
C05  39790083.656 5 207197405.855 5       -14.652          35.000    39790082.227 6 160218168.424 6       -11.194          41.000
C20  21899287.586 8 114035329.918 8       293.602          51.000
C23  23949119.078 5 124709360.278 5     -2466.875          33.000
E01  25556316.031 8 134299339.310 8      2729.324          51.000    25556318.078 8 102904760.941 8      2091.309          51.000
E19  24034770.172 8 126303565.375 8      -711.125          50.000    24034770.562 8  96778061.269 8      -544.897          50.000
E21  24029762.305 8 126277280.255 8       261.184          51.000    24029764.195 8  96757946.469 8       200.122          51.000
E27                                                                  26402733.750 5 106312867.892 5     -1780.440          32.000
> 2020 05 07 03 21 30.0000000  0 16        .000000000000
G05  20562639.039 8 108057392.982 8      -166.570          51.000    20562638.133 8  84200549.977 8      -129.795          51.000
G07  21996027.070 6 115589894.627 6     -2177.480          41.000    21996024.383 6  90070048.163 6     -1696.738          40.000
G13  21795369.562 5 114535418.994 5      2310.160          33.000
G28  22285302.641 8 117110084.012 8      2734.867          51.000    22285302.930 8  91254609.123 8      2131.065          48.000
G30  20409453.383 8 107252417.927 8      -519.469          51.000    20409454.344 8  83573333.017 8      -404.781          51.000
R07  20542844.938 8 109967456.147 8     -2401.891          49.000    20542847.891 8  85530267.964 8     -1868.137          48.000
R08  19412389.602 6 103952487.810 6      1105.930          41.000    19412390.500 6  80851909.703 6       860.168          39.000
R09  19983022.094 8 106708223.463 8     -2112.293          49.000    19983023.648 8  82995289.357 8     -1642.895          50.000
R10  19272013.062 8 102730662.081 8      1090.254          48.000
C05  39790062.516 5 207197295.460 5        10.664          35.000    39790061.000 6 160218083.067 6         8.174          41.000
C20  21897530.344 8 114026181.305 8       305.035          51.000
C23  23963251.547 5 124782929.976 5     -2449.258          34.000
E01  25540651.375 8 134217022.089 8      2747.164          50.000    25540653.203 8 102841686.693 8      2104.991          50.000
E19  24038747.352 8 126324465.690 8      -693.562          50.000    24038747.805 8  96794075.783 8      -531.416          50.000
E21  24028207.688 8 126269110.430 8       272.152          51.000    24028209.508 8  96751686.479 8       208.490          51.000
E27                                                                  26415916.391 5 106365951.523 5     -1767.638          31.000
> 2020 05 07 03 22  0.0000000  0 15        .000000000000
G05  20563707.484 8 108063007.005 8      -209.090          51.000    20563706.430 8  84204924.556 8      -162.927          51.000
G07  22008542.539 6 115655665.732 6     -2207.934          39.000    22008539.648 6  90121298.359 6     -1720.471          39.000
G28  22269783.859 8 117028528.332 8      2700.879          51.000    22269783.531 7  91191059.241 7      2104.581          47.000
G30  20412521.617 8 107268541.472 8      -556.738          51.000    20412522.648 8  83585896.826 8      -433.822          51.000
R07  20556410.734 8 110040078.023 8     -2441.008          49.000    20556414.406 8  85586751.631 8     -1898.562          49.000
R08  19406303.547 6 103919898.569 6      1065.211          41.000    19406304.672 6  80826562.526 6       828.497          40.000
R09  19995007.445 8 106772223.593 8     -2155.711          49.000    19995008.430 8  83045067.250 8     -1676.664          50.000
R10  19266009.742 7 102698661.268 7      1041.867          47.000
C05  39790062.758 5 207197297.360 5       -11.875          35.000    39790061.328 6 160218084.536 6        -9.204          41.000
C20  21895874.078 8 114017557.321 8       268.637          51.000
C23  23977449.578 5 124856858.851 5     -2480.145          34.000
E01  25525052.328 8 134135049.291 8      2716.555          50.000    25525054.164 8 102778876.377 8      2081.618          50.000
E19  24042791.281 8 126345717.313 8      -724.316          50.000    24042791.906 8  96810359.484 8      -555.014          50.000
E21  24026757.867 8 126261490.472 8       234.742          51.000    24026759.352 8  96745847.796 8       179.882          51.000
E27                                                                  26429170.844 5 106419317.875 5     -1791.335          32.000
> 2020 05 07 03 22 30.0000000  0 16        .000000000000
G05  20564895.203 8 108069248.093 8      -214.348          51.000    20564894.141 8  84209787.738 8      -167.024          51.000
G07  22021110.695 6 115721713.612 6     -2201.844          37.000    22021107.727 6  90172764.229 6     -1715.719          36.000
G13  21769193.469 4 114397883.782 4      2288.680          29.000
G28  22254335.109 8 116947344.198 8      2704.082          49.000    22254334.273 7  91127798.904 7      2107.077          45.000
G30  20415678.820 8 107285132.756 8      -556.691          51.000    20415679.922 8  83598825.109 8      -433.786          51.000
R07  20570072.570 8 110113207.319 8     -2441.840          51.000    20570075.469 8  85643629.987 8     -1899.209          48.000
R08  19400321.164 7 103887864.621 7      1062.750          43.000    19400322.133 6  80801647.233 6       826.586          39.000
R09  20007113.156 7 106836867.472 7     -2161.184          47.000    20007114.492 8  83095345.845 8     -1680.918          50.000
R10  19260155.180 8 102667452.684 8      1031.391          48.000
C05  39790070.234 5 207197335.890 5         2.195          35.000    39790068.781 6 160218114.321 6         1.833          40.000
C20  21894304.477 8 114009383.355 8       269.113          51.000
C23  23991698.844 5 124931069.468 5     -2474.047          32.000
E01  25509504.805 8 134053346.258 8      2723.109          50.000    25509506.875 8 102716272.760 8      2086.580          50.000
E19  24046887.719 8 126367244.507 8      -717.887          49.000    24046888.586 8  96826854.343 8      -550.114          51.000
E21  24025398.039 8 126254343.980 8       234.555          51.000    24025399.609 8  96740371.919 8       179.730          51.000
E27                                                                  26442481.594 5 106472910.275 5     -1787.124          33.000
> 2020 05 07 03 23  0.0000000  0 15        .000000000000
G05  20566177.578 8 108075987.335 8      -234.785          51.000    20566176.727 8  84215039.069 8      -182.949          51.000
G07  22033706.945 6 115787907.653 6     -2211.172          37.000    22033704.438 6  90224344.019 6     -1722.991          36.000
G28  22238932.625 8 116866405.741 8      2691.980          48.000    22238930.914 7  91064730.019 7      2097.647          42.000
G30  20418900.289 8 107302061.922 8      -571.707          51.000    20418901.391 8  83612016.679 8      -445.486          51.000
R07  20583804.195 8 110186712.217 8     -2458.215          51.000    20583806.516 8  85700800.435 8     -1911.945          48.000
R08  19394418.344 7 103856257.130 7      1044.637          43.000    19394418.711 6  80777063.618 6       812.495          40.000
R09  20019314.211 8 106902021.078 8     -2182.137          49.000    20019315.430 8  83146020.861 8     -1697.217          50.000
R10  19254424.742 7 102636906.311 7      1005.375          46.000
C05  39790060.156 5 207197283.594 5         1.727          35.000    39790058.758 6 160218073.860 6         1.260          40.000
C20  21892796.977 8 114001532.776 8       254.562          51.000
C23  24005977.992 5 125005432.442 5     -2482.941          34.000
E01  25493984.297 8 133971785.767 8      2714.543          50.000    25493986.781 8 102653778.352 8      2079.963          51.000
E19  24051012.062 8 126388918.880 8      -726.668          48.000    24051013.195 8  96843461.972 8      -556.866          50.000
E21  24024103.680 8 126247542.148 8       219.219          51.000    24024105.352 8  96735160.131 8       167.937          51.000
E27                                                                  26455822.242 5 106526625.792 5     -1793.846          32.000
> 2020 05 07 03 23 30.0000000  0 16        .000000000000
G05  20567572.734 8 108083319.190 8      -253.422          51.000    20567571.898 8  84220752.200 8      -197.472          51.000
G07  22046349.039 6 115854340.949 6     -2217.609          39.000    22046347.367 6  90276110.248 6     -1728.007          39.000
G28  22223595.359 7 116785810.096 7      2681.543          47.000    22223592.688 6  91001928.297 6      2089.517          40.000
G30  20422203.805 8 107319422.239 8      -585.016          51.000    20422204.953 8  83625544.227 8      -455.856          51.000
R07  20597624.086 8 110260687.993 8     -2472.805          51.000    20597625.711 8  85758337.106 8     -1923.293          48.000
R08  19388613.852 7 103825174.562 7      1028.168          43.000    19388614.258 6  80752888.278 6       799.683          41.000
R09  20031628.344 7 106967776.999 7     -2200.992          47.000    20031629.203 8  83197164.358 8     -1711.883          50.000
R10  19248836.641 8 102607118.101 8       981.172          48.000
R11  22604179.406 6 120789884.839 6      4160.855          39.000    22604181.516 6  93947689.515 6      3236.218          37.000
C05  39790050.523 6 207197233.970 6         2.617          36.000    39790049.211 6 160218035.503 6         1.978          41.000
C20  21891369.641 8 113994099.959 8       241.660          51.000
C23  24020305.414 6 125080039.322 6     -2489.801          36.000
E01  25478509.109 8 133890463.693 8      2707.680          50.000    25478512.336 8 102591466.625 8      2074.755          51.000
E19  24055182.383 7 126410835.177 7      -733.672          47.000    24055183.633 8  96860254.961 8      -562.200          51.000
E21  24022893.000 8 126241179.139 8       205.691          51.000    24022894.242 8  96730284.567 8       157.623          51.000
E27                                                                  26469209.938 5 106580535.411 5     -1799.467          33.000
> 2020 05 07 03 24  0.0000000  0 16        .000000000000
G05  20569067.812 8 108091176.299 8      -271.789          51.000    20569067.164 8  84226874.615 8      -211.784          51.000
G07  22059023.492 6 115920944.357 6     -2224.258          40.000    22059022.180 6  90328008.961 6     -1733.188          41.000
G28  22208311.016 7 116705492.339 7      2671.613          45.000    22208306.828 6  90939343.128 6      2081.780          40.000
G30  20425576.289 8 107337144.882 8      -598.090          51.000    20425577.414 8  83639354.087 8      -466.044          51.000
R07  20611518.297 8 110335064.478 8     -2486.984          51.000    20611519.688 7  85816185.474 7     -1934.321          47.000
R08  19382895.211 7 103794550.186 7      1012.066          44.000    19382895.227 6  80729069.339 6       787.163          41.000
R09  20044041.414 7 107034063.153 7     -2219.566          46.000    20044042.758 8  83248720.274 8     -1726.326          50.000
R10  19243378.242 8 102578019.889 8       957.254          49.000
R11  22580835.188 6 120665138.802 6      4153.961          40.000    22580837.367 6  93850664.811 6      3230.855          37.000
C05  39790028.633 5 207197119.857 5         3.805          35.000    39790027.281 6 160217947.268 6         2.836          41.000
C20  21890009.766 8 113987018.679 8       229.059          51.000
C23  24034666.602 5 125154821.077 5     -2496.297          34.000
E01  25463066.781 8 133809313.755 8      2700.902          51.000    25463070.539 8 102529286.796 8      2069.532          51.000
E19  24059386.078 8 126432925.887 8      -740.570          48.000    24059387.258 8  96877181.594 8      -567.312          51.000
E21  24021752.812 8 126235187.010 8       192.371          51.000    24021753.969 8  96725693.202 8       147.359          51.000
E27                                                                  26482632.930 5 106634585.886 5     -1804.980          35.000
> 2020 05 07 03 24 30.0000000  0 16        .000000000000
G05  20570692.055 8 108099712.476 8      -294.852          51.000    20570691.562 8  84233526.181 8      -229.754          51.000
G07  22071759.164 6 115987869.455 6     -2235.789          38.000    22071757.406 6  90380158.389 6     -1742.173          38.000
G28  22193107.844 6 116625608.664 6      2656.465          41.000    22193104.617 6  90877096.109 6      2069.970          41.000
G30  20429046.602 8 107355382.324 8      -615.363          51.000    20429047.797 8  83653565.102 8      -479.504          51.000
R07  20625516.508 8 110409997.564 8     -2505.980          51.000    20625517.531 7  85874466.780 7     -1949.093          46.000
R08  19377291.625 7 103764542.875 7       990.848          45.000    19377291.578 6  80705730.317 6       770.662          41.000
R09  20056582.547 7 107101032.254 7     -2242.531          47.000    20056583.977 8  83300807.350 8     -1744.191          49.000
R10  19238078.555 8 102549767.553 8       928.773          49.000
R11  22557554.266 6 120540737.438 6      4141.984          39.000    22557557.742 6  93753908.169 6      3221.543          37.000
C05  39790023.586 5 207197093.554 5          .625          35.000    39790022.250 6 160217926.919 6          .577          41.000
C20  21888747.031 8 113980442.057 8       211.859          51.000
C23  24049089.539 5 125229928.176 5     -2508.234          31.000
E01  25447686.820 8 133728491.132 8      2689.707          51.000    25447690.492 8 102467357.774 8      2060.938          51.000
E19  24063652.344 7 126455345.297 7      -751.730          47.000    24063653.391 8  96894360.116 8      -575.962          51.000
E21  24020712.422 8 126229719.254 8       174.613          51.000    24020713.680 8  96721503.632 8       133.801          51.000
E27  26496114.023 5 139238018.449 5     -2367.234          34.000    26496120.539 5 106688893.683 5     -1813.906          35.000
> 2020 05 07 03 25  0.0000000  0 16        .000000000000
G05  20572401.086 8 108108694.699 8      -314.789          51.000    20572400.594 8  84240525.302 8      -245.290          51.000
G07  22084511.727 5 116054882.263 5     -2243.723          31.000    22084509.734 5  90432376.215 5     -1748.349          30.000
G28  22177943.461 7 116545928.832 7      2644.477          44.000    22177942.828 7  90815007.824 7      2060.628          43.000
G30  20432570.492 8 107373900.592 8      -629.844          51.000    20432571.781 8  83667994.931 8      -490.787          51.000
R07  20639574.023 8 110485249.105 8     -2521.777          50.000    20639575.086 7  85932995.775 7     -1961.382          45.000
R08  19371759.516 7 103734917.394 7       973.008          46.000    19371758.844 6  80682688.278 6       756.784          41.000
R09  20069206.484 7 107168444.406 7     -2262.574          45.000    20069207.836 8  83353239.046 8     -1759.777          48.000
R10  19232893.109 8 102522124.663 8       903.234          49.000
R11  22534293.664 6 120416446.641 6      4132.734          37.000    22534298.547 6  93657237.524 6      3214.346          36.000
C05  39789991.031 5 207196924.323 5          .535          35.000    39789989.773 6 160217796.073 6          .112          41.000
C20  21887537.164 8 113974140.186 8       197.605          51.000
C23  24063531.930 4 125305127.898 4     -2516.613          27.000
E01  25432325.297 8 133647764.435 8      2681.234          51.000    25432328.633 8 102405502.252 8      2054.476          51.000
E19  24067936.570 7 126477860.481 7      -760.125          46.000    24067937.750 8  96911612.026 8      -582.457          51.000
E21  24019727.391 8 126224542.802 8       159.688          51.000    24019728.703 8  96717537.266 8       122.361          51.000
E27  26509620.258 5 139308995.942 5     -2375.758          34.000    26509627.281 5 106743279.005 5     -1820.473          35.000
> 2020 05 07 03 25 30.0000000  0 15        .000000000000
G05  20574247.266 8 108118396.618 8      -332.625          51.000    20574246.562 8  84248085.240 8      -259.185          51.000
G07  22097332.492 6 116122254.463 6     -2249.012          36.000    22097329.891 6  90484874.083 6     -1752.483          37.000
G28  22162872.812 7 116466729.082 7      2634.812          47.000    22162872.805 7  90753293.703 7      2053.101          45.000
G30  20436199.812 8 107392972.226 8      -642.160          51.000    20436201.008 8  83682855.959 8      -500.381          51.000
R07  20653742.367 8 110561096.699 8     -2535.391          49.000    20653743.852 7  85991988.301 7     -1971.974          43.000
R08  19366351.242 7 103705955.030 7       957.035          47.000    19366350.664 7  80660162.008 7       744.361          43.000
R09  20081965.078 7 107236574.566 7     -2280.230          45.000    20081966.352 8  83406229.173 8     -1773.513          48.000
R10  19227873.820 8 102495369.983 8       879.734          48.000
R11  22511106.672 5 120292547.669 5      4126.852          31.000    22511111.547 5  93560871.568 5      3209.773          35.000
C05  39789983.242 6 207196883.385 6         1.629          36.000    39789981.891 6 160217764.387 6         1.477          41.000
C20  21886432.141 8 113968385.131 8       185.480          51.000
E01  25417034.508 8 133567408.820 8      2675.055          51.000    25417037.383 8 102343931.081 8      2049.687          51.000
E19  24072291.180 7 126500745.912 7      -766.367          46.000    24072292.703 8  96929147.609 8      -587.148          51.000
E21  24018849.844 8 126219931.103 8       146.984          51.000    24018851.070 8  96714003.634 8       112.630          51.000
E27  26523197.250 5 139380346.599 5     -2382.125          34.000    26523204.320 5 106797950.286 5     -1825.067          34.000
> 2020 05 07 03 26  0.0000000  0 16        .000000000000
G05  20576206.500 8 108128691.633 8      -352.770          51.000    20576205.688 8  84256107.317 8      -274.885          51.000
G07  22110197.039 6 116189858.000 6     -2257.141          39.000    22110193.508 6  90537552.096 6     -1758.814          37.000
G13  21678673.461 5 113922175.376 5      2241.004          34.000
G28  22147870.398 8 116387885.224 8      2622.301          48.000    22147870.211 7  90691856.940 7      2043.351          45.000
G30  20439910.023 8 107412469.306 8      -656.633          51.000    20439911.141 8  83698048.525 8      -511.662          51.000
R07  20667998.219 8 110637410.719 8     -2551.281          50.000    20667999.117 7  86051343.614 7     -1984.330          43.000
R08  19361042.531 7 103677528.672 7       939.031          46.000    19361042.922 7  80638052.600 7       730.358          43.000
R09  20094833.391 7 107305290.517 7     -2300.125          45.000    20094834.477 7  83459674.941 7     -1788.986          47.000
R10  19222997.219 8 102469374.380 8       854.020          49.000
C05  39789975.844 5 207196845.118 5         1.062          35.000    39789974.602 6 160217734.797 6         1.238          41.000
C20  21885408.047 8 113963052.124 8       171.051          50.000
C23  24092603.734 4 125456507.842 4     -2530.965          29.000
E01  25401790.477 8 133487299.066 8      2666.418          51.000    25401792.805 8 102282548.284 8      2043.099          51.000
E19  24076692.188 7 126523874.973 7      -774.809          45.000    24076694.266 8  96946869.900 8      -593.658          51.000
E21  24018055.602 8 126215757.191 8       132.051          51.000    24018056.727 8  96710805.462 8       101.194          51.000
E27  26536820.969 5 139451936.971 5     -2390.406          34.000    26536827.531 5 106852809.108 5     -1831.490          34.000
> 2020 05 07 03 26 30.0000000  0 15        .000000000000
G05  20578272.758 8 108139548.572 8      -370.773          51.000    20578271.844 8  84264567.260 8      -288.914          51.000
G07  22123099.422 6 116257660.303 6     -2262.750          38.000    22123094.570 6  90590385.031 6     -1763.185          37.000
G13  21665896.227 5 113855031.662 5      2235.570          34.000
G28  22132930.094 8 116309369.480 8      2612.234          48.000    22132929.625 7  90630675.861 7      2035.510          45.000
G30  20443695.250 8 107432360.021 8      -668.977          51.000    20443696.250 8  83713547.783 8      -521.280          51.000
R07  20682335.477 8 110714158.636 8     -2564.887          50.000    20682336.664 7  86111036.424 7     -1994.912          45.000
R08  19355829.016 8 103649609.557 8       922.762          48.000    19355829.359 7  80616337.743 7       717.707          43.000
R09  20107805.055 7 107374557.679 7     -2317.559          45.000    20107805.711 7  83513549.388 7     -1802.546          47.000
R10  19218257.344 8 102444107.289 8       830.703          49.000
C05  39789963.125 5 207196779.039 5         2.609          35.000    39789961.922 6 160217683.680 6         2.619          41.000
C20  21884459.266 8 113958111.569 8       158.652          50.000
E01  25386587.648 8 133407405.881 8      2660.047          51.000    25386589.359 8 102221331.446 8      2038.212          51.000
E19  24081133.938 7 126547217.271 7      -781.109          46.000    24081136.281 8  96964755.553 8      -598.459          51.000
E21  24017338.594 8 126211990.090 8       119.375          51.000    24017339.672 8  96707919.003 8        91.490          51.000
E27  26550485.164 5 139523740.583 5     -2396.246          32.000    26550491.469 5 106907830.550 5     -1836.561          32.000
> 2020 05 07 03 27  0.0000000  0 17        .000000000000
G05  20580448.461 8 108150981.233 8      -390.551          51.000    20580447.477 8  84273475.806 8      -304.325          51.000
G07  22136041.664 5 116325673.163 5     -2270.281          34.000    22136036.672 5  90643382.069 5     -1769.050          34.000
G09  24442307.969 6 128445193.821 6     -3051.676          36.000
G13  21653155.703 5 113788078.479 5      2228.734          33.000
G28  22118054.867 8 116231197.153 8      2600.125          48.000    22118054.016 7  90569762.391 7      2026.071          45.000
G30  20447557.359 8 107452656.022 8      -683.207          51.000    20447558.430 8  83729362.857 8      -532.369          51.000
R07  20696756.344 8 110791352.451 8     -2580.473          51.000    20696757.836 7  86171076.041 7     -2007.034          47.000
R08  19350712.531 8 103622212.666 8       904.656          48.000    19350713.352 7  80595029.043 7       703.618          44.000
R09  20120881.672 7 107444385.624 7     -2336.738          45.000    20120882.578 7  83567860.024 7     -1817.463          46.000
R10  19213656.617 8 102419581.619 8       805.371          49.000
R11  22441836.391 5 119922374.571 5      4100.895          34.000    22441837.242 4  93272949.696 4      3189.582          29.000
C05  39789947.672 5 207196697.940 5         3.195          35.000    39789946.297 6 160217620.995 6         2.377          41.000
C20  21883588.539 8 113953577.032 8       144.492          51.000
E01  25371428.750 8 133327743.623 8      2651.637          51.000    25371429.922 8 102160291.564 8      2031.795          51.000
E19  24085619.023 7 126570786.066 7      -789.281          47.000    24085621.180 8  96982814.778 8      -604.801          50.000
E21  24016701.406 8 126208642.451 8       104.770          51.000    24016702.250 8  96705353.952 8        80.281          51.000
E27                                                                  26564198.477 5 106963019.188 5     -1842.197          31.000
> 2020 05 07 03 27 30.0000000  0 15        .000000000000
G05  20582735.336 8 108162998.450 8      -411.434          51.000    20582734.117 8  84282839.861 8      -320.598          51.000
G07  22149025.055 6 116393904.159 6     -2278.980          36.000    22149022.180 5  90696549.089 5     -1775.832          35.000
G28  22103246.984 8 116153379.923 8      2586.957          49.000    22103245.766 7  90509125.641 7      2015.811          45.000
G30  20451498.109 8 107473365.622 8      -698.191          51.000    20451499.414 8  83745500.223 8      -544.045          51.000
R07  20711262.039 8 110869001.423 8     -2597.051          51.000    20711263.969 8  86231469.670 8     -2019.928          48.000
R08  19345695.898 8 103595349.832 8       885.484          48.000    19345696.750 7  80574135.734 7       688.710          44.000
R09  20134064.508 7 107514780.765 7     -2357.082          45.000    20134065.812 7  83622611.807 7     -1833.286          46.000
R10  19209196.758 8 102395807.122 8       778.898          49.000
R11  22418847.203 6 119799499.199 6      4090.352          37.000    22418841.648 4  93177379.961 4      3181.382          24.000
C05  39789930.906 5 207196611.247 5         2.262          35.000    39789929.641 6 160217553.988 6         1.359          41.000
C20  21882798.000 8 113949458.700 8       129.316          51.000
E01  25356315.523 8 133248323.236 8      2642.176          50.000    25356316.391 8 102099437.004 8      2024.641          51.000
E19  24090149.211 8 126594591.208 8      -798.500          48.000    24090151.055 8  97001055.083 8      -611.808          50.000
E21  24016145.836 8 126205723.474 8        89.117          51.000    24016146.695 8  96703117.359 8        68.252          51.000
E27                                                                  26577949.891 5 107018390.016 5     -1849.308          31.000
> 2020 05 07 03 28  0.0000000  0 15        .000000000000
G05  20585143.320 8 108175652.257 8      -429.184          51.000    20585142.008 8  84292699.969 8      -334.429          51.000
G07  22162059.641 6 116462403.433 6     -2284.285          40.000    22162059.188 5  90749925.149 5     -1779.959          34.000
G28  22088517.133 8 116075972.742 8      2576.359          51.000    22088515.414 7  90448808.393 7      2007.556          45.000
G30  20455527.375 8 107494539.617 8      -710.387          51.000    20455528.906 8  83761999.433 8      -553.545          51.000
R07  20725862.094 8 110947156.889 8     -2610.496          49.000    20725864.211 8  86292257.273 8     -2030.386          48.000
R08  19340789.398 8 103569076.455 8       869.113          48.000    19340790.234 7  80553700.892 7       675.977          45.000
R09  20147362.883 7 107585792.446 7     -2374.250          45.000    20147364.102 7  83677843.138 7     -1846.639          45.000
R10  19204887.461 8 102372836.161 8       755.449          49.000
R11  22395915.789 6 119676945.687 6      4082.645          37.000
C05  39789923.078 5 207196570.385 5         3.793          35.000    39789921.812 6 160217522.371 6         2.685          41.000
C20  21882097.156 8 113945808.872 8       116.902          51.000
E01  25341257.766 7 133169198.108 7      2635.598          47.000    25341259.172 8 102038808.677 8      2019.559          51.000
E19  24094734.297 8 126618685.004 8      -804.914          48.000    24094735.891 8  97019516.555 8      -616.728          49.000
E21  24015681.656 8 126203284.788 8        76.371          51.000    24015682.836 8  96701248.770 8        58.545          51.000
E27                                                                  26591754.477 5 107073975.381 5     -1853.867          31.000
> 2020 05 07 03 28 30.0000000  0 16        .000000000000
G05  20587646.758 8 108188808.092 8      -450.277          51.000    20587645.516 8  84302951.269 8      -350.865          51.000
G07  22175119.789 6 116531035.343 6     -2293.039          39.000    22175119.125 6  90803404.481 6     -1786.787          36.000
G28  22073840.508 8 115998843.986 8      2562.863          51.000    22073838.414 7  90388708.090 7      1997.039          46.000
G30  20459619.094 8 107516042.347 8      -725.652          51.000    20459620.750 8  83778754.827 8      -565.440          51.000
R07  20740530.898 8 111025681.035 8     -2627.047          49.000    20740533.422 8  86353331.593 8     -2043.259          49.000
R08  19335967.758 8 103543257.652 8       849.578          48.000    19335969.180 7  80533619.594 7       660.783          46.000
R09  20160750.445 7 107657280.892 7     -2394.344          44.000    20160751.297 7  83733445.235 7     -1862.267          45.000
R10  19200703.508 8 102350533.201 8       728.801          49.000
R11  22373019.008 6 119554580.288 6      4072.320          36.000    22373015.508 4  92986909.320 4      3167.357          27.000
C05                                                                  39789897.172 6 160217423.279 6         1.682          41.000
C20  21881460.789 8 113942495.103 8       101.445          51.000
C23  24166025.477 5 125838801.260 5     -2566.645          32.000
E01  25326230.133 7 133090235.283 7      2625.879          46.000    25326232.961 8 101978304.696 8      2012.034          51.000
E19  24099348.641 7 126642933.264 7      -814.262          47.000    24099349.992 8  97038096.385 8      -623.960          49.000
E21  24015283.250 8 126201191.688 8        60.531          51.000    24015284.641 8  96699644.987 8        46.429          51.000
E27                                                                  26605586.844 5 107129672.110 5     -1860.703          31.000
> 2020 05 07 03 29  0.0000000  0 16        .000000000000
G05  20590284.297 8 108202668.284 8      -471.391          51.000    20590282.820 8  84313751.428 8      -367.317          51.000
G07  22188243.758 6 116600000.894 6     -2301.527          37.000    22188241.430 5  90857143.814 5     -1793.404          35.000
G09  24512174.617 5 128812347.654 5     -3066.926          31.000
G28  22059256.070 8 115922198.760 8      2549.242          51.000    22059253.844 7  90328984.543 7      1986.422          46.000
G30  20463811.750 8 107538075.354 8      -740.867          51.000    20463813.414 8  83795923.399 8      -577.299          51.000
R07  20755307.453 8 111104779.262 8     -2643.750          51.000    20755309.617 8  86414852.434 8     -2056.250          48.000
R08  19331269.977 8 103518102.065 8       829.918          49.000    19331271.633 7  80514054.134 7       645.492          46.000
R09  20174264.805 7 107729448.366 7     -2414.430          44.000    20174266.055 7  83789575.526 7     -1877.890          45.000
R10  19196683.055 8 102329102.954 8       702.215          48.000
C05  39789895.680 5 207196427.635 5         1.234          35.000    39789894.391 6 160217411.988 6          .779          41.000
C20  21880927.680 8 113939719.073 8        85.938          51.000
C23  24180847.414 5 125915972.839 5     -2575.340          34.000
E01  25311272.898 7 133011638.925 7      2616.219          47.000    25311276.492 8 101918081.501 8      2004.707          51.000
E19  24104031.047 7 126667539.064 7      -823.570          47.000    24104032.023 8  97056950.155 8      -631.080          48.000
E21  24014989.203 8 126199646.572 8        44.848          51.000    24014990.703 8  96698461.075 8        34.376          51.000
E27  26619481.086 5 139886316.694 5     -2438.203          31.000
> 2020 05 07 03 29 30.0000000  0 12        .000000000000
G05  20592998.164 8 108216929.524 8      -502.777          51.000    20592996.695 8  84324864.067 8      -391.778          51.000
G28  22044706.023 8 115845735.713 8      2525.016          50.000    22044703.992 7  90269402.922 7      1967.545          45.000
G30  20468047.320 8 107560333.554 8      -766.387          51.000    20468049.141 8  83813267.463 8      -597.184          51.000
R07  20770133.234 8 111184141.230 8     -2670.867          50.000    20770135.133 8  86476578.393 8     -2077.344          48.000
R08  19326638.664 8 103493302.125 8       799.691          49.000    19326640.320 7  80494765.291 7       621.982          46.000
R09  20187848.141 7 107801982.784 7     -2445.000          42.000    20187849.484 7  83845991.191 7     -1901.667          44.000
R10  19192768.438 8 102308237.955 8       665.238          48.000
C05  39789856.914 5 207196225.434 5       -10.516          35.000    39789855.594 6 160217255.612 6        -8.110          41.000
C20  21880440.164 8 113937180.385 8        60.207          51.000
E01  25296328.844 8 132933106.543 8      2596.102          49.000    25296332.336 8 101857907.341 8      1989.245          51.000
E19  24108723.664 7 126692198.762 7      -843.465          47.000    24108724.453 8  97075845.221 8      -646.276          48.000
E21  24014741.594 8 126198345.237 8        18.684          51.000    24014743.172 8  96697463.954 8        14.346          51.000
> 2020 05 07 03 30  0.0000000  0 13        .000000000000
G05  20595900.008 8 108232177.168 8      -511.430          51.000    20595898.188 8  84336745.348 8      -398.517          51.000
G28  22030301.617 7 115770043.239 7      2523.406          47.000    22030300.867 7  90210421.748 7      1966.291          44.000
G30  20472436.875 8 107583401.815 8      -769.219          51.000    20472438.883 8  83831242.750 8      -599.391          51.000
R07  20785119.414 8 111264362.718 8     -2674.918          50.000    20785121.055 7  86538972.904 7     -2080.492          46.000
R08  19322186.062 8 103469457.176 8       792.465          50.000    19322187.398 7  80476219.216 7       616.362          47.000
R09  20201611.000 7 107875476.162 7     -2452.320          45.000    20201612.203 7  83903152.760 7     -1907.360          43.000
R10  19189071.422 8 102288531.724 8       650.879          48.000
R11  22304693.703 6 119189489.532 6      4041.535          38.000    22304704.875 5  92702946.358 5      3143.419          34.000
C05  39789893.648 5 207196416.427 5         -.062          35.000    39789892.312 6 160217403.276 6          .057          41.000
C20  21880110.086 8 113935460.554 8        56.789          51.000
E01  25281509.086 8 132855225.691 8      2598.312          50.000    25281512.156 8 101798232.400 8      1990.894          51.000
E19  24113538.047 7 126717499.090 7      -840.883          46.000    24113538.867 8  97095231.170 8      -644.289          49.000
E21  24014651.828 8 126197873.438 8        15.070          51.000    24014653.422 8  96697102.462 8        11.523          51.000
> 2020 05 07 03 30 30.0000000  0 13        .000000000000
G05  20598849.383 8 108247674.583 8      -525.898          51.000    20598847.234 8  84348821.258 8      -409.794          51.000
G28  22015903.477 7 115694387.815 7      2516.031          45.000    22015904.055 7  90151469.437 7      1960.544          44.000
G30  20476840.234 8 107606542.423 8      -777.688          50.000    20476842.242 8  83849274.400 8      -605.990          50.000
R07  20800125.375 7 111344692.174 7     -2684.820          47.000    20800126.867 7  86601451.376 7     -2088.194          45.000
R08  19317771.906 8 103445818.678 8       779.129          50.000    19317773.203 7  80457833.714 7       605.989          47.000
R09  20215413.320 6 107949176.907 6     -2465.477          41.000    20215414.289 7  83960475.527 7     -1917.593          42.000
R10  19185451.547 8 102269237.075 8       630.938          48.000
R11  22282007.648 6 119068246.361 6      4037.121          39.000    22282014.758 5  92608646.151 5      3139.983          34.000
C05  39789865.656 5 207196270.741 5         4.953          35.000    39789864.328 6 160217290.616 6         4.186          41.000
C20  21879797.125 8 113933830.552 8        47.707          51.000
E01  25266673.289 8 132777261.271 8      2595.047          50.000    25266676.070 8 101738493.429 8      1988.389          51.000
E19  24118334.070 7 126742703.600 7      -843.758          46.000    24118335.227 8  97114543.701 8      -646.480          49.000
E21  24014579.797 8 126197494.345 8         5.910          51.000    24014581.438 8  96696811.987 8         4.526          51.000
> 2020 05 07 03 31  0.0000000  0 14        .000000000000
G05  20601926.031 8 108263841.533 8      -548.945          51.000    20601923.789 8  84361418.892 8      -427.750          51.000
G07  22241117.477 5 116877845.035 5     -2330.926          32.000    22241116.938 5  91073663.184 5     -1816.306          31.000
G28  22001592.938 7 115619191.891 7      2500.090          46.000    22001594.094 7  90092875.245 7      1948.122          43.000
G30  20481337.086 8 107630174.164 8      -794.750          51.000    20481339.125 8  83867688.754 8      -619.286          51.000
R07  20815230.555 7 111425556.365 7     -2703.285          46.000    20815232.398 7  86664345.741 7     -2102.558          45.000
R08  19313476.539 8 103422817.033 8       757.211          50.000    19313478.031 7  80439943.543 7       588.942          47.000
R09  20229332.555 7 108023507.973 7     -2486.910          45.000    20229334.516 6  84018288.700 6     -1934.263          39.000
R10  19181989.070 8 102250780.613 8       602.391          49.000
R11  22259390.773 6 118947377.278 6      4023.867          38.000    22259392.750 5  92514636.860 5      3129.674          31.000
C05  39789852.859 6 207196204.663 6         2.285          36.000    39789851.609 6 160217239.535 6         1.480          41.000
C20  21879581.383 8 113932707.273 8        30.203          51.000
E01  25251901.500 8 132699634.719 8      2583.031          50.000    25251904.125 8 101679013.345 8      1979.170          50.000
E19  24123192.031 7 126768232.672 7      -855.176          47.000    24123193.625 8  97134104.936 8      -655.363          50.000
E21  24014605.039 8 126197627.588 8       -11.855          51.000    24014606.914 8  96696914.083 8        -9.060          51.000
> 2020 05 07 03 31 30.0000000  0 13        .000000000000
G05  20605107.719 8 108280562.068 8      -563.570          51.000    20605105.719 8  84374447.884 8      -439.146          51.000
G28  21987349.164 8 115544341.755 8      2492.234          48.000    21987349.500 7  90034550.489 7      1942.004          43.000
G30  20485905.188 8 107654179.907 8      -803.453          51.000    20485907.258 8  83886394.542 8      -626.067          51.000
R07  20830413.586 8 111506836.403 8     -2713.289          48.000    20830416.031 7  86727563.562 7     -2110.333          45.000
R08  19309278.352 8 103400336.052 8       743.699          51.000    19309279.828 7  80422458.322 7       578.433          47.000
R09  20243348.023 7 108098348.553 7     -2500.172          45.000    20243349.953 6  84076497.986 6     -1944.578          37.000
R10  19178661.727 8 102233043.824 8       582.344          49.000
R11  22236821.000 6 118826767.108 6      4019.004          38.000    22236818.414 4  92420828.921 4      3125.889          25.000
C05  39789833.477 6 207196103.302 6         6.930          36.000    39789832.141 6 160217161.135 6         5.283          41.000
C20  21879441.078 8 113931976.616 8        20.742          51.000
E01  25237172.148 8 132622231.541 8      2579.332          50.000    25237174.172 8 101619704.425 8      1976.341          49.000
E19  24128089.977 7 126793970.712 7      -858.574          47.000    24128092.102 8  97153826.276 8      -657.869          51.000
E21  24014705.531 8 126198156.908 8       -21.344          51.000    24014707.570 8  96697319.665 8       -16.336          51.000
> 2020 05 07 03 32  0.0000000  0 15        .000000000000
G05  20608402.875 8 108297879.784 8      -585.699          51.000    20608401.445 8  84387942.198 8      -456.389          51.000
G07  22267780.484 5 117017976.108 5     -2340.742          32.000
G28  21973180.617 8 115469884.268 8      2476.863          51.000    21973180.094 7  89976531.682 7      1930.026          42.000
G30  20490552.695 8 107678602.561 8      -819.496          51.000    20490554.477 8  83905425.193 8      -638.568          51.000
R07  20845683.328 8 111588576.113 8     -2730.809          50.000    20845685.805 7  86791138.886 7     -2123.962          45.000
R08  19305186.289 8 103378422.838 8       722.512          51.000    19305187.531 7  80405414.697 7       561.954          47.000
R09  20257466.305 7 108173739.773 7     -2520.625          45.000    20257467.672 5  84135135.666 5     -1960.483          34.000
R10  19175478.008 8 102216071.266 8       554.484          49.000
R11  22214306.914 5 118706463.718 5      4006.562          34.000
C05  39789815.727 5 207196011.423 5         4.820          35.000    39789814.305 6 160217089.334 6         3.295          41.000
C20  21879384.680 8 113931683.011 8         4.004          51.000
C23  24270544.930 5 126383099.307 5     -2614.680          30.000
E01  25222494.133 8 132545097.276 8      2568.078          51.000    25222494.961 8 101560601.564 8      1967.742          49.000
E19  24133036.125 7 126819962.194 7      -869.191          47.000    24133038.461 8  97173741.815 8      -665.941          51.000
E21  24014889.852 8 126199126.051 8       -38.180          51.000    24014891.914 8  96698062.248 8       -29.222          51.000
> 2020 05 07 03 32 30.0000000  0 15        .000000000000
G05  20611800.062 8 108315733.182 8      -605.227          51.000    20611798.883 8  84401853.954 8      -471.605          51.000
G13  21515647.711 5 113065491.717 5      2153.219          32.000
G28  21959075.617 8 115395760.233 8      2464.055          50.000    21959074.523 7  89918772.706 7      1920.043          43.000
G30  20495267.688 8 107703379.312 8      -832.926          51.000    20495269.180 8  83924731.768 8      -649.033          51.000
R07  20861027.648 8 111670711.501 8     -2745.621          51.000    20861029.828 7  86855021.941 7     -2135.483          47.000
R08  19301188.867 8 103357016.161 8       703.891          50.000    19301189.555 7  80388765.059 7       547.470          47.000
R09  20271675.906 7 108249616.003 7     -2538.285          45.000    20271678.227 5  84194150.578 5     -1974.219          31.000
R10  19172425.898 8 102199800.590 8       529.574          48.000
R11  22191839.023 6 118586407.245 6      3996.625          37.000    22191846.875 5  92233954.941 5      3108.489          31.000
C05  39789787.898 5 207195866.179 5         4.641          35.000    39789786.422 6 160216976.983 6         3.604          41.000
C20  21879400.617 8 113931766.175 8       -10.176          51.000
C23  24285632.258 5 126461628.071 5     -2621.340          34.000
E01  25207856.180 8 132468171.765 8      2559.562          51.000    25207855.984 8 101501658.662 8      1961.250          49.000
E19  24138018.805 8 126846145.832 8      -877.129          48.000    24138020.945 8  97193804.583 8      -672.068          51.000
E21  24015146.047 8 126200473.067 8       -52.293          51.000    24015148.289 8  96699094.373 8       -40.048          51.000
> 2020 05 07 03 33  0.0000000  0 17        .000000000000
G05  20615304.242 8 108334148.430 8      -622.062          51.000    20615303.156 8  84416203.512 8      -484.724          51.000
G09  24652800.461 5 129551344.440 5     -3087.309          31.000
G13  21503382.375 5 113001036.587 5      2149.098          30.000
G28  21945039.492 8 115321999.015 8      2453.797          50.000    21945038.055 7  89861296.442 7      1912.050          43.000
G30  20500054.977 8 107728535.647 8      -843.824          51.000    20500056.562 8  83944334.121 8      -657.525          51.000
R07  20876450.469 8 111753268.653 8     -2757.820          49.000    20876452.664 7  86919233.011 7     -2144.974          46.000
R08  19297291.383 8 103336146.031 8       687.871          50.000    19297291.891 7  80372532.732 7       535.011          47.000
R09  20285980.438 7 108326000.345 7     -2553.449          46.000
R10  19169510.180 8 102184258.241 8       506.992          48.000
R11  22169424.703 6 118466627.767 6      3989.305          39.000    22169423.234 5  92140793.163 5      3102.793          34.000
C05  39789754.984 5 207195694.802 5         7.012          35.000    39789753.516 6 160216844.442 6         5.781          41.000
C20  21879493.906 8 113932253.247 8       -21.895          51.000
C23  24300755.828 5 126540340.460 5     -2624.988          33.000
E01  25193263.547 8 132391483.131 8      2553.406          51.000    25193262.508 8 101442897.263 8      1956.548          50.000
E19  24143043.109 8 126872548.619 8      -882.520          48.000    24143045.164 8  97214035.280 8      -676.234          51.000
E21  24015479.164 8 126202224.231 8       -63.965          51.000    24015481.688 8  96700436.180 8       -49.009          51.000
E27  26732098.625 5 140478126.616 5     -2490.891          35.000
> 2020 05 07 03 33 30.0000000  0 16        .000000000000
G05  20618928.102 8 108353192.447 8      -645.051          51.000    20618926.984 8  84431043.012 8      -502.637          51.000
G09  24670450.367 5 129644091.320 5     -3094.668          33.000
G28  21931085.734 8 115248670.058 8      2437.262          48.000    21931084.023 7  89804156.999 7      1899.165          44.000
G30  20504926.883 8 107754137.256 8      -860.516          51.000    20504928.555 8  83964283.455 8      -670.532          51.000
R07  20891964.312 8 111836314.491 8     -2776.078          49.000    20891966.367 7  86983824.211 7     -2159.169          46.000
R08  19293507.289 8 103315882.750 8       665.570          51.000    19293507.992 8  80356772.397 8       517.666          48.000
R09  20300392.273 7 108402957.658 7     -2574.527          42.000    20300422.031 4  84313510.096 4     -2002.398          27.000
R10  19166743.641 8 102169511.822 8       478.633          48.000
R11  22147075.789 7 118347196.169 7      3975.434          42.000    22147072.531 6  92047901.967 6      3092.007          38.000
C05  39789729.883 5 207195563.822 5         3.586          35.000    39789728.414 6 160216743.176 6         3.072          41.000
C20  21879677.625 8 113933211.302 8       -39.570          51.000
C23  24315929.875 5 126619297.239 5     -2635.719          31.000
E01  25178728.961 8 132315099.761 8      2541.250          51.000    25178727.578 8 101384369.763 8      1947.233          51.000
E19  24148121.984 8 126899237.979 8      -894.242          48.000    24148124.047 8  97234485.549 8      -685.172          51.000
E21  24015901.906 8 126204446.146 8       -81.676          51.000    24015904.477 8  96702138.692 8       -62.568          51.000
E27  26746355.969 6 140553049.278 6     -2501.559          36.000
> 2020 05 07 03 34  0.0000000  0 16        .000000000000
G05  20622677.281 8 108372894.945 8      -668.988          51.000    20622675.969 8  84446395.596 8      -521.290          51.000
G07  22321561.961 5 117300627.946 5     -2373.367          34.000
G28  21917220.547 8 115175806.271 8      2419.703          49.000    21917218.750 7  89747380.056 7      1885.486          45.000
G30  20509889.008 8 107780213.257 8      -878.293          51.000    20509890.430 8  83984602.397 8      -684.384          51.000
R07  20907574.992 8 111919878.772 8     -2795.477          48.000    20907576.961 7  87048818.664 7     -2174.260          47.000
R08  19289842.492 8 103296258.698 8       642.141          51.000    19289843.383 8  80341509.238 8       499.443          48.000
R09  20314915.656 7 108480514.935 7     -2596.332          44.000    20314925.977 4  84373764.014 4     -2019.369          27.000
R10  19164132.242 8 102155591.925 8       448.945          48.000
R11  22124798.625 7 118228146.158 7      3960.781          43.000    22124794.836 6  91955307.585 6      3080.611          40.000
C05  39789718.219 5 207195503.735 5         -.840          35.000    39789716.758 6 160216696.278 6         -.338          41.000
C20  21879957.555 8 113934670.963 8       -58.320          51.000
C23  24331153.516 5 126698681.385 5     -2646.309          32.000
E01  25164258.109 8 132239053.289 8      2527.980          51.000    25164257.312 8 101326100.414 8      1937.015          51.000
E19  24153261.219 8 126926244.525 8      -906.785          48.000    24153263.203 8  97255178.882 8      -694.863          51.000
E21  24016419.969 8 126207168.629 8      -100.371          51.000    24016422.273 8  96704224.762 8       -76.941          51.000
E27  26760668.008 6 140628259.228 6     -2513.145          37.000
> 2020 05 07 03 34 30.0000000  0 16        .000000000000
G05  20626529.305 8 108393137.650 8      -683.059          51.000    20626527.961 8  84462169.106 8      -532.253          51.000
G07  22335130.820 5 117371906.678 5     -2374.355          35.000    22335133.422 4  91458637.110 4     -1850.147          26.000
G28  21903421.953 8 115103291.649 8      2412.016          51.000    21903419.953 7  89690875.176 7      1879.493          46.000
G30  20514918.680 8 107806644.115 8      -886.168          51.000    20514919.875 8  84005197.861 8      -690.520          51.000
R07  20923259.656 8 112003840.106 8     -2804.586          49.000    20923261.828 7  87114121.890 7     -2181.342          46.000
R08  19286274.945 8 103277155.736 8       628.805          50.000    19286275.836 8  80326651.383 8       489.070          48.000
R09  20329529.031 7 108558549.232 7     -2608.188          43.000    20329541.688 5  84434457.492 5     -2028.584          30.000
R10  19161653.188 8 102142377.868 8       429.336          48.000
R11  22102570.945 7 118109360.227 7      3955.699          42.000    22102566.352 6  91862918.607 6      3076.658          41.000
C05  39789697.531 5 207195395.816 5         5.262          35.000    39789696.109 6 160216613.240 6         4.051          41.000
C20  21880311.656 8 113936515.803 8       -67.242          51.000
C23  24346402.852 5 126778063.973 5     -2648.062          33.000
E01  25149828.695 8 132163226.930 8      2524.570          51.000    25149829.102 8 101267999.724 8      1934.405          51.000
E19  24158438.289 7 126953450.072 7      -909.273          47.000    24158440.086 8  97276024.695 8      -696.806          51.000
E21  24017010.836 8 126210273.059 8      -109.129          51.000    24017012.953 8  96706603.489 8       -83.630          51.000
E27  26775011.164 6 140703634.619 6     -2514.418          37.000
> 2020 05 07 03 35  0.0000000  0 16        .000000000000
G05  20630448.578 8 108413733.509 8      -701.914          51.000    20630446.945 8  84478217.818 8      -546.949          51.000
G07  22348675.547 5 117443059.283 5     -2380.422          34.000    22348681.344 5  91514114.485 5     -1854.874          34.000
G28  21889654.797 8 115030941.958 8      2399.332          51.000    21889652.469 7  89634498.804 7      1869.609          46.000
G30  20519980.164 8 107833241.790 8      -898.746          51.000    20519981.336 8  84025923.333 8      -700.322          51.000
R07  20938983.320 8 112088006.579 8     -2818.652          51.000    20938985.070 7  87179584.721 7     -2192.285          47.000
R08  19282769.586 8 103258385.522 8       610.379          50.000    19282770.586 8  80312052.330 8       474.739          48.000
R09  20344194.922 6 108636863.458 6     -2624.844          39.000    20344190.750 4  84495327.939 4     -2041.548          24.000
R10  19159270.969 8 102129679.497 8       405.051          48.000
R11  22080357.125 7 117990651.657 7      3946.020          43.000    22080351.922 6  91770589.773 6      3069.129          40.000
C05  39789632.430 5 207195056.655 5         6.098          35.000    39789630.977 6 160216350.975 6         4.470          41.000
C20  21880704.375 8 113938561.421 8       -80.980          51.000
C23  24361643.508 5 126857413.105 5     -2653.629          31.000
E01  25135405.516 8 132087435.252 8      2516.277          51.000    25135407.180 8 101209925.599 8      1928.030          51.000
E19  24163617.789 7 126980668.330 7      -917.094          46.000    24163619.438 8  97296880.242 8      -702.678          51.000
E21  24017638.664 8 126213572.236 8      -122.754          51.000    24017640.641 8  96709131.438 8       -94.052          51.000
E27  26789349.922 6 140778986.932 6     -2520.777          36.000
> 2020 05 07 03 35 30.0000000  0 15        .000000000000
G05  20634543.359 8 108435252.412 8      -743.961          51.000    20634541.766 8  84494985.786 8      -579.710          51.000
G28  21876028.000 8 114959330.327 8      2363.484          51.000    21876025.297 7  89578697.547 7      1841.676          46.000
G30  20525181.898 8 107860575.800 8      -934.652          51.000    20525182.844 8  84047222.564 8      -728.301          51.000
R07  20954853.594 8 112172958.837 8     -2856.312          51.000    20954855.148 7  87245658.670 7     -2221.579          46.000
R08  19279435.297 8 103240531.063 8       568.246          50.000    19279436.562 8  80298165.522 8       441.969          48.000
R09  20359024.172 7 108716056.596 7     -2665.031          43.000    20359022.008 4  84556909.021 4     -2072.805          29.000
R10  19157094.109 8 102118075.815 8       357.148          48.000
R11  22058265.781 7 117872603.145 7      3912.492          43.000    22058260.641 6  91678774.311 6      3043.049          38.000
C05  39789631.477 5 207195051.283 5       -16.746          35.000    39789629.906 6 160216346.787 6       -12.683          41.000
C20  21881244.203 8 113941373.968 8      -117.703          51.000
C23  24376984.695 5 126937292.653 5     -2683.461          31.000
E01  25121097.648 8 132012250.420 8      2484.867          51.000    25121100.219 8 101152316.458 8      1903.929          51.000
E19  24168908.359 7 127008470.324 7      -947.754          46.000    24168909.766 8  97318183.072 8      -726.147          50.000
E21  24018412.102 8 126217636.393 8      -159.434          51.000    24018413.711 8  96712245.542 8      -122.148          51.000
E27  26803792.680 5 140854885.235 5     -2550.160          35.000
> 2020 05 07 03 36  0.0000000  0 15        .000000000000
G05  20638761.055 8 108457417.377 8      -740.820          51.000    20638759.781 8  84512257.173 8      -577.263          51.000
G28  21862489.398 8 114888182.707 8      2372.586          51.000    21862485.891 7  89523257.847 7      1848.768          46.000
G30  20530470.797 8 107888368.264 8      -925.391          51.000    20530471.492 8  84068879.043 8      -721.084          51.000
R07  20970817.719 8 112258413.476 8     -2847.961          51.000    20970818.477 7  87312123.337 7     -2215.084          43.000
R08  19276219.906 8 103223313.143 8       572.203          49.000    19276221.258 8  80284773.798 8       445.047          48.000
R09  20373957.867 6 108795808.882 6     -2659.195          41.000    20373966.516 5  84618938.619 5     -2068.260          33.000
R10  19155069.766 8 102107285.295 8       354.992          48.000
R11  22036245.500 6 117754936.645 6      3924.688          40.000    22036241.531 6  91587255.979 6      3052.538          36.000
C05  39789641.961 5 207195106.584 5         5.906          35.000    39789640.352 6 160216388.809 6         4.404          41.000
C20  21881878.922 8 113944680.104 8      -109.875          51.000
C23  24392373.445 4 127017488.615 4     -2666.852          29.000
E01  25106853.273 8 131937397.248 8      2498.273          51.000    25106855.781 8 101094961.454 8      1914.306          51.000
E19  24174257.523 7 127036579.929 7      -933.367          46.000    24174258.633 8  97339721.632 8      -715.234          50.000
E21  24019278.359 8 126222188.585 8      -151.102          51.000    24019280.102 8  96715733.597 8      -115.776          51.000
E27  26818286.195 6 140931051.264 6     -2534.848          36.000    26818290.328 5 107986143.123 5     -1942.013          34.000
> 2020 05 07 03 36 30.0000000  0 16        .000000000000
G05  20643054.211 8 108479978.707 8      -762.859          51.000    20643053.273 8  84529837.429 8      -594.436          51.000
G07  22389697.398 5 117658653.862 5     -2403.066          32.000
G28  21848991.805 8 114817251.789 8      2356.555          51.000    21848987.453 7  89467986.993 7      1836.276          45.000
G30  20535799.039 8 107916368.299 8      -940.945          51.000    20535799.828 8  84090697.262 8      -733.201          51.000
R07  20986827.492 8 112344114.911 8     -2865.051          50.000    20986827.062 6  87378779.939 6     -2228.376          40.000
R08  19273076.383 8 103206479.163 8       550.582          49.000    19273077.914 8  80271680.699 8       428.230          48.000
R09  20388951.961 6 108875879.213 6     -2678.535          41.000    20388961.781 5  84681215.547 5     -2083.308          31.000
R10  19153150.469 8 102097054.290 8       327.500          48.000
R11  22014250.453 6 117637401.155 6      3911.988          38.000    22014247.766 5  91495839.525 5      3042.658          34.000
C05  39789616.297 5 207194973.354 5         3.520          35.000    39789614.844 6 160216285.743 6         2.519          40.000
C20  21882561.242 8 113948232.995 8      -126.707          51.000
C23  24407759.539 5 127097626.726 5     -2675.516          34.000
E01  25092625.086 8 131862627.426 8      2486.707          51.000    25092626.914 8 101037670.333 8      1905.351          51.000
E19  24179617.781 7 127064747.707 7      -944.023          45.000    24179618.594 8  97361304.770 8      -723.358          50.000
E21  24020189.953 8 126226978.604 8      -167.809          51.000    24020191.812 8  96719403.891 8      -128.572          51.000
E27  26832782.648 6 141007233.573 6     -2543.973          36.000    26832786.789 6 108044516.552 6     -1949.239          36.000
> 2020 05 07 03 37  0.0000000  0 15        .000000000000
G05  20647464.641 8 108503155.820 8      -781.715          51.000    20647464.016 8  84547897.527 8      -609.128          51.000
G28  21835577.156 8 114746760.219 8      2343.480          51.000    21835573.117 7  89413058.498 7      1826.089          45.000
G30  20541208.477 8 107944794.725 8      -953.473          51.000    20541209.453 8  84112847.721 8      -742.966          51.000
R07  21002924.500 8 112430286.352 8     -2878.977          49.000    21002923.312 7  87445802.074 7     -2239.204          42.000
R08  19270046.648 8 103190255.497 8       531.730          48.000    19270048.172 8  80259062.293 8       413.568          48.000
R09  20404047.352 6 108956487.490 6     -2694.984          37.000    20404051.531 5  84743910.862 5     -2096.096          31.000
R10  19151377.719 7 102087605.261 7       303.078          47.000
R11  21992323.062 5 117520223.347 5      3901.086          34.000    21992320.750 5  91404701.275 5      3034.181          33.000
C05  39789596.555 5 207194869.618 5         4.344          35.000    39789595.141 6 160216206.305 6         3.078          41.000
C20  21883332.922 8 113952251.364 8      -140.582          51.000
C23  24423186.633 5 127177987.399 5     -2681.668          33.000
E01  25078455.109 8 131788162.401 8      2478.211          51.000    25078456.391 8 100980612.750 8      1898.859          51.000
E19  24185030.711 7 127093194.076 7      -951.758          45.000    24185031.641 8  97383101.349 8      -729.257          51.000
E21  24021188.648 8 126232226.088 8      -181.387          51.000    24021190.039 8  96723424.708 8      -138.988          51.000
E27  26847323.688 5 141083650.636 5     -2550.133          35.000    26847327.859 6 108103069.851 6     -1953.992          37.000
> 2020 05 07 03 37 30.0000000  0 14        .000000000000
G05  20651980.547 8 108526887.065 8      -805.543          51.000    20651980.367 8  84566389.412 8      -627.696          51.000
G28  21822234.422 8 114676649.368 8      2325.406          50.000    21822231.797 7  89358426.668 7      1812.005          44.000
G30  20546687.062 8 107973585.348 8      -970.941          51.000    20546688.219 8  84135281.970 8      -756.578          51.000
R07  21019096.953 7 112516864.309 7     -2897.906          46.000    21019096.836 7  87513140.469 7     -2253.927          44.000
R08  19267119.719 8 103174581.694 8       507.867          48.000    19267121.281 8  80246871.554 8       395.008          48.000
R09  20419230.625 6 109037568.630 6     -2715.828          40.000    20419234.922 5  84806974.009 5     -2112.311          31.000
R10  19149740.188 8 102078876.067 8       273.672          48.000
R11  21970450.023 5 117403343.689 5      3885.832          31.000    21970448.609 5  91313794.959 5      3022.323          32.000
C05  39789570.938 5 207194735.997 5          .004          35.000    39789569.633 6 160216103.737 6         -.072          41.000
C20  21884182.445 8 113956675.437 8      -159.445          51.000
E01  25064331.914 8 131713942.625 8      2464.703          51.000    25064333.133 8 100923743.071 8      1888.539          51.000
E19  24190485.242 7 127121858.276 7      -964.285          46.000    24190486.125 8  97405064.848 8      -738.919          51.000
E21  24022262.516 8 126237869.619 8      -200.004          51.000    24022263.766 8  96727748.972 8      -153.184          51.000
E27  26861897.625 6 141160239.763 6     -2561.066          36.000    26861901.758 6 108161755.002 6     -1962.265          38.000
> 2020 05 07 03 38  0.0000000  0 14        .000000000000
G05  20656619.164 8 108551263.887 8      -820.609          50.000    20656619.297 8  84585384.340 8      -639.436          50.000
G28  21808982.453 8 114607013.082 8      2315.934          50.000    21808980.836 7  89304164.610 7      1804.624          44.000
G30  20552252.180 8 108002830.644 8      -979.648          51.000    20552253.297 8  84158070.513 8      -763.362          51.000
R07  21035361.320 7 112603940.999 7     -2908.102          44.000    21035364.336 7  87580866.824 7     -2261.854          46.000
R08  19264313.352 7 103159553.503 7       492.898          47.000    19264314.547 7  80235182.969 7       383.365          47.000
R09  20434519.711 6 109119212.348 6     -2727.926          37.000    20434521.773 5  84870474.642 5     -2121.723          30.000
R10  19148255.078 8 102070959.088 8       253.141          49.000
R11  21948639.523 5 117286895.860 5      3878.680          32.000    21948636.859 5  91223148.735 5      3016.754          31.000
C05  39789557.211 5 207194665.582 5         4.344          35.000    39789555.961 6 160216048.519 6         3.223          41.000
C20  21885127.438 8 113961596.788 8      -169.660          51.000
E01  25050272.992 8 131640061.212 8      2459.793          51.000    25050274.531 8 100867132.645 8      1884.776          51.000
E19  24195998.812 7 127150832.563 7      -968.359          46.000    24195999.492 8  97427265.933 8      -741.930          50.000
E21  24023429.109 8 126244000.462 8      -209.801          51.000    24023430.680 8  96732446.643 8      -160.732          51.000
E27  26876521.516 6 141237091.103 6     -2563.574          36.000    26876525.820 6 108220641.080 6     -1964.153          39.000
> 2020 05 07 03 38 30.0000000  0 16        .000000000000
G05  20661358.758 8 108576171.146 8      -837.883          50.000    20661358.914 8  84604792.580 8      -652.896          50.000
G07  22444823.500 4 117948337.438 4     -2425.371          29.000
G28  21795799.844 8 114537739.010 8      2304.223          50.000    21795799.211 7  89250184.856 7      1795.501          46.000
G30  20557881.859 8 108032414.318 8      -990.559          51.000    20557882.617 8  84181122.720 8      -771.864          51.000
R07  21051697.672 7 112691397.956 7     -2920.465          46.000    21051703.008 8  87648888.936 8     -2271.473          48.000
R08  19261605.766 7 103145055.232 7       475.594          47.000    19261606.766 7  80223906.544 7       369.909          47.000
R09  20449891.562 5 109201298.031 5     -2742.230          35.000    20449892.102 5  84934319.009 5     -2132.846          31.000
R10  19146900.523 8 102063737.131 8       230.285          49.000
R11  21926891.953 5 117170691.190 5      3869.988          35.000    21926889.508 5  91132767.426 5      3009.997          31.000
C05  39789533.453 6 207194541.441 6         6.523          36.000    39789532.148 6 160215952.516 6         4.791          41.000
C20  21886146.414 8 113966902.033 8      -182.086          51.000
C23  24469684.133 5 127420064.829 5     -2697.988          31.000
E01  25036256.383 8 131566404.512 8      2452.520          50.000    25036258.633 8 100810694.397 8      1879.275          51.000
E19  24201549.461 7 127180002.125 7      -974.406          46.000    24201550.023 8  97449616.654 8      -746.710          50.000
E21  24024666.414 8 126250503.068 8      -221.816          51.000    24024668.297 8  96737429.167 8      -169.963          51.000
E27  26891173.211 6 141314069.885 6     -2567.793          36.000    26891177.805 6 108279638.621 6     -1967.536          40.000
> 2020 05 07 03 39  0.0000000  0 15        .000000000000
G05  20666204.367 8 108601634.071 8      -859.422          50.000    20666204.367 8  84624633.812 8      -669.679          50.000
G28  21782691.992 8 114468856.280 8      2288.188          50.000    21782691.922 7  89196510.037 7      1783.003          46.000
G30  20563580.672 8 108062361.285 8     -1005.691          51.000    20563581.102 8  84204458.027 8      -783.656          51.000
R07  21068111.469 8 112779260.482 8     -2936.895          48.000    21068117.117 8  87717226.431 8     -2284.254          48.000
R08  19259002.977 7 103131115.708 7       453.934          47.000    19259003.586 7  80213064.720 7       353.059          47.000
R09  20465350.797 5 109283848.604 5     -2760.156          32.000    20465353.203 5  84998525.134 5     -2146.779          32.000
R10  19145681.047 8 102057235.562 8       203.305          50.000
R11  21905203.969 6 117054796.454 6      3856.828          37.000    21905202.945 5  91042627.170 5      2999.758          31.000
C05  39789504.477 6 207194390.520 6         4.328          36.000    39789503.180 6 160215835.774 6         3.301          41.000
C20  21887244.258 8 113972617.746 8      -198.793          51.000
C23  24485254.023 5 127501123.230 5     -2706.004          35.000
E01  25022286.641 7 131493000.127 7      2441.223          47.000    25022290.625 8 100754449.470 8      1870.562          51.000
E19  24207142.273 7 127209393.441 7      -984.707          47.000    24207142.969 8  97472137.279 8      -754.462          50.000
E21  24025979.367 8 126257403.152 8      -237.934          51.000    24025981.344 8  96742716.259 8      -182.328          51.000
E27  26905857.641 6 141391236.765 6     -2576.457          37.000    26905862.242 6 108338766.445 6     -1974.210          39.000
> 2020 05 07 03 39 30.0000000  0 15        .000000000000
G05  20671165.047 8 108627701.919 8      -878.750          50.000    20671164.703 8  84644946.415 8      -684.740          50.000
G28  21769668.367 8 114400416.504 8      2274.363          50.000    21769668.430 7  89143180.374 7      1772.231          46.000
G30  20569357.766 8 108092720.122 8     -1018.520          51.000    20569358.289 8  84228114.284 8      -793.649          51.000
R07  21084611.219 8 112867578.312 8     -2951.074          51.000    21084616.078 7  87785918.059 7     -2295.280          47.000
R08  19256513.023 7 103117787.385 7       434.309          44.000    19256514.633 7  80202698.249 7       337.793          46.000
R09  20480906.180 6 109366911.483 6     -2776.859          39.000    20480909.469 4  85063129.630 4     -2159.786          28.000
R10  19144605.898 8 102051504.483 8       178.562          50.000
R11  21883584.055 6 116939264.972 6      3845.500          40.000    21883581.320 4  90952769.361 4      2990.944          28.000
C05  39789479.969 5 207194262.227 5         4.203          35.000    39789478.516 6 160215736.571 6         3.253          41.000
C20  21888430.438 8 113978793.795 8      -213.176          51.000
C23  24500862.742 5 127582386.244 5     -2712.266          34.000
E01  25008373.516 7 131419899.163 7      2432.176          44.000    25008379.914 8 100698437.032 8      1863.498          51.000
E19  24212786.961 7 127239056.746 7      -992.742          47.000    24212787.875 8  97494866.311 8      -760.756          50.000
E21  24027377.461 8 126264749.985 8      -251.879          51.000    24027379.438 8  96748345.661 8      -193.007          51.000
E27  26920583.977 6 141468621.725 6     -2582.988          37.000    26920588.125 6 108398061.402 6     -1979.041          40.000
> 2020 05 07 03 40  0.0000000  0 15        .000000000000
G05  20676237.133 8 108654356.390 8      -897.762          49.000    20676236.672 8  84665716.118 8      -699.558          49.000
G28  21756725.914 8 114332403.852 8      2260.414          49.000    21756725.852 7  89090183.490 7      1761.362          45.000
G30  20575209.625 8 108123471.522 8     -1031.176          51.000    20575210.070 8  84252076.418 8      -803.514          51.000
R07  21101192.188 8 112956331.401 8     -2965.285          51.000    21101195.820 7  87854948.242 7     -2306.333          46.000
R08  19254135.188 7 103105053.962 7       414.852          46.000    19254136.562 7  80192794.482 7       322.665          46.000
R09  20496554.727 5 109450464.917 5     -2792.840          35.000    20496552.211 4  85128125.427 4     -2172.215          29.000
R10  19143671.562 8 102046524.658 8       153.797          49.000
R11  21862029.156 7 116824081.217 7      3834.023          42.000    21862025.344 4  90863138.041 4      2982.021          27.000
C05  39789456.367 5 207194139.811 5         4.660          35.000    39789454.797 6 160215641.124 6         3.486          41.000
C20  21889701.562 8 113985412.963 8      -227.637          51.000
C23  24516504.602 5 127663834.228 5     -2717.637          34.000
E01  24994516.484 7 131347084.978 7      2422.723          47.000    24994523.219 8 100642644.325 8      1856.432          51.000
E19  24218480.180 8 127268974.210 8     -1001.082          48.000    24218481.266 8  97517790.083 8      -767.078          50.000
E21  24028856.875 8 126272525.028 8      -265.852          51.000    24028859.125 8  96754303.184 8      -203.728          51.000
E27  26935348.258 6 141546205.142 6     -2588.910          39.000    26935351.680 6 108457508.416 6     -1983.728          40.000
> 2020 05 07 03 40 30.0000000  0 14        .000000000000
G05  20681420.375 8 108681594.686 8      -917.414          50.000    20681419.844 8  84686940.759 8      -714.868          50.000
G28  21743864.695 8 114264819.228 8      2245.910          48.000    21743864.148 7  89037520.131 7      1750.060          42.000
G30  20581135.555 8 108154612.434 8     -1044.172          51.000    20581135.508 8  84276342.055 8      -813.640          51.000
R07  21117853.594 8 113045516.890 8     -2979.746          51.000    21117856.062 7  87924314.706 7     -2317.580          45.000
R08  19251868.367 7 103092915.159 7       394.910          45.000    19251869.477 7  80183353.233 7       307.152          46.000
R10  19142877.766 8 102042293.831 8       128.867          49.000
R11  21840539.531 7 116709246.334 7      3822.328          44.000    21840558.008 4  90773860.277 4      2972.922          27.000
C05  39789433.289 5 207194020.006 5         3.953          35.000    39789431.695 6 160215548.076 6         3.268          40.000
C20  21891057.672 8 113992474.062 8      -242.430          51.000
C23  24532179.523 5 127745463.767 5     -2724.559          32.000
E01  24980715.508 8 131274557.109 8      2413.129          50.000    24980720.859 8 100587071.028 8      1849.027          51.000
E19  24224221.625 8 127299144.431 8     -1009.445          48.000    24224222.844 8  97540907.513 8      -773.504          49.000
E21  24030417.484 8 126280725.980 8      -280.117          51.000    24030419.789 8  96760587.038 8      -214.653          51.000
E27  26950149.570 6 141623983.598 6     -2595.426          39.000    26950152.281 6 108517104.850 6     -1988.760          40.000
> 2020 05 07 03 41  0.0000000  0 15        .000000000000
G05  20686715.320 8 108709419.331 8      -937.672          50.000    20686714.914 8  84708622.299 8      -730.653          50.000
G28  21731085.977 8 114197667.678 8      2230.684          48.000    21731084.188 6  88985194.249 6      1738.195          41.000
G30  20587135.852 8 108186144.346 8     -1058.055          51.000    20587135.742 8  84300912.388 8      -824.458          51.000
R07  21134595.938 8 113135136.125 8     -2994.945          51.000    21134597.125 7  87994018.482 7     -2329.405          43.000
R08  19249713.375 7 103081376.042 7       374.094          46.000    19249714.727 7  80174378.358 7       290.962          46.000
R09  20528124.156 6 109619044.998 6     -2826.242          39.000    20528117.812 4  85259226.083 4     -2198.194          27.000
R10  19142224.516 8 102038813.444 8       103.004          48.000
R11  21819116.891 7 116594765.784 7      3809.574          45.000    21819127.922 5  90684873.809 5      2963.005          31.000
C05  39789411.328 5 207193905.227 5         3.172          35.000    39789409.766 6 160215459.698 6         2.598          41.000
C20  21892499.352 8 113999980.389 8      -258.113          51.000
C23  24547888.742 4 127827298.906 4     -2731.152          29.000
E01  24966970.578 8 131202319.698 8      2402.637          51.000    24966973.594 8 100531720.320 8      1840.948          51.000
E19  24230011.758 8 127329570.745 8     -1018.941          49.000    24230012.758 8  97564221.193 8      -780.756          49.000
E21  24032059.602 8 126289355.079 8      -295.215          51.000    24032061.789 8  96767198.961 8      -226.239          51.000
E27  26964988.195 6 141701958.217 6     -2602.910          40.000    26964990.211 6 108576851.597 6     -1994.378          40.000
> 2020 05 07 03 41 30.0000000  0 15        .000000000000
G05  20692115.211 8 108737794.894 8      -955.727          50.000    20692114.945 8  84730733.126 8      -744.722          50.000
G28  21718383.688 8 114130916.508 8      2217.637          48.000    21718380.438 7  88933180.365 7      1728.032          42.000
G30  20593203.617 8 108218030.823 8     -1069.453          51.000    20593203.922 8  84325759.012 8      -833.337          51.000
R07  21151412.016 8 113225151.887 8     -3007.730          50.000    21151412.164 7  88064030.675 7     -2339.349          44.000
R08  19247664.117 7 103070402.383 7       355.582          47.000    19247665.375 7  80165843.294 7       276.564          45.000
R09  20544039.055 5 109704013.035 5     -2840.438          32.000    20544029.367 5  85325311.687 5     -2209.229          30.000
R10  19141705.227 7 102036047.374 7        79.559          47.000
R11  21797754.414 7 116480606.620 7      3799.398          45.000    21797762.484 5  90596083.376 5      2955.091          34.000
C05  39789383.797 5 207193762.150 5         4.992          35.000    39789382.320 6 160215349.053 6         3.673          41.000
C20  21894019.742 8 114007897.630 8      -271.398          51.000
C23  24563628.242 5 127909255.992 5     -2735.195          32.000
E01  24953274.281 8 131130338.967 8      2394.340          51.000    24953275.367 8 100476566.284 8      1834.639          51.000
E19  24235844.000 8 127360217.965 8     -1026.004          50.000    24235844.805 8  97587704.116 8      -786.066          49.000
E21  24033776.352 8 126298376.623 8      -307.961          51.000    24033778.547 8  96774111.586 8      -235.958          51.000
E27  26979857.047 6 141780092.160 6     -2607.766          40.000    26979858.469 6 108636720.431 6     -1998.110          40.000
> 2020 05 07 03 42  0.0000000  0 15        .000000000000
G05  20697626.492 8 108766755.697 8      -974.668          50.000    20697625.914 8  84753300.008 8      -759.478          50.000
G28  21705764.961 8 114064603.411 8      2203.539          50.000    21705761.516 7  88881507.808 7      1717.043          43.000
G30  20599345.250 8 108250306.066 8     -1081.992          51.000    20599345.852 8  84350908.555 8      -843.111          51.000
R07  21168307.898 8 113315599.168 8     -3021.605          48.000    21168308.602 7  88134378.491 7     -2350.141          46.000
R08  19245727.711 8 103060032.179 8       336.012          48.000    19245728.828 7  80157777.580 7       261.339          46.000
R09  20560032.578 5 109789455.464 5     -2854.797          31.000    20560036.234 5  85391774.348 5     -2220.398          32.000
R10  19141326.516 7 102034030.383 7        55.238          47.000
R11  21776458.992 7 116366807.553 7      3787.668          43.000    21776461.344 6  90507573.031 6      2945.967          36.000
C05  39789357.508 6 207193624.516 6         5.270          36.000    39789356.141 6 160215243.361 6         3.809          41.000
C20  21895625.789 8 114016261.450 8      -285.801          51.000
C23  24579403.305 5 127991393.315 5     -2740.270          30.000
E01  24939633.367 8 131058651.636 8      2385.184          51.000    24939633.719 8 100421637.079 8      1827.542          51.000
E19  24241725.047 8 127391121.720 8     -1033.918          50.000    24241725.961 8  97611383.597 8      -792.280          49.000
E21  24035574.656 8 126307825.462 8      -321.582          51.000    24035576.609 8  96781351.623 8      -246.434          51.000
E27  26994762.531 6 141858419.246 6     -2613.711          40.000    26994763.602 6 108696737.246 6     -2002.570          40.000
> 2020 05 07 03 42 30.0000000  0 14        .000000000000
G05  20703255.695 8 108796337.161 8      -995.562          50.000    20703255.117 8  84776350.476 8      -775.766          50.000
G28  21693237.039 8 113998766.754 8      2187.430          51.000    21693234.570 7  88830206.504 7      1704.491          45.000
G30  20605567.359 8 108283004.952 8     -1096.117          51.000    20605568.203 8  84376388.231 8      -854.114          51.000
R07  21185291.156 8 113406513.006 8     -3037.383          49.000    21185292.859 8  88205089.278 8     -2362.406          48.000
R08  19243910.984 7 103050303.955 7       314.441          47.000    19243912.141 7  80150211.175 7       244.566          45.000
R09  20576129.797 6 109875411.912 6     -2873.254          36.000    20576137.492 5  85458629.362 5     -2234.756          32.000
R10  19141094.930 7 102032798.097 7        28.852          47.000
R11  21755237.852 6 116253408.259 6      3774.316          40.000    21755237.203 6  90419373.637 6      2935.582          38.000
C05  39789339.445 5 207193531.171 5         3.840          35.000    39789338.102 6 160215170.421 6         2.477          41.000
C20  21897324.562 8 114025108.245 8      -302.113          51.000
E01  24926055.258 8 130987295.255 8      2373.902          51.000    24926055.570 8 100366961.434 8      1818.967          51.000
E19  24247661.781 8 127422318.859 8     -1043.938          49.000    24247662.711 8  97635287.885 8      -799.831          48.000
E21  24037460.977 8 126317737.231 8      -337.207          51.000    24037462.570 8  96788946.367 8      -258.361          51.000
E27  27009711.125 6 141936973.954 6     -2621.199          40.000    27009712.109 6 108756928.496 6     -2008.541          40.000
> 2020 05 07 03 43  0.0000000  0 13        .000000000000
G05  20708983.461 8 108826435.598 8     -1011.426          51.000    20708982.547 8  84799803.799 8      -788.124          51.000
G28  21680780.766 8 113933305.788 8      2176.164          51.000    21680778.922 7  88779197.965 7      1695.712          46.000
G30  20611850.391 8 108316023.237 8     -1105.527          51.000    20611851.383 8  84402116.759 8      -861.450          51.000
R07  21202341.938 8 113497787.061 8     -3047.914          48.000    21202344.773 8  88276080.212 8     -2370.600          48.000
R08  19242194.969 8 103041114.651 8       297.738          49.000    19242196.250 7  80143063.923 7       231.574          45.000
R10  19140991.203 7 102032245.290 7         7.574          47.000
R11  21734081.320 5 116140339.835 5      3765.219          31.000    21734072.484 6  90331339.438 6      2928.503          40.000
C05  39789309.914 5 207193377.244 5         6.430          35.000    39789308.578 6 160215051.331 6         5.189          41.000
C20  21899096.703 8 114034336.470 8      -313.477          51.000
E01  24912520.914 8 130916168.160 8      2367.527          51.000    24912521.289 8 100312461.464 8      1814.124          51.000
E19  24253634.750 8 127453706.591 8     -1048.828          49.000    24253635.453 8  97659338.224 8      -803.707          48.000
E21  24039415.617 8 126328008.349 8      -347.875          51.000    24039416.938 8  96796816.466 8      -266.506          51.000
E27  27024683.102 6 142015651.742 6     -2624.449          40.000    27024684.094 6 108817214.017 6     -2010.535          39.000
> 2020 05 07 03 43 30.0000000  0 13        .000000000000
G05  20714820.875 8 108857111.115 8     -1033.520          51.000    20714819.742 8  84823706.816 8      -805.340          51.000
G28  21668407.875 8 113868283.476 8      2158.660          51.000    21668406.484 7  88728531.251 7      1682.076          46.000
G30  20618205.555 8 108349420.209 8     -1120.887          51.000    20618206.656 8  84428140.382 8      -873.418          51.000
R07  21219471.094 7 113589482.101 7     -3064.969          47.000    21219474.617 8  88347398.564 8     -2383.865          48.000
R08  19240591.750 8 103032527.715 8       274.617          49.000    19240593.125 7  80136385.189 7       213.588          46.000
R10  19141026.438 8 102032432.693 8       -19.980          48.000
R11  21712975.969 5 116027596.098 5      3750.246          33.000    21712976.742 7  90243654.857 7      2916.861          42.000
C05  39789280.422 5 207193223.732 5         4.008          35.000    39789279.117 6 160214932.632 6         2.839          41.000
C20  21900953.859 8 114044006.662 8      -331.129          51.000
E01  24899041.984 8 130845332.265 8      2354.863          51.000    24899042.227 8 100258184.611 8      1804.376          51.000
E19  24259655.484 8 127485345.851 8     -1060.250          48.000    24259656.094 8  97683581.300 8      -812.489          48.000
E21  24041450.102 8 126338698.862 8      -364.812          51.000    24041451.242 8  96805007.918 8      -279.541          51.000
E27  27039689.609 6 142094511.486 6     -2632.969          39.000    27039690.672 6 108877638.995 6     -2017.544          39.000
> 2020 05 07 03 44  0.0000000  0 14        .000000000000
G05  20720773.711 8 108888395.160 8     -1051.832          51.000    20720772.914 8  84848083.985 8      -819.609          51.000
G07  22599362.094 5 118760448.446 5     -2492.664          34.000
G28  21656124.898 8 113803734.282 8      2144.859          51.000    21656123.078 7  88678233.200 7      1671.322          44.000
G30  20624638.680 8 108383226.817 8     -1132.551          51.000    20624639.719 8  84454483.211 8      -882.504          51.000
R07  21236684.945 8 113681629.295 8     -3077.992          50.000    21236688.344 8  88419068.616 8     -2393.994          48.000
R08  19239107.023 8 103024577.887 8       255.449          49.000    19239108.914 7  80130201.967 7       198.683          46.000
R10  19141206.641 8 102033391.510 8       -43.641          48.000
R11  21691949.406 7 115915254.532 7      3739.246          43.000    21691954.938 7  90156278.137 7      2908.303          43.000
C05  39789257.148 5 207193102.851 5         5.090          35.000    39789255.906 6 160214839.155 6         3.588          41.000
C20  21902902.148 8 114054151.314 8      -344.953          51.000
E01  24885624.656 8 130774821.174 8      2346.141          51.000    24885624.789 8 100204156.630 8      1797.704          51.000
E19  24265730.203 8 127517269.091 8     -1067.594          48.000    24265730.828 8  97708041.960 8      -818.026          49.000
E21  24043570.250 8 126349840.376 8      -377.688          51.000    24043571.336 8  96813544.938 8      -289.379          51.000
E27  27054736.453 6 142173583.835 6     -2638.152          38.000    27054737.781 6 108938226.874 6     -2021.322          38.000
> 2020 05 07 03 44 30.0000000  0 13        .000000000000
G05  20726830.648 8 108920225.005 8     -1070.426          51.000    20726829.953 8  84872886.480 8      -834.098          51.000
G28  21643920.281 8 113739598.103 8      2130.586          50.000    21643917.203 7  88628256.997 7      1660.197          43.000
G30  20631137.648 8 108417379.341 8     -1144.594          51.000    20631138.328 8  84481095.586 8      -891.891          51.000
R07  21253971.625 8 113774163.629 8     -3091.203          50.000    21253974.250 8  88491039.771 8     -2404.272          48.000
R08  19237730.062 8 103017203.249 8       235.883          49.000    19237731.633 7  80124466.135 7       183.467          46.000
R10  19141519.516 8 102035057.792 8       -67.738          49.000
R11  21670989.297 7 115803250.086 7      3727.539          47.000    21670995.586 7  90069163.592 7      2899.197          44.000
C05  39789228.359 5 207192952.853 5         5.176          35.000    39789227.062 6 160214723.131 6         3.957          41.000
C20  21904929.727 8 114064709.092 8      -359.203          51.000
E01  24872257.203 8 130704573.838 8      2336.812          51.000    24872257.391 8 100150330.738 8      1790.575          51.000
E19  24271847.203 8 127549414.286 8     -1075.539          48.000    24271847.695 8  97732672.684 8      -824.141          48.000
E21  24045764.219 8 126361369.942 8      -391.133          51.000    24045765.203 8  96822379.298 8      -299.681          51.000
E27  27069811.609 6 142252804.821 6     -2643.449          38.000    27069813.172 6 108998928.633 6     -2025.551          38.000
> 2020 05 07 03 45  0.0000000  0 14        .000000000000
G05  20732998.102 8 108952636.034 8     -1093.699          50.000    20732997.516 8  84898141.819 8      -852.233          50.000
G13  21221815.469 5 111521411.658 5      1957.668          34.000
G28  21631801.102 7 113675913.814 7      2111.734          47.000    21631796.891 6  88578632.937 6      1645.510          41.000
G30  20637709.164 8 108451913.089 8     -1161.039          51.000    20637709.742 8  84508005.017 8      -904.706          51.000
R07  21271337.164 8 113867121.046 8     -3109.344          49.000    21271339.109 7  88563339.907 7     -2418.382          47.000
R08  19236467.672 8 103010442.428 8       211.465          49.000    19236469.398 7  80119207.713 7       164.473          47.000
R10  19141971.742 8 102037467.079 8       -96.398          48.000
R11  21650099.672 8 115691622.551 8      3710.949          49.000    21650106.445 7  89982342.216 7      2886.294          42.000
C05  39789200.844 6 207192808.829 6          .980          36.000    39789199.586 6 160214612.518 6          .888          41.000
C20  21907043.711 8 114075716.556 8      -378.004          51.000
E01  24858946.773 8 130634627.933 8      2322.918          51.000    24858947.289 8 100096735.828 8      1779.853          51.000
E19  24278013.375 7 127581818.241 7     -1088.027          47.000    24278013.797 8  97757501.683 8      -833.710          49.000
E21  24048038.875 8 126373323.364 8      -409.070          51.000    24048039.812 8  96831538.422 8      -313.461          51.000
E27  27084921.570 6 142332209.203 6     -2653.789          37.000    27084923.359 6 109059770.938 6     -2033.566          37.000
> 2020 05 07 03 45 30.0000000  0 14        .000000000000
G05  20739272.641 8 108985610.378 8     -1104.762          50.000    20739272.344 8  84923836.087 8      -860.853          50.000
G28  21619763.852 6 113612666.522 6      2104.734          41.000    21619760.641 6  88529349.385 6      1640.053          40.000
G30  20644349.727 8 108486809.678 8     -1165.477          51.000    20644350.641 8  84535197.187 8      -908.164          51.000
R07  21288777.922 7 113960482.566 7     -3114.938          47.000    21288779.453 7  88635954.396 7     -2422.726          45.000
R08  19235317.117 8 103004280.306 8       199.254          49.000    19235319.039 8  80114414.935 8       154.975          48.000
R10  19142559.883 8 102040601.101 8      -112.781          49.000
R11  21629278.000 8 115580357.307 8      3706.535          50.000    21629283.562 6  89895802.592 6      2882.861          40.000
C05  39789171.406 5 207192656.039 5         8.938          35.000    39789170.312 6 160214494.357 6         6.905          41.000
C20  21909241.055 8 114087157.341 8      -384.855          51.000
C23  24690711.031 5 128571004.750 5     -2774.152          30.000
E01  24845690.297 8 130564967.804 8      2320.922          51.000    24845691.516 8 100043359.873 8      1778.369          51.000
E19  24284225.383 7 127614464.040 7     -1088.410          47.000    24284225.984 8  97782515.979 8      -834.010          49.000
E21  24050390.664 8 126385683.015 8      -414.980          51.000    24050391.906 8  96841008.823 8      -318.026          51.000
E27  27100062.750 6 142411778.353 6     -2651.316          36.000    27100064.805 6 109120739.488 6     -2031.735          36.000
> 2020 05 07 03 46  0.0000000  0 14        .000000000000
G05  20745652.305 8 109019135.447 8     -1128.262          51.000    20745652.039 8  84949959.499 8      -879.165          51.000
G28  21607807.938 7 113549846.979 7      2085.164          44.000    21607807.000 7  88480399.035 7      1624.800          44.000
G30  20651056.844 8 108522056.415 8     -1182.332          51.000    20651058.062 8  84562662.188 8      -921.298          51.000
R07  21306290.117 7 114054234.746 7     -3133.164          43.000    21306292.219 7  88708872.841 7     -2436.902          42.000
R08  19234276.391 8 102998706.342 8       174.363          48.000    19234278.273 8  80110079.640 8       135.616          48.000
R10  19143281.609 8 102044447.282 8      -141.586          49.000
R11  21608522.258 8 115469445.514 8      3689.488          48.000    21608527.375 6  89809537.912 6      2869.605          39.000
C05  39789138.047 5 207192482.218 5         4.910          35.000    39789136.938 6 160214359.966 6         3.495          41.000
C20  21911519.602 8 114099020.601 8      -404.062          51.000
C23  24706732.688 5 128654424.941 5     -2785.137          34.000
E01  24832485.930 8 130495583.297 8      2306.609          51.000    24832488.039 8  99990195.107 8      1767.420          51.000
E19  24290481.539 7 127647340.823 7     -1101.281          47.000    24290482.320 8  97807707.285 8      -843.926          49.000
E21  24052817.531 8 126398436.858 8      -433.246          51.000    24052818.977 8  96850781.252 8      -332.010          51.000
E27  27115232.555 5 142491508.257 5     -2661.367          35.000    27115235.250 6 109181824.319 6     -2039.164          36.000
> 2020 05 07 03 46 30.0000000  0 14        .000000000000
G05  20752144.352 8 109053251.599 8     -1146.062          49.000    20752143.922 8  84976543.484 8      -893.036          49.000
G28  21595943.586 8 113487497.679 8      2071.395          50.000    21595943.273 7  88431815.133 7      1614.071          46.000
G30  20657838.031 8 108557692.314 8     -1193.473          51.000    20657839.195 8  84590430.417 8      -929.979          51.000
R07  21323883.742 7 114148418.002 7     -3145.660          47.000    21323884.500 6  88782126.481 6     -2446.628          40.000
R08  19233353.414 7 102993763.423 7       155.113          47.000    19233355.109 8  80106235.152 8       120.644          48.000
R10  19144144.234 8 102049045.243 8      -164.941          49.000
R11  21587840.445 7 115358930.631 7      3678.133          47.000    21587845.773 6  89723581.953 6      2860.773          38.000
C05  39789108.375 5 207192327.595 5         5.574          35.000    39789107.328 6 160214240.352 6         4.486          41.000
C20  21913886.719 8 114111346.707 8      -417.711          51.000
C23  24722787.695 5 128738021.206 5     -2788.109          33.000
E01  24819342.117 8 130426516.002 8      2297.879          51.000    24819345.023 8  99937273.425 8      1760.694          51.000
E19  24296789.203 7 127680489.025 7     -1108.586          46.000    24296790.039 8  97833106.545 8      -849.397          49.000
E21  24055326.875 8 126411624.554 8      -445.871          51.000    24055328.688 8  96860886.111 8      -341.641          51.000
E27  27130438.445 5 142571415.636 5     -2665.988          32.000    27130442.031 5 109243055.067 5     -2042.665          35.000
> 2020 05 07 03 47  0.0000000  0 14        .000000000000
G05  20758748.547 8 109087957.639 8     -1165.516          49.000    20758747.883 8  85003587.148 8      -908.194          49.000
G28  21584169.977 8 113425621.343 8      2055.902          51.000    21584169.312 7  88383599.774 7      1602.002          46.000
G30  20664693.117 8 108593716.429 8     -1205.918          51.000    20664694.352 8  84618501.154 8      -939.676          51.000
R07  21341559.234 8 114243030.598 8     -3159.605          51.000    21341557.539 6  88855713.903 6     -2457.474          41.000
R08  19232548.695 7 102989453.252 7       134.359          47.000    19232550.312 8  80102882.819 8       104.502          49.000
R09  20724770.414 5 110669012.988 5     -3005.141          33.000    20724745.906 5  86075861.909 5     -2337.335          32.000
R10  19145147.562 8 102054393.924 8      -189.469          49.000
R11  21567233.164 7 115248816.061 7      3665.168          46.000    21567237.891 6  89637937.316 6      2850.686          38.000
C05  39789082.500 5 207192193.902 5         5.242          35.000    39789081.359 6 160214135.796 6         4.132          41.000
C20  21916342.688 8 114124136.425 8      -432.703          51.000
E01  24806259.391 8 130357767.580 8      2287.516          51.000    24806262.594 8  99884596.079 8      1752.769          51.000
E19  24303148.445 7 127713909.431 7     -1117.379          45.000    24303149.672 8  97858714.393 8      -856.138          50.000
E21  24057918.711 8 126425245.786 8      -460.062          51.000    24057921.008 8  96871323.166 8      -352.548          51.000
E27                                                                  27145684.945 5 109304430.767 5     -2047.080          35.000
> 2020 05 07 03 47 30.0000000  0 13        .000000000000
G05  20765456.992 8 109123210.549 8     -1184.473          51.000    20765456.227 8  85031056.944 8      -922.966          51.000
G28  21572478.758 8 113364178.005 8      2040.652          51.000    21572477.508 7  88335721.831 7      1590.119          47.000
G30  20671613.930 8 108630085.406 8     -1218.266          51.000    20671615.289 8  84646840.621 8      -949.298          51.000
R07  21359306.688 8 114338028.103 8     -3173.199          51.000    21359304.648 7  88929600.752 7     -2468.044          44.000
R08  19231853.883 7 102985735.256 7       113.859          46.000    19231856.086 8  80099991.026 8        88.557          48.000
R10  19146283.430 8 102060449.511 8      -213.816          50.000
R11  21546693.859 8 115139061.518 8      3652.176          49.000    21546696.406 6  89552572.678 6      2840.581          40.000
C05  39789052.375 5 207192036.179 5         5.473          35.000    39789051.211 6 160214014.214 6         4.026          41.000
C20  21918879.773 8 114137348.544 8      -447.676          51.000
E01  24793230.023 8 130289297.249 8      2277.426          51.000    24793233.203 8  99832131.825 8      1745.011          51.000
E19  24309551.336 7 127747560.171 7     -1125.941          44.000    24309553.484 8  97884498.732 8      -862.671          50.000
E21  24060585.070 8 126439257.891 8      -473.910          51.000    24060587.367 8  96882059.714 8      -363.081          51.000
E27                                                                  27160955.617 5 109365918.027 5     -2051.779          34.000
> 2020 05 07 03 48  0.0000000  0 14        .000000000000
G05  20772265.680 8 109158989.379 8     -1202.477          51.000    20772264.773 8  85058936.561 8      -936.995          51.000
G28  21560866.055 8 113303148.931 8      2026.148          51.000    21560864.359 7  88288166.714 7      1578.820          47.000
G30  20678596.289 8 108666777.218 8     -1229.723          51.000    20678597.516 8  84675431.649 8      -958.225          51.000
R07  21377121.453 8 114433388.109 8     -3185.945          51.000    21377120.672 7  89003769.617 7     -2477.957          46.000
R08  19231267.164 8 102982589.395 8        94.023          48.000    19231268.258 8  80097544.271 8        73.129          48.000
R10  19147547.750 8 102067189.875 8      -237.281          49.000
R11  21526219.539 8 115029648.725 8      3640.160          51.000    21526220.797 7  89467473.870 7      2831.236          43.000
C05  39789014.055 5 207191836.502 5         6.012          35.000    39789012.820 6 160213859.792 6         4.615          41.000
C20  21921494.102 8 114150962.876 8      -461.730          51.000
C23  24771123.555 5 128989735.595 5     -2803.746          33.000
E01  24780250.188 8 130221085.537 8      2268.172          51.000    24780252.977 8  99779865.727 8      1737.944          51.000
E19  24315994.344 7 127781420.861 7     -1133.457          45.000    24315997.227 8  97910443.921 8      -868.403          51.000
E21  24063321.828 8 126453639.425 8      -486.738          51.000    24063323.680 8  96893079.323 8      -372.970          51.000
E27                                                                  27176249.508 5 109427494.648 5     -2055.150          33.000
> 2020 05 07 03 48 30.0000000  0 15        .000000000000
G05  20779187.656 8 109195363.934 8     -1221.793          51.000    20779186.773 8  85087280.366 8      -952.046          51.000
G07  22728710.219 5 119440182.450 5     -2541.387          35.000
G28  21549345.641 8 113242607.620 8      2010.664          51.000    21549344.336 7  88240991.671 7      1566.751          47.000
G30  20685653.406 8 108703861.711 8     -1241.984          51.000    20685654.484 8  84704328.661 8      -967.780          51.000
R07  21395016.234 8 114529181.664 8     -3199.586          48.000    21395017.258 8  89078275.740 8     -2488.564          48.000
R08  19230800.531 7 102980090.075 7        73.281          47.000    19230801.258 8  80095600.370 8        56.997          48.000
R10  19148953.781 8 102074685.640 8      -261.688          49.000
R11  21505823.188 8 114920652.562 8      3626.945          50.000    21505824.383 7  89382699.094 7      2820.957          45.000
C05  39788981.133 5 207191664.978 5         5.598          35.000    39788979.875 6 160213727.124 6         4.516          41.000
C20  21924199.047 8 114165050.374 8      -476.715          51.000
C23  24787289.938 5 129073925.950 5     -2808.793          32.000
E01  24767333.359 8 130153204.909 8      2257.883          51.000    24767335.195 8  99727853.302 8      1730.093          51.000
E19  24322491.375 7 127815562.999 7     -1142.035          46.000    24322494.133 8  97936604.811 8      -875.063          51.000
E21  24066142.234 8 126468460.855 8      -500.664          51.000    24066143.938 8  96904436.007 8      -383.644          51.000
E27                                                                  27191579.812 5 109489223.993 5     -2059.514          31.000
> 2020 05 07 03 49  0.0000000  0 15        .000000000000
G05  20786218.297 8 109232309.281 8     -1239.914          51.000    20786217.266 8  85116068.960 8      -966.167          51.000
G07  22743238.359 6 119516518.042 6     -2546.703          38.000    22743209.352 4  93129652.233 4     -1984.447          28.000
G28  21537913.164 8 113182531.993 8      1995.941          49.000    21537912.680 7  88194179.480 7      1555.279          47.000
G30  20692780.344 8 108741313.407 8     -1253.398          51.000    20692781.438 8  84733511.814 8      -976.674          51.000
R07  21412986.234 7 114625382.300 7     -3212.340          47.000    21412989.523 8  89153098.501 8     -2498.484          49.000
R08  19230450.344 8 102978213.914 8        53.207          49.000    19230450.727 8  80094141.135 8        41.383          48.000
R10  19150496.734 8 102082911.084 8      -285.176          48.000
R11  21485499.961 8 114812051.030 8      3614.453          49.000    21485502.117 7  89298231.244 7      2811.241          46.000
C05  39788949.031 5 207191497.672 5         6.418          35.000    39788947.719 6 160213597.736 6         5.298          41.000
C20  21926990.469 8 114179587.449 8      -491.012          51.000
C23  24803485.078 5 129158268.923 5     -2812.586          33.000
E01  24754475.062 8 130085632.405 8      2248.504          51.000    24754475.477 8  99676076.977 8      1722.784          51.000
E19  24329037.734 7 127849962.438 7     -1149.777          47.000    24329040.031 8  97962962.836 8      -881.028          51.000
E21  24069041.695 8 126483697.376 8      -513.691          51.000    24069043.539 8  96916110.740 8      -393.638          51.000
E27                                                                  27206941.773 5 109551080.258 5     -2063.279          30.000
> 2020 05 07 03 49 30.0000000  0 14        .000000000000
G05  20793360.445 8 109269840.513 8     -1260.668          51.000    20793359.211 8  85145314.085 8      -982.339          51.000
G07  22757800.711 5 119593032.469 5     -2553.176          35.000
G28  21526572.461 8 113122940.180 8      1978.336          49.000    21526573.039 7  88147744.293 7      1541.560          45.000
G30  20699979.953 8 108779147.132 8     -1267.297          51.000    20699981.148 8  84762992.651 8      -987.504          51.000
R07  21431035.219 7 114722005.060 7     -3227.664          47.000    21431039.789 8  89228249.608 8     -2510.405          48.000
R08  19230219.719 8 102976979.184 8        30.629          48.000    19230219.836 7  80093180.790 7        23.822          47.000
R10  19152179.531 8 102091880.953 8      -311.258          48.000
R11  21465253.797 8 114703863.286 8      3599.449          50.000    21465256.977 7  89214085.223 7      2799.572          47.000
C05                                                                  39788919.500 6 160213484.109 6         3.510          41.000
C20  21929871.555 8 114194590.434 8      -507.734          51.000
C23  24819713.930 5 129242778.927 5     -2819.496          33.000
E01  24741678.461 8 130018385.445 8      2236.215          51.000    24741677.664 8  99624550.088 8      1713.427          51.000
E19  24335636.352 7 127884635.814 7     -1160.320          47.000    24335638.102 8  97989530.742 8      -889.002          51.000
E21  24072023.039 8 126499364.333 8      -529.293          51.000    24072024.992 8  96928115.284 8      -405.535          51.000
> 2020 05 07 03 50  0.0000000  0 14        .000000000000
G05  20800599.570 8 109307882.082 8     -1275.719          51.000    20800598.164 8  85174956.873 8      -994.067          51.000
G07  22772379.812 5 119669672.173 5     -2555.051          35.000    22772383.914 5  93249097.413 5     -1990.949          35.000
G28  21515310.578 8 113063759.936 8      1966.512          50.000    21515311.164 7  88101629.824 7      1532.347          43.000
G30  20707237.820 8 108817287.045 8     -1275.543          51.000    20707238.992 8  84792712.056 8      -993.930          51.000
R07  21449149.266 8 114818972.416 8     -3237.207          48.000    21449154.695 7  89303668.661 7     -2517.831          47.000
R08  19230094.758 8 102976311.056 8        13.531          50.000    19230094.945 7  80092661.109 7        10.521          47.000
R10  19153987.539 8 102101518.519 8      -331.496          48.000
R11  21445071.398 8 114596016.215 8      3589.934          49.000    21445075.367 7  89130204.153 7      2792.171          47.000
C05  39788882.367 5 207191150.413 5         8.250          35.000    39788881.062 6 160213329.188 6         6.237          41.000
C20  21932827.828 8 114209985.860 8      -518.957          51.000
C23  24835960.164 5 129327380.537 5     -2820.348          34.000
E01  24728929.547 8 129951390.712 8      2229.691          51.000    24728927.930 8  99573216.446 8      1708.507          49.000
E19  24342273.000 8 127919508.781 8     -1165.008          49.000    24342274.211 8  98016251.604 8      -892.701          51.000
E21  24075071.906 8 126515386.502 8      -539.242          51.000    24075073.688 8  96940392.015 8      -413.201          51.000
> 2020 05 07 03 50 30.0000000  0 14        .000000000000
G05  20807958.719 8 109346554.347 8     -1299.836          51.000    20807957.039 8  85205091.112 8     -1012.859          51.000
G07  22787002.703 6 119746512.754 6     -2565.477          38.000    22787009.242 5  93308973.011 5     -1999.070          30.000
G28  21504150.961 8 113005114.577 8      1945.668          51.000    21504150.695 7  88055932.151 7      1516.105          42.000
G30  20714576.703 8 108855852.989 8     -1292.914          51.000    20714577.742 8  84822763.441 8     -1007.466          51.000
R07  21467351.406 8 114916406.079 8     -3255.816          49.000    21467356.148 7  89379450.390 7     -2532.302          43.000
R08  19230099.141 8 102976334.471 8       -12.562          50.000    19230099.305 7  80092679.310 7        -9.771          47.000
R10  19155943.508 7 102111945.365 7      -360.914          46.000
R11  21424975.633 7 114488635.911 7      3571.309          47.000    21424981.000 7  89046686.089 7      2777.684          47.000
C05                                                                  39788855.359 6 160213225.873 6         2.398          41.000
C20  21935882.727 8 114225894.133 8      -539.039          50.000
C23  24852246.875 5 129412192.069 5     -2830.793          35.000
E01  24716251.484 8 129884770.585 8      2214.195          51.000    24716249.633 8  99522169.866 8      1696.615          48.000
E19  24348970.664 8 127954702.790 8     -1178.660          49.000    24348971.391 8  98043218.423 8      -903.096          51.000
E21  24078211.383 8 126531884.347 8      -558.043          51.000    24078213.086 8  96953033.217 8      -427.612          51.000
> 2020 05 07 03 51  0.0000000  0 14        .000000000000
G05  20815417.453 8 109385751.028 8     -1314.988          51.000    20815416.070 8  85235633.974 8     -1024.666          51.000
G07  22801647.508 6 119823469.703 6     -2566.809          39.000    22801645.094 5  93368939.150 5     -2000.114          34.000
G28  21493073.656 8 112946900.569 8      1933.473          51.000    21493072.078 7  88010570.607 7      1506.605          43.000
G30  20721976.305 8 108894738.345 8     -1301.227          51.000    20721977.461 8  84853063.726 8     -1013.943          51.000
R07  21485620.203 7 115014197.373 7     -3265.441          47.000    21485622.875 6  89455510.208 6     -2539.794          39.000
R08  19230212.766 8 102976944.191 8       -29.914          50.000    19230212.992 7  80093153.498 7       -23.270          46.000
R10  19158027.398 7 102123053.168 7      -381.438          46.000
R11  21404948.219 8 114381617.583 8      3561.445          49.000    21404953.773 7  88963449.565 7      2770.013          46.000
C05  39788823.938 5 207190846.718 5         6.539          35.000    39788822.500 6 160213093.538 6         5.072          41.000
C20  21939016.258 8 114242211.212 8      -550.508          51.000
C23  24868554.258 5 129497107.589 5     -2831.957          35.000
E01  24703624.461 8 129818420.997 8      2207.305          50.000    24703623.344 8  99471330.588 8      1691.278          49.000
E19  24355709.375 8 127990112.820 8     -1183.805          50.000    24355709.625 8  98070350.776 8      -907.131          51.000
E21  24081421.156 8 126548751.828 8      -568.230          51.000    24081423.219 8  96965957.652 8      -435.397          51.000
> 2020 05 07 03 51 30.0000000  0 15        .000000000000
G05  20822982.438 8 109425507.355 8     -1335.520          51.000    20822981.734 8  85266612.902 8     -1040.665          51.000
G07  22816321.703 5 119900579.543 5     -2574.043          30.000    22816327.883 4  93429048.093 4     -2005.748          29.000
G28  21482085.625 8 112889156.461 8      1915.961          51.000    21482083.266 7  87965575.216 7      1492.957          43.000
G30  20729443.469 8 108933978.282 8     -1314.973          51.000    20729444.680 8  84883640.297 8     -1024.654          51.000
R07  21503961.281 7 115112381.778 7     -3280.359          46.000    21503961.641 6  89531875.713 6     -2551.394          41.000
R08  19230443.102 8 102978178.116 8       -52.598          50.000    19230443.172 7  80094113.199 7       -40.909          46.000
R09  20879891.594 5 111497437.052 5     -3130.074          33.000    20879861.789 5  86720167.608 5     -2434.502          30.000
R10  19160245.539 7 102134877.040 7      -407.156          47.000
R11  21384996.789 8 114275000.846 8      3546.156          51.000    21385001.141 7  88880525.454 7      2758.122          45.000
C05                                                                  39788789.469 6 160212960.260 6         3.918          41.000
C20  21942235.758 8 114258973.532 8      -567.141          51.000
C23  24884888.820 5 129582161.673 5     -2838.156          34.000
E01  24691056.414 8 129752379.594 8      2195.301          51.000    24691056.469 8  99420727.436 8      1682.158          51.000
E19  24362496.180 8 128025775.628 8     -1193.898          50.000    24362495.820 8  98097676.800 8      -914.787          50.000
E21  24084708.070 8 126566024.624 8      -583.453          51.000    24084710.055 8  96979192.664 8      -447.050          51.000
> 2020 05 07 03 52  0.0000000  0 14        .000000000000
G05  20830650.250 8 109465803.203 8     -1354.102          50.000    20830650.031 8  85298012.264 8     -1055.144          50.000
G28  21471183.664 8 112831865.631 8      1900.238          50.000    21471181.477 7  87920933.010 7      1480.705          45.000
G30  20736974.234 8 108973552.489 8     -1326.598          51.000    20736975.344 8  84914477.339 8     -1033.709          51.000
R07  21522371.484 7 115210938.142 7     -3293.344          46.000    21522373.055 7  89608530.650 7     -2561.490          45.000
R08  19230786.625 8 102980018.609 8       -73.383          49.000    19230786.703 7  80095544.665 7       -57.076          45.000
R09  20897501.984 5 111591471.798 5     -3143.324          33.000    20897485.984 5  86793331.477 5     -2444.808          32.000
R10  19162594.609 7 102147397.022 7      -430.828          46.000
R11  21365117.500 8 114168769.036 8      3532.734          51.000    21365119.562 7  88797900.764 7      2747.682          45.000
C05  39788753.883 5 207190482.604 5         4.867          35.000    39788752.570 6 160212811.569 6         3.631          41.000
C20  21945537.281 8 114276162.662 8      -581.938          51.000
C23  24901246.484 5 129667333.989 5     -2843.055          33.000
E01  24678544.398 8 129686628.649 8      2185.000          51.000    24678545.445 8  99370346.842 8      1674.164          51.000
E19  24369327.430 8 128061672.424 8     -1202.219          50.000    24369326.523 8  98125182.135 8      -921.240          50.000
E21  24088068.469 8 126583683.060 8      -596.871          51.000    24088069.734 8  96992723.149 8      -457.367          51.000
> 2020 05 07 03 52 30.0000000  0 15        .000000000000
G05  20838425.172 8 109506659.841 8     -1373.188          51.000    20838425.062 8  85329848.612 8     -1070.013          51.000
G07  22845745.141 6 120055159.349 6     -2583.684          37.000
G28  21460372.492 8 112775051.944 8      1883.906          51.000    21460370.539 7  87876662.603 7      1467.979          46.000
G30  20744572.523 8 109013481.801 8     -1338.699          51.000    20744573.469 8  84945591.104 8     -1043.142          51.000
R07  21540856.273 7 115309887.915 7     -3306.750          47.000    21540858.852 7  89685491.568 7     -2571.917          47.000
R08  19231248.141 8 102982489.882 8       -94.844          48.000    19231248.258 7  80097466.752 7       -73.770          46.000
R09  20915184.141 5 111685914.967 5     -3156.969          35.000    20915182.445 5  86866809.992 5     -2455.420          30.000
R10  19165077.672 7 102160633.026 7      -454.965          47.000
R11  21345314.938 8 114062947.349 8      3518.605          51.000    21345315.148 7  88715595.054 7      2736.693          45.000
C05  39788717.391 5 207190291.924 5         4.422          35.000    39788716.062 6 160212664.477 6         3.456          40.000
C20  21948925.156 8 114293800.789 8      -597.211          51.000
C23  24917630.352 5 129752644.785 5     -2848.125          33.000
E01  24666092.852 8 129621191.503 8      2174.141          51.000    24666094.547 8  99320206.701 8      1665.897          51.000
E19  24376207.336 8 128097825.772 8     -1211.258          50.000    24376206.383 8  98152884.037 8      -928.110          50.000
E21  24091506.250 8 126601748.545 8      -610.852          51.000    24091507.461 8  97006565.532 8      -468.001          51.000
> 2020 05 07 03 53  0.0000000  0 15        .000000000000
G05  20846309.648 8 109548092.571 8     -1389.613          50.000    20846309.672 8  85362133.836 8     -1082.819          50.000
G07  22860502.984 5 120132719.244 5     -2586.992          33.000    22860514.211 4  93609985.184 4     -2015.835          24.000
G28  21449655.625 8 112718734.014 8      1870.031          51.000    21449654.070 7  87832778.499 7      1457.164          47.000
G30  20752241.266 8 109053781.362 8     -1348.473          51.000    20752242.203 8  84976993.358 8     -1050.758          51.000
R07  21559417.781 7 115409245.735 7     -3317.621          47.000    21559420.969 8  89762769.897 8     -2580.372          48.000
R08  19231830.938 8 102985609.726 8      -113.672          49.000    19231831.031 7  80099893.259 7       -88.411          46.000
R09  20932949.562 5 111780670.433 5     -3167.852          34.000    20932951.484 4  86940576.256 4     -2463.885          29.000
R10  19167697.914 7 102174600.300 7      -476.680          47.000
R11  21325592.555 8 113957555.201 8      3507.047          51.000    21325592.781 7  88633623.421 7      2727.703          47.000
C05                                                                  39788683.117 6 160212531.735 6         5.062          41.000
C20  21952402.305 8 114311904.549 8      -610.156          51.000
C23  24934043.375 5 129838108.794 5     -2850.289          34.000
E01  24653704.633 8 129556085.824 8      2165.809          51.000    24653706.797 8  99270320.539 8      1659.528          51.000
E19  24383139.141 8 128134252.290 8     -1217.641          50.000    24383138.359 8  98180795.263 8      -932.997          49.000
E21  24095024.453 8 126620236.694 8      -622.145          51.000    24095026.211 8  97020731.794 8      -476.756          51.000
> 2020 05 07 03 53 30.0000000  0 14        .000000000000
G05  20854284.922 8 109590001.681 8     -1408.879          51.000    20854284.523 8  85394790.275 8     -1097.828          51.000
G07  22875276.289 4 120210386.523 4     -2592.918          29.000    22875278.086 4  93670474.814 4     -2020.453          25.000
G28  21439014.508 8 112662815.061 8      1853.289          50.000    21439013.609 8  87789205.291 8      1444.121          48.000
G30  20759961.484 8 109094351.131 8     -1360.879          51.000    20759962.570 8  85008606.155 8     -1060.425          51.000
R07  21578036.086 8 115508909.501 8     -3331.277          48.000    21578040.055 7  89840286.159 7     -2590.993          47.000
R08  19232516.625 8 102989278.929 8      -135.648          48.000    19232516.469 7  80102747.099 7      -105.504          47.000
R10  19170436.383 8 102189197.697 8      -501.227          48.000
R11  21305931.875 8 113852494.515 8      3492.367          51.000    21305932.938 8  88551909.555 8      2716.286          48.000
C05  39788636.344 5 207189869.945 5         5.363          35.000    39788634.953 6 160212337.745 6         4.392          41.000
C20  21955949.930 8 114330376.310 8      -625.840          51.000
C23  24950466.641 5 129923626.648 5     -2855.336          35.000
E01  24641360.773 8 129491214.051 8      2154.367          51.000    24641363.102 8  99220613.620 8      1650.794          51.000
E19  24390104.062 8 128170853.319 8     -1227.031          50.000    24390103.281 8  98208840.210 8      -940.187          48.000
E21  24098604.078 8 126639048.043 8      -636.422          51.000    24098605.711 8  97035145.683 8      -487.696          50.000
> 2020 05 07 03 54  0.0000000  0 13        .000000000000
G05  20862392.164 8 109632603.661 8     -1426.539          51.000    20862390.992 8  85427986.609 8     -1111.589          51.000
G28  21428490.703 8 112607515.027 8      1838.113          48.000    21428490.797 8  87746114.368 8      1432.296          48.000
G30  20767774.359 8 109135407.853 8     -1371.578          51.000    20767775.414 8  85040598.410 8     -1068.762          51.000
R07  21596753.094 8 115609099.666 8     -3343.285          49.000    21596756.492 7  89918211.862 7     -2600.333          45.000
R08  19233346.305 7 102993721.190 7      -155.844          47.000    19233346.414 7  80106202.190 7      -121.215          47.000
R10  19173333.953 8 102204644.026 8      -523.941          48.000
R11  21286375.320 8 113747989.880 8      3479.387          51.000    21286376.609 7  88470628.152 7      2706.190          47.000
C05  39788614.469 5 207189755.652 5         6.312          35.000    39788613.148 6 160212249.744 6         4.987          41.000
C20  21959609.484 8 114349432.519 8      -639.973          51.000
C23  24966940.922 5 130009412.953 5     -2859.090          32.000
E01  24629102.711 8 129426795.470 8      2144.738          51.000    24629104.773 8  99171253.946 8      1643.365          51.000
E19  24397143.703 8 128207847.317 8     -1234.617          49.000    24397143.016 8  98237186.252 8      -946.065          48.000
E21  24102286.617 8 126658399.878 8      -649.047          51.000    24102287.625 8  97049973.696 8      -497.277          50.000
> 2020 05 07 03 54 30.0000000  0 13        .000000000000
G05  20870599.250 8 109675730.174 8     -1458.023          51.000    20870597.070 8  85461591.675 8     -1136.122          51.000
G07  22904951.875 5 120366331.825 5     -2614.832          33.000
G28  21418053.125 8 112552667.852 8      1808.656          49.000    21418054.008 8  87703376.313 8      1409.343          48.000
G30  20775647.641 8 109176782.205 8     -1396.176          51.000    20775648.430 8  85072838.169 8     -1087.929          51.000
R07  21615536.516 8 115709643.261 8     -3369.484          50.000    21615538.398 7  89996412.377 7     -2620.713          44.000
R08  19234288.602 8 102998766.305 8      -190.375          48.000    19234288.758 7  80110126.158 7      -148.066          47.000
R10  19176358.828 8 102220767.801 8      -560.727          48.000
R11  21266891.734 8 113643872.650 8      3451.957          51.000    21266892.430 7  88389648.077 7      2684.855          47.000
C05  39788586.797 5 207189611.486 5        -6.656          35.000    39788585.734 6 160212139.019 6        -5.084          41.000
C20  21963349.430 8 114368906.867 8      -667.883          51.000
E01  24616898.359 8 129362663.266 8      2121.004          51.000    24616899.984 8  99122113.674 8      1625.215          51.000
E19  24404225.898 8 128245066.357 8     -1256.559          48.000    24404225.648 8  98265704.716 8      -962.749          48.000
E21  24106039.922 8 126678123.440 8      -675.645          51.000    24106041.414 8  97065086.559 8      -517.720          50.000
> 2020 05 07 03 55  0.0000000  0 12        .000000000000
G05  20878925.445 8 109719483.410 8     -1462.496          51.000    20878922.594 8  85495685.111 8     -1139.607          51.000
G28  21407722.336 8 112498379.571 8      1806.617          50.000    21407723.172 7  87661073.741 7      1407.754          47.000
G30  20783600.836 8 109218576.788 8     -1393.750          51.000    20783601.547 8  85105405.380 8     -1086.039          51.000
R07  21634404.734 8 115810644.782 8     -3367.824          49.000    21634406.766 7  90074969.036 7     -2619.422          44.000
R08  19235363.562 8 103004521.802 8      -197.246          48.000    19235363.570 7  80114602.677 7      -153.414          47.000
R10  19179530.094 8 102237672.695 8      -570.109          49.000
R11  21247500.641 8 113540251.337 8      3452.219          51.000    21247501.219 7  88309053.713 7      2685.059          47.000
C05  39788573.469 5 207189542.027 5         7.578          35.000    39788572.414 6 160212085.291 6         5.790          41.000
C20  21967189.258 8 114388902.576 8      -668.891          51.000
E01  24604767.945 8 129298922.509 8      2124.496          49.000    24604769.031 8  99073273.326 8      1627.906          50.000
E19  24411370.570 7 128282614.778 7     -1250.723          47.000    24411370.969 7  98294475.568 7      -958.349          47.000
E21  24109883.570 8 126698321.759 8      -674.801          51.000    24109885.492 8  97080563.205 8      -517.052          49.000
> 2020 05 07 03 55 30.0000000  0 12        .000000000000
G05  20887328.750 8 109763643.641 8     -1482.027          51.000    20887326.047 8  85530095.683 8     -1154.827          51.000
G28  21397456.859 8 112444433.384 8      1789.164          50.000    21397457.414 7  87619037.739 7      1394.154          47.000
G30  20791592.141 8 109260571.737 8     -1406.449          51.000    20791592.891 8  85138128.717 8     -1095.934          51.000
R07  21653315.742 8 115911879.937 8     -3381.715          48.000    21653319.203 7  90153707.415 7     -2630.226          44.000
R08  19236529.523 8 103010766.042 8      -219.594          48.000    19236529.562 7  80119459.309 7      -170.798          47.000
R10  19182805.984 8 102255134.933 8      -594.695          50.000
R11  21228160.055 8 113436905.973 8      3436.863          50.000    21228161.852 7  88228673.981 7      2673.113          46.000
C05  39788532.844 5 207189330.896 5         6.180          35.000    39788531.688 6 160211921.225 6         4.905          41.000
C20  21971087.516 8 114409203.315 8      -685.027          51.000
E01  24592670.906 8 129235355.801 8      2112.695          50.000    24592670.914 8  99024566.342 8      1618.884          50.000
E19  24418536.234 7 128320274.313 7     -1260.465          46.000    24418537.242 7  98323331.544 7      -965.694          47.000
E21  24113775.875 8 126718775.527 8      -689.285          51.000    24113777.188 8  97096235.561 8      -528.109          48.000
> 2020 05 07 03 56  0.0000000  0 12        .000000000000
G05  20895840.109 8 109808372.499 8     -1500.020          51.000    20895837.750 8  85564949.342 8     -1168.846          51.000
G28  21387288.055 8 112390994.764 8      1773.105          51.000    21387288.172 7  87577397.256 7      1381.641          46.000
G30  20799652.398 8 109302929.142 8     -1417.512          51.000    20799653.188 8  85171134.479 8     -1104.558          51.000
R07  21672301.867 8 116013512.962 8     -3394.020          48.000    21672304.742 7  90232755.333 7     -2639.793          44.000
R08  19237818.250 8 103017667.057 8      -240.602          49.000    19237818.523 8  80124826.767 8      -187.135          48.000
R10  19186217.297 8 102273318.969 8      -617.844          50.000
R11  21208902.594 8 113334005.256 8      3422.871          51.000    21208905.547 7  88148640.090 7      2662.233          46.000
C05  39788495.781 5 207189138.040 5         6.539          35.000    39788494.656 6 160211772.098 6         4.848          41.000
C20  21975075.570 8 114429971.220 8      -699.785          51.000
E01  24580638.914 8 129172127.691 8      2102.195          51.000    24580637.711 8  98976118.844 8      1610.791          50.000
E19  24425754.406 7 128358208.451 7     -1268.641          45.000    24425755.461 7  98352397.953 7      -972.087          47.000
E21  24117747.516 8 126739647.324 8      -702.406          51.000    24117748.938 8  97112228.239 8      -538.180          48.000
> 2020 05 07 03 56 30.0000000  0 14        .000000000000
G05  20904426.391 8 109853495.808 8     -1507.344          51.000    20904424.750 8  85600110.384 8     -1174.554          51.000
G28  21377183.055 8 112337891.499 8      1767.949          51.000    21377182.695 7  87536018.092 7      1377.623          45.000
G30  20807748.305 8 109345473.737 8     -1417.887          51.000    20807749.117 8  85204286.096 8     -1104.847          51.000
R07  21691329.445 8 116115365.028 8     -3395.148          48.000    21691331.250 7  90311973.617 7     -2640.671          45.000
R08  19239196.367 8 103025048.260 8      -250.676          49.000    19239196.898 7  80130567.693 7      -194.970          47.000
R09  21059269.648 5 112455286.468 5     -3243.852          34.000    21059259.648 4  87465183.206 4     -2522.999          29.000
R10  19189730.477 8 102292046.488 8      -629.793          50.000
R11  21189696.656 8 113231374.867 8      3419.961          51.000    21189699.633 7  88068816.467 7      2659.970          46.000
C05  39788429.375 5 207188792.301 5        17.660          35.000    39788428.266 6 160211504.725 6        13.408          41.000
C20  21979120.219 8 114451034.139 8      -703.613          51.000
C23  25049604.297 5 130439864.321 5     -2869.445          31.000
E01  24568638.930 8 129109065.362 8      2102.641          51.000    24568637.109 8  98927798.387 8      1611.111          50.000
E19  24432991.633 7 128396243.700 7     -1266.086          45.000    24432993.047 7  98381541.855 7      -970.241          47.000
E21  24121765.461 8 126760762.378 8      -704.484          51.000    24121767.477 8  97128407.341 8      -539.818          48.000
> 2020 05 07 03 57  0.0000000  0 14        .000000000000
G05  20913139.219 8 109899285.059 8     -1537.707          50.000    20913138.359 8  85635790.314 8     -1198.213          51.000
G28  21367193.852 8 112285398.270 8      1739.227          50.000    21367192.859 7  87495114.267 7      1355.241          44.000
G30  20815931.375 8 109388476.901 8     -1441.477          51.000    20815932.305 8  85237795.046 8     -1123.232          51.000
R07  21710448.773 8 116217712.548 8     -3420.199          48.000    21710450.031 7  90391577.241 7     -2660.155          43.000
R08  19240715.945 7 103033189.203 7      -284.457          47.000    19240717.016 7  80136899.535 7      -221.244          47.000
R09  21077582.812 5 112553090.849 5     -3268.691          31.000    21077577.633 4  87541253.141 4     -2542.322          29.000
R10  19193397.273 8 102311592.094 8      -665.551          51.000
R11  21170594.312 8 113129294.579 8      3393.066          51.000    21170596.555 7  87989420.714 7      2639.055          46.000
C05  39788385.633 6 207188564.091 6         5.605          36.000    39788384.445 6 160211328.212 6         4.165          41.000
C20  21983273.016 8 114472662.493 8      -730.699          50.000
C23  25066200.398 5 130526289.443 5     -2884.688          33.000
E01  24556722.703 8 129046442.733 8      2079.746          51.000    24556721.055 8  98879814.846 8      1593.530          51.000
E19  24440300.312 7 128434652.808 7     -1286.902          46.000    24440302.469 8  98410972.203 8      -986.092          48.000
E21  24125881.453 8 126782392.617 8      -729.848          51.000    24125883.289 7  97144981.183 7      -559.258          47.000
> 2020 05 07 03 57 30.0000000  0 13        .000000000000
G05  20921961.031 8 109945645.349 8     -1554.949          51.000    20921960.297 8  85671915.217 8     -1211.649          51.000
G28  21357303.211 8 112233423.816 8      1723.613          48.000    21357302.039 7  87454614.677 7      1343.078          45.000
G30  20824183.703 8 109431844.184 8     -1451.742          51.000    20824184.703 8  85271587.708 8     -1131.228          51.000
R07  21729641.742 7 116320458.654 7     -3431.586          47.000    21729643.031 7  90471490.928 7     -2669.008          43.000
R08  19242360.570 8 103041996.048 8      -304.848          48.000    19242361.727 7  80143749.283 7      -237.104          47.000
R10  19197199.352 8 102331859.295 8      -687.746          51.000
R11  21151577.750 8 113027672.195 8      3379.535          51.000    21151579.578 7  87910381.112 7      2628.530          47.000
C05  39788346.586 5 207188361.013 5         6.789          35.000    39788345.555 6 160211171.193 6         4.661          41.000
C20  21987516.422 8 114494764.096 8      -744.844          49.000
C23  25082825.609 5 130612859.662 5     -2888.473          35.000
E01  24544872.602 8 128984167.718 8      2069.875          51.000    24544871.648 8  98832097.638 8      1586.044          51.000
E19  24447663.016 7 128473342.883 7     -1294.535          46.000    24447665.453 8  98440617.841 8      -991.896          49.000
E21  24130077.539 8 126804443.939 8      -742.176          50.000    24130078.828 7  97161877.662 7      -568.641          46.000
> 2020 05 07 03 58  0.0000000  0 14        .000000000000
G05  20930884.250 8 109992536.567 8     -1572.195          51.000    20930883.297 8  85708453.831 8     -1225.087          51.000
G28  21347504.023 7 112181930.950 7      1708.117          47.000    21347503.680 7  87414490.370 7      1331.003          46.000
G30  20832497.789 8 109475535.354 8     -1462.039          51.000    20832498.750 8  85305632.766 8     -1139.251          51.000
R07  21748900.492 7 116423562.173 7     -3442.891          46.000    21748902.938 6  90551682.507 6     -2677.807          41.000
R08  19244122.156 7 103051430.171 7      -325.195          47.000    19244123.430 7  80151086.924 7      -252.933          47.000
R09  21114415.695 5 112749801.222 5     -3290.262          31.000
R10  19201129.273 8 102352807.404 8      -709.836          51.000
R11  21132639.812 8 112926470.664 8      3366.156          51.000    21132641.766 7  87831668.812 7      2618.122          46.000
C05  39788305.047 5 207188144.876 5         7.008          35.000    39788304.094 6 160211004.005 6         5.497          41.000
C20  21991843.594 8 114517300.596 8      -758.750          49.000
C23  25099470.930 5 130699534.843 5     -2891.527          35.000
E01  24533081.297 8 128922202.584 8      2060.055          51.000    24533081.516 8  98784617.874 8      1578.466          51.000
E19  24455072.008 7 128512275.337 7     -1302.117          47.000    24455074.523 8  98470449.198 8      -997.705          50.000
E21  24134346.281 8 126826876.649 8      -754.414          50.000    24134347.609 7  97179066.383 7      -578.010          47.000
> 2020 05 07 03 58 30.0000000  0 14        .000000000000
G05  20939909.211 8 110039961.258 8     -1590.340          51.000    20939907.992 8  85745408.123 8     -1239.226          51.000
G07  23024595.602 5 120995055.492 5     -2637.953          34.000
G28  21337797.734 8 112130925.140 8      1691.484          49.000    21337797.430 7  87374745.556 7      1318.037          45.000
G30  20840874.016 8 109519552.609 8     -1473.305          51.000    20840875.008 8  85339931.936 8     -1148.030          51.000
R07  21768226.492 7 116527024.698 7     -3455.375          44.000    21768229.625 7  90632153.307 7     -2687.517          42.000
R08  19246002.195 7 103061496.168 7      -346.727          47.000    19246003.094 7  80158916.029 7      -269.676          47.000
R10  19205187.195 8 102374437.740 8      -733.125          51.000
R11  21113781.055 8 112825695.965 8      3351.359          48.000    21113783.102 7  87753288.458 7      2606.610          45.000
C05  39788261.695 5 207187919.159 5         6.957          35.000    39788260.766 6 160210829.443 6         5.358          41.000
C20  21996255.781 8 114540275.696 8      -773.863          51.000
C23  25116136.617 5 130786317.042 5     -2895.309          32.000
E01  24521349.672 8 128860552.033 8      2049.105          51.000    24521351.312 8  98737379.140 8      1570.064          51.000
E19  24462527.961 7 128551453.828 7     -1310.676          47.000    24462530.258 8  98500469.084 8     -1004.341          51.000
E21  24138688.047 8 126849693.481 8      -767.590          49.000    24138689.766 8  97196549.433 8      -588.123          48.000
> 2020 05 07 03 59  0.0000000  0 15        .000000000000
G05  20949039.055 8 110087936.393 8     -1615.312          51.000    20949037.641 8  85782791.330 8     -1258.685          51.000
G07  23039669.711 5 121074253.972 5     -2649.508          34.000    23039671.172 5  94343589.902 5     -2064.558          33.000
G13  20926652.656 5 109970304.398 5      1718.727          32.000
G28  21328188.602 8 112080427.076 8      1667.824          50.000    21328188.055 7  87335396.414 7      1299.603          45.000
G30  20849315.672 8 109563913.430 8     -1491.363          51.000    20849316.742 8  85374498.799 8     -1162.101          51.000
R07  21787624.859 7 116630864.016 7     -3474.703          46.000    21787628.047 7  90712917.130 7     -2702.550          44.000
R08  19248003.734 7 103072181.253 7      -375.289          47.000    19248004.477 7  80167257.214 7      -291.891          46.000
R10  19209376.266 8 102396767.550 8      -763.043          51.000
R11  21095005.336 8 112725369.600 8      3329.566          48.000    21095006.820 7  87675256.824 7      2589.663          43.000
C05  39788220.273 5 207187702.640 5          .082          35.000    39788219.203 6 160210662.005 6         -.015          40.000
C20  22000756.000 8 114563708.021 8      -795.656          51.000
C23  25132825.656 4 130873223.310 4     -2905.688          29.000
E01  24509681.555 8 128799235.873 8      2031.246          51.000    24509684.414 8  98690396.628 8      1556.424          51.000
E19  24470034.344 7 128590897.259 7     -1326.297          47.000    24470036.227 8  98530691.979 8     -1016.224          51.000
E21  24143106.305 8 126872912.232 8      -787.633          48.000    24143108.328 8  97214340.441 8      -603.553          48.000
> 2020 05 07 03 59 30.0000000  0 13        .000000000000
G05  20958312.828 8 110136668.521 8     -1627.961          51.000    20958311.328 8  85820764.408 8     -1268.541          51.000
G07  23054809.234 5 121153801.184 5     -2648.398          33.000    23054807.180 5  94405574.866 5     -2063.678          30.000
G28  21318715.977 8 112030645.769 8      1656.539          50.000    21318714.922 7  87296605.793 7      1290.810          45.000
G30  20857861.914 8 109608824.030 8     -1497.023          51.000    20857862.922 8  85409494.056 8     -1166.512          51.000
R07  21807134.164 8 116735289.165 8     -3481.363          48.000    21807136.961 7  90794136.690 7     -2707.727          46.000
R08  19250167.781 7 103083768.933 7      -391.262          47.000    19250168.055 7  80176268.242 7      -304.315          46.000
R10  19213735.758 8 102420005.732 8      -780.492          49.000
R11  21076354.242 8 112625704.991 8      3320.395          50.000    21076354.602 7  87597739.923 7      2582.529          43.000
C05  39788220.023 6 207187702.173 6         5.707          36.000    39788218.945 6 160210660.857 6         4.395          41.000
C20  22005383.297 8 114587803.476 8      -805.230          51.000
E01  24498116.602 8 128738462.802 8      2025.809          51.000    24498120.117 8  98643830.255 8      1552.216          51.000
E19  24477630.477 8 128630813.472 8     -1329.332          48.000    24477632.023 8  98561277.141 8     -1018.609          51.000
E21  24147640.578 8 126896739.661 8      -795.297          48.000    24147642.812 8  97232597.828 8      -609.407          48.000
