     3.02           OBSERVATION DATA    M (MIXED)           RINEX VERSION / TYPE
SAVERINEX           SC600               20200518 115932 LCL PGM / RUN BY / DATE
       G = GPS       R = GLONASS       C = COMPASS          COMMENT
       S = SBAS      J = QZSS          E = GALILEO          COMMENT
BEAN                                                        MARKER NAME
1                                                           MARKER NUMBER
GEODETIC                                                    MARKER TYPE
Unige DICCA         GTER                                    OBSERVER / AGENCY
SC60291900056       SC600               2.12(191202)        REC # / TYPE / VERS
                    HEMA45          NONE                    ANT # / TYPE
  4509407.8091   693652.4678  4442337.6214                  APPROX POSITION XYZ
        0.0000        0.0000        0.0000                  ANTENNA: DELTA H/E/N
G    8 C1C L1C D1C S1C C2Y L2Y D2Y S2Y                      SYS / # / OBS TYPES
R    8 C1C L1C D1C S1C C2P L2P D2P S2P                      SYS / # / OBS TYPES
C    8 C1I L1I D1I S1I C7I L7I D7I S7I                      SYS / # / OBS TYPES
E    8 C1C L1C D1C S1C C7Q L7Q D7Q S7Q                      SYS / # / OBS TYPES
DBHZ                                                        COMMENT
     30.000                                                 INTERVAL
  2020    05    18    09    00    0.0000000     GPS         TIME OF FIRST OBS
  2020    05    18    09    59   30.0000000     GPS         TIME OF LAST OBS
     0                                                      RCV CLOCK OFFS APPL
G L1C  0.00000                                              SYS / PHASE SHIFT
G L2Y  0.00000                                              SYS / PHASE SHIFT
R L1C  0.00000                                              SYS / PHASE SHIFT
R L2P  0.25000                                              SYS / PHASE SHIFT
C L1I  0.00000                                              SYS / PHASE SHIFT
C L7I  0.00000                                              SYS / PHASE SHIFT
E L1C  0.50000                                              SYS / PHASE SHIFT
E L7Q -0.25000                                              SYS / PHASE SHIFT
 14 R03  5 R04  6 R05  1 R06 -4 R09 -2 R10 -5 R13 -2 R14 -7 GLONASS SLOT / FRQ #
    R15  0 R16 -1 R17  4 R18 -3 R19  3 R23  3               GLONASS SLOT / FRQ #
 C1C   71.950 C2C   71.950 C2P   71.950                     GLONASS COD/PHS/BIS
    18                                                      LEAP SECONDS
*** Above antenna height is from mark to ANTENNA BOTTOM.    COMMENT
    17     4        0.0000        ANT MEASURE TYPE/HEIGT    COMMENT
    0.0000    0.0000    0.0458    0.0405    0.0000          COMMENT
                    BASE STATION                            COMMENT
                                                            END OF HEADER
> 2020 05 18 09 00  0.0000000  0 15        .000000000000
G12  20286164.117 8 106604522.016 8      -966.945          51.000    20286163.016 8  83068459.183 8      -753.464          51.000
G24  21796780.766 7 114542840.308 7     -2717.824          43.000    21796782.523 7  89254153.671 7     -2117.785          42.000
G29  22465850.641 8 118058825.636 8      3291.066          51.000    22465852.156 8  91993894.697 8      2564.467          51.000
R06  23325588.930 6 124469808.261 6     -3641.027          37.000
R15  21648093.977 5 115680813.124 5     -2604.559          30.000    21648082.367 5  89973960.267 5     -2025.768          33.000
R16  19497574.570 6 104152597.231 6       384.395          36.000    19497578.719 5  81007540.146 5       298.974          33.000
R18  19768518.305 8 105525782.985 8      1336.902          49.000    19768522.953 8  82075598.130 8      1039.813          50.000
C11  23136800.297 8 120479403.933 8      2554.090          51.000    23136802.617 8  93162325.023 8      1975.036          51.000
C12  22321699.516 5 116235043.998 5      -573.352          35.000    22321700.508 8  89880275.613 8      -443.306          49.000
C24  23956446.016 5 124747427.586 5     -2302.844          33.000
C25  21772473.172 8 113374980.665 8       346.043          51.000
E13  24716242.391 8 129884751.415 8      1531.469          49.000    24716245.477 8  99522094.667 8      1173.502          48.000
E19                                                                  27272939.039 5 109816837.930 5     -2080.202          35.000
E21  23617997.820 8 124113422.490 8      -257.113          51.000    23618000.250 8  95099895.709 8      -197.024          51.000
E27  26124306.039 5 137284143.214 5     -2024.402          35.000
> 2020 05 18 09 00 30.0000000  0 16        .000000000000
G02  23090961.406 4 121343820.888 4       987.246          29.000
G12  20291722.852 8 106633733.136 8      -983.133          51.000    20291721.492 8  83091221.079 8      -766.081          51.000
G24  21812332.453 7 114624574.009 7     -2733.617          43.000    21812335.984 7  89317842.273 7     -2130.088          43.000
G29  22447098.172 8 117960281.105 8      3276.000          50.000    22447100.688 8  91917106.772 8      2552.727          50.000
R06  23346085.805 5 124579179.379 5     -3653.266          35.000
R16  19495460.938 6 104141303.483 6       365.863          37.000    19495464.734 5  80998756.098 5       284.560          33.000
R17  21229491.570 5 113603213.488 5     -2674.000          30.000
R18  19761088.672 7 105486125.688 7      1304.316          46.000    19761094.148 8  82044753.586 8      1014.468          49.000
C11  23122127.055 8 120402993.205 8      2537.320          51.000    23122128.875 8  93103239.440 8      1961.993          51.000
C12  22325057.586 5 116252532.513 5      -595.031          33.000    22325058.727 7  89893798.803 7      -460.288          47.000
C24  23969738.156 6 124816647.740 6     -2314.570          39.000
C25  21770517.336 8 113364796.249 8       330.410          51.000
E13  24707544.711 8 129839045.546 8      1512.973          48.000    24707546.922 7  99487073.281 7      1159.285          47.000
E19                                                                  27288458.031 5 109879329.709 5     -2087.712          34.000
E21  23619489.133 8 124121259.724 8      -267.977          51.000    23619491.406 8  95105900.870 8      -205.339          51.000
E27  26135887.352 5 137345008.972 5     -2032.941          32.000
> 2020 05 18 09 01  0.0000000  0 14        .000000000000
G02  23085352.266 5 121314345.294 5       978.477          31.000    23085340.930 5  94530615.865 5       762.449          30.000
G12  20297351.828 8 106663313.674 8      -988.961          51.000    20297350.523 8  83114270.843 8      -770.619          51.000
G24  21827954.805 7 114706671.750 7     -2739.453          43.000    21827958.625 7  89381814.543 7     -2134.642          43.000
G29  22428411.031 8 117862078.443 8      3270.871          51.000    22428413.789 8  91840585.237 8      2548.731          51.000
R06  23366630.320 5 124688803.666 5     -3655.754          35.000
R16  19493429.133 6 104130445.760 6       357.949          37.000    19493432.812 5  80990311.198 5       278.405          34.000
R18  19753820.656 7 105447331.749 7      1281.953          47.000    19753826.789 8  82014580.506 8       997.072          48.000
C11  23107528.555 8 120326973.500 8      2530.488          50.000    23107530.023 8  93044456.235 8      1956.797          51.000
C12  22328521.242 5 116270568.715 5      -606.996          33.000    22328522.305 8  89907745.458 8      -469.600          48.000
C24  23983080.352 6 124886116.867 6     -2316.801          37.000
C25  21768629.242 8 113354965.110 8       324.824          51.000
E13  24698930.289 8 129793777.883 8      1504.727          48.000    24698931.742 7  99452387.673 7      1152.921          47.000
E19                                                                  27304011.086 5 109941956.818 5     -2087.631          33.000
E21  23621020.172 8 124129306.112 8      -268.625          51.000    23621022.406 8  95112066.285 8      -205.812          51.000
> 2020 05 18 09 01 30.0000000  0 15        .000000000000
G12  20303031.031 8 106693158.347 8     -1000.039          51.000    20303029.797 8  83137526.429 8      -779.251          51.000
G24  21843627.484 7 114789028.145 7     -2750.293          47.000    21843630.641 7  89445988.301 7     -2143.088          47.000
G25  20356513.078 5 106974212.824 5       916.098          32.000    20356520.227 5  83356535.954 5       713.842          34.000
G29  22409769.719 8 117764115.147 8      3260.672          51.000    22409771.641 8  91764250.268 8      2540.786          51.000
R06  23387201.266 5 124798570.508 5     -3662.055          34.000
R15  21692192.578 5 115916467.231 5     -2630.809          33.000    21692198.109 5  90157262.196 5     -2046.184          33.000
R16  19491459.008 6 104119919.132 6       344.730          38.000    19491461.578 5  80982123.843 5       268.127          32.000
R18  19746695.500 8 105409297.358 8      1254.387          49.000    19746701.781 8  81984998.194 8       975.634          48.000
C11  23092985.203 8 120251243.342 8      2518.773          50.000    23092986.375 8  92985896.942 8      1947.585          51.000
C12  22332070.016 6 116289048.473 6      -623.824          36.000    22332071.305 7  89922035.183 7      -482.704          47.000
C24  23996449.094 6 124955731.609 6     -2323.574          40.000
C25  21766789.227 8 113345384.937 8       314.395          51.000
E13  24690380.023 8 129748845.613 8      1491.395          48.000    24690381.320 8  99417959.058 8      1142.706          48.000
E19  27319584.828 5 143565390.717 5     -2729.000          33.000    27319578.188 5 110004619.968 5     -2091.136          32.000
E21  23622571.180 8 124137457.729 8      -274.277          51.000    23622573.422 8  95118312.327 8      -210.173          51.000
> 2020 05 18 09 02  0.0000000  0 16        .000000000000
G12  20308770.484 8 106723319.428 8     -1006.410          51.000    20308769.367 8  83161028.564 8      -784.216          51.000
G24  21859359.242 8 114871693.984 8     -2756.402          50.000    21859361.984 8  89510403.189 8     -2147.849          50.000
G25  20351311.906 5 106946826.407 5       910.102          32.000
G29  22391184.523 8 117666446.433 8      3254.801          51.000    22391184.883 8  91688144.880 8      2536.211          51.000
R06  23407804.414 5 124908552.588 5     -3662.863          31.000
R15  21706989.688 6 115995532.691 6     -2635.277          36.000    21706994.469 4  90218757.536 4     -2049.657          28.000
R16  19489560.969 6 104109778.914 6       335.953          39.000    19489563.266 5  80974237.005 5       261.300          32.000
R17  21274922.688 5 113846322.961 5     -2727.918          34.000    21274929.875 5  88547173.836 5     -2121.714          30.000
R18  19739723.445 8 105372077.411 8      1231.355          51.000    19739729.047 8  81956049.367 8       957.724          48.000
C11  23078507.680 8 120175856.952 8      2511.285          49.000    23078508.680 8  92927603.439 8      1941.894          51.000
C12  22335713.883 6 116308023.356 6      -636.723          39.000    22335715.070 7  89936707.723 7      -492.252          45.000
C24  24009857.133 6 125025543.691 6     -2326.066          38.000
C25  21765007.414 8 113336108.965 8       308.195          51.000
E13  24681903.773 8 129704302.796 8      1482.457          48.000    24681905.156 8  99383828.889 8      1135.927          48.000
E19  27335176.289 6 143647311.681 6     -2728.730          36.000    27335168.602 5 110067396.302 5     -2090.609          31.000
E21  23624152.305 8 124145767.624 8      -275.438          51.000    23624154.578 8  95124679.649 8      -211.047          51.000
> 2020 05 18 09 02 30.0000000  0 13        .000000000000
G12  20314568.602 8 106753788.427 8     -1032.152          51.000    20314567.688 8  83184770.643 8      -804.275          51.000
G24  21875148.320 8 114954661.126 8     -2781.965          51.000    21875150.227 8  89575052.878 8     -2167.765          51.000
G25  20346177.617 5 106919884.356 5       882.902          31.000    20346181.758 5  83314186.651 5       687.982          30.000
G29  22372654.102 8 117569066.579 8      3229.762          51.000    22372653.484 8  91612264.583 8      2516.700          51.000
R16  19487734.000 6 104100017.955 6       307.348          38.000    19487735.812 5  80966645.170 5       239.048          33.000
R18  19732902.938 8 105335665.423 8      1188.672          51.000    19732907.953 8  81927728.976 8       924.526          48.000
C11  23064095.016 8 120100808.292 8      2484.586          49.000    23064095.883 8  92869571.078 8      1921.324          51.000
C12  22339451.711 6 116327484.566 6      -668.078          40.000    22339452.219 7  89951756.373 7      -516.576          45.000
C24  24023298.680 4 125095545.334 4     -2348.238          29.000
C25  21763282.828 8 113327130.223 8       283.105          51.000
E13  24673500.469 8 129660142.816 8      1454.176          49.000    24673501.547 7  99349992.037 7      1114.310          47.000
E19  27350787.977 6 143729348.881 6     -2747.773          37.000    27350780.195 5 110130256.929 5     -2105.392          31.000
E21  23625762.156 8 124154228.121 8      -295.977          51.000    23625764.312 8  95131162.367 8      -226.775          51.000
> 2020 05 18 09 03  0.0000000  0 15        .000000000000
G06  23499089.680 6 123488553.874 6      -395.477          37.000
G12  20320444.836 8 106784667.862 8     -1031.668          51.000    20320443.938 8  83208832.542 8      -803.894          51.000
G24  21891013.875 8 115038030.652 8     -2781.281          51.000    21891015.102 8  89640016.111 8     -2167.232          51.000
G25  20341122.984 5 106893319.905 5       882.785          33.000    20341124.242 5  83293487.127 5       687.885          34.000
G29  22354198.266 8 117472081.022 8      3230.754          51.000    22354197.789 8  91536691.504 8      2517.474          51.000
R16  19485997.789 6 104090742.695 6       305.676          39.000    19485998.219 5  80959431.069 5       237.748          33.000
R17  21305759.031 4 114011422.546 4     -2772.527          29.000
R18  19726253.477 8 105300168.048 8      1172.535          51.000    19726257.820 8  81900119.978 8       911.975          48.000
C11  23049767.594 8 120026201.778 8      2483.949          49.000    23049768.016 8  92811880.626 8      1920.656          51.000
C12  22343302.141 6 116347533.950 6      -673.664          41.000    22343302.641 7  89967259.913 7      -521.029          44.000
C24  24036798.961 5 125165838.157 5     -2343.574          32.000
C25  21761635.523 8 113318552.201 8       283.668          51.000
E13  24665189.938 8 129616470.459 8      1452.066          49.000    24665190.789 8  99316528.814 8      1112.589          48.000
E19  27366439.852 6 143811599.277 6     -2740.629          38.000    27366432.727 5 110193280.919 5     -2100.091          32.000
E21  23627420.516 8 124162942.989 8      -290.281          51.000    23627422.359 8  95137839.987 8      -222.429          51.000
> 2020 05 18 09 03 30.0000000  0 13        .000000000000
G06  23501382.031 6 123500605.231 6      -408.391          38.000    23501380.961 5  96234205.993 5      -318.223          35.000
G12  20326344.125 8 106815668.663 8     -1035.648          51.000    20326343.141 8  83232989.005 8      -806.999          51.000
G24  21906900.672 8 115121513.960 8     -2784.895          51.000    21906901.336 8  89705068.003 8     -2170.048          51.000
G29  22335762.664 8 117375203.969 8      3227.152          50.000    22335762.797 8  91461202.950 8      2514.664          50.000
R16  19484297.906 6 104081661.595 6       299.086          39.000    19484298.414 5  80952367.985 5       232.622          34.000
R18  19719720.820 8 105265294.271 8      1151.773          51.000    19719724.461 8  81872995.947 8       895.824          48.000
C11  23035470.906 8 119951753.675 8      2478.754          48.000    23035470.867 8  92754312.650 8      1916.715          51.000
C12  22347210.891 7 116367885.081 7      -683.617          43.000    22347209.992 6  89982996.683 6      -528.538          40.000
C24  24050298.531 6 125236136.766 6     -2343.398          36.000
C25  21760010.742 8 113310090.263 8       279.895          51.000
E13  24656917.484 8 129572998.837 8      1445.500          48.000    24656918.844 8  99283219.418 8      1107.612          49.000
E19  27382076.656 5 143893772.611 5     -2737.793          35.000    27382070.867 5 110256251.881 5     -2097.987          32.000
E21  23629072.617 8 124171624.346 8      -289.031          51.000    23629074.117 8  95144491.944 8      -221.463          51.000
> 2020 05 18 09 04  0.0000000  0 14        .000000000000
G06  23503816.289 6 123513402.571 6      -436.797          36.000    23503821.719 6  96244178.001 6      -340.361          37.000
G12  20332335.070 8 106847151.429 8     -1055.402          51.000    20332334.148 8  83257521.026 8      -822.391          51.000
G24  21922877.109 8 115205470.890 8     -2804.309          50.000    21922877.984 8  89770488.954 8     -2185.176          50.000
G29  22317416.922 8 117278798.678 8      3207.727          50.000    22317417.141 8  91386082.000 8      2499.530          50.000
G32  22141714.164 5 116355487.299 5      -134.145          32.000
R16  19482703.047 6 104073143.222 6       276.805          39.000    19482704.125 5  80945742.566 5       215.293          35.000
R18  19713373.484 8 105231412.631 8      1114.898          51.000    19713377.359 8  81846643.589 8       867.143          49.000
C11  23021273.641 8 119877824.032 8      2457.652          49.000    23021273.617 8  92697145.570 8      1900.573          51.000
C12  22351246.109 7 116388895.185 7      -709.207          44.000    22351244.102 7  89999242.996 7      -548.407          42.000
C24  24063867.289 6 125306799.071 6     -2359.270          38.000
C25  21758477.148 8 113302103.398 8       260.391          51.000
E13  24648752.336 8 129530090.652 8      1423.000          49.000    24648754.273 8  99250341.717 8      1090.348          49.000
E19  27397766.492 5 143976237.588 5     -2751.188          33.000    27397762.867 5 110319434.352 5     -2107.933          32.000
E21  23630787.188 8 124180633.812 8      -303.680          51.000    23630788.453 8  95151395.305 8      -232.642          51.000
> 2020 05 18 09 04 30.0000000  0 15        .000000000000
G06  23506361.250 6 123526780.935 6      -454.930          37.000    23506366.852 6  96254602.754 6      -354.488          37.000
G12  20338386.203 8 106878950.609 8     -1064.902          51.000    20338385.508 8  83282299.597 8      -829.794          51.000
G24  21938911.492 7 115289734.681 7     -2813.500          46.000    21938913.180 7  89836149.042 7     -2192.338          46.000
G25  20326296.180 6 106815357.038 6       847.836          37.000    20326297.359 6  83232786.746 6       660.651          36.000
G29  22299130.258 8 117182702.595 8      3198.359          50.000    22299130.242 8  91311201.976 8      2492.231          50.000
R16  19481182.430 6 104065021.253 6       264.121          40.000    19481184.570 6  80939425.470 6       205.428          36.000
R17  21352934.875 5 114263805.921 5     -2834.539          34.000
R18  19707180.758 8 105198357.029 8      1088.449          50.000    19707185.141 8  81820933.690 8       846.572          50.000
C11  23007144.523 8 119804251.175 8      2446.820          49.000    23007145.141 8  92640254.374 8      1892.139          51.000
C12  22355376.039 7 116410399.849 7      -724.727          45.000    22355374.711 6  90015871.834 6      -560.344          40.000
C24  24077475.461 6 125377661.148 6     -2364.840          38.000
C25  21757003.297 8 113294429.093 8       251.020          50.000
E13  24640663.242 8 129487582.187 8      1410.637          49.000    24640665.492 8  99217770.302 8      1080.907          49.000
E19                                                                  27413476.773 5 110382703.360 5     -2110.001          32.000
E21  23632532.875 8 124189806.774 8      -308.035          51.000    23632534.016 8  95158423.940 8      -236.039          51.000
> 2020 05 18 09 05  0.0000000  0 16        .000000000000
G06  23509014.117 5 123540721.671 5      -475.906          35.000    23509018.766 6  96265465.691 6      -370.833          36.000
G12  20344493.820 8 106911046.980 8     -1076.492          51.000    20344493.336 8  83307309.755 8      -838.825          51.000
G24  21955000.375 7 115374285.787 7     -2824.809          47.000    21955002.539 7  89902033.027 7     -2201.153          47.000
G25  20321488.016 6 106790093.730 6       835.098          36.000    20321488.375 6  83213101.067 6       650.725          36.000
G29  22280899.508 8 117086899.213 8      3186.793          50.000    22280899.195 8  91236550.040 8      2483.218          50.000
R15  21796791.289 6 116475363.989 6     -2692.852          36.000
R16  19479732.547 6 104057277.802 6       249.949          40.000    19479735.125 6  80933402.782 6       194.405          36.000
R17  21368886.727 5 114349140.891 5     -2855.762          32.000
R18  19701139.445 8 105166109.943 8      1059.723          49.000    19701144.219 8  81795852.619 8       824.229          49.000
C11  22993080.531 8 119731018.439 8      2433.832          48.000    22993082.031 8  92583626.185 8      1881.921          51.000
C12  22359597.266 7 116432379.838 7      -742.215          44.000    22359596.055 5  90032868.152 5      -573.916          35.000
C24  24091118.078 6 125448704.266 6     -2372.789          40.000
C25  21755586.039 8 113287049.795 8       239.387          50.000
E13  24632646.766 8 129445456.058 8      1396.145          50.000    24632649.344 8  99185491.857 8      1069.785          49.000
E19                                                                  27429208.367 5 110446045.187 5     -2114.222          32.000
E21  23634306.234 8 124199124.886 8      -314.664          51.000    23634307.273 8  95165563.806 8      -241.088          51.000
> 2020 05 18 09 05 30.0000000  0 16        .000000000000
G02  23038675.352 5 121069053.371 5       827.387          32.000
G06  23511783.555 6 123555274.943 6      -503.668          36.000    23511789.211 5  96276805.843 5      -392.472          33.000
G12  20350667.328 8 106943489.857 8     -1095.926          51.000    20350667.008 8  83332589.903 8      -853.968          51.000
G24  21971153.820 8 115459173.923 8     -2843.844          50.000    21971156.148 8  89968179.577 8     -2215.985          49.000
G25  20316749.555 5 106765200.347 5       814.984          32.000    20316751.117 5  83193703.654 5       635.059          31.000
G29  22262734.414 8 116991440.855 8      3167.555          50.000    22262733.594 8  91162166.960 8      2468.227          50.000
R16  19478363.516 6 104049965.527 6       227.723          41.000    19478366.938 6  80927715.429 6       177.115          38.000
R17  21384952.602 5 114435105.680 5     -2884.844          32.000
R18  19695259.516 8 105134723.589 8      1023.094          50.000    19695264.539 8  81771441.019 8       795.743          51.000
C11  22979091.680 8 119658177.449 8      2412.941          48.000    22979093.977 8  92527300.946 8      1865.915          51.000
C12  22363918.641 7 116454883.982 7      -767.461          43.000    22363917.000 6  90050269.751 6      -593.434          37.000
C24  24104805.633 6 125519977.875 6     -2387.930          36.000
C25  21754235.078 8 113280016.225 8       220.164          49.000
E13  24624712.953 8 129403763.771 8      1373.871          50.000    24624715.750 8  99153545.843 8      1052.748          49.000
E19                                                                  27444966.688 5 110509507.843 5     -2123.566          30.000
E21  23636116.805 8 124208638.665 8      -328.934          51.000    23636117.922 8  95172853.591 8      -252.052          51.000
> 2020 05 18 09 06  0.0000000  0 19        .000000000000
G02  23033937.125 6 121044154.304 6       822.559          36.000    23033941.750 5  94320151.794 5       640.955          32.000
G06  23514653.914 5 123570359.604 5      -512.203          34.000    23514661.695 5  96288560.099 5      -399.125          34.000
G12  20356891.336 8 106976197.855 8     -1094.680          50.000    20356891.047 8  83358076.656 8      -852.997          50.000
G24  21987356.180 8 115544315.882 8     -2842.199          51.000    21987358.656 8  90034523.893 8     -2214.704          51.000
G25  20312066.531 5 106740596.322 5       815.086          34.000    20312068.938 5  83174531.755 5       635.132          34.000
G29  22244619.977 8 116896248.926 8      3168.598          50.000    22244618.859 8  91087991.504 8      2469.040          50.000
G32  22145667.883 5 116376285.508 5      -209.621          35.000
R15  21827116.414 6 116637441.564 6     -2707.469          38.000
R16  19477060.195 6 104043003.221 6       226.129          41.000    19477063.891 6  80922300.320 6       175.878          38.000
R17  21401119.836 5 114521613.774 5     -2892.582          34.000
R18  19689526.094 8 105104117.464 8      1007.262          51.000    19689531.266 8  81747636.269 8       783.426          51.000
R19  21805108.117 6 116642637.642 6      4213.402          37.000    21805107.398 5  90722048.621 5      3277.091          33.000
C11  22965163.039 8 119585649.839 8      2412.273          48.000    22965165.641 8  92471218.037 8      1865.419          51.000
C12  22368325.203 7 116477831.212 7      -772.301          44.000    22368324.961 5  90068014.088 5      -596.941          32.000
C24  24118522.594 6 125591401.596 6     -2383.312          37.000
C25  21752935.203 8 113273249.156 8       221.125          49.000
E13  24616846.539 8 129362425.666 8      1372.074          49.000    24616849.086 8  99121871.212 8      1051.315          49.000
E19  27460737.586 5 144307149.427 5     -2762.582          32.000
E21  23637949.234 8 124218267.574 8      -322.836          51.000    23637950.594 8  95180231.580 8      -247.335          51.000
> 2020 05 18 09 06 30.0000000  0 16        .000000000000
G02  23029313.133 6 121019849.083 6       801.004          37.000
G12  20363196.742 8 107009332.811 8     -1110.586          51.000    20363196.383 8  83383896.111 8      -865.392          51.000
G24  22003637.789 8 115629873.220 8     -2857.812          51.000    22003640.742 8  90101191.892 8     -2226.870          51.000
G29  22226587.625 8 116801487.991 8      3152.504          50.000    22226587.211 8  91014151.887 8      2456.500          50.000
G32  22146950.180 5 116383019.433 5      -235.188          34.000    22146951.812 4  90688038.349 4      -183.260          29.000
R15  21842360.906 4 116718931.748 4     -2720.902          28.000    21842373.469 4  90781458.439 4     -2116.266          28.000
R16  19475853.312 6 104036557.699 6       207.238          41.000    19475857.195 6  80917287.138 6       161.185          38.000
R18  19683970.227 8 105074457.623 8       973.875          51.000    19683974.820 8  81724567.502 8       757.458          50.000
R19  21781534.383 5 116516535.219 5      4197.340          35.000    21781535.664 6  90623968.997 6      3264.601          38.000
C11  22951325.914 8 119513598.607 8      2394.680          48.000    22951328.602 8  92415503.487 8      1851.839          51.000
C12  22372847.961 7 116501381.764 7      -793.969          43.000
C24  24132300.367 6 125663135.984 6     -2395.270          36.000
C25  21751717.844 8 113266910.623 8       205.098          49.000
E13  24609078.227 7 129321605.602 7      1353.156          47.000    24609080.883 8  99090593.525 8      1036.789          48.000
E19  27476550.133 5 144390244.068 5     -2772.410          33.000
E21  23639834.531 8 124228174.496 8      -333.816          51.000    23639836.156 8  95187822.598 8      -255.737          51.000
> 2020 05 18 09 07  0.0000000  0 13        .000000000000
G02  23024783.273 5 120996051.857 5       789.293          30.000
G12  20369566.781 8 107042807.038 8     -1116.121          51.000    20369566.359 8  83409979.924 8      -869.705          51.000
G24  22019981.445 8 115715757.432 8     -2862.953          51.000    22019984.445 8  90168114.615 8     -2230.873          51.000
G29  22208621.383 8 116707073.191 8      3146.660          51.000    22208621.922 8  90940581.965 8      2451.946          50.000
R16  19474726.625 6 104030541.473 6       198.918          41.000    19474730.750 6  80912607.854 6       154.714          38.000
R18  19678575.148 8 105045657.110 8       951.086          51.000    19678579.602 8  81702167.109 8       739.737          51.000
R19  21758027.375 5 116390795.912 5      4190.035          30.000    21758030.617 6  90526171.785 6      3258.916          40.000
C11  22937564.289 8 119441939.404 8      2387.398          49.000    22937567.070 8  92360092.095 8      1846.034          51.000
C12  22377469.531 7 116525448.530 7      -805.445          42.000    22377492.562 5  90104809.496 5      -623.193          31.000
C25  21750566.797 8 113260915.472 8       199.449          50.000
E13  24601391.984 7 129281217.973 7      1344.367          47.000    24601395.328 8  99059647.197 8      1030.037          49.000
E19  27492386.320 5 144473466.171 5     -2771.262          32.000
E21  23641756.266 8 124238272.942 8      -334.488          51.000    23641758.141 8  95195560.367 8      -256.344          51.000
> 2020 05 18 09 07 30.0000000  0 15        .000000000000
G02  23020330.062 5 120972649.868 5       772.332          34.000
G12  20375980.672 8 107076511.873 8     -1127.500          51.000    20375980.188 8  83436243.436 8      -878.571          51.000
G24  22036366.312 8 115801859.844 8     -2873.832          51.000    22036369.320 8  90235207.369 8     -2239.350          51.000
G25  20298468.555 6 106669146.094 6       779.484          37.000    20298469.273 6  83118829.068 6       607.390          38.000
G29  22190700.945 8 116612898.645 8      3134.871          51.000    22190702.109 8  90867199.236 8      2442.757          51.000
R15  21872996.914 5 116882602.778 5     -2734.281          35.000
R16  19473660.516 7 104024846.289 7       184.266          42.000    19473664.234 6  80908178.269 6       143.318          39.000
R18  19673320.773 8 105017607.667 8       922.254          51.000    19673325.195 8  81680350.886 8       717.309          50.000
C11  22923858.156 8 119370567.023 8      2374.062          49.000    22923860.648 8  92304902.464 8      1835.806          51.000
C12  22382169.508 6 116549923.597 6      -822.711          41.000
C24  24159958.305 5 125807240.279 5     -2405.328          35.000
C25  21749461.469 8 113255157.595 8       187.781          50.000
E13  24593767.859 7 129241155.938 7      1329.785          47.000    24593771.719 8  99028950.305 8      1018.905          48.000
E19  27508225.930 4 144556702.720 4     -2776.582          28.000
E21  23643693.953 8 124248455.133 8      -341.016          51.000    23643696.094 8  95203362.307 8      -261.292          51.000
> 2020 05 18 09 08  0.0000000  0 17        .000000000000
G02  23015958.195 5 120949672.113 5       762.355          33.000
G06  23527294.281 5 123636759.220 5      -584.598          34.000
G12  20382442.977 8 107110471.250 8     -1132.223          51.000    20382442.328 8  83462705.284 8      -882.251          51.000
G24  22052796.664 8 115888203.212 8     -2877.883          49.000    22052799.906 8  90302487.872 8     -2242.506          49.000
G25  20294042.781 5 106645899.754 5       774.551          31.000    20294046.156 5  83100715.119 5       603.546          30.000
G29  22172830.953 8 116518991.117 8      3129.648          49.000    22172832.453 8  90794024.559 8      2438.687          49.000
R15  21888367.062 5 116964739.922 5     -2737.309          34.000    21888383.102 4  90972653.830 4     -2129.024          27.000
R16  19472659.578 7 104019498.452 7       176.441          42.000    19472662.609 6  80904018.837 6       137.232          38.000
R17  21466940.547 5 114873823.331 5     -2965.973          35.000
R18  19668211.773 8 104990335.280 8       900.223          51.000    19668215.844 8  81659139.029 8       700.173          49.000
R19  21711165.195 5 116140066.745 5      4172.242          34.000    21711170.500 7  90331183.561 7      3245.077          43.000
C11  22910212.344 8 119299507.474 8      2367.422          51.000    22910214.156 8  92249954.737 8      1830.517          51.000
C12  22386952.570 6 116574830.289 6      -833.297          41.000    22386955.805 4  90142986.743 4      -644.899          29.000
C24  24173828.406 5 125879457.493 5     -2405.195          33.000
C25  21748406.414 8 113249662.202 8       182.719          50.000
E13  24586210.797 8 129201445.213 8      1321.770          48.000    24586215.031 8  98998522.613 8      1012.775          48.000
E21  23645652.289 8 124258745.973 8      -340.891          51.000    23645654.695 8  95211247.500 8      -261.235          51.000
> 2020 05 18 09 08 30.0000000  0 14        .000000000000
G02  23011679.102 5 120927178.624 5       740.129          34.000
G12  20388964.773 8 107144742.969 8     -1149.578          51.000    20388963.938 8  83489410.512 8      -895.775          51.000
G24  22069283.617 7 115974845.225 7     -2894.949          46.000    22069287.234 7  90370001.092 7     -2255.805          47.000
G29  22155022.586 8 116425411.568 8      3111.879          48.000    22155024.375 8  90721105.435 8      2424.841          48.000
R16  19471735.078 7 104014558.671 7       155.746          43.000    19471737.453 6  80900176.800 6       121.136          39.000
R17  21483653.070 6 114963247.398 6     -2992.613          36.000
R18  19663259.625 8 104963900.586 8       865.113          51.000    19663263.758 8  81638578.736 8       672.866          49.000
R19  21687829.906 6 116015222.137 6      4153.484          36.000    21687832.242 7  90234082.233 7      3230.491          43.000
C11  22896638.102 8 119228820.865 8      2347.930          51.000    22896639.109 8  92195295.388 8      1815.771          51.000
C12  22391829.977 6 116600225.731 6      -856.605          41.000    22391832.852 6  90162623.694 6      -662.539          38.000
C24  24187732.734 5 125951874.968 5     -2419.055          30.000
C25  21747413.062 8 113244488.365 8       165.117          51.000
E13  24578732.594 8 129162145.677 8      1301.191          49.000    24578736.633 8  98968409.987 8       997.017          49.000
E21  23647642.406 8 124269204.473 8      -353.367          51.000    23647645.016 8  95219261.152 8      -270.720          51.000
> 2020 05 18 09 09  0.0000000  0 16        .000000000000
G12  20395553.617 8 107179366.853 8     -1157.594          51.000    20395552.656 8  83516390.158 8      -902.021          51.000
G24  22085834.344 7 116061824.714 7     -2902.391          45.000    22085838.875 7  90437777.326 7     -2261.600          45.000
G25  20285400.031 5 106600490.023 5       746.738          33.000    20285397.188 5  83065312.810 5       581.871          33.000
G29  22137284.641 8 116332202.231 8      3103.105          49.000    22137286.172 8  90648474.788 8      2418.004          48.000
G32  22154975.023 5 116425157.456 5      -328.125          32.000    22154969.227 5  90720896.349 5      -255.688          32.000
R15  21919271.000 4 117129933.032 4     -2759.012          29.000
R16  19470894.977 7 104010069.497 7       144.555          44.000    19470897.039 6  80896685.210 6       112.431          40.000
R17  21500477.094 4 115053395.699 4     -3009.152          29.000    21500491.609 4  89486034.981 4     -2340.452          28.000
R18  19658472.508 8 104938345.806 8       839.594          51.000    19658476.453 7  81618702.820 7       653.020          47.000
R19  21664566.148 6 115890773.736 6      4143.941          38.000    21664567.656 7  90137289.102 7      3223.069          42.000
C11  22883143.172 8 119158549.001 8      2337.844          50.000    22883143.633 8  92140956.780 8      1807.769          51.000
C12  22396808.422 6 116626149.185 6      -870.703          38.000    22396810.078 6  90182669.421 6      -673.071          37.000
C24  24201684.016 5 126024530.113 5     -2422.711          31.000
C25  21746489.328 8 113239677.109 8       156.688          51.000
E13  24571341.203 8 129123299.015 8      1289.781          50.000    24571344.336 8  98938644.365 8       988.310          49.000
E21  23649672.188 8 124279871.485 8      -356.605          51.000    23649674.828 8  95227434.583 8      -273.264          51.000
> 2020 05 18 09 09 30.0000000  0 19        .000000000000
G02  23003419.453 6 120883755.842 6       706.574          38.000    23003425.438 4  94195180.735 4       550.577          26.000
G06  23537902.547 4 123692534.542 4      -649.086          29.000
G12  20402201.102 8 107214299.109 8     -1170.766          51.000    20402200.070 8  83543610.081 8      -912.285          51.000
G24  22102440.547 7 116149097.015 7     -2915.332          46.000    22102445.664 7  90505781.766 7     -2271.684          46.000
G25  20281178.266 5 106578306.070 5       732.445          31.000    20281178.070 5  83048026.691 5       570.743          31.000
G29  22119610.102 8 116239322.235 8      3089.250          50.000    22119610.672 8  90576100.787 8      2407.208          50.000
G32  22156912.008 5 116435344.758 5      -350.402          35.000    22156912.477 5  90728834.634 5      -273.035          33.000
R15  21934778.492 4 117212806.999 4     -2769.324          29.000
R16  19470131.250 7 104005988.343 7       128.020          44.000    19470133.148 6  80893511.001 6        99.571          40.000
R17  21517408.984 4 115144000.417 4     -3031.066          29.000
R18  19653841.969 8 104913627.924 8       808.707          51.000    19653845.719 8  81599477.848 8       628.997          48.000
R19  21641368.961 6 115766681.826 6      4129.164          38.000    21641368.625 6  90040773.271 6      3211.575          40.000
C11  22869720.047 8 119088650.748 8      2322.512          50.000    22869720.117 8  92086907.055 8      1795.877          51.000
C12  22401879.602 6 116652556.713 6      -889.496          39.000    22401877.227 5  90203089.346 5      -688.129          35.000
C24  24215670.914 5 126097360.095 5     -2432.719          33.000
C25  21745627.109 8 113235186.569 8       143.180          51.000
E13  24564027.562 8 129084863.191 8      1273.035          50.000    24564030.625 8  98909193.566 8       975.481          49.000
E21  23651733.555 8 124290704.135 8      -365.051          51.000    23651736.047 8  95235734.927 8      -279.777          51.000
E26  25686632.070 7 134984161.533 7      3138.727          43.000    25686637.820 5 103429429.976 5      2404.923          35.000
> 2020 05 18 09 10  0.0000000  0 16        .000000000000
G02  22999432.930 5 120862820.250 5       683.320          32.000
G12  20408918.961 8 107249601.567 8     -1188.645          51.000    20408918.016 8  83571118.478 8      -926.217          51.000
G24  22119115.086 7 116236723.300 7     -2932.492          47.000    22119119.664 7  90574062.022 7     -2285.059          47.000
G25  20277033.242 5 106556524.153 5       714.137          33.000    20277034.617 5  83031053.813 5       556.473          34.000
G29  22102011.078 8 116146836.159 8      3070.656          51.000    22102009.930 8  90504033.748 8      2392.719          51.000
R15  21950359.547 4 117296065.492 4     -2787.383          27.000
R16  19469455.891 7 104002379.730 7       106.387          44.000    19469457.859 6  80890704.302 6        82.745          41.000
R18  19649380.500 8 104889811.767 8       772.992          51.000    19649383.836 7  81580954.196 7       601.216          47.000
R19  21618250.672 6 115643014.482 6      4109.289          37.000    21618248.938 6  89944587.661 6      3196.117          40.000
C11  22856381.133 8 119019189.994 8      2302.332          50.000    22856380.945 8  92033195.623 8      1780.297          51.000
C12  22407056.305 6 116679509.523 6      -913.453          38.000    22407052.570 7  90223930.929 7      -706.213          42.000
C24  24229710.477 6 126170468.361 6     -2446.961          37.000
C25  21744838.312 8 113231079.700 8       124.785          51.000
E13  24556804.320 8 129046902.020 8      1251.660          51.000    24556807.141 8  98880106.445 8       959.079          49.000
E21  23653838.398 8 124301765.412 8      -378.301          51.000    23653840.758 8  95244210.445 8      -289.903          51.000
E26  25668726.406 7 134890064.744 7      3128.387          44.000    25668731.125 5 103357329.930 5      2396.800          33.000
> 2020 05 18 09 10 30.0000000  0 15        .000000000000
G02  22995547.133 5 120842402.639 5       675.176          34.000
G12  20415701.148 8 107285242.172 8     -1190.348          51.000    20415700.344 8  83598890.362 8      -927.547          51.000
G24  22135851.719 8 116324671.786 8     -2933.645          49.000    22135855.695 8  90642593.294 8     -2285.960          49.000
G29  22084481.625 8 116054714.895 8      3067.961          51.000    22084479.016 8  90432250.989 8      2390.622          51.000
R16  19468863.273 7 103999213.525 7       101.555          44.000    19468865.664 6  80888241.696 6        78.987          41.000
R17  21551604.188 4 115326963.048 4     -3067.031          29.000
R18  19645081.984 8 104866866.460 8       753.605          51.000    19645085.266 7  81563107.877 7       586.141          47.000
R19  21595205.062 5 115519744.135 5      4105.781          35.000    21595205.023 7  89848710.789 7      3193.388          42.000
C11  22843120.414 8 118950137.453 8      2298.199          48.000    22843120.375 8  91979799.834 8      1777.147          51.000
C12  22412330.359 5 116706975.206 5      -920.832          35.000    22412326.664 6  90245169.259 6      -712.009          41.000
C24  24243793.719 5 126243802.759 5     -2444.734          35.000
C25  21744117.555 8 113227326.372 8       122.473          51.000
E13  24549665.406 8 129009385.306 8      1246.512          49.000    24549668.039 8  98851359.874 8       955.188          49.000
E21  23655980.797 8 124313024.297 8      -375.273          51.000    23655983.125 8  95252837.375 8      -287.553          51.000
E26  25650842.242 7 134796085.343 7      3134.109          44.000    25650844.898 5 103285324.803 5      2401.448          32.000
> 2020 05 18 09 11  0.0000000  0 15        .000000000000
G02  22991742.703 5 120822410.547 5       658.418          34.000
G12  20422529.844 8 107321127.036 8     -1201.156          51.000    20422529.055 8  83626852.576 8      -935.966          51.000
G24  22152631.812 8 116412847.230 8     -2944.004          49.000    22152634.688 8  90711301.396 8     -2294.032          49.000
G25  20268938.562 5 106513970.929 5       698.863          35.000    20268938.141 6  82997902.334 6       544.578          36.000
G29  22067003.906 8 115962866.992 8      3056.004          50.000    22067000.898 8  90360681.255 8      2381.302          50.000
R16  19468335.930 7 103996395.944 7        87.051          45.000    19468338.477 7  80886050.238 7        67.706          42.000
R18  19640929.203 8 104844697.844 8       724.992          51.000    19640932.188 8  81545865.640 8       563.883          48.000
R19  21572216.352 6 115396780.110 6      4092.793          36.000    21572218.656 7  89753072.081 7      3183.283          43.000
C11  22829920.102 7 118881402.367 7      2285.043          47.000    22829920.742 8  91926649.533 8      1766.717          51.000
C12  22417686.477 5 116734860.534 5      -937.629          35.000    22417681.891 6  90266731.914 6      -724.937          41.000
C24  24257903.242 6 126317270.415 6     -2452.363          36.000
C25  21743447.203 8 113223834.953 8       111.012          51.000
E13  24542593.102 8 128972220.841 8      1231.938          48.000    24542595.906 8  98822883.241 8       943.916          49.000
E21  23658143.133 8 124324387.819 8      -381.547          51.000    23658145.539 8  95261544.483 8      -292.378          51.000
E26  25632962.961 7 134702131.982 7      3130.223          44.000    25632962.250 5 103213334.720 5      2398.617          33.000
> 2020 05 18 09 11 30.0000000  0 15        .000000000000
G12  20429421.477 8 107357342.662 8     -1214.715          51.000    20429420.625 8  83655072.538 8      -946.531          51.000
G24  22169471.203 8 116501335.443 8     -2957.051          49.000    22169472.977 8  90780253.176 8     -2304.198          49.000
G25  20264984.328 5 106493202.759 5       683.965          35.000    20264987.078 5  82981719.413 5       532.960          35.000
G29  22049594.617 8 115871381.949 8      3041.582          49.000    22049592.477 8  90289394.252 8      2370.064          49.000
R15  21997384.430 5 117547323.371 5     -2807.168          34.000    21997390.797 5  91425700.667 5     -2183.356          30.000
R16  19467890.711 7 103994017.000 7        69.879          45.000    19467893.320 6  80884199.961 6        54.350          41.000
R18  19636938.414 8 104823395.599 8       693.539          51.000    19636941.727 8  81529297.262 8       539.422          49.000
R19  21549303.766 6 115274215.477 6      4076.711          37.000    21549306.766 7  89657744.049 7      3170.778          43.000
C11  22816797.164 7 118813072.888 7      2268.793          47.000    22816798.648 8  91873812.873 8      1754.384          51.000
C12  22423138.414 5 116763250.838 5      -957.004          32.000    22423134.742 7  90288685.150 7      -739.950          44.000
C24  24272054.781 5 126390957.577 5     -2461.621          35.000
C25  21742844.109 8 113220692.871 8        96.848          51.000
E13  24535604.617 8 128935497.049 8      1214.754          48.000    24535607.547 8  98794744.244 8       930.776          49.000
E21  23660342.055 8 124335943.596 8      -390.465          51.000    23660344.555 8  95270398.900 8      -299.220          51.000
E26  25615105.914 7 134608294.012 7      3123.891          44.000    25615103.891 5 103141432.960 5      2393.783          35.000
> 2020 05 18 09 12  0.0000000  0 15        .000000000000
G12  20436371.203 8 107393863.650 8     -1221.598          51.000    20436370.312 8  83683530.443 8      -951.894          51.000
G24  22186364.898 8 116590110.817 8     -2963.133          50.000    22186365.922 8  90849428.705 8     -2308.938          50.000
G25  20261096.703 5 106472775.202 5       676.648          31.000    20261100.523 5  82965801.928 5       527.262          31.000
G29  22032249.328 7 115780237.148 7      3033.492          46.000    22032249.039 7  90218372.354 7      2363.763          46.000
R15  22013149.562 5 117631573.232 5     -2811.352          32.000    22013151.258 4  91491254.249 4     -2186.610          26.000
R16  19467522.758 7 103992052.663 7        59.273          44.000    19467525.227 7  80882672.131 7        46.102          42.000
R18  19633105.523 8 104802935.462 8       668.816          51.000    19633108.969 8  81513383.830 8       520.191          49.000
R19  21526462.703 6 115152029.392 6      4067.523          37.000    21526465.117 7  89562710.456 7      3163.629          42.000
C11  22803748.234 7 118745126.278 7      2259.359          47.000    22803749.805 8  91821272.269 8      1747.143          50.000
C12  22428682.188 5 116792120.461 5      -969.340          31.000    22428679.281 7  90311009.060 7      -749.522          44.000
C24  24286244.562 6 126464839.322 6     -2465.062          40.000
C25  21742303.375 8 113217876.556 8        89.297          51.000
E13  24528695.445 8 128899190.366 8      1204.113          48.000    24528698.406 8  98766924.835 8       922.662          48.000
E21  23662572.992 8 124347667.318 8      -392.754          51.000    23662575.508 8  95279382.002 8      -300.893          51.000
E26  25597266.609 7 134514548.844 7      3124.273          43.000    25597265.211 5 103069602.248 5      2393.981          35.000
> 2020 05 18 09 12 30.0000000  0 16        .000000000000
G12  20443382.594 8 107430708.895 8     -1226.477          51.000    20443381.734 8  83712241.021 8      -955.696          51.000
G24  22203316.539 8 116679190.384 8     -2967.277          51.000    22203317.125 8  90918841.298 8     -2312.164          51.000
G25  20257278.328 5 106452708.167 5       670.133          35.000    20257281.820 5  82950165.273 5       522.181          35.000
G29  22014972.977 7 115689454.125 7      3027.289          46.000    22014974.406 7  90147632.325 7      2358.923          46.000
G32  22170938.203 5 116509057.825 5      -461.621          33.000
R15  22028967.812 5 117716038.485 5     -2814.688          33.000
R16  19467236.203 7 103990524.122 7        50.805          44.000    19467238.578 7  80881483.264 7        39.515          42.000
R18  19629434.062 8 104783337.767 8       646.027          51.000    19629437.688 8  81498141.187 8       502.466          49.000
R19  21503696.789 6 115030246.107 6      4059.930          37.000    21503698.195 6  89467990.182 6      3157.723          40.000
C11  22790777.531 8 118677583.502 8      2251.730          49.000    22790778.875 8  91769043.972 8      1741.196          51.000
C12  22434322.188 6 116821487.910 6      -980.492          38.000    22434319.461 7  90333717.876 7      -758.013          45.000
C24  24300475.156 6 126538934.619 6     -2466.457          37.000
C25  21741828.836 8 113215406.231 8        83.555          51.000
E13  24521869.445 7 128863321.352 7      1195.453          47.000    24521872.648 8  98739440.795 8       915.988          48.000
E21  23664839.742 8 124359578.841 8      -393.102          51.000    23664842.156 8  95288508.998 8      -301.187          51.000
E26  25579448.906 7 134420918.007 7      3126.258          42.000    25579449.664 6 102997859.163 6      2395.486          38.000
> 2020 05 18 09 13  0.0000000  0 16        .000000000000
G12  20450426.562 8 107467725.398 8     -1242.691          51.000    20450425.719 8  83741085.044 8      -968.331          51.000
G24  22220296.875 8 116768421.412 8     -2982.906          51.000    22220297.289 8  90988371.971 8     -2324.343          51.000
G25  20253498.977 5 106432849.460 5       652.207          35.000    20253504.547 6  82934690.834 6       508.213          36.000
G29  21997738.008 8 115598882.500 8      3009.703          49.000    21997739.703 8  90077057.059 8      2345.223          49.000
G32  22173645.117 5 116523276.832 5      -486.977          35.000    22173648.430 5  90797354.506 5      -379.462          32.000
R15  22044801.500 5 117800673.166 5     -2828.730          33.000
R16  19467002.633 7 103989277.433 7        30.777          44.000    19467004.828 7  80880513.617 7        23.938          42.000
R18  19625895.336 8 104764448.529 8       611.691          50.000    19625899.000 8  81483449.543 8       475.760          49.000
R19  21480977.742 6 114908714.591 6      4040.676          36.000    21480978.125 6  89373465.749 6      3142.751          39.000
C11  22777856.453 8 118610295.240 8      2232.789          51.000    22777857.383 8  91717012.484 8      1726.549          51.000
C12  22440028.328 6 116851200.852 6     -1001.934          39.000    22440026.234 7  90356693.863 7      -774.731          44.000
C24  24314715.570 5 126613092.240 5     -2478.492          34.000
C25  21741391.852 8 113213131.659 8        66.609          51.000
E13  24515097.969 7 128827738.634 7      1175.340          47.000    24515100.836 7  98712176.145 7       900.546          47.000
E21  23667113.367 8 124371526.028 8      -404.770          51.000    23667115.625 8  95297663.328 8      -310.151          51.000
E26  25561624.445 6 134327251.108 6      3116.570          41.000    25561628.188 6 102926088.398 6      2388.264          39.000
> 2020 05 18 09 13 30.0000000  0 18        .000000000000
G06  23571156.531 5 123867216.632 5      -799.641          34.000
G12  20457544.188 8 107505128.978 8     -1247.914          51.000    20457543.273 8  83770230.688 8      -972.401          51.000
G24  22237346.711 8 116858018.743 8     -2987.297          51.000    22237348.094 8  91058188.053 8     -2327.764          51.000
G25  20249799.891 5 106413416.752 5       646.266          30.000    20249808.438 5  82919547.756 5       503.587          30.000
G29  21980585.289 8 115508741.050 8      3002.902          50.000    21980586.453 8  90006816.994 8      2339.924          49.000
G32  22176478.367 5 116538151.798 5      -502.172          32.000    22176480.211 4  90808945.300 4      -391.312          29.000
R15  22060704.266 5 117885642.358 5     -2832.855          33.000    22060718.531 4  91688953.221 4     -2203.338          25.000
R16  19466863.250 7 103988534.383 7        21.668          44.000    19466865.945 7  80879935.681 7        16.853          43.000
R18  19622530.516 8 104746488.543 8       588.504          49.000    19622534.250 8  81469480.669 8       457.725          50.000
R19  21458347.680 6 114787659.534 6      4032.574          36.000    21458347.648 6  89279311.917 6      3136.450          40.000
C11  22765025.891 8 118543477.942 8      2224.715          51.000    22765026.500 8  91665345.148 8      1720.254          51.000
C12  22445841.609 6 116881472.977 6     -1013.105          40.000    22445839.539 7  90380102.172 7      -783.443          43.000
C24  24329009.086 5 126687526.489 5     -2480.555          33.000
C25  21741033.859 8 113211268.560 8        60.586          51.000
E13  24508422.648 7 128792660.061 7      1166.262          47.000    24508424.320 7  98685297.781 7       893.518          46.000
E19  27699748.969 5 145563162.857 5     -2808.785          33.000    27699749.906 5 111535412.229 5     -2152.360          33.000
E21  23669435.102 8 124383726.030 8      -405.547          51.000    23669437.180 8  95307011.381 8      -310.744          51.000
E26  25543835.023 6 134233766.921 6      3118.551          40.000    25543841.422 6 102854457.660 6      2389.500          39.000
> 2020 05 18 09 14  0.0000000  0 18        .000000000000
G02  22970885.500 5 120712833.976 5       551.512          34.000
G06  23575809.945 5 123891674.258 5      -831.426          35.000
G12  20464728.367 8 107542882.261 8     -1270.156          51.000    20464727.281 8  83799648.831 8      -989.732          51.000
G24  22254459.180 8 116947944.729 8     -3008.906          50.000    22254461.070 8  91128260.246 8     -2344.602          51.000
G25  20246175.859 5 106394371.774 5       622.680          34.000    20246183.312 5  82904707.650 5       485.214          33.000
G29  21963507.648 8 115418994.805 8      2978.926          51.000    21963508.461 8  89936884.903 8      2321.241          50.000
G32  22179429.172 6 116553653.260 6      -533.203          37.000    22179432.461 6  90821024.401 6      -415.483          37.000
R16  19466811.453 7 103988258.810 7        -4.504          44.000    19466814.609 7  80879721.340 7        -3.503          42.000
R18  19619333.086 8 104729421.157 8       548.039          49.000    19619337.008 8  81456206.040 8       426.253          49.000
R19  21435800.656 6 114667047.893 6      4006.516          36.000    21435801.242 6  89185502.948 6      3116.179          41.000
C11  22752278.680 8 118477096.711 8      2199.504          51.000    22752279.227 8  91614014.989 8      1700.763          51.000
C12  22451754.977 6 116912266.620 6     -1041.102          39.000    22451753.234 7  90403913.784 7      -805.025          43.000
C24  24343347.836 5 126762200.521 5     -2499.223          31.000
C25  21740748.180 8 113209781.274 8        37.410          51.000
E13  24501836.570 7 128758049.871 7      1139.895          47.000    24501837.719 7  98658778.293 7       873.354          47.000
E19  27715824.789 5 145647642.782 5     -2823.852          33.000    27715824.898 5 111600143.529 5     -2163.859          31.000
E21  23671797.922 8 124396142.380 8      -423.422          51.000    23671799.820 8  95316525.204 8      -324.491          51.000
E26  25526074.500 6 134140430.766 6      3102.453          36.000    25526082.398 7 102782940.342 7      2377.360          42.000
> 2020 05 18 09 14 30.0000000  0 20        .000000000000
G02  22967745.672 5 120696313.456 5       541.004          33.000
G06  23580574.961 5 123916713.155 5      -844.164          34.000    23580590.320 5  96558556.902 5      -657.793          31.000
G12  20471971.227 8 107580943.724 8     -1274.137          51.000    20471969.969 8  83829307.110 8      -992.834          51.000
G24  22271625.977 8 117038156.386 8     -3012.086          51.000    22271628.234 8  91198554.992 8     -2347.080          51.000
G25  20242618.156 5 106375674.679 5       617.453          33.000    20242625.289 4  82890138.383 4       481.129          29.000
G29  21946497.375 8 115329605.035 8      2973.477          50.000    21946498.336 8  89867230.569 8      2316.995          50.000
G32  22182479.641 5 116569742.546 5      -546.012          33.000    22182497.531 4  90833617.342 4      -425.479          25.000
R15  22092664.711 5 118056524.433 5     -2855.508          31.000
R16  19466839.727 7 103988409.940 7       -12.578          44.000    19466843.070 7  80879838.884 7        -9.783          43.000
R17  21692491.156 5 116080786.761 5     -3214.105          33.000
R18  19616295.273 8 104713205.285 8       525.898          50.000    19616298.992 8  81443593.688 8       409.032          48.000
R19  21413329.578 6 114546842.210 6      3999.730          36.000    21413330.945 7  89092009.664 7      3110.901          43.000
C11  22739607.125 8 118411112.685 8      2192.543          51.000    22739607.844 8  91562991.958 8      1695.380          51.000
C12  22457760.227 6 116943540.146 6     -1050.770          40.000    22457759.445 7  90428096.495 7      -812.452          42.000
C24  24357726.875 6 126837073.456 6     -2499.215          37.000
C25  21740527.062 8 113208630.162 8        32.457          51.000
E13  24495331.984 7 128723868.155 7      1131.930          47.000    24495333.570 7  98632587.123 7       867.341          47.000
E19  27731917.117 5 145732205.866 5     -2820.484          35.000    27731914.977 5 111664932.515 5     -2160.986          31.000
E21  23674194.172 8 124408734.528 8      -422.957          51.000    23674195.859 8  95326173.721 8      -324.093          51.000
E26                                                                  25508343.836 7 102711506.688 7      2379.452          43.000
> 2020 05 18 09 15  0.0000000  0 18        .000000000000
G06  23585407.117 5 123942195.543 5      -864.082          31.000
G12  20479235.203 8 107619115.832 8     -1284.266          51.000    20479233.852 8  83859051.605 8     -1000.726          51.000
G24  22288809.578 8 117128455.949 8     -3021.574          51.000    22288811.703 8  91268918.264 8     -2354.473          51.000
G29  21929517.250 8 115240376.822 8      2961.527          50.000    21929518.891 8  89797702.119 8      2307.684          50.000
G32  22185636.281 5 116586293.314 5      -565.988          35.000    22185641.375 5  90846480.357 5      -441.030          31.000
R16  19466910.867 7 103988789.648 7       -26.957          45.000    19466914.125 7  80880134.212 7       -20.970          43.000
R17  21710520.188 5 116177263.357 5     -3231.582          34.000
R18  19613379.570 8 104697641.658 8       497.750          50.000    19613383.430 8  81431488.672 8       387.139          48.000
R19  21390897.062 6 114426846.896 6      3985.652          36.000    21390900.023 7  88998679.988 7      3099.952          43.000
C11  22726974.266 8 118345332.758 8      2179.285          50.000    22726975.414 8  91512126.774 8      1685.183          51.000
C12  22463820.352 7 116975097.560 7     -1066.664          42.000    22463819.836 7  90452498.707 7      -824.770          42.000
C24  24372108.242 6 126911950.167 6     -2505.957          38.000
C25  21740333.180 8 113207621.239 8        21.312          51.000
E13  24488871.555 7 128689919.325 7      1117.762          47.000    24488873.797 8  98606574.427 8       856.464          48.000
E19  27747986.570 5 145816654.460 5     -2823.324          35.000    27747983.617 4 111729630.981 4     -2163.000          29.000
E21  23676586.555 8 124421306.205 8      -428.758          51.000    23676588.086 8  95335806.558 8      -328.496          51.000
E26  25490581.242 6 133953909.984 6      3101.906          36.000    25490588.336 7 102640007.577 7      2376.660          43.000
E27  26478195.125 5 139143846.564 5     -2108.836          34.000
> 2020 05 18 09 15 30.0000000  0 17        .000000000000
G02  22961738.664 5 120664786.261 5       507.523          35.000
G12  20486616.625 8 107657905.168 8     -1294.691          51.000    20486615.227 8  83889277.050 8     -1008.850          51.000
G24  22306105.883 8 117219348.782 8     -3031.070          50.000    22306107.773 8  91339743.792 8     -2361.873          50.000
G25  20235685.164 5 106339289.642 5       593.578          32.000    20235692.906 5  82861762.043 5       462.531          32.000
G29  21912664.805 8 115151819.280 8      2949.281          49.000    21912666.836 8  89728696.246 8      2298.141          49.000
R16  19467121.422 7 103989914.153 7       -41.082          45.000    19467124.516 7  80881008.825 7       -31.953          43.000
R17  21728708.234 5 116274583.086 5     -3249.273          32.000
R18  19610682.750 8 104683245.814 8       469.090          50.000    19610686.312 7  81420291.933 7       364.848          46.000
R19  21368601.914 6 114307581.927 6      3971.812          37.000    21368604.898 7  88905918.335 7      3089.187          42.000
C11  22714477.500 8 118280260.852 8      2165.695          49.000    22714478.758 8  91461809.086 8      1674.659          51.000
C12  22470030.969 6 117007440.014 6     -1082.594          41.000    22470031.164 6  90477507.978 6      -837.194          41.000
C24  24386585.484 6 126987332.682 6     -2512.742          37.000
C25  21740263.305 8 113207257.784 8         9.777          51.000
E13  24482552.609 7 128656711.472 7      1103.051          47.000    24482554.750 7  98581129.441 7       845.258          47.000
E19  27764130.391 5 145901489.726 5     -2825.801          34.000
E21  23679071.492 8 124434364.796 8      -434.871          51.000    23679073.023 8  95345812.490 8      -333.249          51.000
E26  25472902.523 7 133861021.210 7      3097.848          42.000    25472912.547 7 102568833.085 7      2373.643          43.000
> 2020 05 18 09 16  0.0000000  0 17        .000000000000
G02  22958879.555 5 120649765.286 5       492.555          33.000    22958873.359 5  94012747.439 5       383.809          33.000
G12  20494026.992 8 107696846.895 8     -1303.066          51.000    20494025.648 8  83919621.241 8     -1015.376          51.000
G24  22323426.227 8 117310369.502 8     -3038.484          48.000    22323427.555 8  91410669.022 8     -2367.647          48.000
G25  20232319.289 5 106321597.344 5       584.664          33.000    20232323.227 5  82847975.829 5       455.582          30.000
G29  21895852.750 8 115063470.564 8      2939.102          51.000    21895854.562 8  89659853.107 8      2290.209          51.000
R16  19467383.422 7 103991313.429 7       -53.629          45.000    19467386.344 7  80882097.148 7       -41.711          43.000
R17  21746961.805 4 116372269.937 4     -3264.496          28.000    21746965.500 4  90511879.323 4     -2539.053          25.000
R18  19608116.734 8 104669546.693 8       442.582          51.000    19608120.016 7  81409637.076 7       344.230          47.000
R19  21346356.117 6 114188579.446 6      3960.113          38.000    21346358.523 6  88813360.884 6      3080.091          41.000
C11  22702029.055 8 118215438.851 8      2154.168          49.000    22702029.867 8  91411684.628 8      1665.691          51.000
C12  22476303.898 6 117040106.682 6     -1096.688          41.000    22476304.883 6  90502767.984 6      -848.025          40.000
C24  24401070.492 5 127062760.789 5     -2516.887          31.000
C25  21740229.336 8 113207080.892 8          .324          51.000
E13  24476286.445 7 128623781.568 7      1090.594          47.000    24476288.648 8  98555897.462 8       835.662          48.000
E19  27780259.602 5 145986250.790 5     -2826.410          35.000    27780262.328 5 111859599.731 5     -2165.637          32.000
E21  23681560.836 8 124447446.711 8      -438.895          51.000    23681562.320 8  95355836.289 8      -336.254          51.000
E26  25455218.219 7 133768094.180 7      3095.852          45.000    25455228.500 7 102497629.257 7      2372.032          45.000
> 2020 05 18 09 16 30.0000000  0 17        .000000000000
G02  22956125.812 5 120635287.614 5       477.336          33.000
G06  23600715.656 5 124022562.304 5      -918.422          34.000    23600717.570 5  96640970.194 5      -715.659          34.000
G12  20501502.500 8 107736130.982 8     -1311.488          51.000    20501501.258 8  83950232.214 8     -1021.939          51.000
G24  22340806.062 7 117401707.802 7     -3046.152          46.000    22340808.969 7  91481841.720 7     -2373.625          46.000
G25  20229027.758 6 106304290.988 6       573.988          36.000    20229028.258 6  82834490.274 6       447.264          37.000
G29  21879117.453 8 114975523.327 8      2928.473          51.000    21879118.688 8  89591322.810 8      2281.930          51.000
G32  22195817.297 4 116639810.716 4      -620.816          29.000
R16  19467733.383 7 103993182.145 7       -66.426          46.000    19467736.359 7  80883550.580 7       -51.664          43.000
R18  19605717.516 8 104656738.913 8       415.758          51.000    19605720.938 7  81399675.525 7       323.370          47.000
R19  21324196.000 6 114070037.688 6      3947.102          37.000    21324197.805 6  88721161.806 6      3069.971          38.000
C11  22689665.391 8 118151057.441 8      2142.246          50.000    22689665.562 8  91361900.840 8      1656.590          51.000
C12  22482675.531 7 117073285.258 7     -1110.922          42.000    22482675.938 6  90528423.781 6      -858.911          38.000
C25  21740267.539 8 113207280.431 8        -9.258          51.000
E13  24470109.805 7 128591321.355 7      1077.840          47.000    24470111.797 7  98531025.366 7       825.937          47.000
E19  27796409.781 5 146071124.288 5     -2827.277          35.000    27796415.352 5 111924632.673 5     -2166.460          33.000
E21  23684091.016 8 124460743.065 8      -443.102          51.000    23684092.414 8  95366024.414 8      -339.570          51.000
E26  25437563.750 7 133675321.689 7      3093.520          46.000    25437573.656 7 102426543.861 7      2370.362          46.000
> 2020 05 18 09 17  0.0000000  0 18        .000000000000
G06  23605994.141 5 124050335.443 5      -953.477          31.000    23605995.547 5  96662603.145 5      -742.972          30.000
G12  20508996.195 8 107775510.888 8     -1338.836          51.000    20508995.078 8  83980917.837 8     -1043.249          51.000
G24  22358199.766 7 117493115.921 7     -3072.777          47.000    22358203.945 7  91553068.857 7     -2394.369          46.000
G25  20225760.727 5 106287124.529 5       545.633          34.000    20225761.742 5  82821113.793 5       425.171          35.000
G29  21862412.203 8 114887733.779 8      2899.164          51.000    21862412.742 8  89522915.399 8      2259.089          51.000
G32  22199416.008 5 116658715.026 5      -656.441          34.000
R15  22173333.695 4 118487599.063 4     -2911.895          27.000
R16  19468124.859 7 103995271.775 7       -98.352          46.000    19468127.578 7  80885175.856 7       -76.496          43.000
R18  19603438.523 8 104644572.727 8       369.980          50.000    19603441.766 7  81390212.954 7       287.763          47.000
R19  21302075.648 6 113951710.761 6      3915.395          37.000    21302077.484 6  88629129.818 6      3045.310          39.000
C11  22677339.891 8 118086874.405 8      2111.742          50.000    22677339.578 8  91312270.447 8      1632.984          51.000
C12  22489098.305 6 117106730.874 6     -1143.758          40.000    22489098.312 6  90554286.073 6      -884.275          39.000
C24  24430129.438 5 127214065.986 5     -2546.367          34.000
C25  21740331.477 8 113207613.538 8       -37.605          51.000
E13  24463975.695 7 128559085.902 7      1046.312          47.000    24463977.695 7  98506325.488 7       801.705          46.000
E19  27812534.070 5 146155853.736 5     -2846.719          35.000    27812541.711 5 111989562.086 5     -2181.548          33.000
E21  23686615.289 8 124474008.270 8      -466.160          51.000    23686616.703 8  95376188.658 8      -357.176          51.000
E26  25419892.094 8 133582459.875 8      3072.309          48.000    25419901.008 7 102355390.002 7      2354.122          46.000
> 2020 05 18 09 17 30.0000000  0 18        .000000000000
G02  22950874.398 5 120607717.220 5       445.957          32.000    22950882.875 5  93980032.530 5       347.499          32.000
G12  20516593.367 8 107815434.845 8     -1328.867          51.000    20516592.375 8  84012027.398 8     -1035.481          51.000
G24  22375692.680 7 117585042.131 7     -3061.680          47.000    22375697.695 7  91624699.620 7     -2385.724          47.000
G25  20222604.961 6 106270547.173 6       553.539          36.000    20222608.180 6  82808196.441 6       431.329          36.000
G29  21845822.531 8 114800552.407 8      2906.883          51.000    21845822.266 8  89454981.906 8      2265.103          51.000
G32  22203127.430 5 116678243.356 5      -655.434          34.000    22203119.234 5  90918042.554 5      -510.749          31.000
R16  19468643.031 7 103998039.558 7       -92.469          46.000    19468646.008 7  80887328.572 7       -71.920          44.000
R17  21802285.734 5 116668423.921 5     -3311.688          31.000    21802296.359 5  90742130.540 5     -2575.751          30.000
R18  19601364.922 8 104633504.326 8       361.844          50.000    19601368.391 8  81381604.218 8       281.437          48.000
R19  21280081.602 6 113834059.512 6      3921.703          38.000    21280083.500 6  88537623.362 6      3050.214          40.000
C11  22665137.891 8 118023336.075 8      2118.043          50.000    22665137.664 8  91263138.596 8      1637.769          51.000
C12  22495657.445 7 117140887.011 7     -1139.488          42.000    22495658.023 6  90580697.852 6      -880.919          40.000
C24  24444746.414 6 127290153.146 6     -2532.492          38.000
C25  21740506.812 8 113208525.846 8       -29.172          51.000
E13  24457969.727 7 128527525.021 7      1051.648          47.000    24457971.430 7  98482142.513 7       805.832          45.000
E19  27828717.539 5 146240903.917 5     -2829.484          33.000    27828726.609 5 112054730.333 5     -2167.259          32.000
E21  23689219.148 8 124487691.582 8      -452.152          51.000    23689220.609 8  95386673.278 8      -346.445          51.000
E26  25402289.516 8 133489959.625 8      3088.172          49.000    25402296.922 7 102284513.193 7      2366.309          47.000
> 2020 05 18 09 18  0.0000000  0 15        .000000000000
G12  20524231.570 8 107855574.202 8     -1348.348          51.000    20524230.531 8  84043304.805 8     -1050.661          51.000
G24  22393221.766 8 117677156.075 8     -3080.492          48.000    22393226.734 7  91696476.643 7     -2400.387          47.000
G25  20219500.109 6 106254231.151 6       532.961          37.000    20219502.836 6  82795482.647 6       415.291          38.000
G29  21829286.117 8 114713653.414 8      2885.215          51.000    21829284.992 8  89387268.451 8      2248.219          51.000
R16  19469225.875 7 104001153.007 7      -116.461          46.000    19469229.016 7  80889750.126 7       -90.581          44.000
R18  19599434.742 8 104623200.815 8       323.828          49.000    19599438.273 8  81373590.380 8       251.866          49.000
R19  21258152.961 6 113716754.530 6      3897.180          39.000    21258154.883 7  88446386.217 7      3031.143          42.000
C11  22652997.227 8 117960119.020 8      2095.141          50.000    22652997.648 8  91214255.195 8      1620.084          51.000
C12  22502291.133 7 117175427.584 7     -1164.512          43.000    22502291.812 6  90607406.841 6      -900.411          39.000
C24  24459378.727 5 127366349.647 5     -2548.730          32.000
C25  21740731.328 8 113209693.132 8       -50.047          51.000
E13  24452030.000 7 128496311.609 7      1027.824          47.000    24452030.805 7  98458225.768 7       787.545          43.000
E19  27844897.844 5 146325927.943 5     -2840.406          34.000    27844908.680 5 112119906.819 5     -2176.978          31.000
E21  23691840.102 8 124501465.317 8      -467.418          51.000    23691841.688 8  95397227.187 8      -358.160          51.000
E26  25384693.719 8 133397494.967 8      3074.816          48.000    25384700.031 8 102213663.671 8      2356.028          48.000
> 2020 05 18 09 18 30.0000000  0 16        .000000000000
G06  23622580.906 5 124137468.914 5      -987.734          33.000    23622590.000 5  96730556.392 5      -769.663          33.000
G12  20531931.492 8 107896037.585 8     -1345.059          51.000    20531930.352 8  84074834.698 8     -1048.098          51.000
G24  22410807.125 8 117769565.134 8     -3076.156          49.000    22410811.117 8  91768483.641 8     -2397.008          49.000
G25  20216465.844 6 106238285.446 6       534.430          36.000    20216466.688 5  82783057.403 5       416.439          35.000
G29  21812823.969 8 114627147.183 8      2886.090          49.000    21812822.266 8  89319861.036 8      2248.904          49.000
R16  19469894.328 7 104004724.358 7      -117.469          47.000    19469897.461 7  80892527.835 7       -91.365          44.000
R18  19597668.312 8 104613772.771 8       308.906          49.000    19597672.109 8  81366257.481 8       240.263          49.000
R19  21236310.766 6 113599910.619 6      3896.191          40.000    21236312.758 7  88355507.667 7      3030.374          43.000
C11  22640939.219 8 117897332.595 8      2094.625          49.000    22640940.312 8  91165704.781 8      1619.760          51.000
C12  22509018.328 6 117210459.020 6     -1166.891          40.000    22509019.578 6  90634495.387 6      -902.290          41.000
C24  24474049.719 5 127442762.897 5     -2541.367          33.000
C25  21741025.812 8 113211224.078 8       -48.109          51.000
E13  24446177.477 7 128465555.447 7      1026.676          47.000    24446176.953 7  98434659.397 7       786.662          44.000
E19  27861095.359 5 146411049.028 5     -2829.473          35.000
E21  23694499.023 8 124515438.703 8      -459.973          51.000    23694500.867 8  95407934.071 8      -352.420          51.000
E26  25367125.836 8 133305176.805 8      3083.973          48.000    25367131.320 8 102142926.396 8      2363.017          48.000
> 2020 05 18 09 19  0.0000000  0 18        .000000000000
G06  23628320.875 5 124167618.662 5     -1015.617          35.000    23628323.164 5  96754014.606 5      -791.387          32.000
G12  20539678.336 8 107936747.506 8     -1363.695          51.000    20539677.266 8  84106556.710 8     -1062.620          51.000
G24  22428433.852 8 117862192.186 8     -3093.766          48.000    22428436.508 8  91840660.510 8     -2410.730          48.000
G25  20213486.992 6 106222634.041 6       514.414          37.000    20213488.305 6  82770861.579 6       400.842          37.000
G29  21796422.398 8 114540959.741 8      2864.988          49.000    21796420.867 8  89252702.035 8      2232.461          49.000
G32  22214931.789 5 116740258.463 5      -719.070          35.000
R16  19470634.234 7 104008677.316 7      -140.820          47.000    19470637.508 7  80895602.352 7      -109.527          44.000
R17  21858472.055 4 116969051.141 4     -3366.625          28.000
R18  19596051.711 8 104605143.172 8       271.668          49.000    19596055.195 8  81359545.556 8       211.294          49.000
R19  21214540.891 6 113483454.540 6      3872.766          39.000    21214542.984 7  88264930.763 7      3012.151          44.000
C11  22628949.945 8 117834902.998 8      2072.398          50.000    22628951.414 8  91117430.284 8      1602.646          51.000
C12  22515825.789 7 117245904.644 7     -1191.055          43.000    22515827.062 7  90661904.251 7      -921.053          43.000
C24  24488750.633 5 127519316.909 5     -2556.688          34.000
C25  21741375.688 8 113213044.100 8       -68.109          51.000
E13  24440397.664 7 128435181.375 7      1003.539          47.000    24440396.422 7  98411385.789 7       768.835          44.000
E19  27877295.297 5 146496174.950 5     -2840.891          33.000
E21  23697181.695 8 124529536.018 8      -474.574          51.000    23697183.664 8  95418735.915 8      -363.605          51.000
E26  25349571.641 7 133212931.065 7      3071.016          47.000    25349576.617 7 102072244.616 7      2353.155          47.000
> 2020 05 18 09 19 30.0000000  0 19        .000000000000
G06  23634153.492 5 124198264.956 5     -1027.594          31.000    23634159.688 4  96777894.797 4      -800.719          28.000
G12  20547467.531 8 107977680.178 8     -1365.980          51.000    20547466.664 8  84138452.301 8     -1064.400          51.000
G24  22446096.945 7 117955011.746 7     -3094.988          46.000    22446098.305 7  91912987.424 7     -2411.679          46.000
G25  20210560.438 6 106207254.243 6       510.496          40.000    20210563.156 6  82758877.343 6       397.792          40.000
G29  21780077.961 8 114455070.048 8      2860.230          50.000    21780077.203 8  89185775.045 8      2228.754          49.000
G32  22219066.211 5 116761965.832 5      -729.660          31.000
R15  22255187.109 5 118924983.050 5     -2929.699          31.000    22255198.211 4  92497238.223 4     -2278.655          28.000
R16  19471441.516 7 104012989.480 7      -147.422          47.000    19471444.508 7  80898956.255 7      -114.664          44.000
R17  21877370.938 4 117070156.250 4     -3374.402          29.000    21877375.125 5  91054629.504 5     -2624.532          31.000
R18  19594580.164 8 104597288.656 8       251.145          50.000    19594583.711 8  81353436.494 8       195.335          49.000
R19  21192839.492 6 113367366.814 6      3865.391          38.000    21192841.797 7  88174640.340 7      3006.418          44.000
C11  22617025.477 8 117772808.845 8      2066.301          50.000    22617026.844 8  91069415.177 8      1597.922          51.000
C12  22522708.008 6 117281740.386 6     -1198.625          41.000    22522709.055 6  90689614.787 6      -926.974          41.000
C24  24503475.086 6 127595988.465 6     -2555.211          37.000
C25  21741776.617 8 113215131.174 8       -71.754          51.000
E13  24434686.219 7 128405167.194 7       996.699          47.000    24434685.312 7  98388387.929 7       763.729          45.000
E19  27893493.125 5 146581292.727 5     -2835.090          34.000
E21  23699883.602 8 124543734.580 8      -472.770          51.000    23699885.664 8  95429615.345 8      -362.216          51.000
E26  25332027.438 7 133120736.743 7      3074.402          47.000    25332032.070 7 102001602.234 7      2355.887          47.000
> 2020 05 18 09 20  0.0000000  0 19        .000000000000
G06  23640132.719 5 124229741.292 5     -1046.777          31.000    23640134.906 5  96802389.360 5      -815.649          32.000
G12  20555353.641 8 108019122.206 8     -1375.688          51.000    20555352.961 8  84170744.786 8     -1071.964          51.000
G24  22463850.594 7 118048310.254 7     -3103.809          45.000    22463851.969 7  91985687.560 7     -2418.552          45.000
G25  20207740.438 6 106192433.101 6       498.863          40.000    20207743.859 6  82747328.349 6       388.722          40.000
G29  21763845.344 8 114369766.656 8      2847.875          51.000    21763845.430 8  89119304.909 8      2219.123          51.000
G32  22223357.875 5 116784525.696 5      -748.895          31.000
R15  22271721.266 5 119013321.304 5     -2938.094          30.000    22271727.141 4  92565950.732 4     -2285.178          28.000
R16  19472370.750 7 104017953.891 7      -161.809          47.000    19472373.484 7  80902817.457 7      -125.851          44.000
R17  21896397.453 5 117171966.265 5     -3390.984          31.000    21896399.992 5  91133815.076 5     -2637.432          30.000
R18  19593308.500 8 104590500.713 8       222.871          49.000    19593312.305 8  81348157.010 8       173.347          50.000
R19  21171262.070 6 113251944.050 6      3850.648          38.000    21171264.539 7  88084867.146 7      2994.952          43.000
C11  22605220.430 8 117711336.001 8      2052.793          50.000    22605221.375 8  91021880.492 8      1587.332          51.000
C12  22529719.289 6 117318249.237 6     -1214.070          41.000    22529719.602 6  90717845.717 6      -938.748          40.000
C24  24518277.141 6 127673061.428 6     -2561.082          37.000
C25  21742283.297 8 113217770.433 8       -83.086          51.000
E13  24429097.883 7 128375800.742 7       982.199          46.000    24429098.188 7  98365886.360 7       752.678          46.000
E19  27909742.672 5 146666681.229 5     -2836.859          35.000
E21  23702659.344 8 124558321.658 8      -478.508          51.000    23702661.531 8  95440792.466 8      -366.676          51.000
E26  25314548.352 8 133028882.777 8      3070.289          48.000    25314552.539 7 101931220.673 7      2352.559          45.000
> 2020 05 18 09 20 30.0000000  0 17        .000000000000
G06  23646183.875 5 124261538.228 5     -1071.539          33.000    23646182.367 5  96827166.227 5      -834.969          32.000
G12  20563257.719 8 108060658.651 8     -1391.559          51.000    20563257.203 8  84203110.843 8     -1084.331          51.000
G24  22481616.039 7 118141671.943 7     -3118.332          45.000    22481618.234 7  92058436.948 7     -2429.869          45.000
G25  20204947.680 6 106177756.495 6       481.395          37.000    20204950.172 6  82735891.994 6       375.113          37.000
G29  21747646.055 8 114284637.483 8      2829.301          51.000    21747646.766 8  89052970.519 8      2204.650          51.000
R16  19473343.508 7 104023150.423 7      -182.586          47.000    19473346.078 7  80906859.203 7      -142.011          44.000
R17  21915475.352 5 117274054.858 5     -3413.512          31.000    21915476.797 4  91213217.331 4     -2654.957          27.000
R18  19592158.031 8 104584358.784 8       188.543          50.000    19592161.805 8  81343379.968 8       146.645          48.000
R19  21149730.977 6 113136768.238 6      3829.305          37.000    21149732.977 7  87995286.012 7      2978.348          42.000
C11  22593456.055 8 117650075.414 8      2033.199          49.000    22593456.531 8  90974509.924 8      1572.132          51.000
C12  22536780.617 6 117355019.441 6     -1235.605          37.000    22536780.547 6  90746278.773 6      -955.276          41.000
C24  24533078.172 5 127750125.197 5     -2574.117          35.000
C25  21742817.328 8 113220552.194 8      -100.477          51.000
E13  24423553.938 7 128346668.665 7       961.715          45.000    24423555.297 7  98343564.387 7       736.904          46.000
E19  27925964.633 5 146751924.584 5     -2844.469          35.000
E21  23705430.383 8 124572883.433 8      -490.426          51.000    23705432.633 8  95451950.190 8      -375.799          51.000
E26  25297055.930 7 132936957.001 7      3059.867          47.000    25297059.023 7 101860784.082 7      2344.639          42.000
> 2020 05 18 09 21  0.0000000  0 17        .000000000000
G06  23652356.297 5 124293970.747 5     -1095.406          30.000    23652359.680 5  96852438.314 5      -853.566          30.000
G12  20571230.766 8 108102557.284 8     -1407.016          51.000    20571230.359 8  84235759.137 8     -1096.376          51.000
G24  22499445.016 7 118235363.939 7     -3132.734          47.000    22499447.602 7  92131443.707 7     -2441.092          47.000
G25  20202233.172 6 106163493.172 6       464.090          37.000    20202235.352 6  82724777.718 6       361.628          37.000
G29  21731531.430 8 114199952.784 8      2811.102          51.000    21731532.328 8  88986982.456 8      2190.469          51.000
G32  22232172.000 6 116830878.378 6      -798.441          38.000    22232175.602 6  91037038.874 6      -622.159          36.000
R16  19474411.047 8 104028853.182 8      -202.973          48.000    19474413.844 7  80911294.659 7      -157.868          44.000
R18  19591179.461 8 104579135.547 8       154.383          49.000    19591183.016 8  81339317.461 8       120.076          49.000
R19  21128297.625 6 113022117.227 6      3808.133          36.000    21128299.586 7  87906113.107 7      2961.887          42.000
C11  22581783.680 8 117589294.838 8      2013.684          48.000    22581783.773 8  90927510.524 8      1557.202          51.000
C12  22543941.922 6 117392315.673 6     -1256.211          36.000    22543942.445 7  90775118.707 7      -971.361          42.000
C24  24547926.930 5 127827445.282 5     -2585.855          34.000
C25  21743430.203 8 113223743.404 8      -117.504          51.000
E13  24418105.859 7 128318040.430 7       941.449          45.000    24418107.891 7  98321628.453 7       721.394          47.000
E19  27942209.773 6 146837300.422 6     -2851.906          36.000    27942225.477 5 112511712.918 5     -2184.975          32.000
E21  23708247.891 8 124587688.831 8      -501.965          51.000    23708250.070 8  95463294.590 8      -384.619          51.000
E26  25279601.523 7 132845230.021 7      3049.945          45.000    25279602.359 6 101790499.881 6      2336.821          37.000
> 2020 05 18 09 21 30.0000000  0 18        .000000000000
G12  20579273.086 8 108144819.873 8     -1409.707          51.000    20579272.719 8  84268691.026 8     -1098.473          51.000
G24  22517337.266 8 118329386.852 8     -3134.590          48.000    22517339.695 8  92204708.258 8     -2442.541          48.000
G25  20199598.438 6 106149645.699 6       459.895          40.000    20199600.219 6  82713987.490 6       358.359          40.000
G29  21715501.922 8 114115716.693 8      2805.492          51.000    21715503.008 8  88921343.951 8      2186.101          51.000
G32  22236764.086 6 116855020.655 6      -810.340          40.000    22236776.523 6  91055851.080 6      -631.431          37.000
R15  22321512.086 5 119279399.751 5     -2967.414          32.000
R16  19475574.383 8 104035065.855 8      -210.449          49.000    19475576.438 7  80916126.748 7      -163.683          44.000
R17  21953936.781 5 117479879.938 5     -3443.332          34.000    21953931.508 4  91373273.889 4     -2678.147          24.000
R18  19590373.367 8 104574833.288 8       133.254          50.000    19590377.430 8  81335971.296 8       103.642          49.000
R19  21106963.094 5 112907997.424 5      3799.922          34.000    21106965.578 6  87817353.329 6      2955.498          41.000
C11  22570204.109 8 117528997.928 8      2006.719          48.000    22570203.867 8  90880885.114 8      1551.867          50.000
C12  22551206.219 6 117430139.134 6     -1264.477          36.000    22551205.883 7  90804366.199 7      -977.595          42.000
C24  24562825.273 6 127905023.593 6     -2585.250          36.000
C25  21744122.336 8 113227347.163 8      -121.949          51.000
E13  24412754.125 7 128289919.155 7       934.082          45.000    24412757.125 8  98300080.975 8       715.761          48.000
E19  27958478.102 5 146922793.386 5     -2846.418          35.000    27958486.445 5 112577244.925 5     -2181.028          34.000
E21  23711112.289 8 124602740.587 8      -500.719          51.000    23711114.383 8  95474827.751 8      -383.623          51.000
E26  25262185.922 7 132753706.201 7      3052.426          43.000    25262181.742 6 101720371.452 6      2339.030          37.000
> 2020 05 18 09 22  0.0000000  0 17        .000000000000
G12  20587362.195 8 108187328.148 8     -1422.672          51.000    20587361.758 8  84301814.359 8     -1108.579          51.000
G24  22535269.875 8 118423621.190 8     -3146.254          49.000    22535272.109 8  92278137.532 8     -2451.629          49.000
G25  20197020.484 6 106136096.657 6       444.930          41.000    20197022.156 6  82703429.801 6       346.695          41.000
G29  21699535.531 8 114031813.693 8      2789.629          51.000    21699536.484 8  88855964.996 8      2173.737          50.000
R15  22338204.242 5 119368604.435 5     -2978.082          33.000    22338205.703 4  92842227.415 4     -2316.289          27.000
R16  19476810.922 8 104041669.988 8      -228.152          48.000    19476812.625 7  80921263.307 7      -177.452          44.000
R17  21973300.969 5 117583485.937 5     -3461.922          33.000    21973296.609 4  91453857.869 4     -2692.606          28.000
R18  19589717.398 8 104571332.227 8       101.719          48.000    19589721.273 8  81333248.251 8        79.115          48.000
R19  21085705.867 5 112794293.338 5      3781.980          33.000    21085709.680 6  87728916.858 6      2941.543          41.000
C11  22558695.383 8 117469069.615 8      1989.895          49.000    22558694.914 8  90834544.782 8      1538.695          49.000
C12  22558548.602 6 117468371.735 6     -1283.102          37.000    22558548.336 7  90833930.152 7      -991.819          42.000
C24  24577751.180 5 127982743.119 5     -2594.980          35.000
C25  21744871.305 8 113231247.708 8      -136.562          51.000
E13  24407476.984 7 128262188.073 7       916.297          46.000    24407480.805 8  98278832.492 8       702.145          48.000
E19  27974746.648 5 147008284.594 5     -2851.438          33.000    27974750.617 5 112642734.658 5     -2184.781          33.000
E21  23714001.156 8 124617921.448 8      -509.707          51.000    23714003.289 8  95486459.847 8      -390.549          51.000
E26  25244787.875 6 132662269.959 6      3044.957          39.000    25244781.797 6 101650310.058 6      2333.185          41.000
> 2020 05 18 09 22 30.0000000  0 17        .000000000000
G12  20595499.117 8 108230087.360 8     -1426.207          51.000    20595498.531 8  84335133.222 8     -1111.330          51.000
G24  22553243.836 8 118518071.944 8     -3148.664          50.000    22553245.891 8  92351735.472 8     -2453.504          50.000
G25  20194499.500 6 106122852.079 6       439.738          38.000    20194501.672 6  82693109.345 6       342.653          39.000
G29  21683633.852 8 113948251.709 8      2782.969          49.000    21683633.906 8  88790851.774 8      2168.547          49.000
G32  22246256.641 5 116904835.194 5      -844.984          30.000    22246244.977 5  91094678.310 5      -658.448          30.000
R16  19478121.664 7 104048672.421 7      -236.730          47.000    19478123.359 7  80926709.643 7      -184.124          44.000
R17  21992743.312 5 117687516.604 5     -3471.262          35.000    21992740.484 5  91534770.605 5     -2699.870          30.000
R18  19589212.805 8 104568638.437 8        79.805          50.000    19589216.578 8  81331153.084 8        62.070          49.000
R19  21064529.453 5 112681015.118 5      3772.336          34.000    21064533.133 6  87640811.609 6      2934.039          40.000
C11  22547259.273 8 117409517.244 8      1982.043          51.000    22547258.031 8  90788495.174 8      1532.684          48.000
C12  22565970.680 6 117507018.175 6     -1291.871          38.000    22565969.367 6  90863814.025 6      -998.920          39.000
C24  24592706.211 4 128060671.965 4     -2595.547          27.000
C25  21745678.406 8 113235451.771 8      -141.867          51.000
E13  24402275.734 7 128234853.965 7       907.828          47.000    24402279.617 8  98257888.183 8       695.603          48.000
E19  27991016.031 5 147093781.291 5     -2846.250          31.000    27991018.609 5 112708244.397 5     -2181.324          33.000
E21  23716915.727 8 124633237.785 8      -509.473          51.000    23716917.945 8  95498195.740 8      -390.366          51.000
E26                                                                  25227402.469 7 101580321.873 7      2334.313          45.000
> 2020 05 18 09 23  0.0000000  0 18        .000000000000
G02  22928945.359 5 120492446.051 5       255.980          33.000
G12  20603703.961 8 108273203.612 8     -1440.727          51.000    20603703.180 8  84368730.288 8     -1122.644          51.000
G24  22571278.945 8 118612843.711 8     -3161.996          51.000    22571281.047 8  92425583.563 8     -2463.896          51.000
G25  20192056.992 6 106110018.908 6       423.699          40.000    20192059.422 6  82683109.495 6       330.155          40.000
G29  21667817.656 8 113865138.663 8      2765.312          50.000    21667815.312 8  88726088.404 8      2154.792          50.000
R15  22371726.789 5 119547725.358 5     -2992.852          31.000
R16  19479527.562 8 104056183.054 8      -256.375          48.000    19479529.508 7  80932551.241 7      -199.403          45.000
R17  22012283.523 5 117792077.037 5     -3491.727          35.000    22012280.617 5  91616095.369 5     -2715.787          31.000
R18  19588879.773 8 104566859.899 8        46.551          50.000    19588883.695 8  81329769.801 8        36.206          49.000
R19  21043454.641 6 112568275.459 6      3751.211          36.000    21043457.727 6  87553125.273 6      2917.612          41.000
C11  22535916.305 8 117350447.933 8      1963.270          51.000    22535914.156 8  90742819.101 8      1518.122          50.000
C12  22573491.547 6 117546182.774 6     -1311.773          38.000    22573490.148 7  90894098.609 7     -1014.259          42.000
C24  24607709.602 5 128138793.856 5     -2605.426          35.000
C25  21746564.289 8 113240065.812 8      -158.164          51.000
E13  24397170.148 7 128208024.333 7       888.391          46.000    24397174.117 8  98237330.413 8       680.757          48.000
E19                                                                  28007309.203 5 112773827.471 5     -2186.451          32.000
E21  23719876.516 8 124648796.690 8      -520.219          51.000    23719878.727 8  95510117.497 8      -398.606          51.000
E26  25210050.516 6 132479720.622 6      3037.020          36.000    25210061.758 8 101510490.234 8      2326.983          48.000
> 2020 05 18 09 23 30.0000000  0 17        .000000000000
G02  22927517.016 4 120484950.107 4       239.367          29.000
G12  20611942.164 8 108316495.405 8     -1450.309          51.000    20611941.250 8  84402464.136 8     -1130.111          51.000
G24  22589340.453 8 118707754.920 8     -3170.301          50.000    22589342.703 8  92499540.317 8     -2470.367          50.000
G25  20189659.094 7 106097416.173 7       411.934          44.000    20189661.008 7  82673289.174 7       320.984          43.000
G29  21652053.125 8 113782295.536 8      2752.586          51.000    21652049.008 8  88661535.383 8      2144.875          51.000
R15  22388536.914 5 119637529.682 5     -3000.797          30.000
R16  19480994.516 8 104064018.631 8      -271.113          48.000    19480996.836 7  80938645.581 7      -210.866          45.000
R17  22031886.344 5 117896978.356 5     -3506.707          33.000    22031883.172 5  91697685.293 5     -2727.439          31.000
R18  19588683.406 8 104565812.470 8        18.336          51.000    19588687.352 8  81328955.150 8        14.264          49.000
R19  21022446.922 6 112455894.119 6      3735.398          36.000    21022449.688 7  87465717.612 7      2905.313          42.000
C11  22524631.867 8 117291683.641 8      1949.414          51.000    22524629.422 8  90697378.874 8      1507.386          50.000
C12  22581077.711 6 117585684.667 6     -1326.707          39.000    22581076.531 6  90924644.024 6     -1025.906          41.000
C24  24622725.578 6 128216984.155 6     -2611.781          36.000
C25  21747494.719 8 113244911.096 8      -169.703          51.000
E13  24392126.195 7 128181518.824 7       873.730          47.000    24392130.211 8  98217020.999 8       669.527          48.000
E21  23722848.992 8 124664417.360 8      -526.094          51.000    23722851.422 8  95522086.576 8      -403.084          51.000
E26  25192716.969 6 132388609.543 6      3032.258          41.000    25192725.211 8 101440677.861 8      2323.397          49.000
> 2020 05 18 09 24  0.0000000  0 15        .000000000000
G12  20620250.484 8 108360156.141 8     -1459.836          51.000    20620249.508 8  84436485.479 8     -1137.534          51.000
G24  22607464.852 8 118802997.580 8     -3178.543          49.000    22607466.875 8  92573755.373 8     -2476.787          48.000
G25  20187342.070 7 106085238.686 7       400.516          43.000    20187343.656 7  82663800.213 7       312.090          43.000
G29  21636377.695 8 113699918.906 8      2739.676          51.000    21636374.461 8  88597345.858 8      2134.812          51.000
R16  19482559.555 8 104072378.398 8      -285.734          48.000    19482561.789 7  80945147.627 7      -222.238          44.000
R17  22051587.258 5 118002415.067 5     -3521.867          34.000    22051585.500 5  91779691.634 5     -2739.230          32.000
R18  19588661.242 8 104565693.609 8        -9.844          51.000    19588665.102 8  81328862.728 8        -7.656          49.000
R19  21001543.719 6 112344073.058 6      3719.492          38.000    21001546.586 7  87378745.712 7      2892.938          43.000
C11  22513442.820 8 117233418.702 8      1935.504          50.000    22513440.805 8  90652324.752 8      1496.642          51.000
C12  22588764.500 6 117625715.266 6     -1341.359          38.000    22588763.875 6  90955598.294 6     -1037.396          38.000
C24  24637793.453 5 128295439.064 5     -2618.043          32.000
C25  21748506.609 8 113250181.339 8      -181.070          51.000
E13  24387181.305 7 128155532.925 7       859.133          47.000    24387186.000 8  98197109.724 8       658.318          48.000
E21  23725870.320 8 124680294.898 8      -531.887          51.000    23725872.922 8  95534252.475 8      -407.550          51.000
E26  25175423.562 7 132297720.438 7      3027.457          43.000    25175430.367 8 101371035.558 8      2319.743          50.000
> 2020 05 18 09 24 30.0000000  0 15        .000000000000
G02  22924992.320 5 120471633.563 5       202.477          32.000
G12  20628617.031 8 108404122.917 8     -1471.383          50.000    20628615.992 8  84470745.298 8     -1146.532          51.000
G24  22625639.617 7 118898508.343 7     -3188.824          47.000    22625641.898 7  92648179.316 7     -2484.798          47.000
G25  20185093.531 6 106073424.057 6       387.125          41.000    20185095.656 7  82654594.005 7       301.656          42.000
G29  21620779.445 8 113617948.030 8      2724.859          51.000    21620777.922 8  88533472.486 8      2123.270          51.000
R16  19484210.969 7 104081199.661 7      -302.559          47.000    19484213.039 7  80952008.622 7      -235.323          44.000
R17  22071375.539 5 118108319.337 5     -3538.762          33.000    22071376.406 5  91862061.634 5     -2752.370          33.000
R18  19588801.039 8 104566439.388 8       -39.957          51.000    19588804.625 8  81329442.796 8       -31.078          49.000
R19  20980733.969 6 112232752.989 6      3701.574          38.000    20980736.906 7  87292163.461 7      2879.002          44.000
C11  22502337.219 8 117175592.538 8      1919.418          48.000    22502336.328 8  90607609.904 8      1484.382          51.000
C12  22596540.852 6 117666211.319 6     -1358.250          41.000    22596539.648 5  90986912.412 5     -1050.397          33.000
C25  21749588.352 8 113255815.328 8      -194.520          51.000
E13  24382323.156 7 128130004.859 7       842.691          46.000    24382328.680 7  98177549.277 7       645.669          46.000
E21  23728928.719 8 124696367.172 8      -539.613          51.000    23728931.281 8  95546567.587 8      -413.485          51.000
E26  25158159.055 7 132206992.733 7      3020.918          44.000    25158165.891 8 101301516.952 8      2314.795          50.000
> 2020 05 18 09 25  0.0000000  0 18        .000000000000
G02  22923859.422 5 120465701.864 5       189.676          32.000
G06  23705602.953 5 124573754.850 5     -1238.363          31.000    23705609.938 4  97070487.544 4      -964.961          29.000
G12  20637024.727 8 108448305.638 8     -1477.059          50.000    20637023.555 8  84505173.397 8     -1150.955          50.000
G24  22643847.625 7 118994196.506 7     -3193.266          46.000    22643850.508 7  92722741.483 7     -2488.259          47.000
G25  20182897.227 7 106061883.553 7       379.309          43.000    20182899.609 7  82645601.422 7       295.568          43.000
G29  21605241.461 8 113536295.859 8      2715.707          51.000    21605241.688 8  88469847.425 8      2116.132          51.000
G32  22271826.914 5 117039248.823 5      -941.145          34.000
R16  19485931.969 7 104090393.082 7      -313.496          47.000    19485934.055 7  80959159.067 7      -243.830          44.000
R17  22091234.539 5 118214596.772 5     -3549.043          33.000    22091237.133 5  91944721.847 5     -2760.367          31.000
R18  19589085.891 8 104567959.142 8       -64.297          51.000    19589089.398 8  81330624.851 8       -50.009          49.000
R19  20960001.562 6 112121847.472 6      3689.031          39.000    20960004.336 7  87205903.653 7      2869.247          44.000
C11  22491298.594 7 117118118.330 7      1909.164          47.000    22491299.164 8  90563167.231 8      1476.287          51.000
C12  22604389.727 6 117707083.239 6     -1369.414          41.000    22604388.828 5  91018517.088 5     -1058.749          34.000
C24  24668017.969 5 128452841.170 5     -2628.441          33.000
C25  21750723.211 8 113261725.672 8      -202.430          51.000
E13  24377535.484 7 128104846.410 7       831.668          46.000    24377540.555 7  98158272.026 7       637.258          45.000
E21  23732007.344 8 124712545.610 8      -541.852          51.000    23732009.695 8  95558964.042 8      -415.176          51.000
E26  25140908.828 7 132116339.589 7      3019.758          47.000    25140915.414 8 101232055.458 8      2313.864          50.000
> 2020 05 18 09 25 30.0000000  0 17        .000000000000
G02  22922835.320 6 120460317.739 6       172.902          36.000
G06  23712737.703 6 124611269.037 6     -1257.656          37.000    23712743.531 6  97099697.443 6      -979.995          37.000
G12  20645493.367 8 108492808.468 8     -1486.570          49.000    20645492.211 8  84539850.912 8     -1158.366          50.000
G24  22662108.797 7 119090164.367 7     -3201.375          46.000    22662110.383 7  92797521.552 7     -2494.581          46.000
G25  20180773.062 7 106050721.511 7       367.848          43.000    20180775.297 7  82636903.737 7       286.635          43.000
G29  21589783.797 8 113455068.172 8      2702.598          50.000    21589785.664 8  88406553.102 8      2105.917          50.000
R16  19487742.664 7 104100065.635 7      -328.164          47.000    19487744.922 7  80966682.145 7      -255.239          44.000
R17  22111181.867 5 118321349.118 5     -3563.906          32.000    22111186.602 4  92027751.462 4     -2771.924          27.000
R18  19589535.344 8 104570358.147 8       -92.430          51.000    19589538.938 8  81332490.763 8       -71.890          49.000
R19  20939367.266 6 112011466.506 6      3672.441          39.000    20939369.516 7  87120051.819 7      2856.343          43.000
C11  22480348.250 7 117061100.696 7      1895.117          46.000    22480349.297 8  90519077.587 8      1465.401          51.000
C12  22612330.367 6 117748432.762 6     -1384.160          41.000    22612329.297 5  91050491.208 5     -1070.242          32.000
C24  24683188.375 5 128531828.081 5     -2634.695          31.000
C25  21751931.094 8 113268016.322 8      -213.898          51.000
E13  24372838.438 7 128080162.482 7       817.020          45.000    24372843.094 7  98139358.380 7       625.965          45.000
E21  23735126.016 8 124728934.736 8      -547.656          51.000    23735128.250 8  95571521.946 8      -419.636          51.000
E26  25123693.320 8 132025867.143 8      3014.902          49.000    25123698.828 8 101162732.437 8      2310.081          48.000
> 2020 05 18 09 26  0.0000000  0 17        .000000000000
G06  23719980.672 6 124649327.492 6     -1277.938          38.000    23719986.148 6  97129353.324 6      -995.795          38.000
G12  20654019.469 8 108537613.183 8     -1498.078          50.000    20654018.453 8  84574763.679 8     -1167.334          49.000
G24  22680420.102 7 119186393.463 7     -3211.672          46.000    22680420.773 7  92872505.153 7     -2502.605          45.000
G25  20178717.727 7 106039920.602 7       354.449          44.000    20178719.688 7  82628487.464 7       276.197          44.000
G29  21574403.969 8 113374249.186 8      2687.516          50.000    21574406.477 8  88343577.250 8      2094.168          50.000
R15  22473348.727 5 120090756.576 5     -3040.586          31.000    22473340.930 4  93403885.557 4     -2364.894          27.000
R16  19489640.125 7 104110200.866 7      -345.145          47.000    19489642.305 7  80974565.121 7      -268.446          44.000
R17  22131214.719 5 118428554.963 5     -3580.754          30.000
R18  19590146.219 8 104573618.357 8      -122.555          51.000    19590149.625 8  81335026.491 8       -95.320          49.000
R19  20918828.359 6 111901596.245 6      3654.320          38.000    20918829.758 7  87034597.213 7      2842.249          42.000
C11  22469483.188 8 117004523.736 8      1878.969          48.000    22469484.047 8  90475328.708 8      1452.838          51.000
C12  22620359.750 7 117790241.300 7     -1400.738          43.000
C24  24698394.078 4 128611014.595 4     -2642.184          29.000
C25  21753208.789 8 113274670.754 8      -227.531          51.000
E13  24368228.133 7 128055936.322 7       800.305          45.000    24368232.562 7  98120795.551 7       613.155          44.000
E21  23738281.602 8 124745517.542 8      -555.574          51.000    23738283.633 8  95584228.244 8      -425.664          51.000
E26  25106509.039 8 131935559.964 8      3007.969          50.000    25106513.086 7 101093536.068 7      2304.676          46.000
> 2020 05 18 09 26 30.0000000  0 17        .000000000000
G06  23727335.578 5 124687978.340 5     -1295.387          34.000    23727340.445 5  97159470.845 5     -1009.392          34.000
G12  20662606.844 8 108582739.976 8     -1506.953          49.000    20662606.023 8  84609927.418 8     -1174.249          49.000
G24  22698785.234 7 119282902.889 7     -3219.004          45.000    22698787.336 7  92947707.264 7     -2508.315          45.000
G25  20176735.305 7 106029502.025 7       343.453          43.000    20176737.234 7  82620369.080 7       267.626          43.000
G29  21559107.031 8 113293861.743 8      2674.902          51.000    21559107.977 8  88280937.727 8      2084.339          51.000
G32  22288440.469 5 117126567.300 5      -997.797          32.000    22288452.078 5  91267454.179 5      -777.504          32.000
R16  19491628.258 7 104120820.994 7      -359.473          47.000    19491630.625 7  80982825.202 7      -279.590          44.000
R17  22151335.148 5 118536269.904 5     -3594.250          33.000
R18  19590921.984 8 104577760.502 8      -150.188          51.000    19590925.633 8  81338248.186 8      -116.812          49.000
R19  20898389.500 6 111792262.098 6      3638.023          37.000    20898389.742 6  86949559.577 6      2829.574          40.000
C11  22458707.609 8 116948409.559 8      1865.371          51.000    22458707.953 8  90431937.663 8      1442.284          51.000
C12  22628480.820 7 117832528.143 7     -1415.012          43.000
C25  21754560.719 8 113281710.522 8      -238.559          51.000
E13  24363709.344 7 128032189.740 7       786.012          45.000    24363712.594 7  98102600.170 7       602.290          43.000
E21  23741478.156 8 124762315.440 8      -561.000          51.000    23741479.867 8  95597099.349 8      -429.821          51.000
E26  25089360.258 8 131845441.146 8      3003.359          50.000    25089361.992 7 101024484.071 7      2301.221          43.000
E27  26759037.859 5 140619691.426 5     -2169.703          33.000
> 2020 05 18 09 27  0.0000000  0 17        .000000000000
G02  22920379.188 5 120447439.503 5       119.289          31.000    22920380.742 5  93855126.214 5        92.953          31.000
G12  20671253.727 8 108628179.406 8     -1517.199          49.000    20671253.039 8  84645334.778 8     -1182.233          49.000
G24  22717201.734 7 119379682.353 7     -3227.867          45.000    22717205.500 7  93023119.801 7     -2515.224          45.000
G25  20174823.781 7 106019457.217 7       331.020          43.000    20174825.977 7  82612541.983 7       257.937          43.000
G29  21543891.320 8 113213898.778 8      2661.004          51.000    21543889.930 8  88218629.027 8      2073.513          51.000
R15  22507586.336 4 120273747.158 4     -3056.207          29.000
R16  19493705.703 7 104131918.214 7      -375.160          47.000    19493707.797 7  80991456.367 7      -291.791          43.000
R17  22171544.367 5 118644404.616 5     -3609.316          32.000
R18  19591861.234 8 104582775.015 8      -178.953          50.000    19591864.773 8  81342148.348 8      -139.186          49.000
R19  20878049.758 6 111683459.261 6      3620.656          37.000    20878049.297 6  86864935.189 6      2816.066          40.000
C11  22448019.711 8 116892750.835 8      1850.406          51.000    22448019.562 8  90388898.803 8      1430.851          51.000
C12  22636691.617 7 117875283.040 7     -1430.207          42.000    22636694.562 4  91148585.444 4     -1105.655          29.000
C24  24728931.531 4 128770022.406 4     -2655.148          29.000
C25  21755985.180 8 113289127.698 8      -250.797          51.000
E13  24359280.531 7 128008914.644 7       770.637          44.000    24359281.969 7  98084765.999 7       590.470          42.000
E21  23744714.141 8 124779320.042 8      -567.574          51.000    23744715.688 8  95610128.837 8      -434.886          51.000
E26  25072245.367 8 131755503.903 8      2997.562          49.000    25072244.250 7 100955571.235 7      2296.774          44.000
> 2020 05 18 09 27 30.0000000  0 17        .000000000000
G02  22919744.148 5 120444065.680 5       102.668          32.000    22919741.367 5  93852522.972 5        80.001          31.000
G12  20679937.070 8 108673810.670 8     -1526.000          49.000    20679936.406 8  84680891.625 8     -1189.088          49.000
G24  22735646.625 7 119476610.522 7     -3235.199          45.000    22735651.641 7  93098648.240 7     -2520.934          45.000
G25  20172960.406 7 106009665.723 7       320.223          43.000    20172962.703 7  82604912.230 7       249.524          43.000
G29  21528733.648 8 113134241.416 8      2648.484          51.000    21528731.852 8  88156558.415 8      2063.757          51.000
G32  22300066.297 5 117187636.737 5     -1034.836          32.000
R16  19495849.891 7 104143370.971 7      -389.473          47.000    19495851.727 7  81000364.059 7      -302.923          43.000
R17  22191819.727 5 118752870.426 5     -3622.934          34.000
R18  19592940.625 8 104588538.846 8      -206.270          49.000    19592944.641 8  81346631.364 8      -160.432          50.000
R19  20857787.258 6 111575068.980 6      3604.508          37.000    20857786.484 6  86780631.694 6      2803.509          40.000
C11  22437396.359 8 116837429.286 8      1836.738          51.000    22437396.062 8  90346120.688 8      1420.403          51.000
C12  22644969.359 7 117918385.237 7     -1444.266          44.000    22644971.430 5  91181914.887 5     -1116.635          34.000
C24  24744237.422 5 128849726.423 5     -2658.891          31.000
C25  21757459.445 8 113296803.526 8      -261.902          51.000
E13  24354918.438 7 127985991.055 7       756.617          45.000    24354918.969 7  98067201.164 7       579.832          43.000
E21  23747966.578 8 124796411.162 8      -572.852          51.000    23747968.203 8  95623224.637 8      -438.875          51.000
E26  25055142.094 8 131665629.730 8      2993.059          48.000    25055140.539 7 100886706.666 7      2293.508          46.000
> 2020 05 18 09 28  0.0000000  0 18        .000000000000
G02  22919205.281 5 120441233.054 5        80.844          32.000    22919201.430 5  93850315.628 5        62.980          33.000
G06  23750011.375 6 124807144.210 6     -1355.535          36.000    23750008.805 5  97252307.464 5     -1056.267          34.000
G12  20688671.906 8 108719711.978 8     -1540.402          49.000    20688671.016 8  84716658.886 8     -1200.314          49.000
G24  22754134.367 7 119573764.122 7     -3247.926          46.000    22754139.984 7  93174352.340 7     -2530.851          46.000
G25  20171160.477 7 106000207.039 7       304.117          44.000    20171162.625 7  82597541.805 7       236.971          44.000
G29  21513648.961 8 113054970.974 8      2630.238          51.000    21513648.289 8  88094789.261 8      2049.536          51.000
G32  22306019.211 6 117218917.354 6     -1057.059          38.000    22306024.617 4  91339449.424 4      -823.627          29.000
R16  19498075.805 7 104155260.757 7      -409.422          46.000    19498077.336 7  81009611.660 7      -318.439          42.000
R17  22212169.188 5 118861744.046 5     -3641.953          32.000
R18  19594175.484 8 104595131.769 8      -239.438          49.000    19594179.711 8  81351759.187 8      -186.229          50.000
R19  20837617.398 6 111467175.925 6      3582.207          38.000    20837616.953 6  86696714.888 6      2786.161          41.000
C11  22426852.680 8 116782524.869 8      1817.562          51.000    22426852.711 8  90303665.159 8      1405.418          51.000
C12  22653328.109 7 117961911.770 7     -1463.566          42.000    22653326.672 5  91215572.363 5     -1131.505          33.000
C24  24759573.531 4 128929606.403 4     -2671.180          29.000
C25  21758998.617 8 113304817.304 8      -278.449          51.000
E13  24350638.789 7 127963499.008 7       736.824          47.000    24350639.172 7  98049967.006 7       564.583          45.000
E21  23751250.656 8 124813668.547 8      -583.734          51.000    23751252.242 8  95636447.828 8      -447.277          51.000
E26  25038066.055 8 131575899.979 8      2982.809          48.000    25038066.258 8 100817952.729 8      2285.529          48.000
> 2020 05 18 09 28 30.0000000  0 16        .000000000000
G06  23757787.844 6 124848004.064 6     -1362.812          39.000    23757788.219 6  97284146.276 6     -1061.935          36.000
G12  20697474.805 8 108765971.324 8     -1537.875          49.000    20697473.680 8  84752705.126 8     -1198.344          49.000
G24  22772681.789 7 119671230.666 7     -3243.977          46.000    22772687.594 7  93250300.288 7     -2527.774          46.000
G25  20169440.766 7 105991169.948 7       304.316          42.000    20169442.664 7  82590499.910 7       237.130          42.000
G29  21498654.188 8 112976177.650 8      2628.609          49.000    21498655.203 8  88033391.828 8      2048.264          49.000
G32  22312089.789 5 117250820.664 5     -1064.133          35.000    22312094.062 5  91364308.839 5      -829.204          33.000
R16  19500400.359 7 104167678.758 7      -412.457          45.000    19500402.117 7  81019270.109 7      -320.800          43.000
R18  19595582.594 8 104602643.629 8      -255.508          50.000    19595587.109 8  81357601.760 8      -198.728          50.000
R19  20817558.398 6 111359874.271 6      3577.055          39.000    20817558.992 7  86613258.066 7      2782.154          42.000
C11  22416406.320 8 116728126.826 8      1814.742          51.000    22416406.336 8  90261601.161 8      1403.376          51.000
C12  22661784.688 6 118005949.003 6     -1466.391          40.000    22661783.086 6  91249624.696 6     -1133.701          37.000
C24  24774961.875 5 129009720.720 5     -2665.035          33.000
C25  21760619.664 8 113313257.646 8      -278.523          51.000
E13  24346458.258 8 127941527.828 8       733.719          48.000    24346459.070 7  98033131.961 7       562.263          46.000
E21  23754583.305 8 124831181.279 8      -577.891          51.000    23754584.789 8  95649866.668 8      -442.787          51.000
E26  25021034.922 8 131486405.291 8      2989.309          49.000    25021037.281 8 100749378.890 8      2290.590          49.000
> 2020 05 18 09 29  0.0000000  0 18        .000000000000
G06  23765648.867 6 124889313.626 6     -1388.941          36.000    23765652.359 6  97316335.619 6     -1082.289          37.000
G12  20706312.289 8 108812412.677 8     -1554.961          49.000    20706310.992 8  84788893.177 8     -1211.658          49.000
G24  22791255.078 7 119768832.753 7     -3259.516          45.000    22791260.602 7  93326353.863 7     -2539.882          45.000
G25  20167767.695 7 105982378.939 7       285.098          43.000    20167769.562 7  82583649.767 7       222.154          43.000
G29  21483717.547 8 112897687.462 8      2607.508          51.000    21483719.250 8  87972230.621 8      2031.821          51.000
G32  22318245.391 6 117283169.433 6     -1089.242          37.000    22318234.000 4  91389428.906 4      -848.757          29.000
R15  22576575.391 5 120642388.007 5     -3088.703          31.000
R16  19502790.539 7 104180447.696 7      -435.477          45.000    19502792.711 7  81029201.504 7      -338.704          42.000
R17  22253095.734 5 119080765.153 5     -3665.348          32.000
R18  19597128.375 8 104610894.677 8      -291.281          51.000    19597132.594 8  81364019.241 8      -226.552          50.000
R19  20797577.805 6 111252989.282 6      3551.969          39.000    20797579.023 7  86530125.335 7      2762.645          42.000
C11  22406023.938 8 116674062.244 8      1792.777          51.000    22406023.773 8  90219794.997 8      1386.274          51.000
C12  22670305.984 6 118050321.332 6     -1488.324          40.000    22670305.008 6  91283936.276 6     -1151.021          40.000
C24  24790366.836 6 129089928.961 6     -2678.715          38.000
C25  21762289.531 8 113321951.125 8      -297.879          51.000
E13  24342343.477 8 127919902.436 8       711.289          49.000    24342344.609 7  98016561.879 7       544.999          46.000
E21  23757931.078 8 124848774.034 8      -591.590          51.000    23757932.836 8  95663346.818 8      -453.338          51.000
E26  25004016.102 8 131396971.985 8      2976.191          50.000    25004019.914 8 100680852.097 8      2280.473          50.000
> 2020 05 18 09 29 30.0000000  0 17        .000000000000
G06  23773621.727 5 124931226.349 5     -1403.109          31.000    23773624.953 5  97348986.331 5     -1093.332          31.000
G12  20715211.547 8 108859178.910 8     -1560.965          49.000    20715209.969 8  84825334.404 8     -1216.336          49.000
G24  22809881.148 7 119866712.253 7     -3263.934          45.000    22809886.266 7  93402623.595 7     -2543.325          46.000
G25  20166168.969 7 105973977.815 7       276.898          44.000    20166170.922 7  82577103.414 7       215.765          44.000
G29  21468867.055 8 112819645.631 8      2597.203          51.000    21468868.000 8  87911418.842 8      2023.798          51.000
R15  22593935.195 5 120735138.010 5     -3092.020          30.000
R16  19505274.008 7 104193714.559 7      -447.164          45.000    19505276.227 7  81039520.171 7      -347.794          42.000
R17  22273682.234 5 119190897.685 5     -3675.512          34.000
R18  19598839.844 8 104620030.258 8      -315.883          51.000    19598843.906 8  81371124.702 8      -245.687          50.000
R19  20777702.555 6 111146671.018 6      3537.922          39.000    20777704.414 7  86447433.415 7      2751.717          43.000
C11  22395732.875 8 116620474.728 8      1781.590          51.000    22395732.938 8  90178357.754 8      1377.629          51.000
C12  22678918.594 6 118095169.648 6     -1499.582          40.000    22678917.969 6  91318615.854 6     -1159.714          37.000
C24  24805813.586 6 129170359.774 6     -2681.211          40.000
C25  21764035.406 8 113331040.788 8      -306.336          51.000
E13  24338321.852 8 127898767.115 8       699.742          48.000    24338323.055 7  98000367.292 7       536.100          47.000
E21  23761321.508 8 124866590.860 8      -594.320          51.000    23761323.570 8  95676998.638 8      -455.382          51.000
E26  24987037.117 8 131307745.714 8      2974.066          51.000    24987041.664 8 100612483.947 8      2278.836          50.000
> 2020 05 18 09 30  0.0000000  0 18        .000000000000
G02  22918071.430 4 120435220.901 4        18.953          28.000
G06  23781704.984 5 124973656.398 5     -1421.387          33.000    23781705.125 5  97382072.580 5     -1107.577          33.000
G12  20724172.672 8 108906270.153 8     -1570.648          48.000    20724170.727 8  84862028.881 8     -1223.882          48.000
G24  22828559.695 7 119964868.803 7     -3271.801          44.000    22828564.328 7  93479109.226 7     -2549.455          44.000
G25  20164644.781 7 105965967.483 7       265.051          44.000    20164646.977 7  82570861.598 7       206.533          44.000
G29  21454102.414 8 112742054.494 8      2583.328          51.000    21454102.109 8  87850958.294 8      2012.986          51.000
G32  22330893.906 5 117349645.768 5     -1122.488          32.000
R16  19507850.914 7 104207480.832 7      -462.738          45.000    19507853.188 7  81050227.260 7      -359.908          42.000
R17  22294346.773 5 119301480.554 5     -3688.758          33.000
R18  19600717.195 8 104630050.234 8      -344.121          51.000    19600721.352 8  81378918.041 8      -267.647          51.000
R19  20757934.008 6 111040924.216 6      3519.914          38.000    20757936.586 7  86365185.953 7      2737.714          45.000
C11  22385533.805 8 116567366.255 8      1766.664          50.000    22385534.141 8  90137290.963 8      1366.103          51.000
C12  22687622.609 6 118140493.169 6     -1514.438          40.000    22687621.922 6  91353662.815 6     -1170.875          39.000
C24  24821302.242 6 129251013.529 6     -2687.992          39.000
C25  21765857.445 8 113340528.095 8      -318.398          51.000
E13  24334393.453 8 127878123.236 8       684.434          48.000    24334395.023 7  97984549.297 7       524.424          47.000
E21  23764754.773 8 124884632.970 8      -600.660          51.000    23764757.078 8  95690823.096 8      -460.231          51.000
E26  24970098.109 8 131218729.275 8      2968.191          51.000    24970102.586 8 100544276.590 8      2274.325          49.000
> 2020 05 18 09 30 30.0000000  0 19        .000000000000
G02  22918011.852 5 120434950.646 5        -2.203          31.000
G06  23789881.195 6 125016613.006 6     -1442.914          36.000    23789881.961 6  97415545.063 6     -1124.352          36.000
G12  20733171.328 7 108953558.770 7     -1583.188          47.000    20733169.602 7  84898877.128 7     -1233.653          47.000
G24  22847266.484 7 120063174.012 7     -3282.551          45.000    22847270.484 7  93555710.656 7     -2557.835          45.000
G25  20163170.953 7 105958221.117 7       250.574          45.000    20163173.281 7  82564825.496 7       195.256          44.000
G29  21439399.492 8 112664788.912 8      2566.637          51.000    21439398.070 8  87790751.431 8      1999.980          51.000
G32  22337362.531 5 117383641.465 5     -1142.297          33.000
R15  22628779.688 5 120921342.215 5     -3111.672          30.000
R16  19510497.406 7 104221618.766 7      -480.863          46.000    19510499.789 7  81061223.404 7      -374.005          42.000
R17  22315070.578 5 119412380.461 5     -3705.266          32.000    22315069.297 5  92876332.882 5     -2881.876          30.000
R18  19602735.867 8 104640824.811 8      -375.207          51.000    19602739.734 8  81387298.273 8      -291.828          50.000
R19  20738248.625 6 110935623.758 6      3498.949          37.000    20738251.891 7  86283285.617 7      2721.405          45.000
C11  22375403.188 8 116514612.314 8      1749.117          51.000    22375403.484 8  90096498.320 8      1352.562          51.000
C12  22696393.195 6 118186164.514 6     -1531.727          36.000    22696392.883 6  91388978.832 6     -1184.099          40.000
C24  24836808.633 6 129331763.831 6     -2696.535          38.000
C25  21767731.617 8 113350287.946 8      -333.258          51.000
E13  24330534.703 7 127857844.465 7       666.402          47.000    24330536.047 7  97969011.027 7       510.548          46.000
E21  23768206.781 8 124902773.811 8      -609.738          51.000    23768209.242 8  95704723.217 8      -467.250          51.000
E26  24953175.102 8 131129797.706 8      2959.551          50.000    24953178.758 7 100476134.289 7      2267.744          46.000
> 2020 05 18 09 31  0.0000000  0 18        .000000000000
G02  22918074.633 6 120435313.595 6       -17.094          37.000
G06  23798172.977 5 125060182.964 5     -1459.207          33.000    23798175.953 5  97449495.606 5     -1137.044          33.000
G12  20742235.977 7 109001194.614 7     -1589.992          47.000    20742234.695 7  84935995.949 7     -1238.958          47.000
G24  22866030.312 7 120161776.424 7     -3288.176          47.000    22866032.688 7  93632543.648 7     -2562.215          46.000
G25  20161775.906 7 105950889.386 7       241.012          46.000    20161778.203 7  82559112.480 7       187.801          46.000
G29  21424786.891 8 112588001.150 8      2555.070          49.000    21424785.820 8  87730916.853 8      1990.964          49.000
R15  22646271.773 4 121014809.504 4     -3117.000          26.000
R16  19513242.547 7 104236282.061 7      -493.910          46.000    19513244.992 7  81072628.175 7      -384.152          42.000
R17  22335880.086 5 119523746.706 5     -3716.141          30.000    22335883.172 5  92962950.988 5     -2890.335          31.000
R18  19604924.156 8 104652505.781 8      -400.871          51.000    19604927.867 8  81396383.478 8      -311.789          50.000
R19  20718676.195 6 110830926.374 6      3483.332          37.000    20718680.047 7  86201854.351 7      2709.258          45.000
C11  22365369.531 8 116462363.217 8      1736.703          50.000    22365369.688 8  90056096.016 8      1342.887          51.000
C12  22705259.102 6 118232331.309 6     -1543.484          38.000    22705258.562 6  91424677.993 6     -1193.780          39.000
C24  24852362.039 6 129412759.287 6     -2700.488          38.000
C25  21769686.922 8 113360470.155 8      -342.941          51.000
E13  24326773.688 7 127838081.837 7       653.652          45.000    24326774.906 7  97953868.256 7       500.898          45.000
E21  23771706.227 8 124921164.308 8      -613.738          51.000    23771708.859 8  95718814.627 8      -470.288          51.000
E26  24936296.719 7 131041103.608 7      2955.883          47.000    24936298.859 7 100408173.962 7      2265.023          44.000
> 2020 05 18 09 31 30.0000000  0 17        .000000000000
G02  22918230.945 5 120436136.001 5       -35.977          33.000    22918230.430 5  93846330.467 5       -28.034          33.000
G06  23806563.094 5 125104277.225 5     -1479.188          34.000    23806570.234 5  97483854.685 5     -1152.617          35.000
G12  20751350.211 7 109049089.896 7     -1601.293          47.000    20751349.000 7  84973316.942 7     -1247.761          47.000
G24  22884833.836 7 120260587.423 7     -3297.816          46.000    22884833.555 7  93709539.132 7     -2569.730          46.000
G25  20160443.180 7 105943885.201 7       227.406          46.000    20160445.125 7  82553654.670 7       177.200          46.000
G29  21410248.289 8 112511605.572 8      2539.340          49.000    21410248.883 8  87671387.815 8      1978.706          49.000
R16  19516069.547 7 104251383.296 7      -511.297          47.000    19516071.789 7  81084373.580 7      -397.675          42.000
R17  22356760.523 5 119635486.296 5     -3732.066          30.000    22356764.773 5  93049859.526 5     -2902.715          31.000
R18  19607265.469 8 104665003.934 8      -430.699          51.000    19607268.977 8  81406104.286 8      -334.988          50.000
R19  20699200.914 6 110726747.538 6      3463.566          37.000    20699204.422 7  86120826.382 7      2693.888          43.000
C11  22355416.234 8 116410533.674 8      1720.188          50.000    22355416.422 8  90016018.136 8      1330.028          51.000
C12  22714203.633 6 118278905.690 6     -1559.797          38.000    22714201.945 6  91460692.176 6     -1206.451          37.000
C24  24867946.641 6 129493912.977 6     -2708.301          41.000
C25  21771706.938 8 113370988.897 8      -356.859          51.000
E13  24323094.773 7 127818748.746 7       636.680          44.000    24323095.352 7  97939054.583 7       487.845          44.000
E21  23775236.609 8 124939717.540 8      -621.777          51.000    23775239.375 8  95733030.718 8      -476.451          51.000
E26  24919446.250 7 130952561.628 7      2948.301          46.000    24919447.688 7 100340330.200 7      2259.025          45.000
> 2020 05 18 09 32  0.0000000  0 17        .000000000000
G02  22918485.188 6 120437483.237 6       -53.566          37.000
G06  23815057.781 5 125148919.283 5     -1497.289          35.000    23815066.070 5  97518640.724 5     -1166.716          35.000
G12  20760518.445 8 109097268.831 8     -1610.438          48.000    20760517.086 8  85010858.957 8     -1254.886          48.000
G24  22903681.422 8 120359629.936 8     -3305.012          48.000    22903679.594 8  93786715.020 8     -2575.337          48.000
G25  20159177.547 7 105937233.473 7       216.066          47.000    20159179.086 7  82548471.514 7       168.363          47.000
G29  21395789.961 8 112435628.636 8      2525.859          51.000    21395791.500 8  87612184.990 8      1968.202          51.000
R16  19518983.172 7 104266948.354 7      -526.352          47.000    19518985.414 7  81096479.728 7      -409.385          42.000
R17  22377713.180 5 119747648.724 5     -3744.457          30.000    22377717.070 4  93137057.137 4     -2912.359          28.000
R18  19609764.414 8 104678343.080 8      -458.410          51.000    19609767.719 8  81416479.176 8      -356.541          50.000
R19  20679828.203 6 110623116.067 6      3445.418          37.000    20679830.773 6  86040224.171 6      2679.770          41.000
C11  22345548.383 8 116359149.454 8      1705.484          50.000    22345548.664 8  89976284.577 8      1318.919          51.000
C12  22723229.891 5 118325910.343 5     -1573.938          32.000    22723228.297 6  91497039.181 6     -1216.996          38.000
C24  24883567.266 7 129575248.989 7     -2714.129          43.000
C25  21773796.211 8 113381869.436 8      -368.477          51.000
E13  24319500.930 6 127799870.560 6       621.980          38.000    24319503.375 7  97924589.436 7       476.576          43.000
E21  23778802.750 8 124958458.736 8      -627.613          51.000    23778805.562 8  95747390.845 8      -480.869          51.000
E26  24902630.742 8 130864198.640 8      2942.660          49.000    24902632.680 7 100272623.528 7      2254.724          47.000
> 2020 05 18 09 32 30.0000000  0 17        .000000000000
G02  22918834.258 5 120439322.543 5       -69.820          34.000    22918820.680 4  93848738.325 4       -54.405          28.000
G06  23823650.422 5 125194074.676 5     -1514.168          35.000    23823658.445 5  97553826.750 5     -1179.871          35.000
G12  20769734.109 7 109145697.231 7     -1618.949          47.000    20769732.789 8  85048595.367 8     -1261.522          48.000
G24  22922566.375 8 120458869.638 8     -3311.844          48.000    22922564.492 8  93864044.568 8     -2580.657          48.000
G25  20157972.633 7 105930901.178 7       205.148          47.000    20157974.273 7  82543537.270 7       159.856          47.000
G29  21381405.844 8 112360037.958 8      2512.664          51.000    21381407.555 8  87553283.155 8      1957.920          51.000
R16  19521977.758 8 104282944.616 8      -541.000          48.000    19521979.922 7  81108921.259 7      -420.778          42.000
R17  22398738.141 5 119860140.067 5     -3756.414          32.000    22398740.125 4  93224550.333 4     -2921.658          26.000
R18  19612414.305 8 104692488.408 8      -485.535          51.000    19612417.742 8  81427481.123 8      -377.638          49.000
R19  20660551.938 5 110520002.227 5      3428.234          35.000    20660554.367 7  85960024.585 7      2666.408          43.000
C11  22335759.703 8 116308178.768 8      1691.512          50.000    22335760.062 8  89936870.820 8      1308.032          51.000
C12  22732332.555 5 118373311.031 5     -1587.039          34.000    22732331.312 6  91533692.355 6     -1227.163          40.000
C24  24899216.141 7 129656733.950 7     -2719.145          42.000
C25  21775948.758 8 113393079.558 8      -379.730          51.000
E13  24315987.109 6 127781414.483 6       607.633          41.000    24315992.141 6  97910447.800 6       465.655          41.000
E21  23782398.391 8 124977355.166 8      -633.039          51.000    23782401.242 8  95761869.926 8      -485.050          51.000
E26  24885844.727 8 130775983.361 8      2937.457          51.000    24885847.656 8 100205030.069 8      2250.821          50.000
> 2020 05 18 09 33  0.0000000  0 18        .000000000000
G02  22919282.992 5 120441684.500 5       -87.535          33.000
G06  23832346.562 5 125239772.572 5     -1531.512          33.000    23832353.750 5  97589435.461 5     -1193.386          32.000
G12  20779002.945 8 109194405.172 8     -1628.148          48.000    20779001.531 8  85086549.611 8     -1268.687          48.000
G24  22941493.969 8 120558334.930 8     -3319.062          48.000    22941492.969 7  93941549.957 7     -2586.282          47.000
G25  20156834.203 8 105924918.895 8       193.664          48.000    20156836.266 8  82538875.733 8       150.907          48.000
G29  21367101.477 8 112284866.446 8      2498.887          51.000    21367103.195 8  87494707.969 8      1947.184          51.000
R15  22716661.797 5 121390940.956 5     -3149.219          34.000    22716658.812 5  94415181.726 5     -2449.398          30.000
R16  19525058.938 8 104299403.724 8      -556.320          48.000    19525061.219 7  81121722.778 7      -432.697          43.000
R17  22419834.922 5 119973015.139 5     -3768.121          35.000
R18  19615220.758 8 104707470.097 8      -513.160          51.000    19615223.992 8  81439133.554 8      -399.128          49.000
R19  20641378.242 5 110417440.530 5      3409.141          33.000    20641381.938 7  85880254.383 7      2651.551          44.000
C11  22326056.125 8 116257653.008 8      1676.898          49.000    22326056.711 8  89897801.107 8      1296.672          51.000
C12  22741517.156 5 118421136.245 5     -1600.512          32.000    22741516.133 6  91570673.817 6     -1237.955          40.000
C24  24914898.320 6 129738397.347 6     -2724.711          40.000
C25  21778170.648 8 113404650.080 8      -391.598          51.000
E13  24312561.297 7 127763411.578 7       592.680          44.000    24312564.836 6  97896653.386 6       454.119          39.000
E21  23786029.453 8 124996437.621 8      -639.086          51.000    23786032.406 8  95776491.540 8      -489.689          51.000
E26  24869093.430 8 130687948.220 8      2931.629          51.000    24869097.188 8 100137574.627 8      2246.259          51.000
> 2020 05 18 09 33 30.0000000  0 17        .000000000000
G02  22919831.875 5 120444573.032 5      -107.539          34.000    22919835.078 5  93852886.609 5       -83.800          33.000
G06  23841146.117 5 125286014.927 5     -1553.035          34.000    23841152.477 5  97625468.436 5     -1210.157          34.000
G12  20788325.508 8 109243395.530 8     -1640.375          48.000    20788323.766 8  85124723.912 8     -1278.214          48.000
G24  22960464.656 8 120658027.251 8     -3329.473          48.000    22960464.812 7  94019232.253 7     -2594.394          47.000
G25  20155763.078 8 105919289.970 8       179.238          48.000    20155765.344 8  82534489.569 8       139.666          48.000
G29  21352877.523 8 112210119.119 8      2481.844          51.000    21352879.484 8  87436463.331 8      1933.907          51.000
R16  19528227.562 7 104316330.164 7      -574.633          47.000    19528230.031 7  81134887.777 7      -446.937          43.000
R17  22441001.672 5 120086273.693 5     -3784.273          34.000    22441008.242 4  93400488.398 4     -2943.324          25.000
R18  19618184.242 8 104723289.847 8      -543.852          50.000    19618187.297 8  81451437.804 8      -422.996          49.000
R19  20622309.320 6 110315438.413 6      3387.930          37.000    20622314.477 7  85800919.367 7      2635.056          44.000
C11  22316438.805 8 116207576.584 8      1659.172          49.000    22316439.891 8  89859078.870 8      1283.016          51.000
C12  22750781.688 4 118469291.208 4     -1617.559          27.000    22750782.320 7  91607984.967 7     -1251.161          42.000
C24  24930614.305 6 129820241.944 6     -2733.766          36.000
C25  21780462.461 8 113416584.866 8      -406.422          51.000
E13  24309223.062 7 127745865.486 7       574.598          46.000    24309225.195 7  97883209.030 7       440.321          42.000
E21  23789696.602 8 125015709.804 8      -648.246          51.000    23789699.594 8  95791258.537 8      -496.633          51.000
E26  24852377.195 8 130600098.506 8      2922.672          51.000    24852381.516 8 100070261.269 8      2239.372          51.000
> 2020 05 18 09 34  0.0000000  0 20        .000000000000
G02  22920496.086 5 120448064.023 5      -118.520          35.000    22920514.711 5  93855607.347 5       -92.332          32.000
G06  23850063.805 5 125332876.462 5     -1565.426          34.000    23850069.234 5  97661983.932 5     -1219.809          35.000
G12  20797716.109 7 109292743.695 7     -1643.371          47.000    20797714.219 7  85163177.029 7     -1280.549          47.000
G24  22979492.914 8 120758021.936 8     -3330.711          48.000    22979493.547 8  94097150.153 8     -2595.359          48.000
G25  20154773.781 8 105914090.825 8       173.738          48.000    20154775.750 8  82530438.314 8       135.380          48.000
G29  21338748.789 8 112135873.315 8      2473.992          51.000    21338750.734 8  87378609.491 8      1927.789          51.000
G32  22385554.094 5 117636921.355 5     -1264.387          34.000    22385552.266 5  91665088.694 5      -985.233          34.000
R15  22752115.438 5 121580430.110 5     -3161.457          30.000    22752127.320 4  94562563.455 4     -2458.914          25.000
R16  19531498.359 7 104333802.268 7      -584.000          47.000    19531501.039 7  81148477.178 7      -454.222          44.000
R17  22462253.219 5 120199988.899 5     -3790.293          32.000
R18  19621319.070 8 104740024.330 8      -565.398          50.000    19621322.281 8  81464453.544 8      -439.751          49.000
R19  20603361.953 6 110214077.187 6      3375.520          41.000    20603366.188 7  85722082.849 7      2625.404          43.000
C11  22306922.789 8 116158026.044 8      1650.371          49.000    22306924.195 8  89820763.295 8      1276.048          51.000
C12  22760147.586 5 118518070.356 5     -1626.500          33.000    22760144.711 7  91645682.868 7     -1257.480          43.000
C24  24946379.367 6 129902342.863 6     -2733.652          37.000
C25  21782838.922 8 113428960.045 8      -412.449          51.000
E13  24305986.398 8 127728852.999 8       565.621          48.000    24305989.086 7  97870173.539 7       433.437          44.000
E21  23793414.508 8 125035248.339 8      -648.234          51.000    23793417.539 8  95806229.617 8      -496.738          51.000
E26  24835710.797 8 130512512.456 8      2922.523          51.000    24835715.383 8 100003149.938 8      2239.336          51.000
E27  26946596.203 5 141605343.281 5     -2208.117          33.000
> 2020 05 18 09 34 30.0000000  0 18        .000000000000
G02  22921227.312 5 120451906.378 5      -134.051          35.000
G06  23859051.461 5 125380103.966 5     -1581.004          32.000    23859055.375 5  97698784.526 5     -1231.957          33.000
G12  20807126.828 7 109342197.304 7     -1650.863          46.000    20807125.102 7  85201712.289 7     -1286.390          46.000
G24  22998530.836 8 120858065.126 8     -3336.180          49.000    22998530.914 8  94175105.851 8     -2599.621          49.000
G25  20153818.328 8 105909069.724 8       163.840          48.000    20153819.906 8  82526525.787 8       127.667          48.000
G29  21324667.992 8 112061878.608 8      2461.723          51.000    21324669.352 8  87320951.314 8      1918.225          51.000
R15  22769883.445 5 121675364.584 5     -3167.488          30.000
R16  19534823.539 7 104351564.841 7      -597.613          47.000    19534826.008 7  81162292.507 7      -464.810          43.000
R17  22483539.312 5 120313900.510 5     -3800.402          31.000
R18  19624577.094 8 104757416.303 8      -591.305          50.000    19624580.312 8  81477980.646 8      -459.904          49.000
R19  20584487.492 7 110113104.029 7      3358.621          42.000    20584489.805 6  85643548.206 6      2612.264          41.000
C11  22297460.344 8 116108752.944 8      1637.188          48.000    22297461.602 8  89782662.234 8      1266.059          51.000
C12  22769556.984 5 118567071.143 5     -1637.430          31.000    22769555.078 7  91683573.351 7     -1266.654          43.000
C24  24962147.422 6 129984449.878 6     -2737.484          40.000
C25  21785252.148 8 113441526.758 8      -422.566          51.000
E13  24302803.320 8 127712122.745 8       552.449          49.000    24302806.141 7  97857354.300 7       423.293          45.000
E21  23797135.508 8 125054801.811 8      -652.617          51.000    23797138.406 8  95821212.141 8      -500.009          51.000
E26  24819046.773 8 130424940.161 8      2918.316          51.000    24819051.227 8  99936049.134 8      2236.113          51.000
> 2020 05 18 09 35  0.0000000  0 17        .000000000000
G06  23868156.891 5 125427951.828 5     -1605.016          34.000    23868161.156 5  97736068.591 5     -1250.662          34.000
G12  20816606.141 7 109392010.981 7     -1665.336          47.000    20816604.781 7  85240528.123 7     -1297.664          47.000
G24  23017626.531 8 120958411.031 8     -3348.770          49.000    23017626.352 8  94253297.410 8     -2609.431          49.000
G25  20152945.523 8 105904482.640 8       146.785          49.000    20152946.781 8  82522951.442 8       114.378          49.000
G29  21310684.266 8 111988392.148 8      2442.160          51.000    21310684.945 8  87263689.177 8      1902.982          51.000
R15  22787713.352 6 121770647.645 6     -3179.961          36.000    22787728.859 4  94710554.629 4     -2473.294          26.000
R16  19538252.141 7 104369879.022 7      -618.570          47.000    19538254.508 7  81176536.856 7      -481.110          44.000
R17  22504910.023 5 120428265.182 5     -3818.043          30.000    22504908.617 4  93666463.285 4     -2969.592          27.000
R18  19628006.766 8 104775724.460 8      -624.406          49.000    19628010.117 8  81492220.328 8      -485.649          49.000
R19  20565734.750 6 110012783.231 6      3334.121          41.000    20565734.641 6  85565520.997 6      2593.208          40.000
C11  22288100.070 7 116060011.857 7      1616.930          47.000    22288101.164 8  89744972.551 8      1250.307          51.000
C12                                                                  22779061.070 6  91721851.065 6     -1281.464          40.000
C24  24977965.797 7 130066816.057 7     -2748.617          42.000
C25  21787751.180 8 113454539.074 8      -440.082          51.000
E13  24299722.680 8 127695931.031 8       531.793          48.000    24299725.016 7  97844947.674 7       407.541          46.000
E21  23800908.219 8 125074626.411 8      -664.211          51.000    23800910.938 8  95836402.439 8      -508.926          51.000
E26  24802433.914 8 130337639.486 8      2906.582          51.000    24802438.109 8  99869156.456 8      2227.145          51.000
> 2020 05 18 09 35 30.0000000  0 19        .000000000000
G02  22923055.156 6 120461414.643 6      -184.133          37.000    22923056.172 6  93866082.200 6      -143.480          36.000
G06  23877376.516 5 125476399.791 5     -1631.789          35.000    23877381.766 6  97773820.261 6     -1271.524          36.000
G12  20826150.328 7 109442165.712 7     -1684.121          46.000    20826149.492 7  85279609.728 7     -1312.299          46.000
G24  23036775.977 8 121059038.882 8     -3365.516          51.000    23036776.141 8  94331708.668 8     -2622.483          51.000
G25  20152151.633 8 105900310.870 8       125.707          48.000    20152152.805 8  82519700.710 8        97.954          48.000
G29  21296794.180 8 111915397.242 8      2418.418          51.000    21296794.461 8  87206810.050 8      1884.482          51.000
G32  22407702.805 5 117753243.895 5     -1329.938          34.000    22407700.078 5  91755781.581 5     -1036.321          34.000
R15  22805600.484 6 121866226.759 6     -3197.223          37.000    22805613.664 5  94784889.884 5     -2486.732          30.000
R16  19541780.672 7 104388726.478 7      -643.711          47.000    19541782.594 7  81191195.992 7      -500.664          44.000
R17  22526361.656 4 120543059.674 4     -3839.770          28.000    22526362.195 4  93755747.788 4     -2986.493          27.000
R18  19631604.172 8 104794927.964 8      -661.656          50.000    19631607.672 8  81507156.390 8      -514.622          49.000
R19  20547099.789 6 109913099.574 6      3305.543          39.000    20547098.359 6  85487989.346 6      2570.978          39.000
C11  22278838.102 7 116011785.322 7      1592.422          45.000    22278839.602 8  89707680.737 8      1231.473          51.000
C12  22788661.891 5 118666542.807 5     -1680.641          32.000    22788659.312 6  91760500.350 6     -1299.351          40.000
C24  24993830.070 7 130149422.125 7     -2764.094          42.000
C25  21790332.367 8 113467978.980 8      -461.566          51.000
E13  24296740.742 7 127680259.432 7       507.191          47.000    24296743.656 7  97832939.611 7       388.744          46.000
E21  23804729.117 8 125094703.754 8      -679.945          51.000    23804731.703 8  95851786.369 8      -520.949          51.000
E26  24785868.922 8 130250593.562 8      2890.781          50.000    24785873.086 8  99802458.979 8      2215.059          51.000
> 2020 05 18 09 36  0.0000000  0 19        .000000000000
G02  22924103.867 5 120466941.514 5      -195.219          31.000    22924103.531 5  93870370.883 5      -152.119          32.000
G06  23886690.477 5 125525346.264 5     -1642.676          34.000    23886697.016 5  97811960.325 5     -1280.010          33.000
G12  20835740.195 7 109492560.715 7     -1686.832          46.000    20835739.750 7  85318878.523 7     -1314.418          46.000
G24  23055959.695 8 121159846.935 8     -3366.301          50.000    23055960.000 8  94410260.360 8     -2623.092          50.000
G25  20151417.555 7 105896454.328 7       120.355          47.000    20151418.797 7  82516695.611 7        93.783          47.000
G29  21282978.461 8 111842795.053 8      2410.449          51.000    21282978.875 8  87150236.941 8      1878.272          51.000
G32  22415291.188 6 117793139.136 6     -1341.504          37.000    22415294.328 6  91786868.786 6     -1045.328          36.000
R15  22823523.898 6 121961999.215 6     -3199.023          36.000    22823533.773 4  94859379.565 4     -2488.126          27.000
R16  19545389.906 7 104408006.185 7      -653.070          46.000    19545392.055 7  81206191.288 7      -507.947          44.000
R17  22547862.750 4 120658142.514 4     -3845.684          29.000
R18  19635350.070 8 104814924.134 8      -682.785          49.000    19635353.664 8  81522708.951 8      -531.055          49.000
R19  20528564.867 6 109813954.515 6      3292.832          38.000    20528563.297 6  85410876.560 6      2561.095          39.000
C11  22269655.758 7 115963975.025 7      1583.609          45.000    22269657.773 8  89670710.791 8      1224.505          51.000
C12                                                                  22798331.141 6  91799443.309 6     -1305.432          41.000
C24  25009720.789 6 130232168.205 6     -2763.789          41.000
C25  21792976.680 8 113481747.808 8      -467.543          51.000
E13  24293838.656 7 127665008.193 7       498.238          47.000    24293841.289 7  97821253.624 7       381.848          45.000
E21  23808579.070 8 125114933.986 8      -679.953          51.000    23808581.711 8  95867287.440 8      -521.057          51.000
E26  24769333.430 8 130163704.149 8      2890.613          49.000    24769337.852 8  99735881.411 8      2214.856          50.000
> 2020 05 18 09 36 30.0000000  0 18        .000000000000
G02  22925229.125 6 120472839.634 6      -204.137          37.000
G06  23896076.750 5 125574730.486 5     -1652.867          30.000    23896084.086 4  97850396.278 4     -1287.948          27.000
G12  20845353.352 7 109543078.153 7     -1687.410          46.000    20845352.641 7  85358242.731 7     -1314.865          45.000
G24  23075154.773 8 121260716.287 8     -3364.719          49.000    23075155.172 8  94488859.799 8     -2621.862          49.000
G25  20150721.250 7 105892795.702 7       117.219          47.000    20150722.352 7  82513844.747 7        91.339          47.000
G29  21269215.102 8 111770469.538 8      2404.879          51.000    21269215.953 8  87093879.431 8      1873.932          51.000
R15  22841461.578 4 122057844.188 4     -3197.633          27.000    22841468.898 4  94933926.048 4     -2487.048          28.000
R16  19549058.039 7 104427599.555 7      -659.582          47.000    19549059.664 7  81221430.581 7      -513.008          43.000
R17  22569402.125 4 120773446.055 4     -3848.227          29.000
R18  19639221.938 8 104835592.036 8      -701.398          50.000    19639225.781 8  81538784.000 8      -545.532          50.000
R19  20510109.844 6 109715232.263 6      3282.184          40.000    20510108.500 7  85334092.610 7      2552.809          42.000
C11  22260531.844 7 115916465.651 7      1577.199          47.000    22260533.758 8  89633973.529 8      1219.648          51.000
C12                                                                  22808052.539 6  91838588.532 6     -1309.362          39.000
C24  25025615.352 6 130314937.336 6     -2760.590          41.000
C25  21795661.914 8 113495729.730 8      -470.996          51.000
E13  24290993.984 7 127650060.275 7       491.801          44.000    24290995.820 7  97809800.011 7       376.858          45.000
E21  23812435.742 8 125135200.199 8      -677.523          51.000    23812438.320 8  95882816.105 8      -519.147          51.000
E26  24752805.812 8 130076855.767 8      2892.879          49.000    24752810.477 8  99669335.285 8      2216.544          49.000
> 2020 05 18 09 37  0.0000000  0 17        .000000000000
G02  22926479.516 5 120479416.704 5      -229.715          33.000
G12  20855048.164 7 109594024.608 7     -1704.559          45.000    20855047.109 7  85397941.235 7     -1328.224          44.000
G24  23094419.594 8 121361953.508 8     -3379.902          48.000    23094420.273 8  94567745.889 8     -2633.693          48.000
G25  20150121.375 8 105889642.915 8        97.402          48.000    20150122.109 8  82511388.036 8        75.898          48.000
G29  21255563.430 8 111698730.208 8      2382.359          51.000    21255564.617 8  87037978.689 8      1856.387          51.000
G32  22430755.539 5 117874418.639 5     -1375.211          32.000    22430743.570 5  91850142.395 5     -1071.602          34.000
R16  19552843.672 7 104447820.696 7      -683.695          47.000    19552844.875 7  81237158.162 7      -531.763          44.000
R17  22591072.797 5 120889297.642 5     -3868.305          30.000
R18  19643277.844 8 104857243.067 8      -737.391          50.000    19643281.664 8  81555623.691 8      -573.526          50.000
R19  20491793.305 6 109617249.952 6      3254.527          40.000    20491792.852 7  85257884.162 7      2531.299          43.000
C11  22251524.922 7 115869563.241 7      1553.945          46.000    22251526.508 8  89597705.605 8      1201.657          51.000
C12                                                                  22817881.992 6  91878170.685 6     -1326.168          40.000
C24  25041573.305 6 130398034.072 6     -2774.637          40.000
C25  21798446.562 8 113510230.384 8      -491.207          51.000
E13  24288265.391 7 127635723.928 7       468.445          43.000    24288267.891 7  97798815.015 7       359.013          44.000
E21  23816357.805 8 125155810.541 8      -691.926          51.000    23816360.281 8  95898608.456 8      -530.201          51.000
E26  24736345.555 8 129990358.216 8      2878.129          50.000    24736349.836 8  99603057.991 8      2205.299          48.000
> 2020 05 18 09 37 30.0000000  0 17        .000000000000
G06  23915193.625 5 125675152.469 5     -1689.051          33.000    23915198.797 5  97928719.945 5     -1316.150          33.000
G12  20864777.734 7 109645154.466 7     -1707.836          45.000    20864775.867 7  85437782.621 7     -1330.784          43.000
G24  23113706.977 7 121463311.088 7     -3380.930          45.000    23113708.047 7  94646725.739 7     -2634.494          45.000
G25  20149571.039 8 105886750.551 8        91.770          48.000    20149571.406 8  82509134.258 8        71.512          48.000
G29  21241976.852 8 111627332.948 8      2373.812          50.000    21241978.281 8  86982344.484 8      1849.724          50.000
G32  22438627.344 4 117915791.246 4     -1386.820          27.000    22438620.000 4  91882380.608 4     -1080.639          27.000
R16  19556699.945 7 104468420.300 7      -693.324          46.000    19556701.438 7  81253180.058 7      -539.252          44.000
R17  22612763.438 4 121005381.565 4     -3874.039          29.000
R18  19647471.031 8 104879626.358 8      -758.633          51.000    19647475.102 8  81573032.933 8      -590.048          49.000
R19  20473568.797 6 109519761.171 6      3241.191          39.000    20473569.242 7  85182059.573 7      2520.927          43.000
C11  22242587.914 8 115823025.484 8      1544.824          48.000    22242589.484 8  89561719.677 8      1194.598          51.000
C12  22827778.102 5 118870184.955 5     -1722.504          35.000    22827774.125 6  91918000.392 6     -1332.079          40.000
C24  25057547.781 7 130481214.541 7     -2774.207          42.000
C25  21801284.219 8 113525007.052 8      -497.473          51.000
E13  24285607.266 7 127621754.011 7       459.258          42.000    24285609.344 6  97788110.768 6       351.932          41.000
E21  23820298.766 8 125176519.873 8      -692.273          51.000    23820301.102 8  95914476.646 8      -530.425          51.000
E26  24719906.156 8 129903967.884 8      2877.598          51.000    24719909.680 8  99536862.844 8      2204.939          48.000
> 2020 05 18 09 38  0.0000000  0 15        .000000000000
G06  23924892.328 5 125726108.346 5     -1708.445          34.000    23924899.367 5  97968425.845 5     -1331.259          33.000
G12  20874554.984 7 109696534.680 7     -1718.355          45.000    20874552.586 7  85477819.155 7     -1338.978          43.000
G24  23133029.875 7 121564854.603 7     -3389.430          44.000    23133030.938 7  94725850.428 7     -2641.120          44.000
G25  20149082.961 7 105884186.399 7        78.441          47.000    20149083.305 7  82507136.204 7        61.123          47.000
G29  21228468.500 8 111556346.792 8      2357.746          50.000    21228469.891 8  86927030.597 8      1837.205          50.000
R16  19560640.227 7 104489468.526 7      -710.648          47.000    19560641.859 7  81269550.890 7      -552.727          44.000
R18  19651814.062 8 104902808.878 8      -787.586          51.000    19651817.641 8  81591063.762 8      -612.567          49.000
R19  20455449.648 6 109422838.439 6      3219.605          38.000    20455450.680 7  85106675.271 7      2504.141          42.000
C11  22233734.211 8 115776920.441 8      1528.012          49.000    22233735.828 8  89526068.353 8      1181.595          51.000
C12  22837742.703 6 118922079.014 6     -1737.832          37.000    22837740.336 6  91958128.091 6     -1343.835          39.000
C24  25073551.203 7 130564545.184 7     -2781.730          42.000
C25  21804187.766 8 113540127.307 8      -511.328          51.000
E13  24283031.758 7 127608218.495 7       442.465          42.000    24283032.445 6  97777739.392 6       338.891          39.000
E21  23824271.484 8 125197396.256 8      -700.258          51.000    23824273.695 8  95930472.826 8      -536.552          51.000
E26  24703500.602 8 129817754.370 8      2869.191          51.000    24703503.484 8  99470803.203 8      2198.495          48.000
> 2020 05 18 09 38 30.0000000  0 17        .000000000000
G02  22930808.164 5 120502203.151 5      -291.129          35.000
G06  23934728.844 5 125777795.225 5     -1739.625          31.000    23934734.531 5  98008701.369 5     -1355.552          31.000
G12  20884423.039 7 109748391.609 7     -1741.398          45.000    20884421.070 7  85518227.150 7     -1356.934          44.000
G24  23152431.312 7 121666810.484 7     -3409.969          43.000    23152432.312 7  94805296.483 7     -2657.122          43.000
G25  20148700.617 7 105882178.047 7        52.844          47.000    20148701.234 7  82505571.254 7        41.177          47.000
G29  21215081.984 8 111486000.050 8      2329.340          51.000    21215082.805 8  86872214.953 8      1815.070          51.000
G32  22454681.953 5 118000134.573 5     -1436.922          31.000    22454688.289 5  91948197.488 5     -1119.679          31.000
R16  19564707.797 7 104511197.254 7      -740.438          46.000    19564709.352 7  81286451.008 7      -575.896          44.000
R18  19656349.820 8 104927020.203 8      -829.090          51.000    19656353.297 8  81609894.813 8      -644.848          49.000
R19  20437479.922 6 109326717.416 6      3185.891          37.000    20437481.484 6  85031914.520 6      2477.918          41.000
C11  22225007.250 8 115731474.478 8      1499.125          49.000    22225008.664 8  89490926.669 8      1159.240          51.000
C12  22847822.711 5 118974582.155 5     -1765.410          35.000    22847823.062 6  91998726.837 6     -1364.819          40.000
C24  25089626.219 6 130648250.776 6     -2801.312          40.000
C25  21807200.742 8 113555817.162 8      -537.316          51.000
E13  24280581.969 7 127595345.159 7       413.273          42.000    24280581.477 6  97767875.439 6       316.688          38.000
E21  23828319.391 8 125218667.588 8      -720.414          51.000    23828321.391 8  95946771.634 8      -552.003          51.000
E26  24687172.500 8 129731947.161 8      2848.668          51.000    24687174.688 8  99405054.880 8      2182.796          48.000
> 2020 05 18 09 39  0.0000000  0 15        .000000000000
G02  22932459.711 5 120510861.014 5      -293.316          30.000
G12  20894322.289 7 109800412.516 7     -1734.086          43.000    20894321.477 7  85558762.922 7     -1351.236          43.000
G24  23171849.062 6 121768864.753 6     -3400.910          39.000    23171853.570 6  94884819.319 6     -2650.057          39.000
G25  20148364.750 8 105880413.422 8        57.496          48.000    20148365.625 8  82504196.216 8        44.802          48.000
G29  21201758.383 8 111415982.432 8      2331.105          51.000    21201758.250 8  86817655.784 8      1816.446          51.000
R16  19568843.406 7 104533289.751 7      -739.766          46.000    19568845.188 7  81303634.057 7      -575.373          45.000
R18  19661018.539 8 104951941.839 8      -839.801          50.000    19661021.797 8  81629278.313 8      -653.178          48.000
R19  20419601.414 6 109231083.154 6      3182.273          37.000    20419603.484 7  84957532.385 7      2475.105          42.000
C11  22216347.250 8 115686379.135 8      1499.879          49.000    22216348.695 8  89456056.138 8      1159.862          51.000
C12  22857961.930 6 119027383.283 6     -1762.012          39.000    22857963.266 7  92039556.047 7     -1362.880          42.000
C24  25105713.297 6 130732021.321 6     -2790.738          39.000
C25  21810263.875 8 113571767.750 8      -533.395          51.000
E13  24278199.195 7 127582822.194 7       414.199          46.000    24278198.836 6  97758280.003 6       317.493          39.000
E21  23832382.961 8 125240022.068 8      -710.586          51.000    23832384.898 8  95963134.158 8      -544.484          51.000
E26  24670862.344 8 129646235.980 8      2858.086          51.000    24670864.055 8  99339380.118 8      2189.938          48.000
> 2020 05 18 09 39 30.0000000  0 16        .000000000000
G02  22934166.695 5 120519858.202 5      -314.234          33.000
G12  20904254.688 7 109852607.579 7     -1747.027          43.000    20904254.297 7  85599434.383 7     -1361.323          43.000
G24  23191287.195 7 121871025.173 7     -3411.223          42.000    23191295.344 7  94964424.892 7     -2658.093          42.000
G25  20148077.375 8 105878902.987 8        42.027          48.000    20148078.305 8  82503019.247 8        32.749          49.000
G29  21188499.344 8 111346305.934 8      2312.684          50.000    21188499.078 8  86763362.440 8      1802.091          50.000
R16  19573049.258 7 104555757.391 7      -759.367          46.000    19573051.586 7  81321108.859 7      -590.619          45.000
R17  22700171.820 4 121473186.055 4     -3922.641          29.000
R18  19665821.883 8 104977582.315 8      -870.977          51.000    19665825.031 8  81649220.922 8      -677.426          48.000
R19  20401817.422 6 109135950.223 6      3158.449          40.000    20401819.609 7  84883540.144 7      2456.575          43.000
C11  22207756.922 8 115641645.787 8      1480.898          50.000    22207758.273 8  89421465.511 8      1145.067          51.000
C12  22868160.961 6 119080491.222 6     -1779.352          39.000    22868162.562 6  92080622.443 6     -1375.926          40.000
C24  25121814.344 6 130815866.596 6     -2800.441          38.000
C25  21813379.164 8 113587989.974 8      -549.359          51.000
E13  24275884.742 7 127570660.259 7       395.133          46.000    24275886.883 6  97748961.202 6       302.740          41.000
E21  23836464.336 8 125261470.496 8      -720.738          51.000    23836466.375 8  95979568.656 8      -552.227          51.000
E26  24654572.336 8 129560633.164 8      2847.344          48.000    24654574.297 8  99273788.375 8      2181.764          48.000
> 2020 05 18 09 40  0.0000000  0 15        .000000000000
G12  20914243.742 7 109905100.382 7     -1753.520          43.000    20914242.570 7  85640337.878 7     -1366.376          43.000
G24  23210771.836 7 121973415.561 7     -3415.750          47.000    23210780.344 7  95044209.615 7     -2661.623          46.000
G25  20147862.023 8 105877770.956 8        32.441          49.000    20147862.977 8  82502137.134 8        25.279          49.000
G29  21175328.891 8 111277096.276 8      2300.203          50.000    21175329.305 8  86709432.875 8      1792.369          50.000
G32  22479488.734 5 118130487.226 5     -1473.113          34.000    22479486.633 5  92049727.375 5     -1147.880          33.000
R16  19577349.258 7 104578727.052 7      -773.008          47.000    19577351.711 7  81338974.153 7      -601.228          45.000
R18  19670783.180 8 105004066.070 8      -895.793          50.000    19670786.258 8  81669819.421 8      -696.728          48.000
R19  20384151.852 6 109041448.539 6      3140.539          40.000    20384153.922 7  84810038.858 7      2442.641          44.000
C11  22199259.859 8 115597398.226 8      1467.855          50.000    22199261.172 8  89387250.531 8      1135.033          51.000
C12  22878441.789 6 119134027.010 6     -1790.125          37.000    22878443.453 6  92122019.703 6     -1384.706          37.000
C24  25137952.938 6 130899908.925 6     -2803.766          38.000
C25  21816570.312 8 113604607.294 8      -559.449          51.000
E13  24273662.562 7 127558983.762 7       382.156          46.000    24273665.367 6  97740014.300 6       292.833          41.000
E21  23840587.305 8 125283137.400 8      -724.852          51.000    23840589.656 8  95996170.569 8      -555.391          51.000
E26  24638326.141 7 129475264.777 7      2842.715          46.000    24638329.406 8  99208376.213 8      2178.163          48.000
> 2020 05 18 09 40 30.0000000  0 18        .000000000000
G02  22937926.953 5 120539615.696 5      -343.438          35.000
G06  23974932.922 5 125989065.713 5     -1791.188          30.000
G12  20924277.977 6 109957830.755 6     -1759.656          41.000    20924277.070 6  85681426.460 6     -1371.161          41.000
G24  23230289.398 8 122075974.171 8     -3419.277          48.000    23230296.945 8  95124125.388 8     -2664.372          48.000
G25  20147707.281 8 105876958.154 8        24.027          48.000    20147708.328 8  82501503.775 8        18.726          49.000
G29  21162236.367 8 111208295.001 8      2288.703          51.000    21162237.281 8  86655821.506 8      1783.408          51.000
G32  22487943.531 6 118174912.393 6     -1486.641          40.000    22487937.883 6  92084344.280 6     -1158.424          38.000
R16  19581731.953 7 104602139.367 7      -785.668          46.000    19581734.688 7  81357183.718 7      -611.075          45.000
R17  22744252.906 5 121709081.562 5     -3937.793          31.000
R18  19675890.945 8 105031331.469 8      -919.715          51.000    19675893.820 7  81691025.848 7      -715.334          47.000
R19  20366593.273 6 108947521.199 6      3123.605          38.000    20366595.758 7  84736984.277 7      2429.471          45.000
C11  22190844.750 8 115553578.668 8      1455.762          49.000    22190846.094 8  89353366.522 8      1125.636          51.000
C12  22888793.180 6 119187930.297 6     -1800.609          36.000    22888794.531 6  92163701.118 6     -1392.379          39.000
C24  25154118.102 6 130984089.115 6     -2806.438          38.000
C25  21819826.078 8 113621561.576 8      -568.703          51.000
E13  24271521.797 7 127547733.763 7       370.055          47.000    24271523.641 7  97731394.157 7       283.545          43.000
E21  23844740.672 8 125304963.861 8      -727.969          51.000    23844743.492 8  96012894.733 8      -557.821          51.000
E26  24622113.609 7 129390073.416 7      2838.949          46.000    24622118.242 7  99143099.672 7      2175.365          47.000
> 2020 05 18 09 41  0.0000000  0 18        .000000000000
G02  22939956.023 5 120550287.990 5      -363.883          35.000
G06  23985229.477 5 126043170.244 5     -1811.441          34.000    23985234.023 5  98215503.342 5     -1411.513          35.000
G12  20934367.125 6 110010850.532 6     -1770.988          40.000    20934366.172 6  85722740.578 6     -1379.991          40.000
G24  23249848.805 8 122178752.226 8     -3428.434          49.000    23249854.656 8  95204212.151 8     -2671.507          49.000
G25  20147623.336 8 105876517.204 8         9.637          48.000    20147624.352 8  82501160.181 8         7.509          49.000
G29  21149231.945 8 111139955.877 8      2271.355          51.000    21149232.875 8  86602570.249 8      1769.887          51.000
G32  22496498.016 6 118219864.438 6     -1505.863          40.000    22496493.195 6  92119371.818 6     -1173.403          38.000
R16  19586207.625 7 104626048.748 7      -804.062          46.000    19586210.797 7  81375779.905 7      -625.382          45.000
R17  22766372.398 5 121827464.184 5     -3951.383          31.000    22766376.258 4  94754704.212 4     -3073.298          26.000
R18  19681154.734 8 105059429.844 8      -949.320          51.000    19681157.758 7  81712880.168 7      -738.360          47.000
R19  20349151.969 6 108854224.963 6      3100.707          36.000    20349155.531 7  84664420.554 7      2411.661          45.000
C11  22182522.102 8 115510240.047 8      1437.777          49.000    22182523.164 8  89319854.393 8      1111.666          51.000
C12  22899225.422 6 119242251.467 6     -1816.266          38.000    22899226.453 6  92205705.701 6     -1404.548          40.000
C24  25170319.609 6 131068458.427 6     -2814.480          39.000
C25  21823156.875 8 113638905.297 8      -583.500          51.000
E13  24269471.797 7 127536963.021 7       352.102          46.000    24269474.828 7  97723141.269 7       269.819          45.000
E21  23848934.492 8 125327002.828 8      -737.141          51.000    23848937.758 8  96029781.722 8      -564.801          51.000
E26  24605946.328 8 129305113.518 8      2829.219          48.000    24605950.945 7  99078000.539 7      2167.846          46.000
> 2020 05 18 09 41 30.0000000  0 17        .000000000000
G02  22942085.586 5 120561411.415 5      -381.391          34.000
G06  23995622.078 6 126097779.708 6     -1828.820          37.000    23995624.922 6  98258056.193 6     -1425.055          37.000
G12  20944505.250 6 110064127.388 6     -1780.078          41.000    20944503.906 6  85764255.007 6     -1387.074          40.000
G24  23269443.281 8 122281715.576 8     -3435.297          49.000    23269447.188 8  95284443.286 8     -2676.858          49.000
G25  20147604.227 8 105876416.393 8        -2.430          49.000    20147605.203 8  82501081.633 8        -1.893          49.000
G29  21136309.828 8 111072048.841 8      2256.273          51.000    21136310.352 8  86549655.693 8      1758.135          51.000
G32  22505144.742 5 118265309.605 5     -1522.973          35.000    22505146.750 5  92154783.626 5     -1186.729          35.000
R16  19590770.430 7 104650423.198 7      -820.352          46.000    19590773.883 7  81394737.815 7      -638.051          44.000
R18  19686568.227 8 105088327.089 8      -976.684          51.000    19686571.156 7  81735355.807 7      -759.643          46.000
R19  20331823.109 6 108761531.406 6      3079.289          36.000    20331827.422 7  84592325.549 7      2395.003          44.000
C11  22174285.906 8 115467351.790 8      1421.898          49.000    22174286.508 8  89286690.494 8      1099.562          51.000
C12  22909731.141 6 119296957.138 6     -1830.016          39.000    22909732.156 6  92248007.603 6     -1414.930          36.000
C24  25186551.805 6 131152984.849 6     -2820.512          40.000
C25  21826556.695 8 113656607.474 8      -596.199          51.000
E13  24267507.367 7 127526639.984 7       336.488          46.000    24267510.977 7  97715231.426 7       257.933          45.000
E21  23853162.812 8 125349222.935 8      -743.738          51.000    23853166.039 8  96046807.520 8      -569.922          51.000
E26  24589817.844 8 129220355.269 8      2821.809          50.000    24589821.102 7  99013055.990 7      2162.084          46.000
> 2020 05 18 09 42  0.0000000  0 16        .000000000000
G02  22944315.250 5 120573130.552 5      -399.875          35.000
G06  24006113.672 6 126152914.465 6     -1847.285          38.000    24006117.391 6  98301018.367 6     -1439.443          38.000
G12  20954696.312 6 110117682.565 6     -1790.309          41.000    20954695.125 6  85805986.238 6     -1395.046          41.000
G24  23289076.617 8 122384885.075 8     -3442.809          48.000    23289079.047 8  95364835.058 8     -2682.708          48.000
G25  20147653.992 8 105876677.759 8       -15.066          50.000    20147655.102 8  82501285.299 8       -11.740          50.000
G29  21123474.391 8 111004596.899 8      2240.406          51.000    21123474.586 8  86497095.771 8      1745.771          51.000
R16  19595424.516 7 104675285.958 7      -837.355          46.000    19595428.195 7  81414075.511 7      -651.276          44.000
R18  19692135.141 8 105118043.555 8     -1004.574          51.000    19692138.438 7  81758468.637 7      -781.332          46.000
R19  20314612.156 6 108669466.005 6      3057.887          38.000    20314616.516 7  84520719.134 7      2378.356          43.000
C11  22166140.336 8 115424936.420 8      1405.598          49.000    22166140.461 8  89253892.279 8      1086.882          51.000
C12  22920314.875 6 119352067.442 6     -1844.141          40.000    22920314.094 5  92290622.327 5     -1425.976          34.000
C24  25202819.164 7 131237689.332 7     -2826.844          42.000
C25  21830029.586 8 113674690.341 8      -609.523          51.000
E13  24265632.352 7 127516786.846 7       320.324          45.000    24265636.055 7  97707681.610 7       245.440          45.000
E21  23857429.898 8 125371646.438 8      -751.207          51.000    23857432.984 8  96063989.167 8      -575.597          51.000
E26  24573732.023 8 129135822.442 8      2813.656          50.000    24573733.609 7  98948284.190 7      2155.871          46.000
> 2020 05 18 09 42 30.0000000  0 18        .000000000000
G02  22946635.938 5 120585386.331 5      -415.562          31.000
G06  24016694.016 6 126208516.202 6     -1862.371          36.000    24016698.688 6  98344344.386 6     -1451.201          36.000
G12  20964929.977 7 110171459.406 7     -1797.691          42.000    20964929.125 7  85847890.232 7     -1400.798          42.000
G24  23308737.578 7 122488202.721 7     -3447.359          47.000    23308738.891 7  95445342.278 7     -2686.254          47.000
G25  20147761.945 8 105877244.895 8       -25.000          50.000    20147763.305 8  82501727.221 8       -19.481          50.000
G29  21110714.867 8 110937545.169 8      2227.328          51.000    21110715.109 8  86444847.699 8      1735.580          51.000
G32  22522720.289 5 118357609.826 5     -1555.867          34.000    22522725.391 5  92226735.188 5     -1212.358          34.000
R15  23060174.070 4 123226492.295 4     -3288.336          28.000
R16  19600159.680 7 104700580.120 7      -851.438          47.000    19600163.094 7  81433748.758 7      -662.229          44.000
R18  19697844.352 8 105148519.990 8     -1029.633          51.000    19697847.797 7  81782172.544 7      -800.826          46.000
R19  20297509.398 6 108577974.628 6      3038.926          39.000    20297512.836 7  84449559.197 7      2363.609          42.000
C11  22158075.227 8 115382938.789 8      1391.922          49.000    22158074.766 8  89221417.069 8      1076.377          51.000
C12  22930965.500 6 119407524.614 6     -1855.496          40.000    22930964.289 6  92333505.275 6     -1434.654          39.000
C24  25219109.805 7 131322515.469 7     -2830.633          43.000
C25  21833564.781 8 113693098.451 8      -620.094          51.000
E13  24263836.023 7 127507347.291 7       306.641          43.000    24263839.312 7  97700448.741 7       235.093          43.000
E21  23861725.141 8 125394217.282 8      -755.902          51.000    23861728.125 8  96081283.712 8      -579.210          51.000
E26  24557678.391 8 129051460.535 8      2808.125          50.000    24557679.875 8  98883643.307 8      2151.692          48.000
> 2020 05 18 09 43  0.0000000  0 18        .000000000000
G02  22949053.406 5 120598090.726 5      -430.559          34.000
G06  24027368.359 5 126264613.469 5     -1877.008          33.000    24027373.305 5  98388056.518 5     -1462.607          32.000
G12  20975211.242 7 110225486.708 7     -1803.781          42.000    20975210.586 7  85889989.419 7     -1405.544          42.000
G24  23328431.719 7 122591696.506 7     -3451.480          46.000    23328432.430 7  95525986.748 7     -2689.468          46.000
G25  20147933.828 8 105878148.058 8       -34.531          51.000    20147935.461 8  82502430.993 8       -26.907          51.000
G29  21098036.984 8 110870924.924 8      2214.574          50.000    21098037.641 8  86392935.818 8      1725.642          50.000
G32  22531645.750 6 118404505.323 6     -1569.875          36.000    22531648.500 6  92263277.186 6     -1223.276          36.000
R16  19604981.594 7 104726337.513 7      -864.984          47.000    19604984.805 7  81453782.253 7      -672.769          43.000
R17  22855467.242 5 122304160.883 5     -3989.270          33.000    22855470.672 4  95125522.606 4     -3102.765          26.000
R18  19703701.383 8 105179785.429 8     -1054.141          51.000    19703704.852 7  81806490.132 7      -819.887          46.000
R19  20280520.570 6 108487091.698 6      3020.523          40.000    20280522.570 6  84378872.536 6      2349.299          41.000
C11  22150096.266 8 115341389.653 8      1378.676          49.000    22150095.508 8  89189288.660 8      1066.067          51.000
C12  22941687.648 6 119463356.681 6     -1866.164          40.000    22941686.875 6  92376678.208 6     -1443.338          40.000
C24  25235429.219 7 131407492.398 7     -2834.012          43.000
C25  21837168.195 8 113711862.082 8      -630.238          51.000
E13  24262124.445 6 127498351.717 6       293.801          40.000    24262126.297 7  97693556.053 7       224.860          42.000
E21  23866054.266 8 125416966.041 8      -760.090          51.000    23866057.133 8  96098714.575 8      -582.433          51.000
E26  24541662.828 8 128967301.535 8      2803.062          49.000    24541665.922 8  98819157.873 8      2147.792          51.000
> 2020 05 18 09 43 30.0000000  0 17        .000000000000
G02  22951569.938 5 120611312.901 5      -450.828          31.000
G12  20985541.914 6 110279774.393 6     -1814.555          41.000    20985540.492 6  85932291.473 6     -1413.939          41.000
G24  23348160.859 7 122695375.168 7     -3459.676          46.000    23348161.250 7  95606775.273 7     -2695.854          46.000
G25  20148171.516 8 105879397.425 8       -47.965          51.000    20148173.328 8  82503404.519 8       -37.378          51.000
G29  21085443.297 8 110804747.700 8      2197.836          49.000    21085444.383 8  86341369.140 8      1712.599          49.000
G32  22540664.227 6 118451891.564 6     -1588.277          41.000    22540666.555 6  92300201.497 6     -1237.622          41.000
R16  19609892.289 7 104752568.319 7      -882.887          47.000    19609894.844 7  81474183.981 7      -686.690          43.000
R17  22877866.227 5 122424030.752 5     -4000.973          34.000
R18  19709707.695 8 105211847.442 8     -1082.625          50.000    19709711.438 7  81831427.280 7      -842.042          46.000
R19  20263647.781 6 108396830.561 6      2997.695          41.000    20263648.812 7  84308669.507 7      2331.544          42.000
C11  22142205.203 7 115300299.735 7      1361.289          47.000    22142204.516 8  89157515.325 8      1052.569          51.000
C12  22952483.320 6 119519571.944 6     -1880.742          41.000    22952482.703 6  92420147.400 6     -1454.394          40.000
C24  25251778.906 7 131492629.547 7     -2841.297          43.000
C25  21840841.938 8 113730991.779 8      -644.375          51.000
E13  24260498.344 5 127489810.499 5       276.379          34.000    24260500.875 6  97687011.429 6       211.615          41.000
E21  23870419.156 8 125439903.175 8      -768.422          51.000    23870421.836 8  96116289.776 8      -588.791          51.000
E26  24525688.320 8 128883357.519 8      2793.809          49.000    24525693.461 8  98754837.127 8      2140.731          51.000
> 2020 05 18 09 44  0.0000000  0 17        .000000000000
G02  22954188.500 5 120625074.104 5      -467.207          35.000
G12  20995925.977 6 110334343.503 6     -1823.738          39.000    20995924.320 6  85974812.817 6     -1421.098          39.000
G24  23367928.836 7 122799258.347 7     -3466.098          44.000    23367928.664 7  95687723.138 7     -2700.855          44.000
G25  20148479.305 8 105881014.903 8       -59.797          51.000    20148481.133 8  82504664.900 8       -46.595          51.000
G29  21072938.641 8 110739036.289 8      2182.754          51.000    21072939.844 8  86290165.463 8      1700.850          51.000
G32  22549779.094 7 118499788.361 7     -1604.750          43.000    22549780.758 6  92337523.615 6     -1250.455          38.000
R16  19614896.047 8 104779296.188 8      -898.953          48.000    19614898.062 7  81494972.306 7      -699.189          44.000
R17  22900327.906 6 122544213.270 6     -4010.836          36.000
R18  19715867.078 8 105244727.086 8     -1109.348          50.000    19715871.008 7  81857000.351 7      -862.826          45.000
R19  20246896.070 7 108307217.126 7      2976.617          42.000    20246896.859 7  84238970.217 7      2315.147          43.000
C11  22134406.336 7 115259691.606 7      1345.750          47.000    22134406.016 8  89126114.524 8      1040.652          51.000
C12  22963356.227 6 119576190.280 6     -1893.770          39.000    22963355.672 6  92463928.293 6     -1464.461          40.000
C24  25268163.320 7 131577947.813 7     -2846.398          45.000
C25  21844590.164 8 113750509.603 8      -656.852          51.000
E13  24258963.070 5 127481710.588 5       261.367          33.000    24258965.727 6  97680831.712 6       200.209          39.000
E21  23874824.008 8 125463050.911 8      -774.832          51.000    23874826.469 8  96134026.341 8      -593.708          51.000
E26  24509759.977 8 128799652.158 8      2786.391          50.000    24509766.281 8  98690699.247 8      2135.071          51.000
> 2020 05 18 09 44 30.0000000  0 16        .000000000000
G12  21006366.406 6 110389208.439 6     -1834.121          41.000    21006364.828 6  86017564.677 6     -1429.185          41.000
G24  23387738.227 7 122903359.401 7     -3473.871          44.000    23387737.945 7  95768840.752 7     -2706.916          44.000
G25  20148860.031 8 105883015.568 8       -73.191          51.000    20148861.898 8  82506223.854 8       -57.032          51.000
G29  21060526.289 8 110673807.347 8      2166.219          51.000    21060527.125 8  86239337.756 8      1687.963          51.000
G32  22558993.789 7 118548208.499 7     -1622.887          45.000    22558995.250 6  92375253.535 6     -1264.587          39.000
R16  19619995.703 7 104806536.742 7      -916.633          47.000    19619997.820 7  81516159.383 7      -712.940          44.000
R17  22922849.727 5 122664719.825 5     -4022.168          35.000
R18  19722182.102 8 105278436.969 8     -1137.520          49.000    19722185.578 7  81883219.165 7      -884.737          45.000
R19  20230268.406 6 108218269.523 6      2953.371          41.000    20230269.305 7  84169788.799 7      2297.069          44.000
C11  22126703.070 8 115219580.841 8      1328.672          48.000    22126703.195 8  89095098.317 8      1027.398          51.000
C12  22974308.750 6 119633224.705 6     -1907.969          39.000    22974308.453 6  92508030.980 6     -1475.504          39.000
C24  25284585.398 7 131663461.472 7     -2853.840          45.000
C25  21848415.641 8 113770430.888 8      -670.871          51.000
E13  24257523.305 6 127474138.079 6       244.254          41.000    24257522.555 6  97675028.590 6       186.979          37.000
E21  23879271.781 8 125486424.677 8      -782.949          51.000    23879273.977 8  96151936.108 8      -599.931          51.000
E26  24493880.539 8 128716202.318 8      2777.266          51.000    24493887.391 8  98626757.199 8      2128.023          51.000
> 2020 05 18 09 45  0.0000000  0 16        .000000000000
G12  21016847.922 6 110444290.155 6     -1840.008          39.000    21016847.016 6  86060485.477 6     -1433.775          38.000
G24  23407573.773 7 123007598.444 7     -3477.215          45.000    23407574.469 7  95850065.934 7     -2709.521          45.000
G25  20149298.719 8 105885321.048 8       -82.230          51.000    20149300.727 8  82508020.336 8       -64.076          51.000
G29  21048191.320 8 110608983.480 8      2153.730          51.000    21048191.578 8  86188825.698 8      1678.232          51.000
G32  22568292.594 7 118597071.351 7     -1636.262          43.000    22568292.547 7  92413328.568 7     -1275.009          43.000
R16  19625176.414 7 104834210.638 7      -929.969          47.000    19625178.562 7  81537683.504 7      -723.309          44.000
R17  22945416.508 5 122785466.602 5     -4029.180          34.000
R18  19728637.461 8 105312895.605 8     -1161.359          49.000    19728640.977 7  81910020.340 7      -903.280          46.000
R19  20213750.383 6 108129911.641 6      2935.035          38.000    20213751.422 7  84101066.011 7      2282.805          43.000
C11  22119080.914 8 115179890.413 8      1315.820          48.000    22119081.281 8  89064407.172 8      1017.403          51.000
C12  22985326.016 6 119690595.757 6     -1918.250          38.000    22985325.812 6  92552393.879 6     -1483.379          37.000
C24  25301030.398 7 131749092.014 7     -2856.590          46.000
C25  21852303.656 8 113790678.285 8      -680.613          51.000
E13  24256161.961 7 127466977.521 7       231.477          43.000    24256159.773 6  97669541.944 6       177.500          36.000
E21  23883747.680 8 125509946.347 8      -786.836          51.000    23883749.836 8  96169959.204 8      -602.915          51.000
E26  24478035.477 8 128632931.411 8      2772.391          51.000    24478041.945 8  98562952.242 8      2124.314          51.000
> 2020 05 18 09 45 30.0000000  0 15        .000000000000
G12  21027377.695 6 110499624.491 6     -1848.480          39.000    21027377.023 6  86103603.119 6     -1440.374          39.000
G24  23427442.141 7 123112009.476 7     -3483.129          46.000    23427444.172 7  95931425.134 7     -2714.126          45.000
G25  20149802.328 8 105887967.461 8       -93.766          51.000    20149804.281 8  82510082.478 8       -73.064          51.000
G29  21035940.406 8 110544601.885 8      2138.758          51.000    21035940.109 8  86138658.250 8      1666.568          51.000
G32  22577681.672 7 118646411.002 7     -1652.625          42.000    22577682.203 7  92451775.081 7     -1287.760          42.000
R16  19630445.055 7 104862355.631 7      -945.969          45.000    19630447.016 7  81559574.054 7      -735.750          44.000
R18  19735239.414 8 105348137.154 8     -1187.609          49.000    19735243.156 7  81937430.436 7      -923.696          46.000
R19  20197349.938 6 108042183.173 6      2913.449          37.000    20197351.344 7  84032832.716 7      2266.013          43.000
C11  22111546.844 8 115140656.862 8      1300.309          50.000    22111547.273 8  89034069.315 8      1005.348          51.000
C12  22996414.859 6 119748337.354 6     -1930.762          38.000    22996414.383 6  92597043.285 6     -1493.024          39.000
C24  25317504.391 7 131834874.561 7     -2861.914          45.000
C25  21856261.141 8 113811288.048 8      -693.023          51.000
E13  24254884.875 7 127460266.243 7       216.070          46.000    24254883.367 6  97664399.591 6       165.689          36.000
E21  23888258.734 8 125533652.469 8      -793.266          51.000    23888260.922 8  96188123.619 8      -607.848          51.000
E26  24462231.531 8 128549877.458 8      2764.770          51.000    24462237.422 8  98499313.533 8      2118.496          51.000
> 2020 05 18 09 46  0.0000000  0 15        .000000000000
G12  21037958.680 5 110555217.178 5     -1857.500          35.000    21037958.000 6  86146919.845 6     -1447.406          36.000
G24  23447346.375 7 123216607.695 7     -3489.695          45.000    23447349.844 7  96012930.204 7     -2719.246          45.000
G25  20150374.039 8 105890971.795 8      -105.957          51.000    20150375.906 8  82512423.516 8       -82.564          51.000
G29  21023776.750 8 110480680.794 8      2123.016          51.000    21023776.125 8  86088849.613 8      1654.298          51.000
G32  22587163.703 7 118696242.038 7     -1669.211          43.000    22587165.906 7  92490604.436 7     -1300.684          43.000
R16  19635805.188 7 104890989.205 7      -962.371          45.000    19635807.422 7  81581844.616 7      -748.511          45.000
R18  19741990.695 8 105384176.833 8     -1214.504          48.000    19741994.727 7  81965461.318 7      -944.614          46.000
R19  20181071.039 6 107955105.000 6      2891.820          38.000    20181073.453 7  83965105.263 7      2249.194          43.000
C11  22104104.016 8 115101897.654 8      1284.055          50.000    22104104.328 8  89004098.245 8       992.916          51.000
C12  23007578.117 6 119806464.397 6     -1943.754          39.000    23007577.328 6  92641990.806 6     -1503.106          41.000
C24  25334009.734 7 131920825.248 7     -2867.586          43.000
C25  21860291.727 8 113832277.287 8      -705.914          51.000
E13  24253696.695 7 127454021.311 7       200.477          47.000    24253695.344 6  97659614.535 6       153.654          36.000
E21  23892808.312 8 125557560.283 8      -800.211          51.000    23892810.289 8  96206442.578 8      -613.161          51.000
E26  24446472.195 8 128467059.187 8      2756.742          51.000    24446477.570 8  98435855.419 8      2112.303          50.000
> 2020 05 18 09 46 30.0000000  0 15        .000000000000
G12  21048588.258 7 110611073.706 7     -1865.945          42.000    21048587.500 7  86190444.361 7     -1453.983          42.000
G24  23467283.180 7 123321377.535 7     -3495.012          44.000    23467288.039 7  96094569.007 7     -2723.389          45.000
G25  20151011.203 8 105894320.191 8      -117.258          51.000    20151013.000 8  82515032.651 8       -91.370          51.000
G29  21011697.656 8 110417207.070 8      2108.387          50.000    21011697.289 8  86039389.553 8      1642.899          50.000
G32  22596736.234 7 118746548.562 7     -1684.762          44.000    22596739.156 7  92529804.328 7     -1312.801          44.000
R16  19641254.141 7 104920097.902 7      -978.082          44.000    19641256.906 7  81604484.715 7      -760.730          45.000
R18  19748888.688 7 105420998.202 7     -1240.320          47.000    19748892.406 7  81994100.171 7      -964.694          46.000
R19  20164912.531 6 107868665.995 6      2870.555          41.000    20164915.031 7  83897874.969 7      2232.654          43.000
C11  22096749.406 8 115063599.645 8      1268.953          50.000    22096749.852 8  88974483.828 8       981.220          51.000
C12  23018812.039 6 119864961.387 6     -1956.098          38.000    23018811.203 7  92687224.448 7     -1512.712          42.000
C24  25350543.992 7 132006929.526 7     -2872.633          42.000
C25  21864392.734 8 113853632.628 8      -717.828          51.000
E13  24252594.297 8 127448228.791 8       185.574          48.000    24252594.641 6  97655176.190 6       142.154          36.000
E21  23897393.688 8 125581656.230 8      -806.285          51.000    23897395.461 8  96224905.698 8      -617.785          51.000
E26  24430755.258 8 128384464.566 8      2749.465          51.000    24430759.797 8  98372568.701 8      2106.763          48.000
> 2020 05 18 09 47  0.0000000  0 16        .000000000000
G06  24116224.156 5 126731600.805 5     -2011.445          34.000    24116224.508 5  98751917.915 5     -1567.369          35.000
G12  21059265.406 7 110667180.540 7     -1874.379          42.000    21059264.016 7  86234163.983 7     -1460.555          42.000
G24  23487251.352 7 123426313.899 7     -3500.262          43.000    23487257.547 7  96176337.614 7     -2727.477          43.000
G25  20151713.180 8 105898009.434 8      -128.367          51.000    20151714.875 8  82517907.393 8      -100.026          51.000
G29  20999703.219 8 110354179.317 8      2093.867          49.000    20999703.445 8  85990277.015 8      1631.585          49.000
G32  22606398.500 7 118797325.016 7     -1700.062          44.000    22606401.531 7  92569370.409 7     -1324.721          43.000
R16  19646791.672 7 104949678.937 7      -993.465          46.000    19646794.773 7  81627492.181 7      -772.695          45.000
R18  19755931.727 8 105458595.966 8     -1265.766          48.000    19755935.719 7  82023342.910 7      -984.484          47.000
R19  20148873.883 7 107782866.061 7      2849.609          42.000    20148875.742 7  83831141.741 7      2216.366          42.000
C11  22089482.930 8 115025760.284 8      1253.984          50.000    22089483.406 8  88945224.066 8       969.721          51.000
C12  23030116.148 6 119923823.279 6     -1967.473          39.000    23030114.828 6  92732740.229 6     -1521.834          39.000
C24  25367107.867 7 132093183.536 7     -2877.152          44.000
C25  21868563.664 8 113875351.286 8      -729.680          51.000
E13  24251577.586 8 127442885.621 8       171.000          49.000    24251578.352 5  97651082.055 5       130.975          33.000
E21  23902014.242 8 125605937.486 8      -812.129          51.000    23902016.000 8  96243510.802 8      -622.281          51.000
E26  24415080.289 8 128302092.203 8      2742.379          51.000    24415083.000 7  98309452.312 7      2101.267          46.000
> 2020 05 18 09 47 30.0000000  0 17        .000000000000
G02  22975271.352 5 120735849.633 5      -587.457          32.000
G06  24127749.617 5 126792175.632 5     -2026.805          34.000    24127750.953 5  98799118.973 5     -1579.328          34.000
G12  21069989.438 6 110723536.420 6     -1882.383          38.000    21069987.828 6  86278077.646 6     -1466.795          38.000
G24  23507250.430 7 123531414.598 7     -3506.203          42.000    23507258.195 7  96258234.300 7     -2732.106          42.000
G25  20152479.977 8 105902038.940 8      -140.137          51.000    20152481.617 8  82521047.268 8      -109.197          51.000
G29  20987794.180 8 110291597.679 8      2078.543          51.000    20987794.500 8  85941512.149 8      1619.647          51.000
G32  22616149.844 7 118848568.522 7     -1715.992          44.000    22616152.445 7  92609300.419 7     -1337.134          42.000
R16  19652417.836 7 104979732.170 7     -1009.797          47.000    19652420.914 7  81650866.920 7      -785.398          45.000
R18  19763120.039 7 105496967.059 7     -1291.965          47.000    19763123.539 7  82053187.061 7     -1004.862          47.000
R19  20132954.984 6 107697707.554 6      2827.809          41.000    20132956.039 7  83764907.404 7      2199.410          42.000
C11  22082304.570 8 114988379.694 8      1238.266          49.000    22082304.773 8  88916319.038 8       957.518          51.000
C12  23041489.891 6 119983047.473 6     -1980.520          36.000    23041487.750 6  92778535.991 6     -1531.249          37.000
C24  25383701.469 7 132179585.900 7     -2882.730          45.000
C25  21872804.312 8 113897432.903 8      -742.219          51.000
E13  24250645.852 7 127437991.048 7       155.570          47.000    24250645.242 5  97647298.684 5       118.757          32.000
E21  23906670.062 8 125630403.712 8      -818.730          51.000    23906671.945 8  96262257.645 8      -627.363          51.000
E26  24399447.477 8 128219943.236 8      2734.367          51.000    24399448.641 7  98246507.074 7      2095.302          47.000
> 2020 05 18 09 48  0.0000000  0 17        .000000000000
G02  22978680.680 5 120753794.984 5      -604.723          33.000
G06  24139369.727 6 126853241.549 6     -2043.688          36.000    24139374.172 5  98846702.728 5     -1592.484          34.000
G12  21080762.703 6 110780150.598 6     -1891.668          39.000    21080761.422 6  86322192.510 6     -1474.030          41.000
G24  23527283.344 7 123636687.787 7     -3511.820          46.000    23527291.523 7  96340265.329 7     -2736.486          47.000
G25  20153313.422 8 105906418.807 8      -151.742          51.000    20153315.219 8  82524460.154 8      -118.241          51.000
G29  20975972.539 8 110229473.235 8      2063.336          51.000    20975972.180 8  85893103.525 8      1607.794          51.000
G32  22625991.336 7 118900286.934 7     -1731.949          42.000    22625993.539 7  92649600.434 7     -1349.574          42.000
R16  19658134.602 8 105010268.505 8     -1025.824          48.000    19658137.422 7  81674617.400 7      -797.863          45.000
R18  19770454.164 7 105536119.447 7     -1318.000          46.000    19770458.281 8  82083638.949 8     -1025.111          48.000
R19  20117158.203 6 107613204.094 6      2805.859          39.000    20117158.680 7  83699182.527 7      2182.338          42.000
C11  22075215.969 8 114951468.389 8      1222.664          48.000    22075215.984 8  88887776.890 8       945.417          51.000
C12  23052932.969 5 120042642.077 5     -1992.789          34.000    23052932.719 6  92824618.323 6     -1540.474          40.000
C24  25400325.336 7 132266145.930 7     -2887.828          46.000
C25  21877116.781 8 113919887.888 8      -754.652          51.000
E13  24249801.719 8 127433555.290 8       140.258          48.000    24249803.852 5  97643900.804 5       107.785          30.000
E21  23911362.953 8 125655065.373 8      -825.191          51.000    23911365.148 8  96281154.221 8      -632.310          51.000
E26  24383859.344 8 128138029.567 8      2726.660          51.000    24383860.633 8  98183742.116 8      2089.292          49.000
> 2020 05 18 09 48 30.0000000  0 16        .000000000000
G06  24151082.125 5 126914791.252 5     -2060.180          35.000    24151087.094 5  98894663.512 5     -1605.332          35.000
G12  21091583.930 6 110837017.077 6     -1899.652          39.000    21091582.836 6  86366504.066 6     -1480.246          38.000
G24  23547348.680 8 123742126.653 8     -3517.539          49.000    23547356.133 8  96422425.458 8     -2740.943          49.000
G25  20154212.570 8 105911143.851 8      -163.332          51.000    20154214.523 8  82528142.014 8      -127.272          51.000
G29  20964237.164 8 110167801.927 8      2048.023          51.000    20964236.016 8  85845047.965 8      1595.862          51.000
G32  22635921.617 6 118952472.751 6     -1747.414          41.000    22635923.648 6  92690264.634 6     -1361.624          41.000
R16  19663940.773 8 105041283.271 8     -1041.977          48.000    19663943.688 7  81698739.958 7      -810.426          45.000
R18  19777933.609 7 105576045.265 7     -1343.727          47.000    19777937.648 8  82114692.328 8     -1045.121          48.000
R19  20101482.469 6 107529353.275 6      2784.266          39.000    20101482.781 6  83633965.242 6      2165.540          40.000
C11  22068216.531 8 114915021.866 8      1206.930          48.000    22068216.578 8  88859594.130 8       933.426          51.000
C12  23064446.812 5 120102600.203 5     -2004.484          35.000    23064447.688 7  92870981.759 7     -1550.112          42.000
C24  25416977.820 7 132352857.689 7     -2892.969          44.000
C25  21881500.039 8 113942711.377 8      -766.992          51.000
E13  24249043.625 7 127429573.051 7       125.230          45.000
E21  23916092.125 8 125679917.606 8      -831.582          51.000    23916094.508 8  96300196.819 8      -637.150          51.000
E26  24368315.344 8 128056347.805 8      2718.848          50.000    24368317.953 8  98121154.826 8      2083.267          51.000
> 2020 05 18 09 49  0.0000000  0 16        .000000000000
G06  24162886.945 5 126976825.629 5     -2075.758          34.000    24162892.797 5  98943001.946 5     -1617.474          33.000
G12  21102453.562 6 110894138.429 6     -1908.750          39.000    21102452.914 6  86411014.177 6     -1487.338          40.000
G24  23567445.945 8 123847732.603 8     -3523.129          50.000    23567452.062 8  96504715.727 8     -2745.298          49.000
G25  20155177.938 8 105916217.052 8      -175.098          51.000    20155179.945 8  82532095.159 8      -136.437          51.000
G29  20952588.727 8 110106587.977 8      2032.754          51.000    20952587.305 8  85797348.788 8      1583.964          51.000
G32  22645939.844 6 119005126.639 6     -1763.051          37.000    22645941.562 6  92731293.613 6     -1373.806          36.000
R16  19669837.102 8 105072779.959 8     -1058.152          48.000    19669839.805 7  81723237.368 7      -823.007          45.000
R18  19785557.828 7 105616745.166 7     -1369.793          46.000    19785562.016 8  82146347.813 8     -1065.391          48.000
R19  20085929.969 6 107446161.251 6      2761.742          39.000    20085930.070 7  83569260.348 7      2148.025          42.000
C11  22061307.266 8 114879043.683 8      1191.297          48.000    22061307.289 8  88831773.512 8       921.159          51.000
C12  23076030.297 5 120162922.694 5     -2016.590          31.000    23076032.555 6  92917627.040 6     -1559.630          41.000
C24  25433658.906 7 132439723.428 7     -2898.293          43.000
C25  21885954.570 8 113965906.675 8      -779.590          51.000
E13  24248372.531 7 127426047.335 7       109.836          43.000
E21  23920858.234 8 125704963.720 8      -838.277          51.000    23920860.688 8  96319387.992 8      -642.269          51.000
E26  24352816.375 8 127974902.733 8      2710.664          50.000    24352820.477 8  98058748.906 8      2077.020          51.000
> 2020 05 18 09 49 30.0000000  0 16        .000000000000
G06  24174782.102 5 127039335.941 5     -2091.574          34.000    24174788.281 5  98991711.342 5     -1629.795          32.000
G12  21113370.297 6 110951506.931 6     -1916.070          41.000    21113369.945 6  86455716.921 6     -1493.039          41.000
G24  23587573.070 8 123953496.466 8     -3527.457          50.000    23587576.023 8  96587128.974 8     -2748.674          49.000
G25  20156208.211 8 105921631.483 8      -185.547          51.000    20156210.211 8  82536314.191 8      -144.582          51.000
G29  20941026.195 8 110045825.369 8      2018.504          51.000    20941024.820 8  85750001.318 8      1572.860          51.000
G32  22656045.977 6 119058239.282 6     -1777.258          39.000    22656048.242 6  92772680.055 6     -1384.879          39.000
R16  19675822.359 7 105104751.478 7     -1073.016          47.000    19675824.906 7  81748104.096 7      -834.571          45.000
R18  19793325.562 8 105658209.721 8     -1394.332          48.000    19793329.727 8  82178598.025 8     -1084.480          48.000
R19  20070500.391 6 107363623.854 6      2741.062          41.000    20070500.781 7  83505064.642 7      2131.941          44.000
C11  22054486.586 8 114843527.458 8      1176.758          48.000    22054486.578 8  88804310.120 8       909.908          51.000
C12  23087683.383 6 120223600.991 6     -2027.988          37.000    23087685.156 6  92964547.344 6     -1568.205          39.000
C24  25450367.336 7 132526735.460 7     -2902.344          43.000
C25  21890479.047 8 113989467.168 8      -790.832          51.000
E13  24247787.328 6 127422971.138 6        95.629          39.000    24247800.594 5  97635809.536 5        73.346          34.000
E21  23925659.984 8 125730197.113 8      -843.660          51.000    23925662.523 8  96338722.667 8      -646.447          51.000
E26  24337361.523 8 127893689.165 8      2703.891          50.000    24337366.633 8  97996520.358 8      2071.776          51.000
> 2020 05 18 09 50  0.0000000  0 18        .000000000000
G02  22993261.109 5 120830384.919 5      -672.137          34.000
G06  24186766.508 5 127102315.296 5     -2107.492          33.000    24186771.984 5  99040786.152 5     -1642.202          33.000
G12  21124333.195 6 111009117.189 6     -1924.523          40.000    21124332.867 6  86500607.992 6     -1499.632          40.000
G24  23607728.711 8 124059411.415 8     -3533.035          50.000    23607726.977 8  96669659.948 8     -2753.020          50.000
G25  20157302.547 8 105927382.403 8      -197.258          51.000    20157304.477 8  82540795.419 8      -153.707          51.000
G29  20929548.516 8 109985510.361 8      2003.238          51.000    20929547.469 8  85703002.644 8      1560.968          51.000
G32  22666238.398 7 119111803.697 7     -1793.152          42.000    22666240.047 7  92814418.556 7     -1397.262          42.000
R15  23341501.375 5 124729861.364 5     -3391.117          30.000
R16  19681895.453 7 105137194.059 7     -1089.211          47.000    19681898.312 7  81773337.183 7      -847.164          44.000
R18  19801235.391 8 105700431.675 8     -1419.941          49.000    19801239.141 8  82211437.296 8     -1104.402          48.000
R19  20055192.734 7 107281739.294 7      2718.527          42.000    20055193.906 7  83441376.695 7      2114.410          45.000
C11  22047753.719 8 114808469.078 8      1161.070          49.000    22047753.781 8  88777200.772 8       897.792          51.000
C12  23099403.688 6 120284628.527 6     -2040.387          37.000    23099404.250 6  93011737.606 6     -1577.252          38.000
C24  25467103.625 7 132613888.270 7     -2907.594          45.000
C25  21895072.938 8 114013388.447 8      -803.285          51.000
E13  24247286.539 6 127420339.625 6        80.465          37.000    24247285.164 5  97633793.087 5        61.580          35.000
E21  23930496.531 8 125755613.335 8      -850.160          51.000    23930499.000 8  96358197.439 8      -651.466          51.000
E26  24321950.039 8 127812704.126 8      2695.781          48.000    24321956.102 8  97934466.914 8      2065.575          51.000
> 2020 05 18 09 50 30.0000000  0 16        .000000000000
G02  22997149.570 4 120850836.306 4      -690.109          29.000    22997144.594 4  94169455.626 4      -537.748          28.000
G12  21135344.453 6 111066981.745 6     -1932.828          40.000    21135343.492 6  86545697.224 6     -1506.100          40.000
G24  23627915.039 8 124165489.259 8     -3538.633          49.000    23627912.836 8  96752317.916 8     -2757.376          49.000
G25  20158463.297 8 105933482.671 8      -209.316          51.000    20158465.234 8  82545548.873 8      -163.104          51.000
G29  20918158.469 8 109925656.810 8      1987.285          50.000    20918157.883 8  85656363.534 8      1548.534          50.000
G32  22676519.211 7 119165830.250 7     -1808.531          42.000    22676522.133 7  92856517.112 7     -1409.248          42.000
R16  19688059.516 7 105170120.994 7     -1105.684          47.000    19688062.094 7  81798947.021 7      -859.976          44.000
R18  19809288.953 8 105743421.359 8     -1445.914          49.000    19809292.625 8  82244873.723 8     -1124.600          48.000
R19  20040010.477 7 107200523.971 7      2695.715          42.000    20040012.227 7  83378209.259 7      2096.670          46.000
C11  22041111.703 8 114773881.780 8      1144.938          50.000    22041111.680 8  88750455.691 8       885.399          51.000
C12  23111192.320 5 120346015.909 5     -2052.359          35.000    23111192.992 6  93059206.283 6     -1587.042          40.000
C24  25483870.102 7 132701193.946 7     -2912.926          45.000
C25  21899738.602 8 114037683.608 8      -816.148          51.000
E13  24246872.305 5 127418174.666 5        64.457          35.000    24246866.477 6  97632127.235 6        49.383          38.000
E21  23935370.406 8 125781225.634 8      -857.168          51.000    23935372.875 8  96377822.450 8      -656.773          51.000
E26  24306584.703 7 127731962.305 7      2687.102          47.000    24306591.492 8  97872599.820 8      2058.999          50.000
> 2020 05 18 09 51  0.0000000  0 16        .000000000000
G02  23001137.227 5 120871776.966 5      -705.867          34.000
G12  21146402.586 6 111125092.414 6     -1940.672          37.000    21146401.375 6  86590978.233 6     -1512.215          38.000
G24  23648130.375 8 124271720.470 8     -3543.012          49.000    23648129.586 8  96835095.405 8     -2760.791          49.000
G25  20159689.180 8 105939925.280 8      -219.750          51.000    20159691.188 8  82550569.086 8      -171.234          51.000
G29  20906855.328 8 109866259.098 8      1973.031          51.000    20906855.164 8  85610079.645 8      1537.427          51.000
G32  22686886.664 6 119220309.718 6     -1822.875          41.000    22686889.805 6  92898968.642 6     -1420.422          41.000
R16  19694312.867 7 105203525.745 7     -1120.816          46.000    19694315.508 7  81824928.469 7      -871.746          44.000
R18  19817484.594 8 105787169.172 8     -1470.242          50.000    19817488.133 7  82278899.797 7     -1143.522          47.000
R19  20024952.477 6 107119973.446 6      2674.461          41.000    20024954.492 7  83315558.864 7      2080.136          45.000
C11  22034558.836 8 114739759.182 8      1130.285          50.000    22034559.047 8  88724069.959 8       874.002          51.000
C12  23123048.750 6 120407754.466 6     -2063.008          38.000    23123049.555 6  93106946.445 6     -1595.381          41.000
C24  25500664.641 7 132788644.711 7     -2916.758          46.000
C25  21904474.711 8 114062345.984 8      -827.594          51.000
E13  24246543.938 6 127416451.066 6        50.926          36.000    24246540.031 6  97630806.507 6        38.716          40.000
E21  23940280.359 8 125807027.343 8      -862.602          51.000    23940282.766 8  96397592.592 8      -660.898          51.000
E26  24291264.602 7 127651458.482 7      2680.156          46.000    24291271.398 8  97810915.078 8      2053.617          48.000
> 2020 05 18 09 51 30.0000000  0 17        .000000000000
G02  23005215.227 5 120893207.259 5      -722.551          35.000
G12  21157503.328 6 111183427.819 6     -1948.191          39.000    21157502.188 6  86636434.374 6     -1518.068          40.000
G24  23668370.633 8 124378082.681 8     -3547.715          48.000    23668371.188 8  96917975.002 8     -2764.456          48.000
G25  20160976.305 8 105946689.360 8      -230.984          51.000    20160978.375 8  82555839.777 8      -179.991          51.000
G29  20895635.000 8 109807296.833 8      1958.008          51.000    20895635.227 8  85564135.042 8      1525.720          51.000
G32  22697335.930 7 119275218.719 7     -1837.484          42.000    22697339.305 7  92941754.852 7     -1431.806          42.000
R16  19700651.961 7 105237387.584 7     -1136.566          47.000    19700654.344 7  81851265.441 7      -883.996          44.000
R18  19825817.750 8 105831651.513 8     -1495.105          51.000    19825820.906 8  82313497.158 8     -1162.860          48.000
R19  20010015.570 6 107040069.531 6      2652.430          40.000    20010017.656 7  83253411.385 7      2063.001          47.000
C11  22028091.367 8 114706081.072 8      1114.980          50.000    22028091.805 8  88698027.928 8       862.267          51.000
C12  23134968.508 6 120469821.609 6     -2074.379          37.000    23134969.359 6  93154940.682 6     -1604.120          41.000
C24  25517482.945 7 132876219.233 7     -2921.438          47.000
C25  21909277.438 8 114087355.181 8      -839.602          51.000
E13  24246298.016 6 127415156.941 6        35.809          37.000    24246293.969 6  97629814.829 6        27.525          41.000
E21  23945222.578 8 125832997.938 8      -868.629          51.000    23945224.758 8  96417492.141 8      -665.579          51.000
E26  24275986.430 7 127571173.492 7      2672.449          47.000    24275992.547 7  97749398.036 7      2047.616          47.000
E27  27397892.992 5 143976894.460 5     -2305.168          34.000
> 2020 05 18 09 52  0.0000000  0 15        .000000000000
G12  21168656.766 6 111242039.221 6     -1958.984          39.000    21168656.008 6  86682105.579 6     -1526.484          38.000
G24  23688645.148 7 124484625.887 7     -3555.453          46.000    23688646.898 7  97000995.668 7     -2770.483          46.000
G25  20162334.539 8 105953826.709 8      -245.227          51.000    20162336.641 8  82561401.352 8      -191.086          51.000
G29  20884507.570 8 109748823.002 8      1939.875          50.000    20884507.750 8  85518571.028 8      1511.591          50.000
G32  22707876.164 7 119330606.765 7     -1855.328          43.000    22707877.633 7  92984914.365 7     -1445.710          43.000
R16  19707086.195 7 105271759.450 7     -1155.355          46.000    19707088.992 7  81877999.072 7      -898.613          44.000
R18  19834297.930 8 105876918.196 8     -1523.020          51.000    19834301.266 8  82348704.576 8     -1184.571          48.000
R19  19995209.594 6 106960867.621 6      2627.102          39.000    19995211.992 7  83191809.912 7      2043.301          46.000
C11  22021719.320 8 114672899.191 8      1096.688          51.000    22021719.859 8  88672369.614 8       848.095          51.000
C12  23146960.281 5 120532266.668 5     -2089.465          34.000    23146961.203 6  93203227.164 6     -1615.196          39.000
C24  25534334.375 7 132963967.844 7     -2928.805          46.000
C25  21914156.789 8 114112762.744 8      -854.605          51.000
E13  24246143.133 6 127414343.809 6        17.828          40.000    24246139.398 7  97629191.736 7        13.903          43.000
E21  23950206.820 8 125859189.461 8      -877.863          51.000    23950208.805 8  96437560.970 8      -672.631          51.000
E26  24260760.867 8 127491160.861 8      2661.430          48.000    24260764.930 7  97688089.705 7      2039.307          47.000
> 2020 05 18 09 52 30.0000000  0 15        .000000000000
G12  21179858.180 7 111300901.851 7     -1965.652          42.000    21179857.781 7  86727972.539 7     -1531.677          42.000
G24  23708948.781 7 124591324.102 7     -3558.434          45.000    23708951.867 7  97084137.110 7     -2772.805          45.000
G25  20163759.234 8 105961313.262 8      -254.547          51.000    20163761.336 8  82567235.035 8      -198.348          51.000
G29  20873469.039 8 109690814.400 8      1926.707          51.000    20873468.648 8  85473369.520 8      1501.330          51.000
G32  22718502.508 7 119386447.364 7     -1868.129          42.000    22718502.469 7  93028426.462 7     -1455.688          42.000
R16  19713611.641 7 105306617.296 7     -1169.273          46.000    19713614.109 7  81905110.718 7      -909.435          44.000
R18  19842919.633 8 105922942.186 8     -1545.859          51.000    19842922.758 8  82384501.002 8     -1202.335          48.000
R19  19980530.797 6 106882346.444 6      2606.832          40.000    19980532.906 7  83130737.877 7      2027.536          44.000
C11  22015438.258 8 114640190.255 8      1083.230          51.000    22015438.648 8  88647077.024 8       837.577          51.000
C12  23159019.352 5 120595063.786 5     -2098.332          35.000    23159019.953 5  93251785.964 5     -1622.382          35.000
C24  25551214.250 7 133051866.067 7     -2931.668          46.000
C25  21919108.266 8 114138545.083 8      -864.918          51.000
E13  24246075.062 6 127413987.565 6         5.027          41.000    24246072.672 7  97628918.734 7         3.792          44.000
E21  23955228.484 8 125885578.255 8      -882.227          51.000    23955230.469 8  96457780.940 8      -675.947          51.000
E26  24245583.297 8 127411398.280 8      2655.219          50.000    24245584.953 7  97626972.979 7      2034.605          47.000
> 2020 05 18 09 53  0.0000000  0 16        .000000000000
G02  23018044.672 5 120960653.353 5      -773.957          33.000
G12  21191100.930 7 111359981.479 7     -1973.852          42.000    21191100.516 7  86774008.593 7     -1538.063          43.000
G24  23729275.250 7 124698141.919 7     -3563.492          45.000    23729279.266 7  97167371.761 7     -2776.747          45.000
G25  20165243.930 8 105969115.373 8      -266.145          51.000    20165245.992 8  82573314.608 8      -207.382          51.000
G29  20862513.117 8 109633238.466 8      1911.137          51.000    20862512.352 8  85428505.165 8      1489.197          51.000
G32  22729208.289 6 119442704.343 6     -1883.086          40.000    22729208.742 6  93072263.043 6     -1467.343          40.000
R16  19720221.648 7 105341927.280 7     -1185.309          46.000    19720224.516 7  81932574.023 7      -921.907          45.000
R18  19851676.414 8 105969686.680 8     -1570.945          51.000    19851679.977 8  82420857.831 8     -1221.846          48.000
R19  19965973.227 6 106804474.273 6      2583.953          40.000    19965975.141 7  83070170.659 7      2009.741          43.000
C11  22009241.789 8 114607921.432 8      1067.457          51.000    22009241.875 8  88622124.721 8       825.398          51.000
C12  23171140.422 6 120658178.016 6     -2110.008          39.000    23171139.164 5  93300589.753 5     -1631.510          35.000
C24  25568116.484 7 133139879.728 7     -2936.527          46.000
C25  21924125.289 8 114164669.143 8      -877.266          51.000
E13  24246087.914 7 127414054.387 7       -10.074          42.000    24246086.656 7  97628969.930 7        -7.737          46.000
E21  23960281.242 8 125912131.028 8      -888.699          51.000    23960283.430 8  96478126.561 8      -680.981          51.000
E26  24230447.367 8 127331853.917 8      2646.930          51.000    24230447.883 8  97566023.475 8      2028.143          48.000
> 2020 05 18 09 53 30.0000000  0 15        .000000000000
G12  21202394.492 7 111419328.419 7     -1982.320          42.000    21202393.719 6  86820252.946 6     -1544.668          41.000
G24  23749634.203 7 124805128.748 7     -3568.660          45.000    23749638.328 7  97250738.089 7     -2780.777          45.000
G25  20166798.344 8 105977284.043 8      -278.109          51.000    20166800.453 8  82579679.800 8      -216.709          51.000
G29  20851649.227 8 109576147.201 8      1895.227          51.000    20851648.398 8  85384018.464 8      1476.800          51.000
G32  22740001.852 5 119499426.288 5     -1898.715          33.000    22740004.977 5  93116461.995 5     -1479.512          33.000
R16  19726925.930 7 105377741.521 7     -1202.027          45.000    19726929.164 7  81960429.533 7      -934.910          45.000
R18  19860577.352 8 106017200.744 8     -1596.258          51.000    19860580.930 8  82457813.210 8     -1241.534          48.000
R19  19951547.477 7 106727305.940 7      2561.086          42.000    19951548.844 7  83010150.922 7      1991.956          42.000
C11  22003139.312 8 114576143.582 8      1051.465          50.000    22003139.531 8  88597552.103 8       813.017          51.000
C12  23183331.656 6 120721657.703 6     -2121.992          36.000    23183330.172 6  93349676.179 6     -1640.726          38.000
C24  25585050.695 7 133228058.612 7     -2941.832          47.000
C25  21929217.594 8 114191185.728 8      -890.141          51.000
E13  24246190.445 7 127414595.179 7       -25.559          43.000    24246190.906 7  97629384.295 7       -19.521          46.000
E21  23965374.953 8 125938899.068 8      -895.488          51.000    23965377.250 8  96498637.117 8      -686.138          51.000
E26  24215362.828 8 127252580.477 8      2638.309          51.000    24215363.227 8  97505281.538 8      2021.519          49.000
> 2020 05 18 09 54  0.0000000  0 15        .000000000000
G12  21213734.188 7 111478918.764 7     -1990.395          42.000    21213733.430 7  86866687.002 7     -1550.954          42.000
G24  23770020.375 7 124912259.351 7     -3573.281          44.000    23770024.633 7  97334216.435 7     -2784.378          44.000
G25  20168418.156 8 105985796.090 8      -289.438          51.000    20168420.266 8  82586312.554 8      -225.536          51.000
G29  20840872.812 8 109519518.261 8      1880.020          49.000    20840872.344 8  85339892.003 8      1464.947          50.000
G32  22750878.672 5 119556587.561 5     -1912.781          35.000    22750884.820 6  93161003.257 6     -1490.479          36.000
R16  19733720.195 7 105414037.061 7     -1217.887          46.000    19733723.602 7  81988659.413 7      -947.245          45.000
R18  19869617.672 8 106065458.207 8     -1620.902          51.000    19869620.875 8  82495346.776 8     -1260.702          48.000
R19  19937249.805 7 106650820.884 7      2538.195          42.000    19937250.539 7  82950662.606 7      1974.152          42.000
C11  21997126.789 8 114544834.217 8      1035.836          50.000    21997126.969 8  88573341.730 8       800.962          51.000
C12  23195587.070 5 120785477.927 5     -2132.766          32.000    23195586.781 6  93399026.121 6     -1649.392          39.000
C24  25602012.148 8 133316378.949 8     -2946.410          48.000
C25  21934380.836 8 114218072.029 8      -902.398          51.000
E13  24246379.141 7 127415586.559 7       -40.605          43.000    24246380.273 7  97630143.906 7       -31.059          45.000
E21  23970505.367 8 125965859.581 8      -902.008          51.000    23970507.695 8  96519295.161 8      -691.134          51.000
E26  24200325.594 8 127173556.599 8      2629.844          51.000    24200326.242 8  97444730.796 8      2015.123          49.000
> 2020 05 18 09 54 30.0000000  0 15        .000000000000
G12  21225118.406 6 111538747.686 6     -1997.598          37.000    21225118.516 6  86913306.934 6     -1556.570          36.000
G24  23790432.352 7 125019526.864 7     -3577.492          42.000    23790437.227 7  97417801.456 7     -2787.656          42.000
G25  20170102.484 8 105994646.960 8      -300.410          51.000    20170104.570 8  82593209.336 8      -234.086          51.000
G29  20830183.492 8 109463347.926 8      1864.969          50.000    20830183.383 8  85296122.899 8      1453.222          49.000
G32  22761838.703 6 119614181.200 6     -1926.465          37.000    22761845.922 6  93205881.439 6     -1501.141          36.000
R16  19740604.016 7 105450809.475 7     -1233.289          46.000    19740607.516 7  82017260.164 7      -959.225          45.000
R18  19878795.695 8 106114451.445 8     -1645.070          51.000    19878799.070 8  82533452.634 8     -1279.499          48.000
R19  19923079.469 6 106575016.976 6      2515.586          40.000    19923079.883 7  82891704.046 7      1956.567          44.000
C11  21991203.273 8 114513989.222 8      1020.664          50.000    21991203.125 8  88549490.421 8       789.233          51.000
C12  23207906.953 6 120849632.391 6     -2143.426          38.000    23207907.281 6  93448634.483 6     -1657.659          37.000
C24  25618999.586 8 133404835.438 8     -2950.520          48.000
C25  21939614.141 8 114245323.810 8      -914.172          51.000
E13  24246652.867 7 127417023.757 7       -55.102          44.000    24246654.102 7  97631245.136 7       -42.203          45.000
E21  23975671.562 8 125993008.308 8      -907.785          51.000    23975673.977 8  96540097.411 8      -695.552          51.000
E26  24185334.961 8 127094779.414 8      2622.082          51.000    24185336.117 8  97384369.082 8      2009.125          49.000
> 2020 05 18 09 55  0.0000000  0 15        .000000000000
G12  21236548.766 6 111598817.391 6     -2005.691          37.000    21236549.258 6  86960114.456 6     -1562.876          37.000
G24  23810870.297 6 125126933.354 6     -3582.125          39.000    23810876.492 6  97501494.777 6     -2791.269          39.000
G25  20171851.875 8 106003839.782 8      -311.816          51.000    20171853.953 8  82600372.560 8      -242.974          51.000
G29  20819582.711 8 109407640.288 8      1849.512          51.000    20819582.812 8  85252714.370 8      1441.181          51.000
G32  22772880.594 6 119672207.866 6     -1940.461          37.000    22772888.594 6  93251097.027 6     -1512.044          38.000
R16  19747578.156 7 105488062.486 7     -1249.465          47.000    19747581.359 7  82046234.722 7      -971.809          44.000
R18  19888111.805 8 106164181.037 8     -1669.531          51.000    19888115.070 7  82572131.196 7     -1298.524          47.000
R19  19909037.289 6 106499900.151 6      2492.730          38.000    19909037.961 7  82833279.875 7      1938.790          45.000
C11  21985369.398 8 114483612.079 8      1005.109          50.000    21985369.422 8  88526000.905 8       777.193          51.000
C12  23220292.305 6 120914122.300 6     -2154.895          39.000    23220291.391 5  93498502.067 5     -1666.398          34.000
C24  25636013.578 8 133493430.415 8     -2954.992          48.000
C25  21944918.031 8 114272944.389 8      -926.500          51.000
E13  24247011.641 7 127418909.768 7       -70.012          44.000    24247013.680 7  97632690.241 7       -53.624          44.000
E21  23980874.156 8 126020348.749 8      -914.160          51.000    23980876.742 8  96561046.556 8      -700.466          51.000
E26  24170392.156 8 127016253.776 8      2613.652          51.000    24170393.453 8  97324200.122 8      2002.660          49.000
> 2020 05 18 09 55 30.0000000  0 15        .000000000000
G12  21248025.836 7 111659128.784 7     -2014.551          42.000    21248026.133 6  87007110.323 6     -1569.777          41.000
G24  23831335.023 6 125234478.204 6     -3587.477          40.000    23831342.180 6  97585295.931 6     -2795.436          40.000
G25  20173666.602 8 106013376.073 8      -323.754          51.000    20173668.617 8  82607803.430 8      -252.276          51.000
G29  20809070.750 8 109352397.713 8      1833.496          51.000    20809070.703 8  85209668.257 8      1428.701          51.000
G32  22784004.906 6 119730666.516 6     -1955.773          38.000    22784012.758 6  93296649.297 6     -1523.976          38.000
R16  19754642.445 7 105525798.003 7     -1266.070          47.000    19754645.617 7  82075584.526 7      -984.724          44.000
R18  19897565.430 8 106214645.648 8     -1694.637          51.000    19897568.938 7  82611381.442 7     -1318.051          47.000
R19  19895123.789 6 106425474.899 6      2468.875          37.000    19895125.117 7  82775393.558 7      1920.236          45.000
C11  21979625.602 8 114453704.801 8       988.930          50.000    21979626.156 8  88502874.739 8       764.619          51.000
C12  23232741.422 5 120978947.207 5     -2166.234          35.000    23232740.047 5  93548628.711 5     -1675.118          35.000
C24  25653054.352 8 133582164.562 8     -2960.293          48.000
C25  21950293.250 8 114300935.524 8      -939.441          51.000
E13  24247456.398 7 127421245.934 7       -85.684          44.000    24247458.898 7  97634480.243 7       -65.642          43.000
E21  23986113.617 8 126047882.810 8      -921.262          51.000    23986116.234 8  96582144.060 8      -705.914          51.000
E26  24155497.828 8 126937982.960 8      2604.543          51.000    24155499.250 8  97264226.445 8      1995.620          48.000
> 2020 05 18 09 56  0.0000000  0 15        .000000000000
G12  21259548.766 6 111719681.511 6     -2022.750          41.000    21259548.539 6  87054294.272 6     -1576.172          41.000
G24  23851826.695 6 125342159.423 6     -3591.723          41.000    23851834.031 6  97669203.340 6     -2798.748          41.000
G25  20175546.695 8 106023255.843 8      -335.430          51.000    20175548.688 8  82615501.952 8      -261.374          51.000
G29  20798647.406 8 109297620.904 8      1817.859          51.000    20798646.812 8  85166985.102 8      1416.517          51.000
G32  22795211.664 7 119789554.759 7     -1970.480          42.000    22795218.039 7  93342536.276 7     -1535.436          43.000
R16  19761797.297 7 105564015.748 7     -1282.312          47.000    19761799.969 7  82105309.414 7      -997.354          43.000
R18  19907156.250 8 106265842.291 8     -1719.008          51.000    19907159.727 7  82651201.054 7     -1337.006          47.000
R19  19881339.812 6 106351743.738 6      2445.855          37.000    19881342.000 7  82718047.073 7      1902.335          45.000
C11  21973972.086 8 114424267.612 8       973.145          50.000    21973972.820 8  88480112.058 8       752.446          51.000
C12  23245252.641 5 121044104.949 5     -2177.500          32.000    23245253.227 5  93599012.893 5     -1684.083          35.000
C24  25670121.672 8 133671037.113 8     -2964.922          48.000
C25  21955739.648 8 114329297.370 8      -951.879          51.000
E13  24247986.508 7 127424031.983 7      -100.871          42.000    24247989.414 7  97636614.930 7       -77.183          42.000
E21  23991390.000 8 126075610.743 8      -927.812          51.000    23991392.672 8  96603390.119 8      -710.897          51.000
E26  24140652.172 8 126859968.677 8      2595.859          51.000    24140653.586 8  97204449.326 8      1989.026          48.000
> 2020 05 18 09 56 30.0000000  0 15        .000000000000
G12  21271116.367 6 111780469.934 6     -2029.828          41.000    21271115.898 6  87101661.887 6     -1581.684          41.000
G24  23872343.664 7 125449970.989 7     -3595.730          42.000    23872350.789 7  97753212.313 7     -2801.871          42.000
G25  20177491.258 8 106033474.251 8      -345.949          51.000    20177493.203 8  82623464.346 8      -269.568          51.000
G29  20788312.016 8 109243306.156 8      1802.984          51.000    20788310.789 8  85124661.939 8      1404.923          51.000
G32  22806499.023 7 119848865.262 7     -1983.730          43.000    22806503.977 7  93388752.193 7     -1545.767          43.000
R16  19769041.438 7 105602711.582 7     -1297.594          47.000    19769043.953 7  82135406.134 7     -1009.240          44.000
R18  19916882.703 8 106317763.421 8     -1742.500          51.000    19916886.086 8  82691584.160 8     -1355.278          48.000
R19  19867685.094 6 106278704.183 6      2423.508          40.000    19867688.164 7  82661238.558 7      1884.951          46.000
C11  21968408.039 8 114395296.123 8       958.273          48.000    21968409.016 8  88457709.498 8       740.959          51.000
C12  23257828.312 6 121109589.150 6     -2187.555          36.000    23257829.078 5  93649649.468 5     -1691.894          34.000
C24  25687214.273 7 133760042.482 7     -2968.758          47.000
C25  21961256.516 8 114358025.384 8      -963.441          51.000
E13  24248601.469 7 127427262.809 7      -114.738          43.000    24248604.875 7  97639090.485 7       -87.916          42.000
E21  23996702.547 8 126103528.134 8      -933.379          51.000    23996705.039 8  96624781.357 8      -715.195          51.000
E26  24125854.688 8 126782207.867 8      2588.094          51.000    24125856.141 8  97144866.431 8      1983.118          49.000
> 2020 05 18 09 57  0.0000000  0 16        .000000000000
G12  21282729.523 6 111841498.627 6     -2037.117          38.000    21282729.570 6  87149216.670 6     -1587.364          38.000
G24  23892886.055 7 125557915.565 7     -3599.562          43.000    23892892.258 7  97837324.928 7     -2804.857          43.000
G25  20179501.227 8 106044036.603 8      -356.973          51.000    20179503.086 8  82631694.746 8      -278.161          51.000
G29  20778065.414 8 109189459.583 8      1787.832          51.000    20778064.461 8  85082703.579 8      1393.116          51.000
G32  22817866.820 7 119908600.734 7     -1997.117          43.000    22817870.680 7  93435299.247 7     -1556.198          43.000
R09  20733614.375 5 110716331.952 5      2816.527          35.000
R16  19776376.109 8 105641891.204 8     -1313.332          48.000    19776378.711 7  82165879.147 7     -1021.480          44.000
R18  19926745.562 8 106370411.452 8     -1766.109          51.000    19926749.086 8  82732532.621 8     -1373.641          48.000
R19  19854162.195 6 106206364.675 6      2400.535          41.000    19854165.461 7  82604974.531 7      1867.083          46.000
C11  21962934.453 8 114366795.917 8       942.941          49.000    21962935.906 8  88435671.366 8       729.215          51.000
C12  23270467.719 5 121175402.850 5     -2197.523          34.000    23270467.789 5  93700540.715 5     -1699.509          34.000
C24  25704333.109 7 133849185.003 7     -2972.883          47.000
C25  21966844.688 8 114387124.965 8      -975.238          51.000
E13  24249302.250 6 127430943.607 6      -129.348          41.000    24249305.539 7  97641910.719 7       -99.036          43.000
E21  24002052.148 8 126131640.585 8      -939.449          51.000    24002054.508 8  96646322.054 8      -719.844          51.000
E26  24111106.633 8 126704707.510 8      2579.871          51.000    24111108.578 8  97085483.105 8      1976.778          49.000
> 2020 05 18 09 57 30.0000000  0 16        .000000000000
G02  23061706.188 4 121190089.169 4      -925.344          28.000
G12  21294389.180 6 111902770.644 6     -2046.238          40.000    21294389.180 6  87196961.039 6     -1594.471          40.000
G24  23913453.672 7 125665994.884 7     -3604.633          44.000    23913458.469 7  97921542.531 7     -2808.808          43.000
G25  20181577.172 8 106054946.062 8      -369.234          51.000    20181579.047 8  82640195.625 8      -287.712          51.000
G29  20767908.406 8 109136085.260 8      1771.438          51.000    20767908.008 8  85041113.197 8      1380.341          51.000
G32  22829315.062 7 119968761.773 7     -2012.301          42.000    22829319.031 7  93482177.911 7     -1568.030          42.000
R16  19783801.781 7 105681558.003 7     -1330.207          47.000    19783804.359 7  82196731.098 7     -1034.605          45.000
R18  19936744.586 8 106423786.645 8     -1791.105          51.000    19936747.906 8  82774046.650 8     -1393.082          48.000
R19  19840771.234 7 106134730.616 7      2376.059          42.000    19840774.227 7  82549259.190 7      1848.046          46.000
C11  21957552.469 8 114338770.468 8       926.527          49.000    21957553.781 8  88414000.341 8       716.407          51.000
C12  23283169.883 5 121241547.368 5     -2210.273          32.000    23283170.078 5  93751687.888 5     -1709.115          34.000
C24  25721478.648 7 133938467.150 7     -2978.156          47.000
C25  21972504.789 8 114416599.463 8      -988.578          51.000
E13  24250088.516 6 127435077.172 6      -145.117          36.000    24250091.828 7  97645077.942 7      -111.155          45.000
E21  24007439.438 8 126159951.666 8      -946.766          51.000    24007441.977 8  96668014.944 8      -725.468          51.000
E26  24096409.203 8 126627472.519 8      2570.305          51.000    24096411.641 8  97026303.082 8      1969.472          50.000
> 2020 05 18 09 58  0.0000000  0 15        .000000000000
G12  21306094.539 7 111964282.197 7     -2054.520          42.000    21306094.297 7  87244892.177 7     -1600.921          42.000
G24  23934045.930 7 125774205.025 7     -3609.094          44.000    23934049.086 7  98005862.057 7     -2812.284          44.000
G25  20183718.648 8 106066200.193 8      -380.906          51.000    20183720.625 8  82648965.077 8      -296.810          51.000
G29  20757841.078 8 109083181.389 8      1755.648          51.000    20757840.570 8  84999889.402 8      1368.038          51.000
G32  22840842.961 6 120029343.341 6     -2026.207          41.000    22840847.344 6  93529384.334 6     -1578.860          41.000
R16  19791318.352 7 105721710.063 7     -1346.531          47.000    19791321.250 7  82227960.467 7     -1047.302          45.000
R18  19946878.805 8 106477883.623 8     -1815.254          51.000    19946882.531 8  82816122.090 8     -1411.864          49.000
R19  19827512.203 6 106063802.337 6      2352.523          41.000    19827515.070 7  82494092.775 7      1829.743          45.000
C11  21952261.141 7 114311217.719 7       910.594          47.000    21952262.570 8  88392694.801 8       704.126          51.000
C12  23295935.539 5 121308018.335 5     -2221.039          35.000    23295934.547 5  93803087.460 5     -1717.457          32.000
C24  25738650.328 7 134027885.620 7     -2982.793          46.000
C25  21978236.531 8 114446446.660 8     -1001.078          51.000
E13  24250961.180 5 127439659.791 5      -160.078          34.000    24250964.156 7  97648590.078 7      -122.741          47.000
E21  24012864.211 8 126188459.263 8      -953.523          51.000    24012866.938 8  96689858.416 8      -730.574          51.000
E26  24081762.180 8 126550502.186 8      2561.273          51.000    24081764.977 8  96967325.848 8      1962.579          50.000
> 2020 05 18 09 58 30.0000000  0 15        .000000000000
G12  21317845.562 6 112026033.223 6     -2061.816          39.000    21317845.719 6  87293009.856 6     -1606.610          39.000
G24  23954662.438 7 125882543.801 7     -3613.203          44.000    23954664.297 7  98090281.824 7     -2815.486          44.000
G25  20185925.805 8 106077799.190 8      -392.191          51.000    20185927.844 8  82658003.255 8      -305.601          51.000
G29  20747863.297 8 109030748.947 8      1740.133          51.000    20747862.641 8  84959032.979 8      1355.948          51.000
G32  22852450.195 6 120090343.174 6     -2040.062          40.000    22852454.891 6  93576916.686 6     -1589.656          40.000
R16  19798925.812 8 105762347.480 8     -1362.434          48.000    19798928.625 7  82259567.349 7     -1059.671          45.000
R18  19957147.805 8 106532699.497 8     -1838.844          51.000    19957151.383 8  82858756.632 8     -1430.215          49.000
R19  19814384.984 6 105993582.420 6      2329.043          41.000    19814387.828 7  82439477.311 7      1811.478          45.000
C11  21947060.422 7 114284138.134 7       895.004          47.000    21947062.289 8  88371755.182 8       692.038          51.000
C12  23308763.609 6 121374814.115 6     -2231.824          36.000    23308761.477 4  93854738.062 4     -1725.516          29.000
C24  25755847.750 7 134117439.857 7     -2987.121          44.000
C25  21984040.047 8 114476666.875 8     -1013.293          51.000
E13  24251919.023 5 127444694.477 5      -174.840          33.000    24251921.289 8  97652446.992 8      -134.124          48.000
E21  24018326.594 8 126217163.868 8      -959.898          51.000    24018329.203 8  96711852.842 8      -735.507          51.000
E26  24067166.070 8 126473798.375 8      2552.574          51.000    24067169.000 8  96908552.815 8      1955.887          51.000
> 2020 05 18 09 59  0.0000000  0 15        .000000000000
G12  21329641.961 6 112088023.808 6     -2070.336          39.000    21329642.539 6  87341314.106 6     -1613.252          39.000
G24  23975303.078 7 125991009.865 7     -3617.383          44.000    23975304.523 7  98174800.757 7     -2818.743          45.000
G25  20188198.758 8 106089743.688 8      -403.656          51.000    20188200.930 8  82667310.654 8      -314.537          51.000
G29  20737975.414 8 108978789.391 8      1724.340          51.000    20737974.766 8  84918545.050 8      1343.641          51.000
G32  22864136.961 7 120151759.351 7     -2053.977          42.000    22864141.562 7  93624773.405 7     -1600.501          42.000
R16  19806624.320 8 105803471.551 8     -1378.691          48.000    19806627.000 7  82291552.729 7     -1072.319          45.000
R18  19967550.906 8 106588231.942 8     -1862.723          51.000    19967554.461 8  82901948.523 8     -1448.784          49.000
R19  19801390.742 6 105924074.280 6      2305.367          41.000    19801393.961 7  82385415.463 7      1793.063          45.000
C11  21941951.266 8 114257532.651 8       879.098          48.000    21941952.836 8  88351182.127 8       679.819          51.000
C12  23321653.406 5 121441933.253 5     -2243.020          34.000    23321651.688 5  93906638.755 5     -1733.877          31.000
C24  25773071.055 7 134207129.646 7     -2991.711          44.000
C25  21989915.359 8 114507260.928 8     -1025.855          51.000
E13  24252961.922 5 127450174.566 5      -190.160          34.000    24252964.203 8  97656648.986 8      -145.710          49.000
E21  24023826.648 8 126246066.535 8      -966.617          51.000    24023829.109 8  96733999.027 8      -740.568          51.000
E26  24052620.977 8 126397363.430 8      2543.512          50.000    24052623.867 8  96849985.805 8      1948.859          51.000
> 2020 05 18 09 59 30.0000000  0 15        .000000000000
G12  21341482.375 7 112150244.385 7     -2077.488          42.000    21341482.344 7  87389797.680 7     -1618.822          42.000
G24  23995965.891 7 126099593.152 7     -3621.184          43.000    23995967.570 7  98259411.019 7     -2821.708          43.000
G25  20190535.734 8 106102024.388 8      -414.855          51.000    20190538.000 8  82676880.039 8      -323.264          51.000
G29  20728175.977 8 108927294.429 8      1708.805          51.000    20728175.336 8  84878419.129 8      1331.539          51.000
G32  22875901.172 7 120213579.917 7     -2067.336          45.000    22875905.133 7  93672945.240 7     -1610.911          46.000
R16  19814412.148 8 105845072.436 8     -1394.609          49.000    19814414.734 7  82323908.943 7     -1084.699          45.000
R18  19978085.820 8 106644468.500 8     -1886.180          51.000    19978089.336 8  82945688.069 8     -1467.029          49.000
R19  19788528.602 7 105855270.553 7      2281.914          42.000    19788531.938 7  82331901.481 7      1774.825          45.000
C11  21936931.609 8 114231392.258 8       863.730          48.000    21936932.773 8  88330968.724 8       667.740          51.000
C12  23334602.672 5 121509364.492 5     -2252.492          33.000    23334601.969 5  93958780.955 5     -1742.193          33.000
C24  25790319.109 7 134296944.920 7     -2995.852          44.000
C25  21995860.703 8 114538219.786 8     -1037.980          51.000
E13  24254089.641 6 127456099.346 6      -204.703          38.000    24254091.633 8  97661188.700 8      -156.889          50.000
E21  24029362.719 8 126275158.291 8      -972.867          51.000    24029364.844 8  96756290.101 8      -745.378          51.000
E26  24038125.523 8 126321189.779 8      2534.809          50.000    24038128.477 8  96791618.982 8      1942.280          51.000
