     3.02           OBSERVATION DATA    M (MIXED)           RINEX VERSION / TYPE
SAVERINEX           SC600               20200509 125930 LCL PGM / RUN BY / DATE
       G = GPS       R = GLONASS       C = COMPASS          COMMENT
       S = SBAS      J = QZSS          E = GALILEO          COMMENT
BEAN                                                        MARKER NAME
1                                                           MARKER NUMBER
GEODETIC                                                    MARKER TYPE
Unige DICCA         GTER                                    OBSERVER / AGENCY
SC60291900056       SC600               2.12(191226)        REC # / TYPE / VERS
                    HEMA45          NONE                    ANT # / TYPE
  4509407.8091   693652.4678  4442337.6214                  APPROX POSITION XYZ
        0.0000        0.0000        0.0000                  ANTENNA: DELTA H/E/N
G    8 C1C L1C D1C S1C C2Y L2Y D2Y S2Y                      SYS / # / OBS TYPES
R    8 C1C L1C D1C S1C C2P L2P D2P S2P                      SYS / # / OBS TYPES
C    4 C1I L1I D1I S1I                                      SYS / # / OBS TYPES
E    8 C1C L1C D1C S1C C7Q L7Q D7Q S7Q                      SYS / # / OBS TYPES
DBHZ                                                        COMMENT
     30.000                                                 INTERVAL
  2020    05    09    10    00    0.0000000     GPS         TIME OF FIRST OBS
  2020    05    09    10    59   30.0000000     GPS         TIME OF LAST OBS
     0                                                      RCV CLOCK OFFS APPL
G L1C  0.00000                                              SYS / PHASE SHIFT
G L2Y  0.00000                                              SYS / PHASE SHIFT
R L1C  0.00000                                              SYS / PHASE SHIFT
R L2P  0.25000                                              SYS / PHASE SHIFT
C L1I  0.00000                                              SYS / PHASE SHIFT
E L1C  0.50000                                              SYS / PHASE SHIFT
E L7Q -0.25000                                              SYS / PHASE SHIFT
 12 R02 -4 R03  5 R04  6 R05  1 R10 -5 R12 -1 R13 -2 R14 -7 GLONASS SLOT / FRQ #
    R15  0 R17  4 R18 -3 R23  3                             GLONASS SLOT / FRQ #
 C1C   71.950 C2C   71.950 C2P   71.950                     GLONASS COD/PHS/BIS
    18                                                      LEAP SECONDS
*** Above antenna height is from mark to ANTENNA BOTTOM.    COMMENT
    17     4        0.0000        ANT MEASURE TYPE/HEIGT    COMMENT
    0.0000    0.0000    0.0458    0.0405    0.0000          COMMENT
                    BASE STATION                            COMMENT
                                                            END OF HEADER
> 2020 05 09 10 00  0.0000000  0 15        .000000000000
G02  22930791.141 5 120502149.138 5       245.352          34.000
G12  20611331.195 8 108313276.104 8     -1451.633          51.000    20611329.875 8  84399942.775 8     -1131.142          51.000
G24  22568766.797 8 118599651.225 8     -3161.270          50.000    22568768.141 8  92415315.770 8     -2463.327          50.000
G25  20199964.547 7 106151529.650 7       451.891          42.000    20199965.812 6  82715482.012 6       352.123          41.000
G29  21681963.055 8 113939483.318 8      2776.250          50.000    21681963.781 8  88784007.099 8      2163.312          50.000
R14  22326688.797 5 119013817.596 5     -2988.059          31.000    22326692.500 4  92566313.688 4     -2324.055          28.000
R15  19512470.945 8 104268733.756 8      -344.180          51.000    19512473.227 8  81097907.281 8      -267.695          48.000
R17  19506968.141 8 104385737.409 8       279.367          48.000    19506968.992 7  81188915.921 7       217.286          46.000
R18  21190033.984 8 113113912.714 8      3888.965          51.000    21190035.070 7  87977474.122 7      3024.750          46.000
C23  25868845.742 5 134705840.149 5     -2866.086          35.000
C27  22740056.914 8 118413429.210 8      2465.461          51.000
C28  22207549.211 7 115640500.176 7      -667.945          45.000
E02  25074121.477 6 131765460.848 6     -1707.742          37.000    25074121.000 6 100963096.062 6     -1308.697          36.000
E07  26664814.508 7 140124526.824 7     -2302.473          47.000    26664818.219 8 107368155.805 8     -1764.259          48.000
E30  22223373.523 8 116784606.431 8       335.785          49.000    22223374.617 8  89484308.440 8       257.332          48.000
> 2020 05 09 10 00 30.0000000  0 13        .000000000000
G12  20619643.852 8 108356959.782 8     -1461.660          51.000    20619642.516 8  84433981.991 8     -1138.956          51.000
G24  22586836.344 8 118694606.349 8     -3170.152          49.000    22586838.000 8  92489306.760 8     -2470.249          49.000
G25  20197415.609 6 106138136.899 6       439.996          39.000    20197416.969 6  82705046.124 6       342.857          38.000
G29  21666148.180 8 113856377.588 8      2763.043          49.000    21666147.961 8  88719249.395 8      2153.020          49.000
R15  19514442.148 8 104279267.706 8      -359.141          51.000    19514444.531 8  81106100.350 8      -279.332          48.000
R17  19505478.266 7 104377767.269 7       250.895          47.000    19505479.633 7  81182716.913 7       195.140          46.000
R18  21168217.000 8 112997454.091 8      3873.785          49.000    21168219.398 7  87886895.203 7      3012.944          47.000
C23  25885367.953 5 134791880.120 5     -2870.961          33.000
C27  22725885.617 8 118339632.146 8      2453.227          51.000
C28  22211442.547 7 115660774.169 7      -684.660          45.000
E02  25083883.789 5 131816698.077 5     -1712.992          35.000    25083883.570 5 101002399.983 5     -1312.331          35.000
E07  26677977.844 7 140193699.438 7     -2310.180          47.000    26677981.180 8 107421158.172 8     -1770.069          48.000
E30  22221471.070 8 116774607.867 8       329.605          49.000    22221471.852 8  89476647.209 8       252.540          48.000
> 2020 05 09 10 01  0.0000000  0 16        .000000000000
G02  22928195.367 5 120488479.154 5       212.430          33.000
G12  20628016.633 8 108400959.229 8     -1469.121          50.000    20628015.305 8  84468267.260 8     -1144.773          50.000
G24  22604958.930 8 118789840.586 8     -3176.340          48.000    22604960.578 8  92563515.256 8     -2475.067          48.000
G25  20194937.453 6 106125116.245 6       430.488          41.000    20194939.180 6  82694900.198 6       335.445          40.000
G29  21650411.648 8 113773683.852 8      2752.363          49.000    21650409.859 8  88654812.764 8      2144.702          49.000
G32  22263190.430 5 116993863.742 5      -921.102          31.000
R15  19516499.852 8 104290262.910 8      -371.402          51.000    19516502.039 8  81114652.175 8      -288.868          48.000
R17  19504150.094 8 104370663.457 8       225.055          48.000    19504152.047 7  81177191.732 7       175.043          45.000
R18  21146486.773 7 112881463.940 7      3861.426          46.000    21146490.820 7  87796680.642 7      3003.331          46.000
R24  22132827.008 5 118354171.051 5     -3433.043          31.000
C23  25901918.469 5 134878071.948 5     -2872.902          31.000
C27  22711787.688 8 118266217.275 8      2443.555          51.000
C28  22215434.391 7 115681559.934 7      -698.613          44.000
E02  25093676.367 5 131868149.455 5     -1715.137          34.000    25093673.453 5 101041825.740 5     -1314.232          33.000
E07  26691186.836 7 140263112.401 7     -2315.098          47.000    26691190.164 8 107474344.697 8     -1773.867          48.000
E30  22219606.250 8 116764808.478 8       326.121          48.000    22219607.047 8  89469138.584 8       249.834          48.000
> 2020 05 09 10 01 30.0000000  0 15        .000000000000
G02  22927023.969 5 120482348.855 5       191.230          34.000
G12  20636423.977 8 108445140.318 8     -1483.051          50.000    20636422.656 8  84502694.079 8     -1155.624          50.000
G24  22623108.711 7 118885219.271 7     -3189.016          47.000    22623110.781 7  92637836.288 7     -2484.947          47.000
G25  20192505.281 7 106112334.554 7       414.867          44.000    20192507.219 7  82684940.417 7       323.273          43.000
G29  21634728.961 8 113691270.337 8      2735.176          51.000    21634726.656 8  88590594.504 8      2131.309          50.000
R15  19518618.570 8 104301584.930 8      -390.340          51.000    19518620.852 8  81123458.199 8      -303.601          48.000
R17  19502958.844 8 104364290.162 8       192.852          48.000    19502961.055 7  81172234.727 7       149.999          44.000
R18  21124819.016 7 112765810.688 7      3842.047          46.000    21124825.109 7  87706728.132 7      2988.259          46.000
R24  22152147.875 5 118457429.116 5     -3453.500          33.000    22152146.758 5  92133592.871 5     -2686.056          33.000
C23  25918474.062 5 134964283.064 5     -2880.852          35.000
C27  22697737.797 8 118193054.116 8      2427.312          51.000
C28  22219497.883 6 115702724.290 6      -719.066          38.000
E02  25103472.266 5 131919636.950 5     -1723.965          33.000
E07  26704415.805 7 140332630.406 7     -2326.258          46.000    26704419.422 8 107527611.716 8     -1782.499          48.000
E30  22217753.789 7 116755075.305 7       315.957          47.000    22217754.805 8  89461680.687 8       242.148          49.000
> 2020 05 09 10 02  0.0000000  0 14        .000000000000
G02  22925968.625 6 120476812.667 6       176.301          36.000
G12  20644904.984 8 108489708.308 8     -1490.289          49.000    20644903.719 8  84537422.373 8     -1161.264          49.000
G24  22641324.844 7 118980947.615 7     -3195.016          46.000    22641327.516 7  92712429.766 7     -2489.626          46.000
G25  20190157.883 7 106099997.776 7       405.641          43.000    20190160.109 7  82675327.301 7       316.081          44.000
G29  21619139.438 8 113609344.770 8      2724.477          51.000    21619137.906 8  88526756.452 8      2122.972          51.000
R15  19520837.906 8 104313444.102 8      -402.480          51.000    19520840.320 8  81132681.985 8      -313.043          48.000
R17  19501942.977 8 104358856.701 8       167.250          49.000    19501945.930 7  81168008.737 7       130.083          45.000
R18  21103255.812 8 112650707.702 8      3829.422          49.000    21103262.508 7  87617203.636 7      2978.442          47.000
R24  22171547.578 4 118561190.852 4     -3466.312          29.000    22171550.477 5  92214296.388 5     -2696.021          32.000
C23  25935072.148 5 135050716.778 5     -2882.848          34.000
C27  22683775.523 8 118120348.401 8      2417.562          51.000
C28  22223673.914 6 115724470.405 6      -733.027          40.000
E07  26717703.703 7 140402457.492 7     -2330.953          46.000    26717707.586 8 107581115.574 8     -1786.082          48.000
E30  22215953.258 8 116745614.735 8       312.520          48.000    22215954.633 8  89454431.665 8       239.511          49.000
> 2020 05 09 10 02 30.0000000  0 15        .000000000000
G12  20653444.695 8 108534585.164 8     -1501.906          48.000    20653443.633 8  84572391.351 8     -1170.314          48.000
G24  22659592.195 7 119076945.302 7     -3205.242          46.000    22659594.383 7  92787233.104 7     -2497.591          46.000
G25  20187880.125 7 106088028.727 7       392.020          42.000    20187882.539 7  82666000.772 7       305.470          42.000
G29  21603628.336 8 113527831.739 8      2709.453          51.000    21603628.094 8  88463239.814 8      2111.265          51.000
G32  22279474.172 6 117079425.262 6      -981.117          37.000    22279479.062 6  91230735.873 6      -764.501          37.000
R15  19523143.383 8 104325762.954 8      -419.109          51.000    19523145.742 8  81142263.312 8      -325.974          48.000
R17  19501088.633 8 104354284.449 8       137.219          50.000    19501091.500 7  81164452.547 7       106.726          45.000
R18  21081782.852 8 112536080.294 8      3812.250          50.000    21081788.930 7  87528049.018 7      2965.083          47.000
C23  25951698.477 5 135137295.922 5     -2889.305          30.000
C27  22669886.734 8 118048025.296 8      2403.590          51.000
C28  22227947.141 6 115746720.841 6      -751.016          41.000
E02  25123169.828 6 132023151.142 6     -1731.824          36.000
E07  26731035.461 7 140472514.531 7     -2339.781          47.000    26731038.859 8 107634795.624 8     -1792.727          48.000
E30  22214190.133 8 116736349.938 8       304.879          49.000    22214191.945 8  89447332.670 8       233.555          49.000
E36  25238078.625 5 132626934.695 5      -935.609          33.000
> 2020 05 09 10 03  0.0000000  0 15        .000000000000
G02  22924151.164 5 120467226.494 5       142.914          30.000
G12  20662025.984 8 108579680.163 8     -1507.953          49.000    20662025.109 8  84607530.315 8     -1175.028          49.000
G24  22677893.539 7 119173121.809 7     -3210.047          46.000    22677894.781 7  92862175.723 7     -2501.341          47.000
G25  20185655.188 7 106076337.605 7       384.082          42.000    20185656.812 7  82656890.842 7       299.285          42.000
G29  21588178.258 8 113446642.788 8      2699.754          49.000    21588179.594 8  88399975.685 8      2103.701          50.000
G32  22285110.977 6 117109031.534 6      -996.031          36.000    22285109.078 5  91253805.780 5      -776.125          34.000
R15  19525517.883 8 104338450.810 8      -430.316          51.000    19525519.656 8  81152131.647 8      -334.691          48.000
R17  19500378.195 8 104350481.639 8       112.746          50.000    19500380.727 7  81161494.822 7        87.691          46.000
R18  21060382.969 8 112421841.431 8      3800.266          50.000    21060387.859 7  87439196.624 7      2955.762          47.000
C23  25968335.180 4 135223930.710 4     -2889.582          29.000
C27  22656054.125 8 117975997.272 8      2394.836          50.000
C28  22232299.070 6 115769385.400 6      -763.418          40.000
E02  25133051.609 5 132075076.873 5     -1733.195          34.000
E07  26744393.383 7 140542709.719 7     -2343.344          46.000    26744395.969 8 107688581.509 8     -1795.519          48.000
E30  22212447.461 8 116727191.453 8       302.383          49.000    22212449.422 8  89440315.138 8       231.627          49.000
> 2020 05 09 10 03 30.0000000  0 15        .000000000000
G02  22923399.859 5 120463269.091 5       121.621          32.000    22923389.383 4  93867446.717 4        94.770          29.000
G06  23701590.469 5 124552692.247 5     -1277.980          35.000    23701596.758 6  97054065.639 6      -995.829          36.000
G12  20670676.773 8 108625139.904 8     -1522.125          48.000    20670675.953 8  84642953.495 8     -1186.071          48.000
G24  22696256.977 7 119269622.568 7     -3222.926          46.000    22696258.719 7  92937371.062 7     -2511.371          46.000
G25  20183511.250 7 106065071.920 7       368.016          43.000    20183512.469 7  82648112.392 7       286.765          42.000
G29  21572817.742 8 113365927.116 8      2681.941          48.000    21572820.328 8  88337080.320 8      2089.824          48.000
R15  19527989.672 8 104351658.594 8      -449.613          51.000    19527991.297 8  81162404.356 8      -349.699          48.000
R17  19499839.430 8 104347598.054 8        80.074          50.000    19499841.906 7  81159252.048 7        62.280          46.000
R18  21039083.961 8 112308144.479 8      3780.133          48.000    21039088.117 7  87350765.683 7      2940.106          47.000
C23  25985012.414 4 135310776.540 4     -2897.102          29.000
C27  22642306.328 8 117904412.001 8      2378.051          49.000
C28  22236758.070 7 115792609.066 7      -784.160          42.000
E02  25142972.523 5 132127204.175 5     -1741.559          33.000    25142982.156 5 101240369.652 5     -1334.468          33.000
E07  26757805.359 7 140613188.436 7     -2354.559          47.000    26757806.945 7 107742584.632 7     -1804.229          47.000
E30  22210753.297 8 116718287.083 8       291.918          49.000    22210755.031 8  89433492.305 8       223.674          50.000
> 2020 05 09 10 04  0.0000000  0 15        .000000000000
G02  22922732.852 5 120459770.974 5       110.281          31.000    22922736.477 5  93864773.069 5        85.933          31.000
G06  23708915.078 6 124591180.607 6     -1291.008          37.000    23708921.242 6  97084056.513 6     -1005.983          37.000
G12  20679369.172 8 108670818.238 8     -1526.215          49.000    20679368.367 8  84678547.017 8     -1189.258          49.000
G24  22714654.297 7 119366301.277 7     -3225.527          45.000    22714656.992 7  93012705.085 7     -2513.401          46.000
G25  20181420.734 7 106054086.330 7       361.488          44.000    20181422.391 7  82639552.188 7       281.679          44.000
G29  21557520.672 8 113285540.892 8      2674.074          51.000    21557522.312 8  88274441.714 8      2083.694          50.000
R14  22462676.906 5 119738693.704 5     -3050.953          30.000
R15  19530531.211 8 104365239.540 8      -458.840          51.000    19530533.109 8  81172967.285 8      -356.875          48.000
R17  19499444.875 8 104345485.315 8        57.648          51.000    19499447.266 7  81157608.802 7        44.838          47.000
R18  21017858.867 8 112194845.755 8      3770.078          48.000    21017863.211 7  87262644.466 7      2932.286          47.000
C23  26001700.109 5 135397669.096 5     -2897.426          31.000
C27  22628616.594 8 117833127.001 8      2371.133          50.000
C28  22241297.523 7 115816246.920 7      -794.797          44.000
E07  26771243.148 8 140683803.421 8     -2355.930          48.000    26771244.047 7 107796692.165 7     -1805.151          47.000
E30  22209079.875 8 116709491.916 8       291.359          50.000    22209081.352 8  89426753.153 8       223.315          50.000
> 2020 05 09 10 04 30.0000000  0 16        .000000000000
G02  22922144.734 5 120456686.566 5        95.922          34.000    22922143.094 5  93862346.522 5        74.735          30.000
G06  23716327.250 5 124630130.504 5     -1306.113          33.000    23716332.430 5  97114407.052 5     -1017.751          33.000
G12  20688097.734 8 108716686.294 8     -1532.219          48.000    20688096.773 8  84714288.360 8     -1193.937          48.000
G24  22733079.570 7 119463127.271 7     -3230.164          45.000    22733083.312 7  93088153.898 7     -2517.011          45.000
G25  20179378.305 7 106043352.622 7       353.418          43.000    20179380.523 7  82631188.256 7       275.391          44.000
G29  21542281.938 8 113205457.588 8      2664.289          51.000    21542281.234 8  88212039.207 8      2076.072          51.000
G32  22302653.711 6 117201231.694 6     -1046.980          36.000    22302652.992 6  91325641.164 6      -815.820          36.000
R15  19533137.469 8 104379165.772 8      -470.109          51.000    19533139.469 8  81183798.809 8      -365.641          48.000
R17  19499188.867 8 104344114.289 8        33.152          51.000    19499191.367 7  81156542.471 7        25.785          47.000
R18  20996703.945 8 112081920.169 8      3757.840          50.000    20996708.273 7  87174813.493 7      2922.764          47.000
C23  26018393.820 5 135484589.303 5     -2898.000          31.000
C27  22614979.914 8 117762115.851 8      2362.324          51.000
C28  22245911.172 7 115840269.863 7      -807.332          44.000
E02  25162836.562 5 132231599.067 5     -1741.699          35.000    25162846.031 6 101320347.656 6     -1334.330          38.000
E07  26784701.070 7 140754524.439 7     -2359.203          47.000    26784701.719 7 107850880.956 7     -1807.701          47.000
E30  22207421.742 8 116700778.098 8       288.980          50.000    22207423.125 8  89420076.331 8       221.448          50.000
> 2020 05 09 10 05  0.0000000  0 15        .000000000000
G02  22921675.094 4 120454225.331 4        73.754          29.000    22921673.156 3  93860428.645 3        57.471          20.000
G12  20696900.359 8 108762943.951 8     -1547.012          49.000    20696899.211 8  84750333.286 8     -1205.464          49.000
G24  22751570.570 7 119560299.431 7     -3243.340          45.000    22751574.953 7  93163872.481 7     -2527.278          45.000
G25  20177421.766 7 106033071.461 7       336.566          44.000    20177424.312 7  82623176.974 7       262.260          43.000
G29  21527139.445 8 113125879.315 8      2645.668          51.000    21527137.633 8  88150030.242 8      2061.559          51.000
G32  22308710.008 6 117233064.895 6     -1070.418          37.000    22308706.367 6  91350446.316 6      -834.083          36.000
R15  19535846.469 8 104393642.069 8      -490.227          51.000    19535848.672 8  81195058.124 8      -381.287          48.000
R17  19499109.664 8 104343688.748 8         -.117          51.000    19499111.789 7  81156211.499 7         -.091          47.000
R18  20975658.562 8 111969575.720 8      3736.504          51.000    20975662.461 7  87087434.512 7      2906.170          47.000
C23  26035131.094 4 135571735.405 4     -2906.871          29.000
C27  22601434.672 8 117691578.859 8      2344.746          51.000
C28  22250636.789 7 115864875.523 7      -828.512          47.000
E02                                                                  25172830.961 6 101360547.895 6     -1341.798          38.000
E07  26798216.750 8 140825550.108 8     -2371.082          48.000    26798217.375 7 107905303.200 7     -1816.779          47.000
E30  22205817.281 8 116692346.624 8       277.742          51.000    22205818.695 8  89413615.843 8       212.836          50.000
> 2020 05 09 10 05 30.0000000  0 14        .000000000000
G02  22921305.094 5 120452270.746 5        58.762          32.000    22921304.469 4  93858905.257 4        45.801          29.000
G12  20705756.648 8 108809484.149 8     -1553.445          48.000    20705755.352 8  84786598.347 8     -1210.477          49.000
G24  22770106.914 7 119657709.945 7     -3248.453          45.000    22770111.797 7  93239776.774 7     -2531.259          45.000
G25  20175531.164 7 106023136.824 7       327.859          44.000    20175533.562 7  82615435.672 7       255.472          44.000
G29  21512072.828 8 113046701.583 8      2635.094          51.000    21512071.305 8  88088333.358 8      2053.320          51.000
G32  22314872.859 6 117265444.884 6     -1085.891          36.000    22314865.414 5  91375677.476 5      -846.149          35.000
R15  19538638.445 8 104408561.516 8      -502.137          51.000    19538640.414 8  81206662.139 8      -390.548          48.000
R17  19499186.695 8 104344100.278 8       -25.117          51.000    19499188.867 7  81156531.586 7       -19.536          47.000
R18  20954702.750 8 111857708.404 8      3723.473          51.000    20954705.992 7  87000426.630 7      2896.037          46.000
C27  22587960.320 8 117621412.407 8      2335.164          51.000
C28  22255453.992 8 115889957.723 8      -841.609          48.000
E02                                                                  25182836.227 6 101400848.490 6     -1343.118          36.000
E07  26811769.891 8 140896772.388 8     -2374.805          48.000    26811770.461 8 107959876.098 8     -1819.632          48.000
E30  22204246.414 8 116684091.813 8       274.707          51.000    22204248.008 8  89407290.720 8       210.544          51.000
> 2020 05 09 10 06  0.0000000  0 16        .000000000000
G06  23739230.953 5 124750492.226 5     -1362.105          34.000    23739237.297 5  97208195.631 5     -1061.372          34.000
G12  20714641.734 8 108856175.981 8     -1561.094          48.000    20714640.195 8  84822981.584 8     -1216.440          48.000
G24  22788663.750 7 119755227.179 7     -3254.555          45.000    22788668.711 7  93315764.237 7     -2536.017          45.000
G25  20173681.969 7 106013418.545 7       318.082          44.000    20173683.859 7  82607862.969 7       247.856          43.000
G29  21497057.141 8 112967795.691 8      2623.473          50.000    21497056.695 8  88026848.237 8      2044.264          50.000
G32  22321115.102 4 117298239.715 4     -1101.555          29.000    22321108.891 4  91401231.978 4      -858.342          28.000
R15  19541488.555 8 104423792.542 8      -515.051          51.000    19541490.625 8  81218508.472 8      -400.595          48.000
R17  19499395.164 8 104345215.604 8       -51.148          51.000    19499397.336 7  81157399.086 7       -39.779          47.000
R18  20933811.648 8 111746189.787 8      3709.062          49.000    20933814.688 7  86913689.938 7      2884.826          46.000
R24  22329728.461 6 119407075.587 6     -3578.613          36.000    22329736.609 4  92872207.453 4     -2783.366          28.000
C23  26068642.602 5 135746257.072 5     -2910.461          31.000
C27  22574532.070 8 117551489.045 8      2324.531          51.000
C28  22260337.398 7 115915386.309 7      -855.441          47.000
E02                                                                  25192843.180 6 101441149.660 6     -1344.998          38.000
E07  26825335.383 8 140968059.100 8     -2379.379          48.000    26825336.250 8 108014498.350 8     -1823.223          48.000
E30  22202684.336 8 116675883.884 8       270.605          51.000    22202686.273 8  89401001.534 8       207.341          51.000
> 2020 05 09 10 06 30.0000000  0 15        .000000000000
G06  23747118.094 6 124791929.425 6     -1384.246          38.000    23747125.898 6  97240484.246 6     -1078.639          36.000
G12  20723637.258 8 108903448.622 8     -1573.656          48.000    20723635.297 8  84859817.399 8     -1226.226          48.000
G24  22807322.648 7 119853279.092 7     -3265.473          45.000    22807327.375 7  93392168.299 7     -2544.524          45.000
G25  20171955.602 7 106004346.496 7       303.031          43.000    20171957.016 7  82600793.824 7       236.128          43.000
G29  21482174.898 8 112889593.150 8      2606.781          50.000    21482175.633 8  87965911.148 8      2031.258          50.000
R15  19544479.086 8 104439773.243 8      -533.254          51.000    19544481.258 8  81230937.890 8      -414.753          48.000
R17  19499816.734 8 104347472.043 8       -82.238          51.000    19499818.773 7  81159154.083 7       -63.963          47.000
R18  20913067.852 8 111635460.501 8      3689.801          50.000    20913071.242 7  86827567.176 7      2869.845          45.000
R24  22349902.344 6 119514954.720 6     -3596.168          38.000    22349907.344 4  92956113.448 4     -2797.020          24.000
C23  26085477.508 5 135833929.026 5     -2917.832          31.000
C27  22561232.273 8 117482236.264 8      2308.750          51.000
C28  22265369.039 8 115941586.139 8      -874.520          48.000
E02                                                                  25202935.828 6 101481780.708 6     -1350.927          39.000
E07  26838994.445 8 141039838.173 8     -2389.090          48.000    26838995.852 8 108069497.843 8     -1830.622          48.000
E30  22201213.039 8 116668153.113 8       261.477          51.000    22201215.422 8  89395077.950 8       200.370          51.000
> 2020 05 09 10 07  0.0000000  0 17        .000000000000
G06  23755020.328 5 124833452.483 5     -1391.230          34.000    23755024.133 5  97272839.753 5     -1084.076          32.000
G12  20732597.922 7 108950537.692 7     -1572.590          47.000    20732596.078 7  84896510.166 7     -1225.395          47.000
G24  22825937.766 7 119951100.443 7     -3262.977          46.000    22825941.922 7  93468392.717 7     -2542.579          46.000
G25  20170206.828 7 105995157.227 7       302.266          44.000    20170208.102 7  82593633.361 7       235.532          43.000
G29  21467282.250 8 112811331.985 8      2603.594          51.000    21467282.961 8  87904928.438 8      2028.777          51.000
G32  22333934.133 5 117365607.620 5     -1131.434          33.000    22333939.469 5  91453742.949 5      -881.637          34.000
R15  19547464.680 8 104455728.165 8      -537.609          51.000    19547466.938 8  81243347.241 8      -418.141          48.000
R17  19500305.828 8 104350091.529 8       -99.465          50.000    19500308.438 7  81161191.482 7       -77.362          47.000
R18  20892327.898 8 111524748.618 8      3683.785          51.000    20892331.195 7  86741457.946 7      2865.166          45.000
R24  22370067.375 6 119622782.426 6     -3599.281          37.000
C23  26102247.930 5 135921259.388 5     -2912.086          31.000
C27  22547916.492 8 117412899.099 8      2306.617          51.000
C28  22270403.469 8 115967799.622 8      -879.922          48.000
E02                                                                  25212964.922 5 101522156.902 5     -1346.345          35.000
E07  26852601.336 8 141111344.106 8     -2384.863          48.000    26852603.523 8 108124288.069 8     -1827.420          48.000
E30  22199687.461 8 116660136.505 8       265.945          51.000    22199690.195 8  89388935.343 8       203.797          51.000
E36  25289290.781 5 132896080.197 5     -1049.801          33.000
> 2020 05 09 10 07 30.0000000  0 16        .000000000000
G02  22920784.062 5 120449570.997 5       -24.219          35.000
G12  20741680.375 7 108998266.095 7     -1604.996          47.000    20741679.062 7  84933701.106 7     -1250.649          46.000
G24  22844665.414 7 120049512.890 7     -3293.664          47.000    22844668.742 7  93545077.673 7     -2566.495          47.000
G25  20168592.562 7 105986674.207 7       267.613          45.000    20168593.812 7  82587023.195 7       208.527          44.000
G29  21452535.820 8 112733837.006 8      2566.973          51.000    21452535.656 8  87844542.780 8      2000.241          51.000
R14  22583989.820 5 120385357.565 5     -3120.215          31.000    22583991.109 5  93633069.338 5     -2426.840          31.000
R15  19550602.391 8 104472495.227 8      -575.879          51.000    19550604.461 8  81256388.275 8      -447.906          48.000
R17  19501019.539 8 104353911.757 8      -150.742          50.000    19501022.211 7  81164162.772 7      -117.244          47.000
R18  20871748.898 8 111414894.334 8      3644.047          51.000    20871751.953 7  86656015.774 7      2834.262          46.000
R24  22390377.398 5 119731392.560 5     -3636.641          35.000
C27  22534741.328 8 117344294.820 8      2271.285          50.000
C28  22275596.578 8 115994841.371 8      -918.578          48.000
E02  25223095.195 5 132548258.773 5     -1784.016          31.000    25223085.477 5 101562912.154 5     -1367.470          32.000
E07  26866312.500 8 141183398.232 8     -2414.238          48.000    26866315.648 8 108179498.350 8     -1849.943          48.000
E30  22198264.414 8 116652657.730 8       236.938          51.000    22198267.109 8  89383204.851 8       181.541          51.000
E36  25295405.070 5 132928250.436 5     -1087.113          30.000
> 2020 05 09 10 08  0.0000000  0 17        .000000000000
G02  22920926.539 5 120450343.420 5       -26.160          34.000
G06  23771279.734 5 124918919.228 5     -1434.734          33.000    23771282.391 5  97339423.806 5     -1117.975          33.000
G12  20750827.117 7 109046331.854 7     -1598.418          47.000    20750825.938 7  84971154.940 7     -1245.520          47.000
G24  22863448.172 8 120148214.088 8     -3285.613          48.000    22863450.344 8  93621987.623 8     -2560.221          48.000
G25  20167055.477 7 105978596.470 7       271.844          44.000    20167056.883 7  82580728.839 7       211.826          44.000
G29  21437878.109 8 112656808.861 8      2569.047          51.000    21437877.031 8  87784520.918 8      2001.858          51.000
G32  22347206.281 5 117435360.738 5     -1173.457          32.000
R14  22601531.289 4 120478856.122 4     -3112.258          29.000    22601531.734 5  93705790.367 5     -2420.651          33.000
R15  19553834.984 8 104489769.473 8      -574.836          51.000    19553837.234 8  81269823.780 8      -447.095          48.000
R17  19501900.469 8 104358625.615 8      -162.531          50.000    19501903.016 7  81167829.110 7      -126.413          47.000
R18  20851273.734 8 111305595.702 8      3643.414          50.000    20851276.922 7  86571005.757 7      2833.770          47.000
R24  22410776.602 5 119840474.984 5     -3634.609          33.000
C27  22521649.820 8 117276126.741 8      2274.152          49.000
C28  22280891.391 7 116022412.076 7      -918.750          47.000
E02                                                                  25233245.156 5 101603809.702 5     -1358.526          35.000
E07  26880070.531 8 141255697.708 8     -2404.902          48.000    26880074.703 8 108234896.617 8     -1842.678          49.000
E30  22196886.500 8 116645416.335 8       246.641          51.000    22196888.977 8  89377656.242 8       188.957          51.000
> 2020 05 09 10 08 30.0000000  0 16        .000000000000
G02  22921110.305 6 120451317.601 6       -40.176          38.000
G06  23779514.328 6 124962184.279 6     -1450.117          36.000    23779517.094 5  97373136.795 5     -1129.961          35.000
G12  20759966.305 7 109094358.126 7     -1604.672          47.000    20759965.148 8  85008577.997 8     -1250.394          48.000
G24  22882213.828 7 120246826.178 7     -3290.148          46.000    22882214.781 7  93698828.123 7     -2563.758          46.000
G25  20165523.969 7 105970548.112 7       263.316          45.000    20165525.750 7  82574457.399 7       205.185          45.000
G29  21423237.500 8 112579873.119 8      2558.449          50.000    21423236.281 8  87724571.044 8      1993.597          50.000
R14  22619051.516 5 120572278.926 5     -3116.312          32.000    22619054.195 4  93778450.485 4     -2423.799          29.000
R15  19557090.820 8 104507169.265 8      -586.688          51.000    19557093.484 8  81283356.933 8      -456.312          48.000
R17  19502876.797 8 104363849.587 8      -187.172          50.000    19502879.062 7  81171892.200 7      -145.578          47.000
R18  20830831.289 8 111196474.918 8      3629.785          49.000    20830835.047 8  86486134.074 8      2823.166          48.000
R24  22431191.344 5 119949642.741 5     -3644.875          34.000
C27  22508571.359 8 117208023.801 8      2264.566          50.000
C28  22286216.016 7 116050137.990 7      -931.242          46.000
E02                                                                  25243370.148 5 101644564.629 5     -1359.293          30.000
E07  26893803.523 8 141327864.576 8     -2407.801          48.000    26893808.484 8 108290193.273 8     -1844.860          50.000
E30  22195482.156 8 116638036.767 8       243.918          51.000    22195484.477 8  89372001.769 8       186.838          51.000
> 2020 05 09 10 09  0.0000000  0 15        .000000000000
G02  22921465.695 6 120453190.505 6       -64.699          37.000
G06  23787923.898 5 125006372.743 5     -1475.836          35.000    23787928.797 5  97407569.297 5     -1149.999          35.000
G12  20769230.320 7 109143040.836 7     -1620.949          46.000    20769229.141 7  85046512.564 7     -1263.077          46.000
G24  22901094.461 7 120346044.060 7     -3304.676          47.000    22901094.344 7  93776140.662 7     -2575.075          47.000
G25  20164130.664 7 105963225.587 7       244.695          46.000    20164132.641 7  82568751.535 7       190.672          45.000
G29  21408746.867 8 112503727.909 8      2537.590          50.000    21408746.625 8  87665237.118 8      1977.343          50.000
R15  19560502.914 8 104525403.550 8      -608.848          51.000    19560505.969 8  81297539.138 8      -473.548          49.000
R17  19504080.945 8 104370292.189 8      -222.105          51.000    19504082.938 7  81176903.116 7      -172.749          47.000
R18  20810555.797 8 111088243.154 8      3605.734          51.000    20810559.531 8  86401953.842 8      2804.460          48.000
R24  22451754.180 5 120059600.476 5     -3665.688          35.000    22451764.148 4  93379744.808 4     -2851.090          24.000
C23  26169822.758 5 136273154.331 5     -2938.051          32.000
C27  22495638.359 8 117140677.607 8      2244.773          50.000
C28  22291702.688 7 116078708.054 7      -953.746          46.000
E07  26907643.477 8 141400593.264 8     -2420.926          48.000    26907648.914 8 108345920.421 8     -1855.076          50.000
E30  22194184.000 8 116631215.931 8       230.711          51.000    22194186.273 8  89366775.410 8       176.725          51.000
> 2020 05 09 10 09 30.0000000  0 15        .000000000000
G02  22921871.805 5 120455326.918 5       -80.961          34.000    22921872.500 5  93861236.003 5       -63.086          31.000
G06  23796387.547 6 125050848.110 6     -1492.301          36.000    23796394.594 6  97442225.428 6     -1162.835          36.000
G12  20778498.156 7 109191743.835 7     -1628.953          47.000    20778496.820 7  85084462.959 7     -1269.314          47.000
G24  22919969.117 7 120445230.869 7     -3310.895          47.000    22919969.156 7  93853429.008 7     -2579.921          47.000
G25  20162754.656 7 105955993.921 7       234.238          46.000    20162756.578 7  82563116.475 7       182.526          46.000
G29  21394286.484 8 112427739.453 8      2524.977          51.000    21394286.922 8  87606025.326 8      1967.514          51.000
R15  19563950.977 8 104543827.706 8      -622.699          51.000    19563954.133 8  81311869.044 8      -484.319          49.000
R17  19505391.695 8 104377305.639 8      -248.723          51.000    19505393.648 7  81182358.036 7      -193.451          47.000
R18  20790327.125 8 110980258.851 8      3589.891          51.000    20790330.500 8  86317966.065 8      2792.140          49.000
R24  22472343.641 6 120169697.924 6     -3677.922          36.000    22472353.180 4  93465375.143 4     -2860.606          27.000
C23  26186749.086 5 136361285.760 5     -2940.496          32.000
C27  22482729.625 8 117073460.296 8      2233.176          50.000
C28  22297230.312 7 116107491.820 7      -968.297          44.000
E07  26921469.062 7 141473246.746 7     -2425.691          47.000    26921474.758 8 108401589.940 8     -1858.650          49.000
E30  22192871.320 8 116624319.189 8       225.883          51.000    22192873.602 8  89361490.877 8       173.166          51.000
> 2020 05 09 10 10  0.0000000  0 15        .000000000000
G02  22922376.344 5 120457979.982 5       -99.723          34.000    22922376.906 4  93863310.376 4       -77.691          29.000
G06  23804953.656 6 125095861.984 6     -1512.543          37.000    23804960.883 6  97477301.169 6     -1178.605          37.000
G12  20787818.039 8 109240719.708 8     -1639.906          48.000    20787816.406 8  85122625.982 8     -1277.849          48.000
G24  22938885.562 7 120544637.475 7     -3319.879          47.000    22938885.867 7  93930888.650 7     -2586.919          47.000
G25  20161444.211 7 105949106.114 7       221.117          47.000    20161445.680 7  82557749.367 7       172.299          47.000
G29  21379904.898 8 112352162.441 8      2509.602          51.000    21379905.430 8  87547134.148 8      1955.534          51.000
G32  22374911.664 5 117580964.434 5     -1250.016          35.000    22374910.609 5  91621520.298 5      -974.038          35.000
R15  19567482.500 8 104562699.576 8      -639.387          50.000    19567485.617 8  81326547.169 8      -497.301          49.000
R17  19506857.102 8 104385146.760 8      -277.922          51.000    19506858.469 7  81188456.667 7      -216.164          47.000
R18  20770193.484 8 110872782.825 8      3571.188          50.000    20770196.875 8  86234373.639 8      2777.590          48.000
R24  22493006.047 5 120280188.621 5     -3692.398          34.000
C27  22469893.398 8 117006624.010 8      2218.809          49.000
C28  22302846.781 7 116136738.740 7      -985.410          43.000
E07  26935328.156 8 141546076.049 8     -2433.297          48.000    26935333.711 8 108457394.191 8     -1864.399          48.000
E30  22191592.531 8 116617599.985 8       218.262          51.000    22191594.836 8  89356342.387 8       167.284          51.000
> 2020 05 09 10 10 30.0000000  0 16        .000000000000
G02  22922996.094 6 120461234.345 6      -116.266          37.000    22922995.398 5  93865846.247 5       -90.603          30.000
G06  23813638.086 6 125141497.569 6     -1529.570          36.000    23813644.406 6  97512861.335 6     -1191.873          37.000
G12  20797205.703 7 109290052.062 7     -1648.320          47.000    20797203.914 7  85161066.771 7     -1284.405          47.000
G24  22957859.695 8 120644347.126 8     -3326.578          48.000    22957860.547 8  94008584.468 8     -2592.142          48.000
G25  20160215.156 7 105942646.827 7       210.277          47.000    20160216.477 7  82552716.158 7       163.852          47.000
G29  21365618.094 8 112277082.607 8      2496.434          51.000    21365618.609 8  87488630.383 8      1945.273          51.000
G32  22382096.500 5 117618706.647 5     -1266.809          33.000    22382103.148 5  91650949.832 5      -987.130          34.000
R15  19571114.180 8 104582106.135 8      -653.680          51.000    19571117.258 8  81341641.149 8      -508.418          49.000
R17  19508493.070 8 104393900.952 8      -304.938          51.000    19508494.422 7  81195265.502 7      -237.174          47.000
R18  20750171.273 8 110765904.410 8      3554.719          48.000    20750174.828 7  86151246.056 7      2764.784          47.000
R24  22513756.859 5 120391154.598 5     -3704.949          32.000
C23  26220679.078 5 136537956.224 5     -2948.941          31.000
C27  22457146.695 8 116940254.008 8      2206.645          49.000
C28  22308568.203 7 116166531.444 7     -1000.082          43.000
E07  26949236.523 8 141619163.763 8     -2438.371          49.000    26949241.578 8 108513396.447 8     -1868.416          48.000
E30  22190363.812 8 116611143.322 8       212.969          51.000    22190366.055 8  89351395.078 8       163.208          51.000
> 2020 05 09 10 11  0.0000000  0 15        .000000000000
G02  22923689.531 6 120464876.441 6      -125.828          37.000    22923686.094 3  93868684.158 3       -98.057          22.000
G06  23822399.570 5 125187539.562 5     -1539.543          35.000    23822405.281 6  97548738.171 6     -1199.644          37.000
G12  20806620.453 7 109339526.787 7     -1649.469          46.000    20806618.742 7  85199618.482 7     -1285.303          46.000
G24  22976850.461 8 120744144.196 8     -3325.887          48.000    22976851.680 8  94086348.352 8     -2591.600          48.000
G25  20159026.867 8 105936402.289 8       206.727          48.000    20159028.383 8  82547850.267 8       161.083          48.000
G29  21351385.359 8 112202287.739 8      2490.469          51.000    21351385.992 8  87430348.702 8      1940.625          51.000
R15  19574805.461 8 104601830.620 8      -660.699          51.000    19574808.328 8  81356982.421 8      -513.877          50.000
R17  19510258.625 8 104403349.406 8      -324.383          51.000    19510260.109 7  81202614.294 7      -252.298          47.000
R18  20730220.820 8 110659410.552 8      3545.469          48.000    20730224.430 7  86068417.520 7      2757.584          46.000
R24  22534555.422 5 120502374.125 5     -3709.887          32.000
C23  26237659.594 4 136626378.634 4     -2944.664          28.000
C27  22444450.242 8 116874139.893 8      2201.586          50.000
C28  22314353.812 7 116196656.779 7     -1007.449          43.000
E07  26963153.047 8 141692294.106 8     -2436.352          49.000    26963157.766 8 108569431.333 8     -1866.716          48.000
E30  22189144.555 8 116604735.876 8       214.824          51.000    22189146.602 8  89346485.473 8       164.582          51.000
> 2020 05 09 10 11 30.0000000  0 13        .000000000000
G06  23831270.070 6 125234154.896 6     -1567.625          36.000    23831275.148 6  97585061.797 6     -1221.526          36.000
G12  20816094.164 7 109389311.084 7     -1668.973          46.000    20816092.781 7  85238411.429 7     -1300.501          46.000
G24  22995889.844 8 120844195.278 8     -3343.590          49.000    22995890.711 8  94164310.196 8     -2605.398          49.000
G25  20157911.555 8 105930540.944 8       184.785          48.000    20157913.227 8  82543282.984 8       143.988          48.000
G29  21337238.898 8 112127947.736 8      2466.207          51.000    21337239.523 8  87372421.467 8      1921.720          51.000
R15  19578588.484 8 104622045.327 8      -686.305          51.000    19578591.359 8  81372704.957 8      -533.793          50.000
R17  19512185.781 8 104413662.636 8      -362.477          51.000    19512187.641 8  81210635.707 8      -281.926          48.000
R18  20710375.156 8 110553476.358 8      3517.488          49.000    20710379.148 7  85986024.247 7      2735.824          45.000
R24  22555433.477 5 120614014.591 5     -3732.934          30.000
C27  22431835.805 8 116808449.993 8      2178.441          51.000
C28  22320235.070 7 116227280.493 7     -1033.281          43.000
E07  26977109.188 8 141765633.479 8     -2452.410          48.000    26977114.141 8 108625626.375 8     -1879.015          48.000
E30  22187966.852 8 116598546.509 8       198.508          51.000    22187968.648 8  89341742.971 8       152.058          51.000
> 2020 05 09 10 12  0.0000000  0 17        .000000000000
G02  22925418.609 6 120473904.813 6      -168.082          37.000
G06  23840272.781 6 125281463.378 6     -1582.715          36.000    23840276.922 6  97621925.510 6     -1233.284          37.000
G12  20825649.656 7 109439525.886 7     -1675.246          45.000    20825648.977 7  85277539.826 7     -1305.387          45.000
G24  23015000.602 8 120944620.145 8     -3347.895          50.000    23015001.336 8  94242563.284 8     -2608.752          50.000
G25  20156892.211 8 105925184.026 8       176.004          48.000    20156893.797 8  82539108.784 8       137.149          48.000
G29  21323202.047 8 112054185.618 8      2454.883          50.000    21323202.586 8  87314944.524 8      1912.896          50.000
G32  22404223.930 5 117734989.395 5     -1318.750          35.000    22404225.055 5  91741546.973 5     -1027.585          34.000
R15  19582486.336 8 104642874.222 8      -698.641          51.000    19582489.180 8  81388905.207 8      -543.387          50.000
R17  19514297.586 8 104424963.256 8      -387.168          51.000    19514299.328 7  81219425.072 7      -301.134          47.000
R18  20690658.734 8 110448228.162 8      3502.730          51.000    20690662.711 7  85904164.562 7      2724.349          46.000
R24  22576412.469 5 120726219.177 5     -3742.047          30.000
C23  26271724.773 4 136803752.747 4     -2959.598          28.000
C27  22419326.312 8 116743305.800 8      2168.180          51.000
C28  22326234.906 6 116258521.353 6     -1045.859          41.000
E02                                                                  25315155.688 5 101933632.690 5     -1388.230          34.000
E07  26991127.586 7 141839301.124 7     -2455.168          47.000    26991133.195 8 108682072.974 8     -1881.286          48.000
E30  22186853.781 8 116592696.875 8       195.199          51.000    22186855.430 8  89337260.778 8       149.592          51.000
> 2020 05 09 10 12 30.0000000  0 17        .000000000000
G02  22926440.234 5 120479240.144 5      -184.379          34.000
G06  23849352.695 5 125329176.162 5     -1599.312          34.000    23849355.562 5  97659104.267 5     -1246.221          34.000
G12  20835232.242 7 109489882.974 7     -1683.277          44.000    20835231.742 7  85316779.083 7     -1311.645          45.000
G24  23034127.734 8 121045129.845 8     -3353.895          50.000    23034128.438 8  94320882.484 8     -2613.424          50.000
G25  20155914.211 8 105920044.411 8       165.449          48.000    20155915.508 8  82535103.904 8       128.925          48.000
G29  21309220.789 8 111980715.013 8      2441.875          50.000    21309221.156 8  87257694.708 8      1902.760          50.000
G32  22411796.781 5 117774786.440 5     -1335.207          34.000    22411797.023 5  91772557.668 5     -1040.421          34.000
R14  22761083.781 5 121329369.223 5     -3184.609          34.000
R15  19586444.688 8 104664025.878 8      -712.719          51.000    19586447.578 8  81405356.467 8      -554.337          50.000
R17  19516538.859 8 104436957.455 8      -413.570          51.000    19516540.820 8  81228753.904 8      -321.663          48.000
R18  20671016.945 8 110343378.085 8      3486.000          51.000    20671021.242 7  85822614.587 7      2711.336          47.000
R24  22597436.867 5 120838643.804 5     -3754.043          32.000
C27  22406867.008 8 116678424.114 8      2156.168          51.000
C28  22332297.516 6 116290093.493 6     -1059.949          38.000
E02  25325499.938 5 133086403.092 5     -1814.848          30.000    25325505.805 6 101975296.900 6     -1390.645          37.000
E07  27005153.211 7 141913007.834 7     -2459.711          47.000    27005159.555 7 108738549.517 7     -1884.785          47.000
E30  22185750.828 8 116586900.227 8       190.070          51.000    22185752.273 8  89332819.194 8       145.644          51.000
> 2020 05 09 10 13  0.0000000  0 14        .000000000000
G06  23858538.492 6 125377444.048 6     -1612.500          36.000    23858541.328 6  97696715.600 6     -1256.494          36.000
G12  20844870.820 7 109540533.882 7     -1688.555          43.000    20844870.125 7  85356247.325 7     -1315.757          43.000
G24  23053299.492 8 121145874.805 8     -3357.309          50.000    23053300.430 8  94399385.014 8     -2616.085          50.000
G25  20155006.523 8 105915274.540 8       157.500          49.000    20155007.680 8  82531387.121 8       122.727          49.000
G29  21295324.672 8 111907689.929 8      2431.496          51.000    21295324.766 8  87200792.039 8      1894.672          51.000
R15  19590492.562 8 104685656.169 8      -724.188          51.000    19590495.367 8  81422180.004 8      -563.257          50.000
R17  19518938.578 8 104449799.582 8      -437.281          51.000    19518940.977 7  81238742.229 7      -340.108          47.000
R18  20651479.695 8 110239084.543 8      3471.938          51.000    20651483.805 7  85741497.463 7      2700.399          46.000
R24  22618535.414 5 120951463.325 5     -3762.180          33.000
C27  22394486.969 8 116613957.384 8      2146.641          51.000
C28  22338453.422 6 116322146.764 6     -1071.613          38.000
E02  25335875.602 5 133140926.171 5     -1815.535          32.000    25335881.180 5 102017079.654 5     -1391.035          34.000
E07  27019214.883 7 141986904.058 7     -2461.598          46.000    27019221.375 7 108795171.248 7     -1886.195          45.000
E30  22184687.055 8 116581309.416 8       187.684          51.000    22184688.242 8  89328535.328 8       143.812          51.000
> 2020 05 09 10 13 30.0000000  0 16        .000000000000
G02  22928735.984 6 120491309.450 6      -225.629          36.000
G06  23867809.727 5 125426166.032 5     -1642.148          34.000    23867813.844 5  97734680.743 5     -1279.599          33.000
G12  20854546.219 7 109591378.808 7     -1708.402          43.000    20854545.578 7  85395866.731 7     -1331.220          43.000
G24  23072496.344 8 121246753.591 8     -3374.953          48.000    23072497.602 8  94477991.814 8     -2629.837          48.000
G25  20154150.078 8 105910774.718 8       135.336          48.000    20154151.227 8  82527880.745 8       105.454          48.000
G29  21281494.711 8 111835012.199 8      2406.559          51.000    21281494.742 8  87144160.057 8      1875.240          51.000
G32  22427243.977 5 117855964.332 5     -1377.086          32.000    22427231.484 5  91835753.771 5     -1073.060          32.000
R15  19594611.172 8 104707664.505 8      -750.285          51.000    19594613.828 8  81439297.574 8      -583.555          50.000
R17  19521477.594 8 104463386.773 8      -475.703          50.000    19521479.914 7  81249310.031 7      -369.991          47.000
R18  20632028.133 8 110135249.780 8      3443.172          51.000    20632031.594 7  85660737.185 7      2678.026          45.000
R24  22639687.375 5 121064572.189 5     -3785.848          32.000    22639691.539 4  94161359.541 4     -2944.548          28.000
C27  22382167.656 8 116549808.137 8      2122.961          51.000
C28  22344682.148 6 116354581.009 6     -1097.730          36.000
E02                                                                  25346267.102 5 102058904.652 5     -1402.564          34.000
E07  27033293.250 7 142060888.121 7     -2477.852          46.000    27033299.320 7 108851860.285 7     -1898.587          45.000
E30  22183643.547 8 116575825.211 8       170.828          51.000    22183644.500 8  89324333.151 8       130.810          51.000
> 2020 05 09 10 14  0.0000000  0 14        .000000000000
G06  23877208.492 5 125475560.682 5     -1654.027          33.000    23877214.641 5  97773170.058 5     -1288.856          33.000
G12  20864300.117 6 109642636.953 6     -1712.625          41.000    20864299.469 6  85435808.112 6     -1334.513          41.000
G24  23091759.695 7 121347984.649 7     -3377.266          47.000    23091761.539 7  94556873.121 7     -2631.636          47.000
G25  20153386.906 7 105906765.298 7       128.211          47.000    20153388.078 7  82524756.523 7        99.905          47.000
G29  21267772.859 8 111762903.490 8      2396.902          51.000    21267773.070 8  87087971.485 8      1867.716          51.000
G32  22435129.266 5 117897399.720 5     -1389.691          31.000    22435119.289 5  91868046.338 5     -1082.889          30.000
R15  19598842.688 8 104730275.667 8      -760.906          51.000    19598845.203 8  81456884.019 8      -591.816          49.000
R17  19524197.531 8 104477942.285 8      -498.434          50.000    19524199.883 7  81260630.990 7      -387.671          47.000
R18  20612704.648 8 110032101.426 8      3429.641          50.000    20612708.062 7  85580510.773 7      2667.498          46.000
C27  22369951.734 8 116486196.082 8      2114.191          51.000
C28  22351026.234 6 116387613.342 6     -1108.555          37.000
E02                                                                  25356707.789 5 102100940.671 5     -1402.471          35.000
E07  27047430.133 7 142135178.314 7     -2478.617          47.000    27047434.969 7 108908783.906 7     -1899.257          45.000
E30  22182662.289 8 116570668.428 8       169.234          51.000    22182663.180 8  89320381.848 8       129.682          51.000
> 2020 05 09 10 14 30.0000000  0 15        .000000000000
G06  23886717.398 5 125525548.175 5     -1690.438          33.000    23886725.586 5  97812108.749 5     -1317.230          32.000
G12  20874114.680 7 109694212.737 7     -1738.477          42.000    20874113.445 7  85475997.027 7     -1354.657          42.000
G24  23111071.305 7 121449472.049 7     -3400.828          45.000    23111073.906 7  94635954.164 7     -2649.999          45.000
G25  20152699.281 8 105903151.807 8        99.996          48.000    20152700.328 8  82521940.826 8        77.919          48.000
G29  21254141.602 8 111691270.636 8      2365.957          51.000    21254141.883 8  87032153.707 8      1843.603          51.000
G32  22443105.000 5 117939311.791 5     -1422.988          31.000
R14  22833141.688 5 121713521.235 5     -3234.543          33.000    22833153.688 5  94666095.567 5     -2515.756          32.000
R15  19603168.922 8 104753394.349 8      -793.203          51.000    19603171.383 8  81474865.208 8      -616.936          49.000
R17  19527080.148 8 104493368.721 8      -542.828          51.000    19527082.570 7  81272629.335 7      -422.200          47.000
R18  20593492.398 8 109929547.240 8      3394.566          49.000    20593496.117 7  85500746.421 7      2640.218          47.000
C27  22357821.836 8 116423028.882 8      2084.395          51.000
C28  22357466.195 5 116421148.689 5     -1139.641          33.000
E02  25367174.125 5 133305398.037 5     -1851.293          33.000    25367184.328 5 102143115.313 5     -1418.852          33.000
E07  27061606.961 7 142209678.069 7     -2500.773          46.000    27061610.539 7 108965868.091 7     -1916.189          46.000
E30  22181725.320 8 116565744.973 8       146.309          51.000    22181726.320 8  89316609.330 8       112.098          51.000
> 2020 05 09 10 15  0.0000000  0 12        .000000000000
G06  23896316.305 5 125575992.328 5     -1682.023          33.000    23896325.672 5  97851415.809 5     -1310.671          33.000
G12  20883970.352 7 109746003.516 7     -1722.668          43.000    20883968.742 7  85516353.474 7     -1342.339          43.000
G24  23130411.312 7 121551111.794 7     -3383.438          43.000    23130414.531 7  94715153.871 7     -2636.448          44.000
G25  20152067.734 8 105899832.120 8       113.051          48.000    20152068.547 8  82519354.059 8        88.092          48.000
G29  21240581.727 8 111620012.658 8      2376.285          51.000    21240581.914 8  86976628.038 8      1851.651          51.000
R15  19607570.852 8 104776917.402 8      -783.449          51.000    19607573.320 8  81493160.891 8      -609.349          48.000
R17  19530106.258 8 104509560.549 8      -545.074          51.000    19530108.461 7  81285222.975 7      -423.944          47.000
R18  20574372.891 8 109827486.866 8      3401.109          50.000    20574376.820 8  85421366.129 8      2645.307          48.000
C27  22345758.336 8 116360206.698 8      2095.609          51.000
C28  22363980.195 4 116455113.592 4     -1131.043          27.000
E07  27075803.969 7 142284283.307 7     -2481.195          46.000    27075806.641 7 109023033.080 7     -1901.247          46.000
E30  22180813.289 8 116560953.156 8       164.820          51.000    22180814.539 8  89312937.672 8       126.366          51.000
> 2020 05 09 10 15 30.0000000  0 12        .000000000000
G06  23905996.625 5 125626861.708 5     -1712.824          34.000    23906006.195 5  97891054.269 5     -1334.665          34.000
G12  20893857.891 6 109797962.430 6     -1745.461          40.000    20893856.828 6  85556840.935 6     -1360.099          40.000
G24  23149771.633 7 121652856.181 7     -3404.109          44.000    23149774.758 7  94794435.121 7     -2652.553          44.000
G25  20151483.141 7 105896760.178 7        87.434          47.000    20151483.586 7  82516960.345 7        68.133          47.000
G29  21227084.664 8 111549084.900 8      2347.957          51.000    21227084.648 8  86921359.657 8      1829.577          51.000
R15  19612039.836 8 104800798.396 8      -812.961          51.000    19612042.438 8  81511734.992 8      -632.303          49.000
R17  19533266.266 8 104526469.480 8      -586.605          51.000    19533268.227 8  81298374.372 8      -456.252          48.000
R18  20555337.891 8 109725877.020 8      3368.402          50.000    20555341.977 8  85342336.254 8      2619.868          48.000
C27  22333752.164 8 116297685.219 8      2068.270          51.000
C28  22370565.352 5 116489400.811 5     -1159.574          34.000
E07  27090012.016 7 142358945.915 7     -2500.430          47.000    27090014.797 7 109080242.020 7     -1915.899          46.000
E30  22179917.602 8 116556247.379 8       144.641          51.000    22179919.180 8  89309331.943 8       110.879          51.000
> 2020 05 09 10 16  0.0000000  0 12        .000000000000
G06  23915784.461 5 125678295.247 5     -1721.523          32.000    23915793.602 5  97931132.323 5     -1341.447          33.000
G12  20903803.797 6 109850229.577 6     -1744.699          39.000    20903803.305 6  85597568.525 6     -1359.509          38.000
G24  23169178.258 7 121754843.474 7     -3401.105          44.000    23169182.828 7  94873905.731 7     -2650.212          44.000
G25  20150972.328 7 105894076.599 7        85.484          47.000    20150972.648 7  82514869.229 7        66.611          47.000
G29  21213677.445 8 111478629.352 8      2343.152          51.000    21213677.039 8  86866459.223 8      1825.833          51.000
R15  19616602.523 8 104825181.379 8      -818.590          51.000    19616605.172 8  81530699.512 8      -636.684          48.000
R17  19536586.922 8 104544237.556 8      -604.027          51.000    19536588.641 8  81312193.980 8      -469.802          48.000
R18  20536414.594 8 109624864.338 8      3359.668          50.000    20536418.844 7  85263770.821 7      2613.075          47.000
C27  22321830.094 8 116235604.966 8      2064.477          51.000
C28  22377245.453 5 116524181.470 5     -1164.801          35.000
E07  27104257.453 7 142433804.449 7     -2496.039          46.000    27104261.234 7 109137601.096 7     -1912.534          46.000
E30  22179065.133 8 116551768.665 8       148.020          51.000    22179066.984 8  89305900.201 8       113.337          51.000
> 2020 05 09 10 16 30.0000000  0 14        .000000000000
G02  22938072.219 5 120540382.641 5      -323.277          35.000
G06  23925664.023 4 125730212.560 4     -1740.227          29.000    23925673.094 4  97971587.388 4     -1356.024          28.000
G12  20913793.180 6 109902725.468 6     -1755.203          40.000    20913792.758 6  85638474.423 6     -1367.688          41.000
G24  23188616.352 7 121856993.607 7     -3408.953          45.000    23188622.500 7  94953503.245 7     -2656.327          45.000
G25  20150520.484 7 105891702.840 7        72.738          47.000    20150520.969 7  82513019.537 7        56.679          47.000
G29  21200345.391 8 111408568.949 8      2327.559          50.000    21200344.812 8  86811866.714 8      1813.682          50.000
G32  22475962.609 5 118111976.969 5     -1472.555          32.000
R15  19621244.578 8 104849986.788 8      -835.113          51.000    19621246.984 8  81549992.614 8      -649.533          49.000
R17  19540052.773 8 104562783.291 8      -632.328          51.000    19540054.352 8  81326618.440 8      -491.811          48.000
R18  20517588.688 8 109524372.171 8      3339.832          50.000    20517593.438 7  85185610.257 7      2597.647          47.000
C27  22309977.367 8 116173889.484 8      2049.938          51.000
C28  22384002.109 5 116559374.135 5     -1181.547          34.000
E07  27118524.562 7 142508778.407 7     -2502.250          45.000    27118530.000 7 109195048.639 7     -1917.305          46.000
E30  22178241.055 8 116547438.967 8       140.645          51.000    22178243.070 8  89302582.629 8       107.794          51.000
> 2020 05 09 10 17  0.0000000  0 13        .000000000000
G02  22939946.117 5 120550234.519 5      -339.578          34.000
G12  20923834.086 6 109955492.939 6     -1762.977          37.000    20923834.359 6  85679591.907 6     -1373.748          37.000
G24  23208094.398 8 121959348.558 8     -3414.742          48.000    23208100.766 8  95033260.316 8     -2660.838          48.000
G25  20150135.969 8 105889682.451 8        61.785          48.000    20150136.648 8  82511445.213 8        48.144          48.000
G29  21187096.539 8 111338948.079 8      2313.820          49.000    21187096.547 8  86757616.703 8      1802.977          49.000
G32  22484414.289 6 118156383.833 6     -1488.375          38.000    22484436.664 6  92069950.509 6     -1159.773          38.000
R15  19625974.148 8 104875259.810 8      -849.766          51.000    19625976.984 8  81569649.372 8      -660.929          49.000
R17  19543671.812 8 104582149.638 8      -658.762          51.000    19543673.430 8  81341681.155 8      -512.373          48.000
R18  20498869.367 8 109424448.619 8      3321.715          50.000    20498874.305 7  85107891.998 7      2583.559          46.000
C27  22298203.367 8 116112583.175 8      2037.148          51.000
C28  22390848.359 6 116595021.001 6     -1195.590          39.000
E07  27132820.688 7 142583909.241 7     -2506.594          43.000    27132828.547 7 109252616.405 7     -1920.595          45.000
E30  22177453.758 8 116543302.238 8       135.102          51.000    22177455.914 8  89299412.924 8       103.537          51.000
> 2020 05 09 10 17 30.0000000  0 13        .000000000000
G02  22941936.938 6 120560695.727 6      -358.367          38.000
G12  20933925.133 6 110008523.575 6     -1772.719          38.000    20933925.727 6  85720914.475 6     -1381.342          38.000
G24  23227610.148 8 122061898.686 8     -3422.422          49.000    23227615.695 8  95113169.465 8     -2666.825          49.000
G25  20149817.438 8 105888007.695 8        49.270          48.000    20149818.062 8  82510140.197 8        38.392          48.000
G29  21173930.156 8 111269760.749 8      2298.242          50.000    21173931.047 8  86703704.504 8      1790.841          50.000
G32  22492960.297 6 118201292.435 6     -1506.059          41.000    22492981.742 6  92104944.302 6     -1173.546          37.000
R15  19630790.094 8 104900993.410 8      -866.367          51.000    19630792.773 8  81589664.372 8      -673.841          49.000
R17  19547442.320 8 104602327.119 8      -686.938          51.000    19547443.992 8  81357374.749 8      -534.285          48.000
R18  20480256.109 8 109325089.235 8      3301.715          51.000    20480260.812 7  85030612.562 7      2568.007          46.000
C27  22286506.953 8 116051679.627 8      2022.555          50.000
C28  22397778.906 6 116631112.669 6     -1211.043          38.000
E07  27147144.438 7 142659187.150 7     -2512.438          43.000    27147154.305 7 109310296.908 7     -1925.201          45.000
E30  22176701.836 8 116539351.214 8       127.797          51.000    22176704.125 8  89296385.513 8        97.940          51.000
> 2020 05 09 10 18  0.0000000  0 13        .000000000000
G02  22944028.367 5 120571686.800 5      -375.598          34.000
G12  20944068.609 6 110061828.756 6     -1781.770          37.000    20944069.070 6  85762451.002 6     -1388.392          37.000
G24  23247164.883 8 122164654.208 8     -3428.770          49.000    23247169.203 8  95193238.659 8     -2671.768          49.000
G25  20149566.891 8 105886690.660 8        37.676          49.000    20149567.695 8  82509113.918 8        29.358          49.000
G29  21160849.133 8 111201019.987 8      2283.773          51.000    21160850.602 8  86650140.284 8      1779.564          51.000
G32  22501601.750 5 118246712.217 5     -1522.871          33.000    22501620.844 5  92140336.526 5     -1186.631          32.000
R15  19635694.617 8 104927200.212 8      -881.609          51.000    19635696.930 8  81610047.428 8      -685.696          49.000
R17  19551366.711 8 104623326.529 8      -713.918          51.000    19551368.430 8  81373707.616 8      -555.270          48.000
R18  20461751.578 8 109226309.558 8      3282.750          51.000    20461755.719 7  84953783.965 7      2553.250          47.000
C27  22274891.250 8 115991192.102 8      2009.145          51.000
C28  22404797.531 6 116667659.780 6     -1226.098          39.000
E07  27161499.023 7 142734622.317 7     -2517.293          45.000    27161509.109 7 109368097.876 7     -1928.814          45.000
E30  22175987.742 8 116535598.438 8       121.523          51.000    22175990.062 8  89293510.002 8        93.169          51.000
> 2020 05 09 10 18 30.0000000  0 17        .000000000000
G02  22946216.680 6 120583185.659 6      -390.094          36.000
G06  23966175.109 5 125943076.847 5     -1806.918          32.000    23966180.258 5  98137491.900 5     -1407.985          32.000
G12  20954260.469 6 110115386.181 6     -1787.688          38.000    20954260.680 6  85804183.930 6     -1393.006          38.000
G24  23266754.031 8 122267591.531 8     -3432.680          49.000    23266756.750 8  95273449.508 8     -2674.818          48.000
G25  20149380.062 8 105885709.521 8        28.738          48.000    20149381.219 8  82508349.382 8        22.390          48.000
G29  21147849.461 8 111132705.159 8      2271.656          51.000    21147850.984 8  86596907.961 8      1770.122          51.000
G32  22510335.820 5 118292607.780 5     -1536.871          30.000
R14  22979236.391 5 122492222.396 5     -3271.508          32.000
R15  19640683.516 8 104953858.796 8      -894.449          51.000    19640685.883 8  81630781.872 8      -695.683          49.000
R17  19555440.109 8 104645124.000 8      -738.156          51.000    19555441.773 8  81390661.202 8      -574.122          48.000
R18  20443352.109 8 109128091.089 8      3266.215          51.000    20443355.875 8  84877391.824 8      2540.389          48.000
R24  22854988.695 5 122215846.036 5     -3890.465          33.000    22854983.867 4  95056788.344 4     -3025.917          27.000
C27  22263351.531 8 115931100.161 8      1998.129          51.000
C28  22411899.688 6 116704639.294 6     -1238.094          39.000
E02  25451683.539 5 133749502.927 5     -1865.793          34.000
E07  27175879.719 7 142810190.825 7     -2519.402          46.000    27175888.484 7 109426000.979 7     -1930.463          44.000
E30  22175307.367 8 116532022.507 8       117.926          51.000    22175309.719 8  89290769.997 8        90.383          51.000
> 2020 05 09 10 19  0.0000000  0 17        .000000000000
G02  22948498.492 5 120595177.537 5      -409.496          34.000
G06  23976541.969 5 125997552.446 5     -1824.688          34.000    23976545.461 5  98179940.353 5     -1421.834          34.000
G12  20964497.570 6 110169180.045 6     -1798.078          39.000    20964497.352 6  85846101.208 6     -1401.100          38.000
G24  23286374.203 7 122370693.785 7     -3440.703          47.000    23286375.953 7  95353788.884 7     -2681.067          47.000
G25  20149254.359 8 105885049.662 8        15.316          48.000    20149255.750 8  82507835.192 8        11.935          48.000
G29  21134928.508 8 111064803.083 8      2255.316          51.000    21134929.414 8  86543997.260 8      1757.389          51.000
G32  22519162.391 5 118338991.717 5     -1554.574          34.000    22519159.875 5  92212161.010 5     -1211.353          32.000
R14  22997672.672 5 122590532.736 5     -3281.152          32.000
R15  19645754.109 8 104980954.879 8      -911.812          51.000    19645756.883 8  81651856.573 8      -709.188          50.000
R17  19559659.516 8 104667703.120 8      -766.898          51.000    19559661.477 7  81408222.746 7      -596.477          47.000
R18  20425055.898 8 109030422.340 8      3245.098          51.000    20425059.422 8  84801427.248 8      2523.965          48.000
R24  22876849.359 5 122332756.330 5     -3903.125          35.000    22876847.273 4  95147716.546 4     -3035.767          26.000
C27  22251884.930 8 115871390.512 8      1982.738          50.000
C28  22419081.508 6 116742035.317 6     -1254.375          40.000
E07  27190282.930 7 142885876.068 7     -2525.902          47.000    27190289.852 7 109483993.499 7     -1935.477          45.000
E30  22174657.930 8 116528609.308 8       109.773          51.000    22174660.320 8  89288154.681 8        84.130          51.000
E36  25457235.922 5 133778675.605 5     -1385.910          34.000    25457238.344 5 102505743.083 5     -1061.928          34.000
> 2020 05 09 10 19 30.0000000  0 16        .000000000000
G02  22950882.961 5 120607705.568 5      -425.879          35.000    22950886.344 5  93980042.367 5      -331.854          34.000
G06  23987008.891 6 126052556.140 6     -1841.723          37.000    23987011.180 6  98222800.344 6     -1435.109          37.000
G12  20974787.617 6 110223252.782 6     -1806.406          40.000    20974786.820 6  85888235.797 6     -1407.589          40.000
G24  23306033.305 7 122474003.292 7     -3446.469          46.000    23306034.703 7  95434289.749 7     -2685.560          46.000
G25  20149198.109 8 105884754.251 8         4.504          49.000    20149199.609 8  82507604.998 8         3.510          49.000
G29  21122094.570 8 110997358.152 8      2241.129          51.000    21122094.602 8  86491442.796 8      1746.337          51.000
G32  22528086.984 6 118385880.831 6     -1571.082          38.000    22528089.500 6  92248697.877 6     -1224.226          38.000
R15  19650914.906 8 105008532.845 8      -926.680          51.000    19650917.555 8  81673306.088 8      -720.751          49.000
R17  19564032.961 8 104691106.076 8      -793.254          51.000    19564034.516 7  81426425.043 7      -616.975          47.000
R18  20406871.383 8 108933350.651 8      3226.398          50.000    20406874.719 7  84725927.058 7      2509.421          47.000
R24  22898775.312 6 122450003.555 6     -3913.133          36.000
C27  22240499.609 8 115812107.243 8      1969.680          49.000
C28  22426351.328 6 116779889.171 6     -1268.594          39.000
E07  27204716.227 7 142961719.206 7     -2530.219          47.000    27204721.617 7 109542107.010 7     -1938.700          46.000
E30  22174047.750 8 116525402.487 8       103.988          51.000    22174050.109 8  89285697.506 8        79.610          51.000
E36  25465188.945 5 133820446.175 5     -1398.039          32.000    25465188.734 4 102537762.173 4     -1070.994          29.000
> 2020 05 09 10 20  0.0000000  0 15        .000000000000
G02  22953365.945 5 120620751.658 5      -444.477          31.000
G06  23997572.234 6 126108068.141 6     -1858.902          38.000    23997575.391 6  98266056.440 6     -1448.495          38.000
G12  20985127.109 6 110277585.871 6     -1815.391          39.000    20985125.383 6  85930573.219 6     -1414.593          39.000
G24  23325727.609 7 122577499.660 7     -3453.305          45.000    23325728.844 7  95514936.252 7     -2690.890          45.000
G25  20149207.922 8 105884805.385 8        -7.809          48.000    20149209.438 8  82507644.849 8        -6.085          48.000
G29  21109344.195 8 110930353.558 8      2225.816          51.000    21109343.914 8  86439231.448 8      1734.402          51.000
G32  22537104.289 6 118433261.409 6     -1587.531          39.000    22537106.234 6  92285617.732 6     -1237.043          39.000
R15  19656162.562 8 105036575.434 8      -942.754          50.000    19656165.328 8  81695116.996 8      -733.253          49.000
R17  19568556.516 8 104715313.148 8      -820.684          51.000    19568558.188 7  81445252.768 7      -638.309          47.000
R18  20388795.531 8 108836861.169 8      3206.207          50.000    20388798.797 7  84650879.693 7      2493.717          46.000
R24  22920760.102 6 122567565.507 6     -3924.457          37.000
C27  22229192.562 8 115753233.718 8      1955.332          48.000
C28  22433704.617 6 116818181.606 6     -1284.004          40.000
E07  27219175.562 7 143037700.206 7     -2535.371          47.000    27219179.930 7 109600326.155 7     -1942.609          46.000
E30  22173473.531 8 116522384.587 8        97.109          51.000    22173475.859 8  89283385.082 8        74.411          51.000
> 2020 05 09 10 20 30.0000000  0 15        .000000000000
G02  22955948.492 5 120634323.305 5      -460.320          32.000
G06  24008231.578 6 126164084.918 6     -1875.320          36.000    24008236.008 6  98309705.873 6     -1461.289          36.000
G12  20995515.469 6 110332177.150 6     -1823.730          37.000    20995513.586 6  85973111.860 6     -1421.086          38.000
G24  23345456.695 7 122681179.786 7     -3458.492          43.000    23345457.852 7  95595725.918 7     -2694.932          43.000
G25  20149283.336 8 105885201.296 8       -18.395          50.000    20149284.930 8  82507953.357 8       -14.333          50.000
G29  21096677.055 8 110863788.934 8      2211.953          50.000    21096676.898 8  86387362.902 8      1723.600          50.000
G32  22546213.508 7 118481129.550 7     -1603.102          42.000    22546213.883 5  92322917.570 5     -1249.164          33.000
R15  19661496.594 8 105065081.147 8      -957.355          50.000    19661500.211 8  81717288.088 8      -744.610          49.000
R17  19573229.812 8 104740320.778 8      -846.336          51.000    19573231.680 7  81464703.151 7      -658.261          46.000
R18  20370828.734 8 108740955.484 8      3187.695          50.000    20370832.117 7  84576286.406 7      2479.322          46.000
R24  22942802.000 5 122685436.467 5     -3933.156          35.000
C27  22217964.789 8 115694769.431 8      1942.555          50.000
C28  22441141.977 6 116856909.474 6     -1297.547          38.000
E07  27233660.172 7 143113815.369 7     -2538.863          46.000    27233664.188 7 109658648.117 7     -1945.273          47.000
E30  22172935.023 8 116519554.299 8        91.742          51.000    22172937.344 8  89281216.415 8        70.311          51.000
> 2020 05 09 10 21  0.0000000  0 15        .000000000000
G06  24018990.141 5 126220626.708 5     -1892.305          33.000    24018995.719 5  98353764.351 5     -1474.526          33.000
G12  21005956.953 6 110387047.749 6     -1833.016          40.000    21005955.430 6  86015868.085 6     -1428.327          39.000
G24  23365224.422 7 122785063.254 7     -3465.340          42.000    23365224.641 7  95676673.955 7     -2700.268          42.000
G25  20149428.531 8 105885964.133 8       -30.738          50.000    20149430.391 8  82508547.769 8       -23.952          50.000
G29  21084097.688 8 110797687.675 8      2196.242          48.000    21084098.219 8  86335855.416 8      1711.358          49.000
G32  22555419.273 7 118529505.148 7     -1620.105          45.000    22555415.406 5  92360612.844 5     -1262.417          35.000
R15  19666921.805 8 105094073.301 8      -973.785          51.000    19666925.398 8  81739837.545 8      -757.391          49.000
R17  19578056.500 8 104766149.609 8      -873.957          51.000    19578058.391 7  81484792.255 7      -679.744          45.000
R18  20352976.469 8 108645659.686 8      3167.094          51.000    20352980.125 7  84502167.501 7      2463.298          47.000
R24  22964904.969 5 122803634.885 5     -3944.715          34.000
C27  22206821.000 8 115636737.492 8      1927.816          51.000
C28  22448666.164 5 116896093.213 5     -1312.328          35.000
E02  25505288.648 5 134031196.212 5     -1889.523          32.000    25505296.594 6 102699252.095 6     -1447.667          37.000
E07  27248173.805 7 143190084.749 7     -2544.219          46.000    27248177.773 7 109717088.257 7     -1949.406          47.000
E30  22172436.531 8 116516934.238 8        84.523          51.000    22172438.797 8  89279208.834 8        64.747          51.000
> 2020 05 09 10 21 30.0000000  0 14        .000000000000
G12  21016443.086 6 110442152.824 6     -1840.824          39.000    21016441.984 6  86058807.110 6     -1434.408          39.000
G24  23385022.391 7 122889104.984 7     -3471.004          43.000    23385021.742 7  95757745.331 7     -2704.681          43.000
G25  20149635.148 8 105887049.855 8       -41.703          51.000    20149637.180 8  82509393.768 8       -32.496          51.000
G29  21071598.516 8 110732006.406 8      2182.230          49.000    21071599.438 8  86284675.214 8      1700.439          49.000
G32  22564712.852 7 118578341.933 7     -1635.684          45.000    22564707.805 7  92398667.497 7     -1274.562          42.000
R15  19672429.906 8 105123507.507 8      -988.699          51.000    19672433.219 8  81762730.819 8      -768.988          49.000
R17  19583028.078 8 104792753.224 8      -899.695          51.000    19583029.883 7  81505483.963 7      -699.760          45.000
R18  20335230.820 8 108550932.217 8      3147.895          51.000    20335234.602 7  84428490.623 7      2448.365          47.000
R24  22987060.656 5 122922112.100 5     -3953.781          32.000
C27  22195752.312 8 115579095.433 8      1914.816          51.000
C28  22456269.469 5 116935687.610 5     -1326.875          32.000
E02                                                                  25516089.602 5 102742726.153 5     -1450.795          34.000
E07  27262707.945 7 143266462.284 7     -2547.816          45.000    27262711.906 8 109775611.291 8     -1952.202          48.000
E30  22171969.719 8 116514480.829 8        78.859          51.000    22171971.969 8  89277328.944 8        60.425          51.000
> 2020 05 09 10 22  0.0000000  0 15        .000000000000
G02  22964285.672 5 120678141.795 5      -512.832          31.000
G12  21026981.961 6 110497534.837 6     -1849.574          40.000    21026981.094 6  86101961.903 6     -1441.227          40.000
G24  23404858.750 7 122993345.240 7     -3477.305          45.000    23404858.734 7  95838971.429 7     -2709.588          45.000
G25  20149911.328 8 105888501.207 8       -53.789          51.000    20149913.336 8  82510524.684 8       -41.914          51.000
G29  21059188.156 8 110666789.142 8      2166.805          51.000    21059189.031 8  86233856.593 8      1688.422          51.000
G32  22574101.695 7 118627680.493 7     -1652.504          45.000    22574099.812 7  92437113.111 7     -1287.665          45.000
R15  19678029.148 8 105153428.032 8     -1004.789          51.000    19678032.438 8  81786002.316 8      -781.503          49.000
R17  19588151.992 8 104820172.987 8      -926.855          51.000    19588153.781 7  81526810.449 7      -720.891          45.000
R18  20317600.789 8 108456819.875 8      3127.430          51.000    20317603.828 7  84355292.171 7      2432.445          47.000
R24  23009275.453 4 123040907.544 4     -3964.629          29.000
C27  22184766.562 8 115521886.755 8      1900.309          51.000
C28  22463960.156 6 116975733.665 6     -1341.910          36.000
E02                                                                  25526910.820 6 102786316.280 6     -1454.479          36.000
E07  27277270.453 7 143342988.730 7     -2552.676          45.000    27277274.273 8 109834248.417 8     -1955.866          48.000
E30  22171542.812 8 116512237.314 8        71.949          51.000    22171545.156 8  89275609.883 8        55.112          51.000
> 2020 05 09 10 22 30.0000000  0 13        .000000000000
G12  21037575.109 5 110553202.269 5     -1859.559          35.000    21037574.641 5  86145339.069 5     -1449.007          35.000
G24  23424734.695 7 123097792.370 7     -3484.301          46.000    23424736.141 7  95920358.747 7     -2715.043          46.000
G25  20150258.922 8 105890327.637 8       -66.027          51.000    20150260.820 8  82511947.864 8       -51.450          51.000
G29  21046868.555 8 110602046.602 8      2151.070          51.000    21046868.992 8  86183407.878 8      1676.162          51.000
G32  22583587.281 7 118677528.051 7     -1668.965          45.000    22583587.984 7  92475955.301 7     -1300.492          45.000
R15  19683721.555 8 105183845.004 8     -1021.176          51.000    19683724.562 8  81809659.939 8      -794.248          49.000
R17  19593430.023 8 104848416.874 8      -954.188          51.000    19593431.938 7  81548777.933 7      -742.146          44.000
R18  20300088.180 8 108363335.553 8      3106.629          51.000    20300090.086 7  84282582.163 7      2416.270          46.000
C27  22173865.758 8 115465121.986 8      1885.668          51.000
C28  22471737.117 5 117016239.205 5     -1356.730          31.000
E02                                                                  25537767.719 6 102830029.710 6     -1458.403          38.000
E07  27291862.781 7 143419671.519 7     -2557.750          46.000    27291866.297 8 109893005.325 8     -1959.828          48.000
E30  22171157.680 8 116510213.610 8        64.734          51.000    22171160.125 8  89274059.250 8        49.614          51.000
> 2020 05 09 10 23  0.0000000  0 14        .000000000000
G12  21048207.273 7 110609071.566 7     -1866.727          42.000    21048206.414 6  86188873.511 6     -1454.592          41.000
G24  23444633.852 7 123202361.697 7     -3488.551          46.000    23444636.867 7  96001841.285 7     -2718.354          46.000
G25  20150662.148 8 105892446.448 8       -76.523          51.000    20150663.914 8  82513598.881 8       -59.629          51.000
G29  21034623.898 8 110537697.231 8      2137.430          51.000    21034623.508 8  86133265.531 8      1665.530          51.000
G32  22593153.328 7 118727799.665 7     -1683.926          46.000    22593155.281 7  92515127.996 7     -1312.150          45.000
R15  19689491.172 8 105214674.782 8     -1035.555          51.000    19689493.906 8  81833638.624 8      -805.434          49.000
R17  19598846.094 8 104877398.707 8      -979.367          51.000    19598847.594 7  81571319.361 7      -761.727          44.000
R18  20282677.984 8 108270398.383 8      3087.645          51.000    20282679.445 7  84210297.745 7      2401.504          46.000
C27  22163034.625 8 115408720.283 8      1873.094          51.000
C28  22479590.148 5 117057120.710 5     -1370.160          35.000
E02                                                                  25548638.281 6 102873803.235 6     -1461.052          36.000
E07  27306468.477 7 143496425.946 7     -2560.629          45.000    27306472.023 8 109951817.106 8     -1962.022          48.000
E15  26371451.484 6 138582914.289 6      3189.973          38.000    26371460.836 6 106186937.477 6      2444.100          41.000
E30  22170798.703 8 116508327.516 8        59.551          51.000    22170801.141 8  89272614.054 8        45.636          51.000
> 2020 05 09 10 23 30.0000000  0 15        .000000000000
G02  22973506.914 5 120726592.398 5      -563.164          34.000
G12  21058889.469 7 110665205.924 7     -1875.555          43.000    21058887.883 7  86232614.607 7     -1461.471          43.000
G24  23464567.508 7 123307114.242 7     -3494.418          44.000    23464572.133 7  96083466.623 7     -2722.926          44.000
G25  20151133.141 8 105894921.251 8       -88.113          51.000    20151134.812 8  82515527.296 8       -68.660          51.000
G29  21022466.250 8 110473806.101 8      2122.527          51.000    21022464.938 8  86083480.239 8      1653.917          51.000
G32  22602811.570 7 118778556.585 7     -1699.602          44.000    22602814.570 7  92554678.864 7     -1324.365          44.000
R15  19695350.305 8 105245982.531 8     -1051.242          51.000    19695352.766 8  81857989.085 8      -817.636          49.000
R17  19604411.648 8 104907181.251 8     -1005.711          51.000    19604413.336 7  81594483.575 7      -782.220          44.000
R18  20265383.188 8 108178076.290 8      3067.457          51.000    20265384.789 7  84138491.703 7      2385.800          47.000
C27  22152285.406 8 115352745.894 8      1859.035          51.000
C28  22487526.969 6 117098439.790 6     -1384.391          39.000
E02                                                                  25559535.797 5 102917685.614 5     -1464.246          34.000
E07  27321099.469 7 143573313.599 7     -2564.789          44.000    27321103.211 8 110010730.939 8     -1965.156          48.000
E15  26353252.641 6 138487277.567 6      3186.277          38.000    26353261.898 6 106113657.454 6      2441.505          40.000
E30  22170478.148 8 116506643.134 8        53.129          51.000    22170480.617 8  89271323.409 8        40.730          51.000
> 2020 05 09 10 24  0.0000000  0 16        .000000000000
G02  22976774.617 5 120743756.093 5      -580.258          35.000
G06  24085535.234 5 126570342.875 5     -1990.605          31.000    24085533.266 5  98626230.627 5     -1551.118          31.000
G12  21069617.812 6 110721584.480 6     -1883.180          41.000    21069615.891 6  86276545.961 6     -1467.413          41.000
G24  23484531.609 7 123412028.467 7     -3499.668          44.000    23484537.484 7  96165217.965 7     -2727.011          44.000
G25  20151668.008 8 105897731.807 8       -99.031          51.000    20151669.617 8  82517717.334 8       -77.167          51.000
G29  21010391.430 8 110410353.955 8      2107.922          49.000    21010389.797 8  86034037.002 8      1642.537          49.000
G32  22612557.914 7 118829776.366 7     -1714.906          44.000    22612562.391 7  92594590.386 7     -1336.291          43.000
R15  19701294.992 8 105277748.261 8     -1066.273          51.000    19701297.602 8  81882695.720 8      -829.324          49.000
R17  19610122.703 8 104937742.146 8     -1031.414          51.000    19610124.328 7  81618253.170 7      -802.211          44.000
R18  20248199.883 8 108086352.157 8      3047.680          49.000    20248202.594 8  84067150.739 8      2370.418          48.000
C27  22141614.406 8 115297179.814 8      1845.566          51.000
C28  22495543.086 6 117140174.941 6     -1397.977          40.000
E02  25570466.375 6 134373676.157 6     -1914.672          36.000    25570458.234 5 102961661.342 5     -1467.574          32.000
E07  27335751.266 7 143650312.129 7     -2568.094          42.000    27335755.602 8 110069729.775 8     -1967.814          48.000
E15  26335071.125 6 138391731.056 6      3183.766          37.000    26335079.328 6 106040446.554 6      2439.353          40.000
E30  22170192.258 8 116505140.689 8        47.277          51.000    22170194.781 8  89270172.179 8        36.237          51.000
> 2020 05 09 10 24 30.0000000  0 16        .000000000000
G02  22980139.852 6 120761439.693 6      -597.527          36.000
G06  24096951.234 5 126630333.049 5     -2007.559          34.000    24096949.391 5  98672976.032 5     -1564.325          33.000
G12  21080395.250 6 110778221.659 6     -1891.789          40.000    21080393.703 6  86320678.744 6     -1474.124          40.000
G24  23504529.078 7 123517117.897 7     -3505.281          44.000    23504535.883 7  96247105.830 7     -2731.388          44.000
G25  20152269.656 8 105900893.597 8      -110.594          51.000    20152271.219 8  82520181.053 8       -86.177          51.000
G29  20998402.805 8 110347357.052 8      2093.188          48.000    20998401.375 8  85984948.486 8      1631.055          49.000
G32  22622394.891 7 118881472.187 7     -1730.496          42.000    22622399.094 7  92634872.792 7     -1348.442          42.000
R15  19707328.578 8 105309988.259 8     -1081.875          51.000    19707330.656 8  81907771.267 8      -841.458          48.000
R17  19615981.883 8 104969094.815 8     -1057.594          51.000    19615983.562 7  81642638.569 7      -822.573          44.000
R18  20231131.828 7 107995244.727 7      3027.359          47.000    20231135.727 8  83996289.415 8      2354.610          48.000
C27  22131025.086 8 115242038.478 8      1831.641          51.000
C28  22503640.664 6 117182339.737 6     -1412.035          38.000
E02  25581413.516 5 134431238.517 5     -1919.082          34.000
E07  27350426.555 6 143727435.017 6     -2572.027          40.000    27350431.664 8 110128823.899 8     -1970.813          48.000
E15  26316909.516 6 138296292.122 6      3180.129          36.000    26316916.914 6 105967318.087 6      2436.788          39.000
E30  22169944.047 8 116503836.193 8        40.848          51.000    22169946.547 8  89269172.617 8        31.317          51.000
> 2020 05 09 10 25  0.0000000  0 16        .000000000000
G02  22983603.750 5 120779632.954 5      -615.027          31.000
G06  24108457.773 5 126690813.049 5     -2024.668          34.000    24108458.117 5  98720103.240 5     -1577.669          32.000
G12  21091220.305 6 110835107.595 6     -1900.633          41.000    21091218.781 6  86365005.429 6     -1481.016          40.000
G24  23524558.328 7 123622371.893 7     -3511.461          46.000    23524565.523 7  96329121.865 7     -2736.203          46.000
G25  20152936.375 8 105904397.379 8      -122.781          51.000    20152937.883 8  82522911.273 8       -95.677          51.000
G29  20986499.773 8 110284807.232 8      2077.203          50.000    20986498.688 8  85936208.405 8      1618.600          50.000
G32  22632319.984 6 118933632.487 6     -1746.555          39.000    22632323.453 6  92675517.119 6     -1360.952          39.000
R15  19713448.961 8 105342693.663 8     -1098.191          51.000    19713451.039 8  81933208.780 8      -854.152          48.000
R17  19621986.492 8 105001227.999 8     -1084.312          51.000    19621988.602 7  81667631.072 7      -843.354          45.000
R18  20214178.250 8 107904748.055 8      3006.152          49.000    20214182.617 7  83925903.120 7      2338.122          47.000
R24  23143654.273 4 123759503.644 4     -4021.816          28.000
C27  22120515.961 8 115187313.798 8      1817.027          51.000
C28  22511818.086 6 117224923.651 6     -1426.605          39.000
E07  27365123.641 6 143804671.013 6     -2576.543          41.000    27365129.391 7 110188004.721 7     -1974.309          47.000
E15  26298768.148 6 138200953.462 6      3176.266          37.000    26298773.461 6 105894266.379 6      2433.675          37.000
E30  22169731.883 8 116502720.873 8        33.836          51.000    22169734.203 8  89268318.017 8        25.920          51.000
> 2020 05 09 10 25 30.0000000  0 17        .000000000000
G02  22987163.148 5 120798346.541 5      -632.238          33.000
G06  24120059.398 5 126751794.331 5     -2040.078          34.000    24120063.078 5  98767621.047 5     -1589.671          34.000
G12  21102096.055 7 110892259.944 7     -1908.461          42.000    21102094.961 6  86409539.705 6     -1487.115          41.000
G24  23544622.477 8 123727806.751 8     -3516.613          48.000    23544629.258 8  96411278.854 8     -2740.221          48.000
G25  20153671.656 8 105908261.539 8      -134.074          51.000    20153673.227 8  82525922.295 8      -104.473          51.000
G29  20974685.828 8 110222723.812 8      2062.543          51.000    20974685.023 8  85887831.774 8      1607.176          51.000
G32  22642335.703 6 118986273.265 6     -1761.633          36.000    22642337.945 6  92716535.872 6     -1372.698          36.000
R14  23241092.969 5 123888102.454 5     -3372.234          31.000
R15  19719659.906 8 105375883.497 8     -1113.637          51.000    19719662.195 8  81959023.071 8      -866.162          48.000
R17  19628140.500 8 105034158.392 8     -1110.090          50.000    19628142.305 7  81693243.576 7      -863.400          44.000
R18  20197343.578 8 107814883.848 8      2985.695          50.000    20197347.086 7  83856008.769 7      2322.211          45.000
C27  22110090.336 8 115133025.044 8      1803.281          51.000
C28  22520079.055 6 117267943.342 6     -1440.324          39.000
E02  25603381.852 5 134546654.668 5     -1928.750          35.000
E07  27379846.141 7 143882036.649 7     -2580.070          45.000    27379851.602 8 110247284.795 8     -1976.964          48.000
E15  26280650.164 5 138105735.206 5      3172.906          34.000    26280653.305 6 105821306.883 6      2431.050          41.000
E30  22169559.289 8 116501813.600 8        27.645          51.000    22169561.430 8  89267622.828 8        21.149          51.000
> 2020 05 09 10 26  0.0000000  0 17        .000000000000
G02  22990822.992 6 120817585.577 6      -648.953          36.000    22990817.383 5  94143554.794 5      -505.678          33.000
G06  24131752.641 6 126813251.255 6     -2056.484          36.000    24131757.992 5  98815509.438 5     -1602.452          35.000
G12  21113018.008 7 110949654.854 7     -1917.227          44.000    21113016.938 7  86454263.021 7     -1493.943          44.000
G24  23564716.281 8 123833396.771 8     -3522.062          49.000    23564722.305 8  96493556.732 8     -2744.464          49.000
G25  20154470.969 8 105912462.257 8      -145.449          51.000    20154472.758 8  82529195.576 8      -113.337          51.000
G29  20962956.555 8 110161084.583 8      2047.414          51.000    20962955.547 8  85839801.208 8      1595.385          51.000
G32  22652438.586 6 119039368.378 6     -1777.172          38.000    22652439.836 6  92757908.661 6     -1384.812          38.000
R15  19725956.906 8 105409534.152 8     -1129.211          51.000    19725959.391 8  81985195.794 8      -878.275          48.000
R17  19634438.102 8 105067859.486 8     -1135.934          51.000    19634440.492 7  81719455.585 7      -883.504          43.000
R18  20180623.664 8 107725631.165 8      2965.020          51.000    20180626.211 7  83786590.062 7      2306.126          44.000
R24  23188895.516 5 124001405.184 5     -4038.879          32.000
C27  22099743.992 8 115079149.782 8      1789.098          51.000
C28  22528418.219 6 117311373.525 6     -1454.332          41.000
E02  25614405.445 5 134604605.932 5     -1932.992          32.000
E07  27394588.641 7 143959505.902 7     -2583.906          47.000    27394593.461 8 110306644.317 8     -1979.870          48.000
E15                                                                  26262553.203 6 105748422.864 6      2428.099          40.000
E30  22169421.922 8 116501091.079 8        21.105          51.000    22169423.828 8  89267069.200 8        16.145          51.000
> 2020 05 09 10 26 30.0000000  0 16        .000000000000
G02  22994570.758 5 120837274.104 5      -665.758          34.000
G06  24143529.656 5 126875143.423 5     -2071.418          35.000    24143533.555 5  98863737.069 5     -1614.077          34.000
G12  21123978.492 7 111007252.755 7     -1924.648          43.000    21123977.398 7  86499144.493 7     -1499.726          42.000
G24  23584831.953 8 123939101.615 8     -3526.801          49.000    23584835.992 8  96575924.048 8     -2748.159          49.000
G25  20155327.062 8 105916961.324 8      -156.297          51.000    20155329.047 8  82532701.349 8      -121.790          51.000
G29  20951304.469 8 110099852.001 8      2032.914          50.000    20951303.109 8  85792087.496 8      1584.089          50.000
G32  22662620.867 6 119092877.356 6     -1791.852          40.000    22662620.391 6  92799603.936 6     -1396.251          40.000
R15  19732333.133 8 105443607.337 8     -1144.297          51.000    19732335.719 8  82011697.161 8      -890.009          49.000
R17  19640872.305 8 105102290.233 8     -1161.145          49.000    19640874.414 7  81746235.048 7      -903.112          43.000
R18  20164011.508 8 107636954.044 8      2944.832          51.000    20164013.992 7  83717619.029 7      2290.428          45.000
R24  23211571.180 5 124122640.037 5     -4046.559          32.000
C27  22089469.859 8 115025651.125 8      1775.617          51.000
C28  22536829.727 7 117355174.932 7     -1467.641          44.000
E07  27409343.430 7 144037038.657 7     -2586.871          47.000    27409347.383 7 110366052.457 7     -1982.160          47.000
E15                                                                  26244464.555 6 105675586.330 6      2425.908          40.000
E30  22169312.508 8 116500515.565 8        15.301          51.000    22169314.195 8  89266628.218 8        11.697          51.000
> 2020 05 09 10 27  0.0000000  0 16        .000000000000
G02  22998421.062 5 120857508.169 5      -683.840          30.000
G06  24155405.195 6 126937550.541 6     -2088.387          36.000    24155409.742 5  98912365.966 5     -1627.314          33.000
G12  21134992.977 6 111065134.595 6     -1933.828          41.000    21134991.578 6  86544247.151 6     -1506.879          41.000
G24  23604984.789 8 124045002.049 8     -3532.707          50.000    23604985.250 8  96658443.725 8     -2752.765          49.000
G25  20156255.453 8 105921840.273 8      -168.395          51.000    20156257.523 8  82536503.131 8      -131.217          51.000
G29  20939745.414 8 110039108.864 8      2017.199          50.000    20939744.109 8  85744755.171 8      1571.844          50.000
G32  22672897.203 7 119146879.245 7     -1807.543          42.000    22672897.484 7  92841683.270 7     -1408.478          42.000
R15  19738804.094 8 105478186.279 8     -1160.500          51.000    19738806.859 8  82038591.879 8      -902.611          49.000
R17  19647457.930 8 105137531.488 8     -1187.656          50.000    19647460.469 7  81773644.917 7      -923.733          43.000
R18  20147522.984 8 107548938.591 8      2923.328          49.000    20147526.133 7  83649162.586 7      2273.700          47.000
R24  23234298.133 5 124244168.357 5     -4055.355          31.000
C27  22079283.781 8 114972610.904 8      1760.887          51.000
C28  22545327.586 6 117399426.718 6     -1482.281          40.000
E07  27424125.180 7 144114714.342 7     -2591.012          47.000    27424128.625 7 110425570.119 7     -1985.363          47.000
E15                                                                  26226403.594 6 105602861.198 6      2422.643          39.000
E30  22169246.672 8 116500169.141 8         8.312          51.000    22169248.133 8  89266362.770 8         6.339          51.000
> 2020 05 09 10 27 30.0000000  0 17        .000000000000
G02  23002370.203 5 120878267.484 5      -702.641          34.000
G06  24167374.031 6 127000444.722 6     -2107.145          37.000    24167378.227 5  98961374.453 5     -1641.925          33.000
G12  21146056.625 6 111123274.031 6     -1944.816          40.000    21146054.977 6  86589550.566 6     -1515.444          39.000
G24  23625169.156 8 124151069.010 8     -3540.770          49.000    23625167.617 8  96741093.167 8     -2759.044          49.000
G25  20157251.266 8 105927073.416 8      -182.859          51.000    20157253.305 8  82540580.891 8      -142.488          51.000
G29  20928274.750 8 109978830.174 8      1999.141          50.000    20928273.852 8  85697784.792 8      1557.772          50.000
G32  22683262.156 6 119201346.012 6     -1825.594          40.000    22683263.141 6  92884124.859 6     -1422.544          40.000
R15  19745364.883 8 105513245.350 8     -1179.133          51.000    19745367.703 8  82065860.023 8      -917.100          49.000
R17  19654189.594 8 105173554.917 8     -1216.230          49.000    19654191.945 7  81801663.138 7      -945.957          43.000
R18  20131153.656 8 107461562.041 8      2899.367          48.000    20131158.242 8  83581203.049 8      2255.063          48.000
R24  23257074.125 5 124365960.048 5     -4066.531          31.000
C27  22069181.328 8 114920004.662 8      1743.926          51.000
C28  22553907.000 7 117444101.681 7     -1498.547          42.000
E07  27438928.336 7 144192505.271 7     -2597.441          45.000    27438931.969 7 110485176.105 7     -1990.253          47.000
E15                                                                  26208365.969 6 105530229.163 6      2417.536          39.000
E30  22169219.562 8 116500026.569 8        -1.105          51.000    22169220.914 8  89266253.515 8         -.874          51.000
E36  25602339.797 5 134541203.254 5     -1605.250          31.000
> 2020 05 09 10 28  0.0000000  0 15        .000000000000
G02  23006420.766 6 120899545.304 6      -717.191          37.000    23006417.688 4  94207433.809 4      -558.875          24.000
G06  24179436.180 6 127063829.354 6     -2120.457          36.000    24179440.797 5  99010765.091 5     -1652.304          35.000
G12  21157170.055 6 111181675.965 6     -1950.590          41.000    21157168.625 6  86635058.531 6     -1519.940          41.000
G24  23645385.875 8 124257306.960 8     -3543.449          48.000    23645384.969 8  96823875.883 8     -2761.132          48.000
G25  20158315.508 8 105932666.031 8      -191.832          51.000    20158317.508 8  82544938.774 8      -149.483          51.000
G29  20916893.781 8 109919022.600 8      1986.336          51.000    20916893.305 8  85651181.527 8      1547.794          51.000
G32  22693716.312 7 119256280.482 7     -1838.246          44.000    22693718.242 7  92926930.920 7     -1432.397          42.000
R15  19752016.680 8 105548790.408 8     -1192.297          51.000    19752019.469 8  82093506.179 8      -927.342          50.000
R17  19661068.477 8 105210363.667 8     -1239.379          49.000    19661070.195 7  81830292.162 7      -963.958          43.000
R18  20114905.539 8 107374832.705 8      2880.863          48.000    20114911.281 8  83513746.899 8      2240.671          49.000
C27  22059163.727 8 114867838.785 8      1732.121          51.000
C28  22562568.734 7 117489203.810 7     -1509.727          43.000
E07  27453753.461 7 144270414.754 7     -2598.398          43.000    27453758.156 7 110544872.971 7     -1990.909          46.000
E15  26190338.578 5 137631154.095 5      3153.852          35.000    26190352.586 6 105457695.750 6      2416.603          38.000
E30  22169232.289 8 116500093.733 8        -5.137          51.000    22169233.547 8  89266304.978 8        -3.969          51.000
> 2020 05 09 10 28 30.0000000  0 14        .000000000000
G06  24191587.227 5 127127681.542 5     -2135.309          31.000    24191591.406 5  99060520.005 5     -1663.883          31.000
G12  21168329.289 7 111240318.633 7     -1958.414          42.000    21168328.492 6  86680754.116 6     -1526.037          41.000
G24  23665630.805 8 124363693.478 8     -3547.953          49.000    23665631.195 8  96906774.396 8     -2764.642          49.000
G25  20159444.172 8 105938597.362 8      -202.727          51.000    20159446.172 8  82549560.587 8      -157.969          51.000
G29  20905598.812 8 109859665.951 8      1971.648          51.000    20905598.586 8  85604929.626 8      1536.349          51.000
G32  22704254.945 7 119311659.583 7     -1852.793          45.000    22704254.758 7  92970083.466 7     -1443.732          42.000
R15  19758755.344 8 105584800.699 8     -1207.422          51.000    19758758.352 8  82121514.171 8      -939.106          50.000
R17  19668089.352 8 105247934.284 8     -1264.422          49.000    19668091.023 7  81859513.773 7      -983.439          44.000
R18  20098776.109 8 107288732.560 8      2860.016          50.000    20098781.836 8  83446780.110 8      2224.457          49.000
C27  22049226.742 8 114816093.575 8      1718.441          51.000
C28  22571307.320 6 117534710.679 6     -1523.020          40.000
E07  27468597.039 7 144348419.974 7     -2601.332          44.000    27468602.836 7 110604643.180 7     -1993.058          46.000
E15  26172347.094 6 137536601.496 6      3150.555          37.000    26172360.430 6 105385246.354 6      2413.960          36.000
E30  22169280.992 8 116500350.278 8       -11.148          51.000    22169282.172 8  89266501.543 8        -8.518          51.000
> 2020 05 09 10 29  0.0000000  0 13        .000000000000
G12  21179531.672 7 111299186.990 7     -1966.125          42.000    21179531.281 7  86726625.511 7     -1532.048          42.000
G24  23685900.664 7 124470211.622 7     -3552.965          47.000    23685902.117 8  96989775.518 8     -2768.547          48.000
G25  20160634.484 8 105944852.774 8      -214.051          51.000    20160636.508 8  82554434.938 8      -166.793          51.000
G29  20894386.562 8 109800746.745 8      1956.504          49.000    20894386.617 8  85559018.581 8      1524.552          49.000
G32  22714874.930 7 119367466.263 7     -1867.488          44.000    22714873.164 6  93013569.137 6     -1455.186          40.000
R15  19765578.523 8 105621261.807 8     -1223.145          51.000    19765581.617 8  82149872.819 8      -951.332          49.000
R17  19675249.773 8 105286249.494 8     -1289.816          49.000    19675251.070 7  81889314.449 7     -1003.194          44.000
R18  20082762.930 8 107203249.588 8      2838.914          51.000    20082768.078 8  83380293.372 8      2208.044          49.000
C27  22039367.656 8 114764755.592 8      1704.227          51.000
C28  22580120.680 6 117580606.274 6     -1536.758          41.000
E07  27483456.023 7 144426504.374 7     -2604.461          45.000    27483462.789 7 110664474.052 7     -1995.455          45.000
E15  26154372.562 6 137442145.957 6      3146.371          37.000    26154386.680 6 105312871.240 6      2410.826          38.000
E30  22169363.102 8 116500782.186 8       -17.621          51.000    22169364.312 8  89266832.484 8       -13.562          51.000
> 2020 05 09 10 29 30.0000000  0 14        .000000000000
G02  23019136.953 6 120966386.238 6      -767.719          36.000
G12  21190778.898 7 111358290.959 7     -1974.562          42.000    21190778.492 7  86772680.544 7     -1538.620          42.000
G24  23706196.891 7 124576870.322 7     -3558.242          45.000    23706199.500 7  97072886.155 7     -2772.656          45.000
G25  20161888.523 8 105951443.007 8      -225.945          51.000    20161890.523 8  82559570.170 8      -176.061          51.000
G29  20883259.297 8 109742276.836 8      1940.945          49.000    20883259.672 8  85513457.585 8      1512.425          49.000
G32  22725577.812 7 119423708.763 7     -1882.711          42.000    22725574.836 7  93057394.437 7     -1467.051          42.000
R15  19772488.094 8 105658185.040 8     -1239.152          51.000    19772491.383 8  82178590.893 8      -963.785          49.000
R17  19682550.641 8 105325317.940 8     -1315.375          48.000    19682552.203 7  81919701.057 7     -1023.069          45.000
R18  20066868.016 8 107118397.847 8      2817.281          51.000    20066872.766 8  83314297.602 8      2191.219          49.000
C27  22029588.773 8 114713836.410 8      1689.625          51.000
C28  22589010.508 6 117626899.565 6     -1550.426          40.000
E07  27498332.039 7 144504676.668 7     -2607.824          47.000    27498339.305 7 110724372.276 7     -1998.158          44.000
E15  26136419.203 6 137347799.801 6      3142.414          36.000    26136434.141 6 105240580.053 6      2407.578          36.000
E30  22169480.625 8 116501400.656 8       -24.375          51.000    22169482.023 8  89267306.361 8       -18.638          51.000
> 2020 05 09 10 30  0.0000000  0 14        .000000000000
G02  23023567.586 5 120989681.636 5      -785.352          33.000
G12  21202077.094 7 111417662.737 7     -1983.223          43.000    21202076.203 7  86818944.241 7     -1545.371          43.000
G24  23726525.578 7 124683700.033 7     -3563.457          44.000    23726529.203 7  97156130.051 7     -2776.720          44.000
G25  20163212.523 8 105958400.684 8      -237.652          51.000    20163214.531 8  82564991.729 8      -185.184          51.000
G29  20872224.711 8 109684289.719 8      1925.320          51.000    20872224.742 8  85468272.818 8      1500.253          51.000
G32  22736368.953 6 119480417.177 6     -1897.566          38.000    22736369.133 6  93101582.750 6     -1478.623          38.000
R15  19779490.562 8 105695603.893 8     -1255.117          51.000    19779493.781 8  82207694.436 8      -976.202          48.000
R17  19689998.008 8 105365170.440 8     -1341.066          48.000    19689999.297 7  81950697.411 7     -1043.052          45.000
R18  20051098.102 8 107034213.480 8      2795.344          51.000    20051102.438 8  83248820.910 8      2174.159          49.000
C27  22019896.547 8 114663369.372 8      1675.027          51.000
C28  22597982.891 7 117673621.289 7     -1564.250          42.000
E07  27513230.648 7 144582967.408 7     -2611.078          46.000    27513237.703 7 110784361.225 7     -2000.828          42.000
E15  26118494.406 6 137253597.730 6      3137.887          38.000    26118508.328 6 105168399.194 6      2404.477          37.000
E30  22169639.930 8 116502238.844 8       -31.207          51.000    22169641.578 8  89267948.600 8       -23.948          51.000
> 2020 05 09 10 30 30.0000000  0 14        .000000000000
G02  23028096.945 5 121013447.282 5      -801.078          33.000
G12  21213423.328 7 111477286.834 7     -1990.445          43.000    21213421.961 7  86865404.594 7     -1550.996          43.000
G24  23746883.945 7 124790685.080 7     -3567.715          44.000    23746887.844 7  97239494.988 7     -2780.038          44.000
G25  20164603.664 8 105965711.372 8      -248.480          51.000    20164605.688 8  82570688.365 8      -193.621          51.000
G29  20861280.047 8 109626771.667 8      1910.602          51.000    20861279.516 8  85423453.581 8      1488.780          51.000
G32  22747245.039 6 119537574.648 6     -1911.727          37.000    22747248.281 6  93146121.055 6     -1489.660          37.000
R15  19786583.375 8 105733504.107 8     -1270.215          51.000    19786586.344 7  82237172.339 7      -987.948          47.000
R17  19697588.680 7 105405790.131 7     -1365.520          47.000    19697590.266 7  81982290.511 7     -1062.068          46.000
R18  20035450.617 8 106950684.657 8      2774.363          51.000    20035454.516 7  83183854.093 7      2157.838          47.000
C27  22010288.875 8 114613341.086 8      1661.391          51.000
C28  22607035.430 7 117720755.573 7     -1576.773          43.000
E07  27528148.594 7 144661360.197 7     -2613.664          44.000    27528154.766 6 110844428.323 6     -2002.597          40.000
E15  26100594.539 6 137159526.986 6      3134.457          36.000    26100606.719 6 105096319.006 6      2401.679          37.000
E30  22169838.445 8 116503282.834 8       -37.102          51.000    22169840.414 8  89268748.532 8       -28.434          51.000
> 2020 05 09 10 31  0.0000000  0 14        .000000000000
G02  23032719.883 5 121037761.120 5      -818.340          32.000
G12  21224812.375 6 111537138.262 6     -1999.324          39.000    21224811.273 6  86912042.083 6     -1557.915          39.000
G24  23767266.805 7 124897798.956 7     -3573.168          43.000    23767270.656 7  97322960.287 7     -2784.290          43.000
G25  20166057.195 8 105973350.215 8      -260.578          51.000    20166059.242 8  82576640.716 8      -203.045          51.000
G29  20850420.102 8 109569698.787 8      1894.500          51.000    20850419.008 8  85378981.217 8      1476.234          51.000
G32  22758202.102 7 119595153.931 7     -1926.902          42.000    22758207.977 7  93190987.994 7     -1501.482          42.000
R15  19793761.641 8 105771860.852 8     -1286.688          51.000    19793764.117 7  82267005.327 7     -1000.757          47.000
R17  19705317.422 8 105447148.913 8     -1391.469          48.000    19705319.180 7  82014458.426 7     -1082.253          47.000
R18  20019921.492 8 106867789.324 8      2752.051          50.000    20019924.516 7  83119379.958 7      2140.484          47.000
C27  22000761.273 8 114563727.874 8      1646.234          51.000
C28  22616161.328 6 117768276.180 6     -1591.098          40.000
E07  27543080.680 7 144739828.192 7     -2617.414          43.000    27543085.617 6 110904553.093 6     -2005.530          38.000
E15  26082714.289 5 137065564.642 5      3129.625          33.000    26082724.805 5 105024321.839 5      2398.189          35.000
E30  22170071.617 8 116504508.301 8       -44.348          51.000    22170073.773 8  89269687.530 8       -34.023          51.000
> 2020 05 09 10 31 30.0000000  0 14        .000000000000
G02  23037438.906 5 121062562.019 5      -835.305          33.000
G12  21236248.078 6 111597237.029 6     -2007.410          38.000    21236247.680 6  86958872.217 6     -1564.219          38.000
G24  23787677.406 7 125005059.941 7     -3577.805          42.000    23787681.820 7  97406540.192 7     -2787.903          42.000
G25  20167577.141 8 105981337.946 8      -271.984          51.000    20167579.195 8  82582864.912 8      -211.936          51.000
G29  20839648.414 8 109513092.967 8      1879.031          51.000    20839647.125 8  85334872.786 8      1464.180          51.000
G32  22769243.109 6 119653173.227 6     -1941.086          41.000    22769250.156 6  93236197.802 6     -1512.534          41.000
R15  19801029.344 8 105810695.574 8     -1302.523          51.000    19801031.383 8  82297210.090 8     -1013.074          48.000
R17  19713187.766 8 105489265.522 8     -1416.500          49.000    19713189.797 7  82047215.805 7     -1101.722          47.000
R18  20004515.828 8 106785551.206 8      2730.344          51.000    20004517.797 8  83055416.994 8      2123.601          48.000
C27  21991317.688 8 114514551.233 8      1631.980          51.000
C28  22625365.086 6 117816201.860 6     -1604.336          41.000
E07  27558030.352 7 144818390.141 7     -2620.266          42.000    27558034.344 6 110964749.864 6     -2007.820          38.000
E15  26064858.195 5 136971754.246 5      3125.391          32.000    26064866.898 5 104952424.996 5      2394.753          35.000
E30  22170343.375 8 116505936.509 8       -51.059          51.000    22170345.656 8  89270781.865 8       -39.120          51.000
> 2020 05 09 10 32  0.0000000  0 14        .000000000000
G12  21247729.008 6 111657570.499 6     -2014.637          39.000    21247729.133 6  87005885.272 6     -1569.847          39.000
G24  23808113.414 6 125112454.774 6     -3581.531          41.000    23808118.938 6  97490224.401 6     -2790.807          41.000
G25  20169161.359 8 105989662.916 8      -282.816          51.000    20169163.352 8  82589351.889 8      -220.376          51.000
G29  20828962.797 8 109456943.508 8      1864.328          50.000    20828962.328 8  85291119.949 8      1452.723          50.000
G32  22780364.891 5 119711618.331 5     -1955.016          35.000    22780372.109 6  93281739.469 6     -1523.386          36.000
R15  19808384.109 8 105849996.745 8     -1317.492          51.000    19808386.367 8  82327777.622 8     -1024.716          49.000
R17  19721197.258 8 105532125.596 8     -1440.766          49.000    19721199.172 7  82080551.405 7     -1120.595          47.000
R18  19989231.828 8 106703961.695 8      2709.156          51.000    19989233.336 8  82991958.463 8      2107.122          49.000
C27  21981955.547 8 114465800.509 8      1618.250          49.000
C28  22634644.664 6 117864519.619 6     -1616.574          38.000
E02  25748615.383 5 135309883.290 5     -1984.613          34.000
E07  27572995.133 6 144897032.329 6     -2622.250          41.000    27572998.977 6 111025008.133 6     -2009.544          38.000
E15  26047026.109 6 136878042.935 6      3121.785          36.000    26047032.695 6 104880620.947 6      2392.302          38.000
E30  22170651.539 8 116507556.286 8       -56.812          51.000    22170654.008 8  89272022.997 8       -43.565          51.000
> 2020 05 09 10 32 30.0000000  0 14        .000000000000
G12  21259257.672 6 111718153.920 6     -2022.531          37.000    21259257.789 6  87053093.150 6     -1575.998          37.000
G24  23828577.859 6 125219997.412 6     -3586.293          40.000    23828584.844 6  97574023.775 6     -2794.517          39.000
G25  20170812.797 8 105998340.970 8      -294.180          51.000    20170814.766 8  82596114.008 8      -229.231          51.000
G29  20818367.742 8 109401267.116 8      1848.945          51.000    20818367.898 8  85247735.737 8      1440.737          51.000
G32  22791584.375 6 119770561.452 6     -1969.109          37.000    22791575.867 6  93327695.340 6     -1534.371          37.000
R14  23510457.273 4 125323966.277 4     -3464.105          29.000
R15  19815829.133 8 105889780.742 8     -1333.195          51.000    19815831.352 8  82358720.731 8     -1036.930          49.000
R17  19729348.016 8 105575742.765 8     -1465.488          50.000    19729350.086 7  82114475.884 7     -1139.827          47.000
R18  19974072.375 8 106623039.199 8      2687.312          51.000    19974074.664 8  82929018.716 8      2090.132          49.000
C27  21972678.453 8 114417492.323 8      1603.809          50.000
C28  22644000.320 5 117913243.368 5     -1629.504          33.000
E07  27587978.164 7 144975768.659 7     -2625.164          42.000    27587982.336 6 111085338.526 6     -2011.295          39.000
E15  26029222.242 6 136784471.374 6      3117.500          38.000    26029225.953 5 104808923.251 5      2388.976          35.000
E30  22170999.438 8 116509384.071 8       -63.316          51.000    22171002.031 8  89273423.502 8       -48.626          51.000
> 2020 05 09 10 33  0.0000000  0 14        .000000000000
G12  21270811.914 6 111778872.157 6     -2030.891          40.000    21270812.109 6  87100406.009 6     -1582.512          40.000
G24  23849048.664 6 125327571.229 6     -3591.164          41.000    23849056.859 6  97657847.491 6     -2798.310          41.000
G25  20172509.586 8 106007257.177 8      -306.023          51.000    20172511.570 8  82603061.689 8      -238.460          51.000
G29  20807841.438 8 109345949.348 8      1833.117          51.000    20807841.508 8  85204631.019 8      1428.406          51.000
G32  22802855.633 6 119829767.447 6     -1983.449          41.000    22802842.625 6  93373829.842 6     -1545.545          41.000
R15  19823342.414 8 105929931.146 8     -1349.359          51.000    19823345.008 8  82389948.807 8     -1049.502          49.000
R17  19737618.227 8 105619997.556 8     -1490.809          51.000    19737620.117 7  82148896.269 7     -1159.518          47.000
R18  19959015.984 8 106542670.112 8      2664.805          50.000    19959019.531 8  82866509.434 8      2072.626          48.000
C27  21963465.250 8 114369513.706 8      1588.992          51.000
C28  22653413.117 6 117962257.570 6     -1643.195          37.000
E02  25771319.250 5 135429191.281 5     -1993.848          35.000    25771318.188 6 103770420.840 6     -1527.598          36.000
E07  27602957.203 7 145054482.208 7     -2628.117          43.000    27602961.875 6 111145651.478 6     -2013.644          39.000
E15  26011422.484 6 136690925.433 6      3112.672          37.000    26011423.125 5 104737245.192 5      2385.447          33.000
E30  22171365.188 8 116511305.443 8       -70.406          51.000    22171368.000 8  89274895.724 8       -53.915          51.000
> 2020 05 09 10 33 30.0000000  0 16        .000000000000
G02  23057263.008 5 121166712.552 5      -905.812          32.000
G12  21282435.703 6 111839955.671 6     -2043.523          38.000    21282436.141 6  87148003.568 6     -1592.359          38.000
G24  23869569.336 6 125435405.970 6     -3599.805          41.000    23869578.312 6  97741874.508 6     -2805.043          40.000
G25  20174295.797 8 106016643.214 8      -321.875          51.000    20174297.711 8  82610375.475 8      -250.815          51.000
G29  20797427.648 8 109291222.703 8      1813.102          51.000    20797426.977 8  85161986.954 8      1412.809          51.000
G32  22814222.117 7 119889524.388 7     -2002.277          42.000    22814213.422 6  93420393.578 6     -1560.219          41.000
R15  19830968.484 8 105970683.727 8     -1369.770          51.000    19830971.477 8  82421645.245 8     -1065.376          50.000
R17  19746051.211 8 105665123.074 8     -1520.016          51.000    19746053.031 7  82183993.907 7     -1182.237          47.000
R18  19944107.805 8 106463092.400 8      2638.160          51.000    19944111.680 7  82804615.695 7      2051.905          47.000
C27  21954359.648 8 114322095.083 8      1570.043          51.000
C28  22662925.969 5 118011790.296 5     -1660.938          34.000
E02  25782716.398 5 135489092.391 5     -2002.730          32.000    25782718.664 5 103816329.734 5     -1534.641          34.000
E07  27617975.789 7 145133402.685 7     -2635.500          42.000    27617980.812 6 111206122.992 6     -2019.433          38.000
E15  25993670.383 6 136597638.646 6      3103.742          39.000    25993672.352 5 104665765.681 5      2378.336          33.000
E30  22171792.859 8 116513552.625 8       -81.641          51.000    22171795.984 8  89276617.599 8       -62.541          51.000
E36  25717067.094 6 135144098.979 6     -1750.414          36.000
> 2020 05 09 10 34  0.0000000  0 13        .000000000000
G12  21294109.273 5 111901299.699 5     -2047.375          35.000    21294110.211 5  87195807.034 5     -1595.369          35.000
G24  23890120.570 7 125543399.046 7     -3600.438          42.000    23890129.102 7  97826024.925 7     -2805.536          42.000
G25  20176152.164 8 106026398.025 8      -329.336          51.000    20176153.992 8  82617976.630 8      -256.628          51.000
G29  20787107.383 8 109236987.355 8      1801.602          51.000    20787105.891 8  85119725.678 8      1403.845          51.000
G32  22825671.047 7 119949728.535 7     -2012.055          42.000    22825669.875 7  93467305.822 7     -1567.838          42.000
R15  19838688.273 8 106011936.164 8     -1381.430          51.000    19838691.531 8  82453730.437 8     -1074.445          50.000
R17  19754626.992 8 105711014.076 8     -1540.375          51.000    19754628.914 8  82219686.902 8     -1198.066          48.000
R18  19929329.602 8 106384206.654 8      2619.934          51.000    19929333.008 7  82743260.157 7      2037.726          46.000
C27  21945341.844 8 114275137.205 8      1559.594          50.000
E02                                                                  25794147.984 4 103862344.335 4     -1534.144          28.000
E07  27633014.016 6 145212427.057 6     -2633.828          41.000    27633018.867 6 111266674.071 6     -2018.065          38.000
E15  25975948.242 6 136504511.835 6      3103.516          41.000    25975949.445 5 104594409.006 5      2377.857          30.000
E30  22172263.383 8 116516025.122 8       -84.145          51.000    22172266.766 8  89278512.103 8       -64.504          51.000
> 2020 05 09 10 34 30.0000000  0 13        .000000000000
G12  21305820.766 6 111962842.576 6     -2055.043          41.000    21305821.219 6  87243762.589 6     -1601.326          40.000
G24  23910688.516 7 125651480.304 7     -3604.578          42.000    23910695.680 7  97910244.013 7     -2808.762          42.000
G25  20178065.812 8 106036453.969 8      -340.500          51.000    20178067.516 8  82625812.423 8      -265.325          51.000
G29  20776867.430 8 109183176.162 8      1786.395          51.000    20776866.203 8  85077794.884 8      1391.996          51.000
G32  22837192.172 6 120010309.648 6     -2025.992          38.000    22837197.359 6  93514511.887 6     -1578.692          37.000
R15  19846488.766 8 106053619.979 8     -1396.855          51.000    19846492.117 8  82486151.161 8     -1086.443          50.000
R17  19763332.711 8 105757598.868 8     -1564.594          51.000    19763334.156 7  82255919.514 7     -1216.906          47.000
R18  19914668.898 8 106305946.700 8      2597.930          51.000    19914671.773 7  82682391.342 7      2020.612          45.000
C27  21936398.898 8 114228573.860 8      1545.266          50.000
C28  22682182.602 5 118112057.723 5     -1682.477          34.000
E07  27648058.984 7 145291485.665 7     -2635.832          42.000    27648062.367 6 111327251.419 6     -2019.598          36.000
E15  25958244.039 7 136411479.122 7      3099.258          45.000    25958238.680 5 104523075.367 5      2374.792          32.000
E30  22172763.930 8 116518655.775 8       -90.562          51.000    22172767.539 8  89280527.808 8       -69.341          51.000
> 2020 05 09 10 35  0.0000000  0 13        .000000000000
G12  21317576.695 6 112024617.327 6     -2062.633          39.000    21317576.945 6  87291898.799 6     -1607.246          38.000
G24  23931280.047 7 125759685.580 7     -3608.465          42.000    23931285.211 7  97994559.722 7     -2811.794          42.000
G25  20180043.789 8 106046848.109 8      -351.711          51.000    20180045.344 8  82633911.750 8      -274.060          51.000
G29  20766715.164 8 109129827.375 8      1770.895          51.000    20766714.641 8  85036224.399 8      1379.918          51.000
G32  22848795.938 6 120071302.233 6     -2039.445          36.000    22848803.859 6  93562038.564 6     -1589.184          37.000
R15  19854377.195 8 106095772.974 8     -1412.637          50.000    19854380.312 8  82518936.835 8     -1098.717          49.000
R17  19772174.383 8 105804912.425 8     -1588.895          51.000    19772175.789 8  82292718.949 8     -1235.807          48.000
R18  19900133.055 8 106228352.798 8      2575.605          51.000    19900135.070 7  82622040.530 7      2003.249          44.000
C27  21927539.188 8 114182442.661 8      1530.738          50.000
C28  22691914.672 5 118162738.047 5     -1695.332          35.000
E07  27663117.250 7 145370613.685 7     -2638.367          43.000    27663118.414 5 111387881.929 5     -2021.582          35.000
E15  25940565.734 7 136318579.430 7      3094.781          45.000    25940556.883 5 104451892.581 5      2371.392          35.000
E30  22173301.859 8 116521482.248 8       -97.199          51.000    22173305.328 8  89282693.553 8       -74.456          51.000
> 2020 05 09 10 35 30.0000000  0 14        .000000000000
G02  23078662.398 6 121279124.797 6      -969.043          37.000
G12  21329376.477 6 112086624.013 6     -2071.441          37.000    21329376.656 6  87340215.619 6     -1614.113          36.000
G24  23951894.883 7 125868012.655 7     -3613.492          43.000    23951898.188 7  98078970.344 7     -2815.711          43.000
G25  20182086.008 8 106057580.433 8      -364.004          51.000    20182087.617 8  82642274.598 8      -283.639          51.000
G29  20756651.312 8 109076941.545 8      1754.566          51.000    20756650.797 8  84995014.641 8      1367.195          51.000
G32  22860479.281 7 120132703.815 7     -2053.953          42.000    22860488.031 6  93609883.927 6     -1600.483          41.000
R15  19862352.906 8 106138395.318 8     -1429.121          49.000    19862356.500 8  82552087.546 8     -1111.539          49.000
R17  19781151.891 8 105852952.190 8     -1614.113          51.000    19781153.312 8  82330083.199 8     -1255.421          48.000
R18  19885722.664 8 106151427.572 8      2552.422          51.000    19885724.102 7  82562209.784 7      1985.217          46.000
C27  21918763.023 8 114136744.418 8      1515.492          50.000
C28  22701715.844 4 118213799.491 4     -1709.531          28.000
E07  27678188.453 7 145449808.999 7     -2641.547          42.000    27678186.359 5 111448564.005 5     -2024.470          33.000
E15  25922913.312 7 136225814.583 7      3089.262          44.000    25922904.062 6 104380813.113 6      2367.037          37.000
E30  22173877.203 8 116524505.094 8      -104.680          51.000    22173880.297 8  89285009.744 8       -80.275          51.000
> 2020 05 09 10 36  0.0000000  0 13        .000000000000
G12  21341222.008 7 112148871.738 7     -2078.469          42.000    21341221.852 7  87388720.251 7     -1619.586          42.000
G24  23972534.375 7 125976469.836 7     -3616.715          44.000    23972537.109 7  98163482.362 7     -2818.222          44.000
G25  20184194.430 8 106068660.961 8      -374.625          51.000    20184196.227 8  82650908.771 8      -291.916          51.000
G29  20746677.539 8 109024529.440 8      1739.727          51.000    20746677.023 8  84954174.060 8      1355.634          51.000
G32  22872242.641 7 120194521.707 7     -2067.117          42.000    22872251.102 7  93658053.657 7     -1610.744          42.000
R15  19870419.016 8 106181497.667 8     -1444.199          51.000    19870422.305 8  82585611.606 8     -1123.266          48.000
R17  19790266.336 8 105901725.545 8     -1637.426          51.000    19790267.930 8  82368018.035 8     -1273.553          48.000
R18  19871439.914 8 106075184.099 8      2530.555          51.000    19871441.891 8  82502909.346 8      1968.212          48.000
C27  21910072.070 8 114091489.839 8      1501.598          50.000
C28  22711595.633 5 118265235.314 5     -1720.891          35.000
E07  27693274.141 7 145529079.693 7     -2643.031          43.000    27693268.273 5 111509303.777 5     -2025.180          31.000
E15  25905289.078 7 136133196.417 7      3085.469          43.000    25905280.234 6 104309846.061 6      2364.032          38.000
E30  22174491.828 8 116527734.814 8      -110.551          51.000    22174494.625 8  89287484.461 8       -84.753          51.000
> 2020 05 09 10 36 30.0000000  0 13        .000000000000
G12  21353110.867 7 112211345.270 7     -2086.535          42.000    21353110.102 7  87437400.960 7     -1625.872          42.000
G24  23993195.352 7 126085040.850 7     -3620.773          43.000    23993198.227 7  98248083.062 7     -2821.385          43.000
G25  20186366.398 8 106080075.252 8      -385.996          51.000    20186368.391 8  82659803.018 8      -300.776          51.000
G29  20736791.305 8 108972577.670 8      1724.043          51.000    20736790.758 8  84913692.185 8      1343.410          51.000
G32  22884082.555 7 120256738.910 7     -2080.352          45.000    22884089.820 7  93706534.580 7     -1621.053          44.000
R15  19878572.555 8 106225065.584 8     -1460.055          51.000    19878575.312 7  82619497.721 7     -1135.601          47.000
R17  19799514.469 8 105951215.118 8     -1661.523          51.000    19799516.141 7  82406509.910 7     -1292.296          47.000
R18  19857282.172 8 105999610.212 8      2507.957          51.000    19857285.141 8  82444129.735 8      1950.636          48.000
C27  21901464.422 8 114046665.478 8      1486.980          51.000
C28  22721548.273 6 118317059.881 6     -1733.590          36.000
E07  27708370.953 6 145608409.382 6     -2645.266          41.000    27708362.594 5 111570094.698 5     -2026.551          30.000
E15  25887690.805 6 136040712.391 6      3080.582          41.000    25887681.461 6 104238981.766 6      2360.470          39.000
E30  22175143.117 8 116531157.587 8      -117.352          51.000    22175145.719 8  89290107.097 8       -89.874          51.000
> 2020 05 09 10 37  0.0000000  0 13        .000000000000
G12  21365044.781 6 112274057.123 6     -2093.906          37.000    21365043.375 6  87486267.225 6     -1631.621          37.000
G24  24013879.930 7 126193737.230 7     -3625.195          43.000    24013883.086 7  98332781.446 7     -2824.831          43.000
G25  20188604.422 8 106091836.311 8      -397.793          51.000    20188606.648 8  82668967.470 8      -309.969          51.000
G29  20726995.023 8 108921099.750 8      1708.043          51.000    20726994.477 8  84873579.548 8      1330.943          51.000
G32  22896000.578 7 120319365.805 7     -2094.352          47.000    22896007.242 7  93755334.698 7     -1631.962          47.000
R15  19886815.711 8 106269112.432 8     -1476.238          51.000    19886817.719 7  82653756.332 7     -1148.185          47.000
R17  19808898.609 8 106001431.247 8     -1685.988          51.000    19808900.367 7  82445566.904 7     -1311.324          47.000
R18  19843252.852 8 105924721.590 8      2484.848          51.000    19843256.445 8  82385883.083 8      1932.659          49.000
C27  21892942.516 8 114002284.997 8      1471.996          51.000
C28  22731574.438 5 118369269.140 5     -1746.824          31.000
E07  27723480.805 6 145687809.040 6     -2647.828          40.000    27723472.055 5 111630932.321 5     -2029.065          30.000
E15  25870121.570 6 135948377.197 6      3075.445          36.000    25870111.055 6 104168231.540 6      2356.372          40.000
E30  22175833.805 8 116534786.882 8      -124.473          51.000    22175836.133 8  89292887.985 8       -95.339          51.000
> 2020 05 09 10 37 30.0000000  0 14        .000000000000
G12  21377026.844 6 112337023.061 6     -2102.945          36.000    21377025.016 6  87535331.576 6     -1638.662          36.000
G24  24034590.688 7 126302572.879 7     -3630.137          42.000    24034594.359 7  98417588.379 7     -2828.681          42.000
G25  20190911.625 8 106103960.717 8      -410.137          51.000    20190914.039 8  82678415.063 8      -319.587          51.000
G29  20717292.359 8 108870113.225 8      1691.434          51.000    20717291.852 8  84833849.795 8      1318.000          51.000
G32  22907999.516 8 120382416.372 8     -2108.668          48.000    22908005.711 8  93804464.947 8     -1643.121          48.000
R15  19895151.508 8 106313655.234 8     -1492.848          51.000    19895153.344 7  82688400.689 7     -1161.107          47.000
R17  19818421.133 8 106052388.290 8     -1710.840          51.000    19818422.805 7  82485200.139 7     -1330.656          47.000
R18  19829356.086 8 105850537.975 8      2461.137          51.000    19829359.117 8  82328184.712 8      1914.217          48.000
C27  21884509.125 8 113958365.591 8      1456.359          51.000
C28  22741676.883 5 118421880.607 5     -1759.879          31.000
E02                                                                  25874802.477 5 104187099.509 5     -1558.774          35.000
E07  27738607.086 5 145767293.332 5     -2650.492          35.000    27738600.742 5 111691844.705 5     -2031.070          32.000
E15  25852586.383 5 135856209.376 5      3069.953          31.000    25852572.320 6 104097609.568 6      2351.949          41.000
E30  22176567.055 8 116538639.875 8      -132.086          51.000    22176569.172 8  89295840.263 8      -101.194          51.000
> 2020 05 09 10 38  0.0000000  0 14        .000000000000
G12  21389048.898 6 112400198.325 6     -2109.152          39.000    21389046.625 6  87584559.050 6     -1643.486          38.000
G24  24055319.227 6 126411502.372 6     -3632.547          40.000    24055322.883 6  98502468.443 6     -2830.556          40.000
G25  20193279.586 8 106116404.205 8      -420.301          51.000    20193282.008 8  82688111.283 8      -327.510          51.000
G29  20707675.383 8 108819574.446 8      1676.949          51.000    20707674.961 8  84794468.915 8      1306.714          51.000
G32  22920070.406 8 120445843.640 8     -2120.645          48.000    22920076.031 7  93853888.743 7     -1652.450          47.000
R15  19903571.312 8 106358649.242 8     -1507.477          51.000    19903573.359 7  82723395.954 7     -1172.482          47.000
R17  19828073.047 8 106104038.040 8     -1733.316          51.000    19828074.664 7  82525372.168 7     -1348.135          47.000
R18  19815583.508 8 105777016.834 8      2439.500          51.000    19815585.555 8  82271001.570 8      1897.389          49.000
C27  21876155.492 8 113914864.204 8      1442.863          51.000
C28  22751847.711 5 118474842.933 5     -1771.039          32.000
E02                                                                  25886420.133 5 104233886.183 5     -1560.902          35.000
E07  27753742.508 5 145846900.094 5     -2651.996          32.000    27753738.664 5 111752790.570 5     -2031.474          34.000
E15                                                                  25835058.234 7 104027083.256 7      2349.117          43.000
E30  22177334.484 8 116542672.891 8      -137.605          51.000    22177336.492 8  89298930.486 8      -105.408          51.000
> 2020 05 09 10 38 30.0000000  0 14        .000000000000
G12  21401114.797 5 112463605.565 5     -2117.406          34.000    21401113.570 5  87633967.377 5     -1649.921          34.000
G24  24076069.320 6 126520546.816 6     -3636.934          39.000    24076073.023 6  98587438.076 6     -2833.974          40.000
G25  20195712.734 8 106129190.130 8      -431.938          51.000    20195715.031 8  82698074.336 8      -336.572          51.000
G29  20698148.125 8 108769507.116 8      1661.039          51.000    20698147.906 8  84755455.438 8      1294.319          51.000
G32  22932216.945 7 120509668.360 7     -2133.992          47.000    22932222.477 7  93903622.233 7     -1662.851          47.000
R15  19912080.008 8 106404118.276 8     -1523.480          51.000    19912082.352 7  82758760.753 7     -1184.929          47.000
R17  19837858.266 8 106156401.589 8     -1757.273          51.000    19837860.320 7  82566099.380 7     -1366.768          47.000
R18  19801939.562 8 105704184.410 8      2416.234          51.000    19801941.852 8  82214354.137 8      1879.293          50.000
C27  21867886.078 8 113871804.660 8      1427.926          51.000
C28  22762090.695 4 118528180.642 4     -1784.223          29.000
E02  25898065.969 5 136095250.840 5     -2041.688          33.000    25898063.219 5 104280772.705 5     -1564.422          35.000
E07                                                                  27768888.117 6 111813769.285 6     -2033.668          37.000
E15  25817572.047 6 135672252.410 6      3060.285          38.000    25817572.977 7 103956671.956 7      2345.139          44.000
E30  22178140.703 8 116546909.815 8      -144.664          51.000    22178142.711 8  89302176.972 8      -110.870          51.000
> 2020 05 09 10 39  0.0000000  0 14        .000000000000
G06  24466752.297 5 128573650.651 5     -2450.469          31.000
G12  21413224.898 5 112527255.445 5     -2124.684          35.000    21413224.344 6  87683555.993 6     -1655.601          36.000
G24  24096840.938 6 126629704.657 6     -3640.008          39.000    24096844.680 6  98672496.041 6     -2836.373          38.000
G25  20198211.070 8 106142318.614 8      -442.965          51.000    20198213.328 8  82708304.314 8      -345.167          51.000
G29  20688710.789 8 108719912.362 8      1645.562          51.000    20688710.641 8  84716810.171 8      1282.256          51.000
G32  22944438.523 7 120573887.947 7     -2146.750          47.000    22944443.023 7  93953663.434 7     -1672.792          47.000
R15  19920677.461 8 106450062.898 8     -1539.113          51.000    19920680.328 8  82794495.462 8     -1197.088          48.000
R17  19847776.320 8 106209476.075 8     -1780.566          51.000    19847778.430 7  82607379.527 7     -1384.885          46.000
R18  19788424.766 8 105632043.299 8      2393.527          50.000    19788427.875 8  82158244.403 8      1861.635          49.000
C27  21859701.344 8 113829187.829 8      1413.461          51.000
E02                                                                  25909734.492 6 104327759.226 6     -1567.547          37.000
E07                                                                  27784047.961 6 111874792.292 6     -2034.650          38.000
E15  25800114.430 6 135580511.638 6      3055.512          40.000    25800115.961 7 103886377.118 7      2341.598          44.000
E30  22178985.859 8 116551351.313 8      -151.023          51.000    22178987.836 8  89305580.170 8      -115.719          51.000
> 2020 05 09 10 39 30.0000000  0 15        .000000000000
G02  23125906.414 6 121527430.883 6     -1102.359          40.000
G12  21425377.445 6 112591116.948 6     -2135.336          39.000    21425376.242 5  87733318.283 5     -1663.886          35.000
G24  24117632.422 6 126738965.866 6     -3646.820          40.000    24117636.859 6  98757634.578 6     -2841.681          39.000
G25  20200773.023 8 106155781.466 8      -457.273          51.000    20200775.273 8  82718794.836 8      -356.317          51.000
G29  20679361.773 8 108670782.627 8      1626.996          51.000    20679361.680 8  84678527.243 8      1267.789          51.000
G32  22956733.086 7 120638491.587 7     -2162.805          46.000    22956736.141 7  94004003.887 7     -1685.305          46.000
R15  19929362.773 8 106496474.666 8     -1557.820          51.000    19929366.117 8  82830593.483 8     -1211.638          49.000
R17  19857825.484 8 106263250.487 8     -1807.125          51.000    19857827.359 7  82649204.050 7     -1405.542          47.000
R18  19775038.117 8 105560587.753 8      2367.398          50.000    19775042.117 8  82102667.905 8      1841.310          49.000
C27  21851600.297 8 113787006.346 8      1395.801          51.000
C28  22782789.555 5 118635971.104 5     -1811.535          34.000
E02                                                                  25921431.336 5 104374839.488 5     -1573.174          32.000
E07                                                                  27799215.984 5 111935851.934 5     -2038.224          35.000
E15  25782685.789 7 135488916.516 7      3047.648          42.000    25782686.820 7 103816193.894 7      2335.268          45.000
E30  22179868.438 8 116555989.769 8      -160.863          51.000    22179870.289 8  89309134.316 8      -123.277          51.000
> 2020 05 09 10 40  0.0000000  0 14        .000000000000
G02  23132233.906 6 121560684.863 6     -1116.270          39.000    23132205.898 5  94722508.415 5      -869.827          35.000
G24  24138449.586 6 126848360.945 6     -3648.113          40.000    24138453.984 6  98842877.409 6     -2842.686          40.000
G25  20203404.703 8 106169610.946 8      -466.516          51.000    20203407.023 8  82729571.046 8      -363.519          51.000
G29  20670107.148 8 108622150.836 8      1613.266          50.000    20670107.477 8  84640632.342 8      1257.090          50.000
G32  22969105.883 7 120703508.823 7     -2173.637          45.000    22969108.297 7  94054666.641 7     -1693.746          45.000
R15  19938141.953 8 106543386.863 8     -1571.516          51.000    19938145.242 8  82867080.723 8     -1222.290          49.000
R17  19868010.938 8 106317754.327 8     -1828.316          51.000    19868012.805 7  82691595.925 7     -1422.027          47.000
R18  19761787.070 8 105489853.062 8      2346.410          51.000    19761790.836 8  82047652.033 8      1824.986          49.000
C27  21843589.164 8 113745292.920 8      1383.191          51.000
C28  22793248.258 5 118690440.437 5     -1821.422          35.000
E02                                                                  25933154.781 5 104422066.371 5     -1575.032          34.000
E07                                                                  27814397.836 5 111997053.533 5     -2038.547          32.000
E15  25765290.906 6 135397501.128 6      3044.742          41.000    25765291.914 7 103746148.372 7      2333.047          45.000
E30  22180794.680 8 116560857.990 8      -165.574          51.000    22180796.414 8  89312864.502 8      -126.904          51.000
> 2020 05 09 10 40 30.0000000  0 13        .000000000000
G02  23138654.695 6 121594423.432 6     -1131.656          39.000    23138627.148 5  94748797.871 5      -881.822          33.000
G12  21449822.930 6 112719563.419 6     -2147.395          36.000    21449819.859 6  87833437.640 6     -1673.294          36.000
G24  24159286.555 6 126957860.594 6     -3650.531          39.000    24159291.016 6  98928201.686 6     -2844.573          39.000
G25  20206100.969 8 106183779.849 8      -476.812          51.000    20206103.336 8  82740611.745 8      -371.542          51.000
G29  20660942.414 8 108573990.760 8      1598.602          50.000    20660942.977 8  84603105.053 8      1245.664          50.000
G32  22981551.148 7 120768909.731 7     -2185.082          44.000    22981553.281 7  94105628.389 7     -1702.661          44.000
R15  19947009.484 8 106590771.604 8     -1586.141          51.000    19947012.648 8  82903935.509 8     -1233.665          50.000
R17  19878326.867 8 106372957.128 8     -1850.496          51.000    19878328.562 7  82734531.427 7     -1439.275          47.000
R18  19748666.211 8 105419813.897 8      2324.160          50.000    19748669.789 8  81993177.142 8      1807.680          48.000
C27  21835662.875 8 113704021.239 8      1369.500          51.000
E02                                                                  25944899.938 6 104469362.831 6     -1577.280          36.000
E15  25747925.086 6 135306240.114 6      3040.645          40.000    25747925.594 7 103676221.144 7      2329.845          43.000
E30  22181759.555 8 116565929.353 8      -171.305          51.000    22181761.414 8  89316750.326 8      -131.200          51.000
> 2020 05 09 10 41  0.0000000  0 14        .000000000000
G02  23145170.055 6 121628658.795 6     -1148.547          39.000    23145145.219 4  94775474.560 4      -894.975          29.000
G12  21462112.516 6 112784145.798 6     -2155.750          37.000    21462112.828 6  87883761.579 6     -1679.802          37.000
G24  24180145.930 6 127067476.387 6     -3655.059          41.000    24180148.672 7  99013616.486 7     -2848.104          42.000
G25  20208864.219 8 106198301.195 8      -489.070          51.000    20208866.625 8  82751927.072 8      -381.094          51.000
G29  20651869.984 8 108526315.724 8      1581.887          49.000    20651870.570 8  84565955.696 8      1232.642          49.000
G32  22994071.398 7 120834704.730 7     -2198.941          45.000    22994073.484 7  94156897.203 7     -1713.461          45.000
R15  19955968.109 8 106638642.509 8     -1602.922          51.000    19955971.102 8  82941168.415 8     -1246.717          49.000
R17  19888775.344 8 106428869.405 8     -1874.629          51.000    19888777.406 7  82778018.749 7     -1458.045          47.000
R18  19735678.633 8 105350485.831 8      2299.844          50.000    19735681.859 8  81939255.301 8      1788.767          48.000
C27  21827824.797 8 113663204.979 8      1353.770          51.000
C28  22814382.680 5 118800462.386 5     -1846.309          33.000
E02                                                                  25956672.352 6 104516767.023 6     -1581.285          36.000
E15  25730590.328 6 135215148.418 6      3034.445          38.000    25730590.320 6 103606423.611 6      2324.939          41.000
E30  22182765.680 8 116571217.464 8      -179.023          51.000    22182767.820 8  89320802.241 8      -137.243          51.000
> 2020 05 09 10 41 30.0000000  0 14        .000000000000
G02  23151772.758 4 121663356.868 4     -1165.164          29.000    23151748.516 5  94802511.749 5      -907.944          31.000
G12  21474440.898 5 112848933.571 5     -2163.539          33.000    21474441.023 5  87934245.554 5     -1685.881          33.000
G24  24201021.164 6 127177173.195 6     -3658.316          41.000    24201021.859 6  99099094.446 6     -2850.639          41.000
G25  20211688.219 8 106213141.956 8      -500.531          51.000    20211690.703 8  82763491.280 8      -390.024          51.000
G29  20642883.180 8 108479093.298 8      1566.023          49.000    20642883.930 8  84529159.044 8      1220.278          49.000
G32  23006660.148 7 120900858.029 7     -2211.688          46.000    23006661.688 7  94208445.226 7     -1723.393          46.000
R15  19965011.305 8 106686965.948 8     -1618.832          51.000    19965013.984 8  82978753.296 8     -1259.092          48.000
R17  19899349.672 8 106485454.170 8     -1897.840          51.000    19899351.773 8  82822029.108 8     -1476.098          48.000
R18  19722818.547 8 105281837.720 8      2276.398          50.000    19722821.688 8  81885862.332 8      1770.535          49.000
C27  21820068.359 8 113622812.036 8      1338.859          51.000
C28  22825054.648 6 118856015.691 6     -1858.035          40.000
E02                                                                  25968464.945 6 104564253.674 6     -1584.820          39.000
E15  25713279.375 5 135124194.675 5      3028.555          35.000    25713280.281 6 103536731.800 6      2320.967          41.000
E30  22183806.977 8 116576689.806 8      -185.926          51.000    22183809.336 8  89324995.322 8      -142.505          51.000
> 2020 05 09 10 42  0.0000000  0 14        .000000000000
G02  23158465.438 6 121698570.286 6     -1181.168          37.000
G12  21486813.227 5 112913953.409 5     -2171.395          35.000    21486813.766 5  87984910.413 5     -1691.996          34.000
G24  24221916.617 6 127286976.396 6     -3661.996          38.000    24221916.602 6  99184655.272 6     -2853.500          38.000
G25  20214578.242 8 106228329.019 8      -512.305          51.000    20214580.633 8  82775325.352 8      -399.198          51.000
G29  20633988.312 8 108432351.091 8      1549.730          50.000    20633988.555 8  84492736.520 8      1207.582          50.000
G32  23019321.773 7 120967393.822 7     -2224.660          46.000    23019322.805 7  94260291.277 7     -1733.501          46.000
R15  19974144.227 8 106735769.362 8     -1635.082          51.000    19974146.680 7  83016711.480 7     -1271.730          47.000
R17  19910054.070 8 106542735.991 8     -1921.336          51.000    19910056.195 8  82866581.636 8     -1494.372          48.000
R18  19710091.391 8 105213899.209 8      2252.426          50.000    19710094.625 8  81833021.273 8      1751.887          49.000
C27  21812398.266 8 113582869.709 8      1323.598          51.000
C28  22835795.250 6 118911936.159 6     -1870.426          41.000
E02  25980282.570 5 136527320.444 5     -2072.809          33.000    25980283.383 6 104611843.398 6     -1588.504          40.000
E15  25696001.180 6 135033407.609 6      3023.250          40.000    25696001.742 6 103467167.738 6      2316.510          40.000
E30  22184888.742 8 116582373.907 8      -193.336          51.000    22184891.234 8  89329350.647 8      -148.161          51.000
> 2020 05 09 10 42 30.0000000  0 14        .000000000000
G02  23165257.195 5 121734254.340 5     -1197.887          35.000
G12  21499232.016 5 112979214.516 5     -2178.762          33.000    21499232.281 5  88035763.180 5     -1697.739          34.000
G24  24242833.336 6 127396893.728 6     -3665.387          38.000    24242834.453 6  99270305.009 6     -2856.149          38.000
G25  20217536.141 8 106243872.549 8      -523.695          51.000    20217538.266 8  82787437.184 8      -408.074          51.000
G29  20625186.977 8 108386099.977 8      1533.828          50.000    20625187.336 8  84456696.696 8      1195.191          50.000
G32  23032057.359 7 121034319.536 7     -2236.992          46.000    23032058.719 7  94312441.132 7     -1743.111          46.000
R15  19983368.555 8 106785063.128 8     -1651.004          50.000    19983371.367 7  83055051.050 7     -1284.114          47.000
R17  19920890.234 8 106600722.290 8     -1944.289          50.000    19920892.141 8  82911682.084 8     -1512.225          48.000
R18  19697499.492 8 105146683.043 8      2228.824          50.000    19697503.320 8  81780742.050 8      1733.530          50.000
C27  21804816.719 8 113543388.754 8      1308.699          51.000
C28  22846605.109 6 118968231.909 6     -1882.465          39.000
E02                                                                  25992130.211 5 104659544.067 5     -1591.482          35.000
E15  25678759.234 7 134942799.246 7      3017.715          42.000    25678758.555 7 103397740.611 7      2312.164          42.000
E30  22186012.891 8 116588280.464 8      -200.238          51.000    22186015.445 8  89333876.444 8      -153.414          51.000
> 2020 05 09 10 43  0.0000000  0 14        .000000000000
G12  21511694.250 6 113044701.796 6     -2184.527          39.000    21511694.508 6  88086792.269 6     -1702.229          39.000
G24  24263768.961 6 127506908.909 6     -3666.918          38.000    24263770.805 6  99356031.066 6     -2857.342          38.000
G25  20220559.078 8 106259757.703 8      -533.211          51.000    20220561.023 8  82799815.222 8      -415.489          51.000
G29  20616476.547 8 108340325.603 8      1519.812          51.000    20616477.359 8  84421028.383 8      1184.269          51.000
G32  23044863.781 7 121101617.589 7     -2247.426          47.000    23044865.477 7  94364881.147 7     -1751.241          47.000
R15  19992681.891 8 106834832.350 8     -1664.848          50.000    19992684.906 7  83093760.433 7     -1294.882          47.000
R17  19931854.266 8 106659394.518 8     -1965.023          51.000    19931856.711 8  82957316.025 8     -1528.352          48.000
R18  19685040.422 8 105080176.245 8      2207.039          49.000    19685044.789 8  81729014.555 8      1716.586          50.000
C27  21797321.047 8 113504355.090 8      1295.633          51.000
C28  22857484.578 7 119024886.497 7     -1892.340          42.000
E02                                                                  26004000.555 5 104707344.499 5     -1593.461          34.000
E15  25661549.523 7 134852356.470 7      3014.078          45.000    25661549.008 7 103328440.366 7      2309.402          44.000
E30  22187176.648 8 116594395.188 8      -205.195          51.000    22187179.148 8  89338561.750 8      -157.219          51.000
E36  25918259.039 5 136201332.491 5     -1958.316          32.000
> 2020 05 09 10 43 30.0000000  0 15        .000000000000
G02  23179091.602 6 121806944.724 6     -1229.340          36.000
G12  21524198.047 5 113110412.091 5     -2193.840          33.000    21524198.766 5  88137995.122 5     -1709.489          33.000
G24  24284722.664 6 127617017.993 6     -3671.414          38.000    24284724.805 6  99441830.273 6     -2860.845          37.000
G25  20223646.547 8 106275982.155 8      -546.219          51.000    20223648.328 8  82812457.646 8      -425.628          51.000
G29  20607856.969 8 108295026.215 8      1502.254          51.000    20607857.414 8  84385730.158 8      1170.587          51.000
G32  23057740.203 8 121169282.975 8     -2261.477          48.000    23057742.117 8  94417607.402 8     -1762.190          48.000
R15  20002083.734 8 106885074.787 8     -1682.301          51.000    20002087.086 8  83132837.867 8     -1308.456          49.000
R17  19942945.969 8 106718747.505 8     -1989.453          50.000    19942948.078 8  83003479.445 8     -1547.355          48.000
R18  19672714.258 8 105014378.866 8      2181.562          49.000    19672718.773 8  81677838.789 8      1696.768          49.000
C27  21789910.633 8 113465767.045 8      1279.039          51.000
C28  22868433.234 7 119081896.038 7     -1905.922          44.000
E02                                                                  26015895.547 6 104755242.722 6     -1598.163          37.000
E15  25644371.062 7 134762078.846 7      3006.781          47.000    25644371.344 7 103259266.674 7      2303.882          45.000
E30  22188379.555 8 116600716.400 8      -213.918          51.000    22188382.047 8  89343405.265 8      -163.863          51.000
E36  25929493.070 5 136260405.343 5     -1970.645          30.000
> 2020 05 09 10 44  0.0000000  0 13        .000000000000
G12  21536741.812 5 113176330.355 5     -2203.812          32.000    21536738.023 5  88189342.229 5     -1717.256          33.000
G24  24305689.539 6 127727197.317 6     -3677.098          37.000    24305691.750 6  99527684.157 6     -2865.274          38.000
G25  20226794.586 8 106292524.971 8      -560.355          51.000    20226796.156 8  82825348.146 8      -436.641          51.000
G29  20599323.672 8 108250181.371 8      1483.598          51.000    20599323.719 8  84350786.118 8      1156.050          51.000
G32  23070682.039 7 121237291.982 7     -2276.441          47.000    23070683.891 8  94470601.405 8     -1773.850          48.000
R15  20011570.727 8 106935769.155 8     -1701.012          51.000    20011574.203 8  83172266.800 8     -1323.009          50.000
R17  19954159.812 8 106778756.642 8     -2014.883          49.000    19954162.133 8  83050153.227 8     -1567.131          48.000
R18  19660517.430 8 104949271.843 8      2154.965          50.000    19660522.094 8  81627199.959 8      1676.084          49.000
C27  21782581.359 8 113427604.461 8      1261.469          51.000
C28  22879444.586 7 119139237.873 7     -1920.648          42.000
E02                                                                  26027810.312 6 104803222.703 6     -1603.272          38.000
E15  25627219.992 7 134671947.236 7      2998.445          47.000    25627221.281 7 103190204.870 7      2297.426          46.000
E30  22189617.977 8 116607223.702 8      -223.590          51.000    22189620.289 8  89348391.377 8      -171.241          51.000
> 2020 05 09 10 44 30.0000000  0 13        .000000000000
G12  21549338.172 6 113242515.084 6     -2208.434          36.000    21549333.680 5  88240914.823 5     -1720.851          35.000
G24  24326683.484 6 127837517.236 6     -3677.559          38.000    24326684.984 6  99613647.653 6     -2865.633          38.000
G25  20230016.734 8 106309457.447 8      -568.984          51.000    20230018.188 8  82838542.275 8      -443.364          51.000
G29  20590890.164 8 108205863.107 8      1470.395          51.000    20590890.492 8  84316252.410 8      1145.759          51.000
G32  23083702.242 8 121305713.141 8     -2285.660          48.000    23083703.891 8  94523916.544 8     -1781.034          48.000
R15  20021155.977 8 106986987.912 8     -1714.094          51.000    20021159.164 8  83212103.599 8     -1333.184          49.000
R17  19965509.727 8 106839491.703 8     -2034.625          50.000    19965511.930 8  83097391.573 8     -1582.486          48.000
R18  19648463.852 8 104884929.629 8      2133.863          50.000    19648468.672 8  81577156.037 8      1659.671          48.000
C27  21775347.523 8 113389938.549 8      1249.156          51.000
C28  22890532.250 6 119196980.837 6     -1929.594          41.000
E02  26039752.406 5 136839826.375 5     -2094.656          34.000    26039757.477 6 104851339.286 6     -1604.835          37.000
E15  25610110.180 7 134582034.823 7      2995.281          47.000    25610112.289 7 103121311.002 7      2295.056          47.000
E30  22190905.406 8 116613988.939 8      -227.941          51.000    22190907.734 8  89353575.138 8      -174.606          51.000
> 2020 05 09 10 45  0.0000000  0 13        .000000000000
G12  21561963.836 4 113308893.818 4     -2217.367          29.000    21561968.195 4  88292662.889 4     -1727.819          28.000
G24  24347690.211 6 127947905.915 6     -3682.480          38.000    24347691.125 6  99699664.693 6     -2869.468          38.000
G25  20233299.531 8 106326709.275 8      -581.891          51.000    20233300.992 8  82851985.238 8      -453.421          51.000
G29  20582543.703 8 108162001.553 8      1452.855          51.000    20582544.203 8  84282074.551 8      1132.095          51.000
G32  23096786.898 8 121374473.376 8     -2299.254          48.000    23096788.586 8  94577495.904 8     -1791.629          48.000
R15  20030825.977 8 107038659.472 8     -1731.473          51.000    20030828.836 8  83252292.582 8     -1346.701          49.000
R17  19976981.391 8 106900877.607 8     -2058.621          49.000    19976983.242 8  83145136.146 8     -1601.153          48.000
R18  19636540.930 8 104821282.829 8      2108.320          51.000    19636545.102 7  81527653.007 7      1639.808          47.000
C27  21768196.000 8 113352700.322 8      1232.621          51.000
C28  22901684.055 7 119255053.652 7     -1942.566          42.000
E02                                                                  26051726.391 6 104899538.548 6     -1609.226          37.000
E15  25593028.438 7 134492273.039 7      2987.957          46.000    25593031.898 8 103052532.539 8      2289.459          49.000
E30  22192228.672 8 116620942.449 8      -236.457          51.000    22192231.039 8  89358903.141 8      -181.193          51.000
> 2020 05 09 10 45 30.0000000  0 12        .000000000000
G24  24368713.148 6 128058380.904 6     -3683.410          38.000    24368713.453 6  99785749.028 6     -2870.196          38.000
G25  20236647.055 8 106344301.034 8      -591.602          51.000    20236648.500 8  82865693.099 8      -460.988          51.000
G29  20574288.211 8 108118617.789 8      1438.664          51.000    20574288.500 8  84248269.027 8      1121.037          51.000
G32  23109939.148 8 121443590.459 8     -2309.359          48.000    23109941.289 7  94631353.341 7     -1799.501          47.000
R15  20040584.586 8 107090804.865 8     -1745.594          51.000    20040587.398 8  83292850.079 8     -1357.684          48.000
R17  19988578.031 8 106962932.178 8     -2079.164          48.000    19988580.039 8  83193400.825 8     -1617.125          48.000
R18  19624752.969 8 104758354.750 8      2086.047          51.000    19624755.938 7  81478708.955 7      1622.481          46.000
C27  21761130.742 8 113315910.668 8      1219.285          51.000
C28  22912902.688 7 119313474.951 7     -1952.684          43.000
E02                                                                  26063722.391 5 104947836.286 5     -1611.081          34.000
E15  25575978.922 7 134402684.258 7      2983.844          45.000    25575984.758 8 102983886.624 8      2286.349          51.000
E30  22193591.906 8 116628105.340 8      -241.820          51.000    22193594.195 8  89364391.589 8      -185.246          51.000
> 2020 05 09 10 46  0.0000000  0 13        .000000000000
G02  23215318.477 6 121997352.179 6     -1309.852          37.000
G24  24389753.398 6 128168947.225 6     -3687.871          37.000    24389752.734 6  99871904.485 6     -2873.669          37.000
G25  20240060.570 8 106362239.088 8      -604.336          51.000    20240061.984 8  82879670.794 8      -470.911          51.000
G29  20566124.742 8 108075718.648 8      1421.223          51.000    20566124.484 8  84214841.159 8      1107.449          51.000
G32  23123159.594 7 121513067.957 7     -2322.547          46.000    23123162.773 7  94685491.658 7     -1809.777          46.000
R15  20050432.883 8 107143430.528 8     -1762.734          51.000    20050435.148 7  83333781.124 7     -1371.016          47.000
R17  20000299.906 8 107025658.902 8     -2102.586          48.000    20000302.242 8  83242188.271 8     -1635.345          48.000
R18  19613100.891 8 104696153.880 8      2060.598          51.000    19613103.672 7  81430330.548 7      1602.690          47.000
C27  21754153.406 8 113279576.488 8      1202.945          51.000
C28  22924189.352 7 119372249.218 7     -1965.652          43.000
E02                                                                  26075745.945 5 104996237.373 5     -1615.460          34.000
E15  25558964.094 7 134313276.706 7      2976.641          46.000    25558972.211 8 102915379.552 8      2280.728          51.000
E30  22194996.359 8 116635484.577 8      -250.211          51.000    22194998.609 8  89370045.810 8      -191.738          51.000
> 2020 05 09 10 46 30.0000000  0 14        .000000000000
G02  23222837.688 5 122036817.559 5     -1324.133          33.000
G12  21600137.680 5 113509488.771 5     -2238.465          30.000
G24  24410809.914 5 128279598.942 5     -3689.121          33.000    24410808.555 5  99958126.475 5     -2874.646          34.000
G25  20243539.219 8 106380519.137 8      -614.758          51.000    20243540.477 8  82893914.980 8      -479.032          51.000
G29  20558052.852 8 108033300.387 8      1406.102          51.000    20558051.891 8  84181788.002 8      1095.664          51.000
G32  23136447.438 7 121582898.909 7     -2333.238          46.000    23136451.172 7  94739905.376 7     -1818.108          46.000
R15  20060370.156 8 107196532.106 8     -1777.781          51.000    20060371.820 7  83375082.319 7     -1382.722          47.000
R17  20012146.000 8 107089050.127 8     -2123.863          48.000    20012148.094 8  83291492.551 8     -1651.894          48.000
R18  19601584.836 8 104634677.932 8      2037.316          51.000    19601586.930 7  81382515.957 7      1584.579          47.000
C27  21747263.016 8 113243694.089 8      1188.844          51.000
C28  22935542.844 6 119431370.416 6     -1976.270          41.000
E02                                                                  26087793.766 5 105044738.663 5     -1618.480          33.000
E15  25541983.992 7 134224047.902 7      2971.590          46.000    25541993.328 8 102847009.418 8      2276.915          51.000
E30  22196441.297 8 116643076.497 8      -256.336          51.000    22196443.531 8  89375862.991 8      -196.383          51.000
> 2020 05 09 10 47  0.0000000  0 13        .000000000000
G02  23230445.180 5 122076808.259 5     -1341.062          34.000
G24  24431881.117 5 128390330.248 5     -3692.461          34.000    24431879.586 5 100044410.465 5     -2877.245          34.000
G25  20247082.289 8 106399137.447 8      -626.707          51.000    20247083.367 8  82908422.745 8      -488.343          51.000
G29  20550071.625 8 107991359.523 8      1389.746          51.000    20550070.773 8  84149106.858 8      1082.922          51.000
G32  23149801.695 7 121653076.713 7     -2345.344          47.000    23149805.438 7  94794589.343 7     -1827.544          47.000
R15  20070395.836 8 107250105.860 8     -1794.047          51.000    20070397.633 7  83416750.729 7     -1395.373          47.000
R17  20024114.859 7 107153098.604 7     -2146.270          47.000    20024116.898 8  83341308.020 8     -1669.321          48.000
R18  19590203.984 8 104573925.040 8      2012.664          51.000    19590205.773 8  81335263.725 8      1565.408          48.000
C27  21740458.664 8 113208260.288 8      1173.273          51.000
C28  22946962.258 7 119490833.050 7     -1988.156          42.000
E02                                                                  26099863.727 5 105093337.255 5     -1621.904          34.000
E15  25525038.086 8 134134995.835 8      2965.215          48.000    25525047.688 8 102778774.723 8      2272.042          51.000
E30  22197925.914 8 116650877.900 8      -263.848          51.000    22197928.164 8  89381840.680 8      -202.106          51.000
> 2020 05 09 10 47 30.0000000  0 13        .000000000000
G12  21625776.188 5 113644197.856 5     -2253.652          34.000
G24  24452964.977 5 128501129.130 5     -3695.500          35.000    24452963.945 5 100130747.206 5     -2879.613          34.000
G25  20250687.703 8 106418083.344 8      -637.891          51.000    20250688.688 8  82923185.789 8      -497.058          51.000
G29  20542179.344 8 107949885.898 8      1373.641          51.000    20542178.805 8  84116789.759 8      1070.369          51.000
G32  23163219.633 7 121723587.917 7     -2356.930          47.000    23163223.336 7  94849533.090 7     -1836.569          47.000
R15  20080507.352 8 107304140.818 8     -1809.844          51.000    20080509.609 8  83458777.891 8     -1407.656          48.000
R17  20036204.031 7 107217790.536 7     -2168.020          46.000    20036206.156 8  83391623.980 8     -1686.237          48.000
R18  19578956.172 8 104513886.057 8      1988.516          50.000    19578958.711 8  81288566.755 8      1546.623          49.000
C27  21733738.609 8 113173265.034 8      1158.246          51.000
C28  22958444.750 7 119550624.864 7     -1999.453          43.000
E02                                                                  26111953.062 5 105142015.144 5     -1625.481          30.000
E15  25508124.430 8 134046111.734 8      2958.992          49.000    25508133.578 8 102710668.732 8      2267.301          51.000
E30  22199448.398 8 116658878.740 8      -270.973          51.000    22199450.539 8  89387971.192 8      -207.640          51.000
> 2020 05 09 10 48  0.0000000  0 11        .000000000000
G24  24474069.984 6 128612035.560 6     -3698.223          37.000    24474069.680 6 100217167.751 6     -2881.732          36.000
G25  20254363.492 8 106437399.061 8      -649.375          51.000    20254364.484 8  82938237.003 8      -506.003          51.000
G29  20534384.258 8 107908922.421 8      1357.598          51.000    20534383.453 8  84084870.131 8      1057.865          51.000
G32  23176708.430 7 121794471.940 7     -2368.418          46.000    23176712.297 7  94904767.359 7     -1845.520          46.000
R15  20090713.219 8 107358679.806 8     -1825.727          51.000    20090715.930 8  83501197.124 8     -1420.010          49.000
R17  20048420.695 7 107283165.439 7     -2189.980          47.000    20048423.172 7  83442471.107 7     -1703.318          47.000
R18  19567850.289 8 104454606.427 8      1964.078          50.000    19567854.023 8  81242460.388 8      1527.616          50.000
C27  21727110.656 8 113138750.645 8      1143.074          51.000
C28  22969998.312 7 119610785.851 7     -2010.891          42.000
E15  25491251.203 8 133957439.533 8      2952.895          49.000    25491259.477 8 102642725.101 8      2262.551          51.000
E30  22201016.945 8 116667121.771 8      -278.176          51.000    22201018.867 8  89394287.279 8      -213.166          51.000
> 2020 05 09 10 48 30.0000000  0 12        .000000000000
G12  21651586.211 6 113779838.255 6     -2268.805          37.000    21651579.062 6  88659603.678 6     -1767.894          37.000
G24  24495185.953 6 128722999.963 6     -3699.598          37.000    24495186.133 6 100303633.403 6     -2882.809          38.000
G25  20258100.469 8 106457036.474 8      -660.547          51.000    20258101.562 8  82953538.883 8      -514.712          51.000
G29  20526677.211 8 107868421.488 8      1341.824          51.000    20526676.461 8  84053310.969 8      1045.580          51.000
G32  23190258.469 7 121865677.810 7     -2379.469          46.000    23190262.805 7  94960252.432 7     -1854.131          46.000
R15  20101004.219 8 107413673.932 8     -1841.281          51.000    20101007.727 8  83543970.337 8     -1432.108          50.000
R17  20060755.766 7 107349171.118 7     -2211.160          45.000    20060758.383 7  83493808.863 7     -1719.791          47.000
R18  19556877.844 8 104396038.835 8      1939.672          49.000    19556882.539 8  81196907.828 8      1508.634          50.000
C27  21720565.773 8 113104669.987 8      1128.219          51.000
C28  22981613.500 7 119671266.623 7     -2021.699          42.000
E15  25474409.133 8 133868932.979 8      2946.898          48.000    25474416.680 8 102574908.391 8      2258.034          51.000
E30  22202622.531 8 116675559.531 8      -285.027          51.000    22202624.234 8  89400752.568 8      -218.410          51.000
> 2020 05 09 10 49  0.0000000  0 12        .000000000000
G12  21664554.867 5 113847995.450 5     -2274.973          34.000    21664548.883 5  88712713.198 5     -1772.703          35.000
G24  24516317.289 6 128834114.724 6     -3702.945          38.000    24516317.766 6 100390161.706 6     -2885.415          38.000
G25  20261903.398 8 106477020.686 8      -671.793          51.000    20261904.594 8  82969110.997 8      -523.475          51.000
G29  20519063.203 8 107828408.578 8      1325.902          51.000    20519062.391 8  84022132.096 8      1033.171          51.000
G32  23203874.109 7 121937227.922 7     -2390.363          46.000    23203878.531 7  95016005.740 7     -1862.621          46.000
R15  20111385.547 8 107469148.482 8     -1856.984          51.000    20111389.320 8  83587117.201 8     -1444.321          50.000
R17  20073212.656 7 107415829.758 7     -2232.570          44.000    20073214.961 7  83545654.472 7     -1736.444          46.000
R18  19546044.570 8 104338210.709 8      1915.359          51.000    19546049.273 8  81151930.393 8      1489.724          49.000
C27  21714108.891 8 113071048.418 8      1113.289          51.000
C28  22993294.117 6 119732090.230 6     -2033.023          40.000
E15  25457603.398 8 133780619.013 8      2940.730          48.000    25457610.109 8 102507239.236 8      2253.188          50.000
E30  22204270.109 8 116684217.731 8      -292.223          51.000    22204271.594 8  89407386.765 8      -223.899          51.000
> 2020 05 09 10 49 30.0000000  0 13        .000000000000
G02  23269847.469 6 122283797.914 6     -1419.375          37.000
G12  21677563.781 5 113916369.573 5     -2283.715          35.000    21677561.836 6  88765991.612 6     -1779.521          36.000
G24  24537462.523 6 128945231.766 6     -3706.238          39.000    24537463.086 6 100476746.334 6     -2887.981          37.000
G25  20265770.828 8 106497344.120 8      -683.941          51.000    20265772.180 8  82984947.431 8      -532.941          51.000
G29  20511540.414 8 107788876.330 8      1308.945          51.000    20511539.375 8  83991327.764 8      1019.957          51.000
G32  23217553.305 7 122009111.776 7     -2402.652          46.000    23217557.336 7  95072019.082 7     -1872.200          46.000
R15  20121855.656 8 107525095.806 8     -1873.570          51.000    20121859.195 8  83630631.764 8     -1457.221          50.000
R17  20085789.195 7 107483130.305 7     -2254.863          44.000    20085791.633 7  83597999.346 7     -1753.783          46.000
R18  19535349.328 8 104281116.040 8      1890.059          51.000    19535353.602 8  81107523.445 8      1470.046          49.000
C27  21707738.719 8 113037878.850 8      1097.254          51.000
C28  23005038.516 6 119793247.337 6     -2045.195          39.000
E15  25440832.984 7 133692491.771 7      2933.621          47.000    25440838.516 7 102439713.162 7      2247.816          47.000
E30  22205958.219 8 116693089.324 8      -300.121          51.000    22205959.883 8  89414184.473 8      -229.987          51.000
> 2020 05 09 10 50  0.0000000  0 14        .000000000000
G02  23277992.211 5 122326597.905 5     -1432.676          33.000
G12  21690617.773 6 113984973.566 6     -2289.828          36.000    21690615.945 5  88819449.270 5     -1784.282          35.000
G24  24558623.336 6 129056431.812 6     -3707.031          38.000    24558622.914 5 100563395.488 5     -2888.599          32.000
G25  20269705.375 8 106518020.542 8      -694.262          51.000    20269707.039 8  83001058.921 8      -540.983          51.000
G29  20504111.531 8 107749838.857 8      1293.949          51.000    20504110.539 8  83960908.979 8      1008.272          51.000
G32  23231298.164 8 122081340.347 8     -2412.473          48.000    23231301.633 7  95128301.030 7     -1879.849          47.000
R15  20132416.625 8 107581529.649 8     -1888.297          51.000    20132419.852 8  83674524.722 8     -1468.678          49.000
R17  20098487.852 7 107551083.662 7     -2274.930          42.000    20098490.016 7  83650851.955 7     -1769.390          45.000
R18  19524794.594 8 104224771.065 8      1866.676          51.000    19524798.078 8  81063699.614 8      1451.859          48.000
C27  21701458.172 8 113005175.391 8      1083.289          51.000
C28  23016849.422 6 119854749.955 6     -2055.051          40.000
E02  26172797.781 5 137538974.694 5     -2142.516          35.000    26172795.164 5 105386998.310 5     -1641.261          33.000
E15  25424101.086 7 133604566.865 7      2928.430          47.000    25424103.844 7 102372342.195 7      2243.829          44.000
E30  22207689.508 8 116702188.674 8      -306.172          51.000    22207691.672 8  89421156.683 8      -234.572          51.000
> 2020 05 09 10 50 30.0000000  0 14        .000000000000
G02  23286222.875 5 122369916.522 5     -1449.309          35.000
G12  21703710.531 6 114053777.576 6     -2296.926          37.000    21703710.445 6  88873062.721 6     -1789.809          37.000
G24  24579794.297 6 129167684.438 6     -3709.199          38.000    24579790.906 5 100650141.543 5     -2890.291          31.000
G25  20273701.539 8 106539020.677 8      -705.289          51.000    20273703.359 8  83017422.644 8      -549.576          51.000
G29  20496771.492 8 107711267.467 8      1278.012          51.000    20496770.820 8  83930853.361 8       995.853          51.000
G32  23245102.391 8 122153881.501 8     -2423.121          49.000    23245105.414 8  95184826.552 8     -1888.149          48.000
R15  20143063.078 8 107638420.182 8     -1903.906          51.000    20143066.117 8  83718772.900 8     -1480.819          49.000
R17  20111302.078 7 107619656.551 7     -2295.848          43.000    20111304.383 7  83704186.447 7     -1785.659          44.000
R18  19514374.852 8 104169147.670 8      1842.188          51.000    19514377.562 8  81020437.014 8      1432.812          48.000
C27  21695261.688 8 112972909.533 8      1068.309          51.000
C28  23028720.422 6 119916567.145 6     -2065.617          36.000
E02  26185041.234 5 137603305.004 5     -2145.922          35.000    26185037.141 5 105436290.378 5     -1644.894          33.000
E15  25407402.609 8 133516816.769 8      2922.148          48.000    25407401.438 7 102305105.209 7      2238.932          43.000
E30  22209458.734 8 116711487.170 8      -313.145          51.000    22209461.266 8  89428281.488 8      -239.987          51.000
> 2020 05 09 10 51  0.0000000  0 14        .000000000000
G02  23294539.633 6 122413625.900 6     -1464.613          37.000
G12  21716844.656 5 114122799.034 5     -2304.090          34.000    21716845.273 5  88926845.729 5     -1795.398          35.000
G24  24600978.445 6 129279005.721 6     -3711.898          38.000    24600975.258 6 100736885.222 6     -2892.394          36.000
G25  20277762.711 8 106560362.608 8      -716.773          51.000    20277764.516 8  83034052.714 8      -558.525          51.000
G29  20489523.617 8 107673180.424 8      1261.773          51.000    20489523.523 8  83901175.175 8       983.203          51.000
G32  23258968.938 8 122226750.483 8     -2433.996          49.000    23258971.719 8  95241607.560 8     -1896.620          49.000
R15  20153798.445 8 107695785.484 8     -1919.816          51.000    20153801.461 8  83763390.346 8     -1493.191          49.000
R17  20124235.523 7 107688863.942 7     -2317.211          42.000    20124237.836 7  83758014.417 7     -1802.275          43.000
R18  19504093.508 8 104114265.897 8      1817.254          51.000    19504096.102 8  80977751.214 8      1413.423          48.000
C27  21689152.531 8 112941099.552 8      1053.094          51.000
C28  23040654.523 6 119978715.051 6     -2076.930          37.000
E02  26197308.062 5 137667783.296 5     -2150.809          34.000
E15  25390741.273 8 133429261.374 8      2915.500          49.000    25390739.805 7 102238017.363 7      2234.041          45.000
E30  22211269.508 8 116721003.451 8      -320.512          51.000    22211272.398 8  89435573.169 8      -245.584          51.000
> 2020 05 09 10 51 30.0000000  0 14        .000000000000
G02  23302947.211 5 122457809.746 5     -1480.605          31.000
G12  21730025.070 5 114192038.493 5     -2312.289          34.000    21730023.516 5  88980808.809 5     -1801.781          34.000
G24  24622177.898 6 129390406.092 6     -3715.285          36.000    24622175.703 5 100823690.585 5     -2895.040          35.000
G25  20281891.320 8 106582058.802 8      -729.547          51.000    20281893.203 8  83050958.815 8      -568.478          51.000
G29  20482370.570 8 107635590.696 8      1244.230          51.000    20482370.781 8  83871884.494 8       969.530          51.000
G32  23272899.727 8 122299956.920 8     -2446.371          49.000    23272902.711 8  95298651.512 8     -1906.260          49.000
R15  20164624.961 8 107753638.376 8     -1937.020          51.000    20164628.109 8  83808386.995 8     -1506.571          49.000
R17  20137288.773 7 107758715.230 7     -2339.504          43.000    20137291.078 7  83812343.256 7     -1819.611          42.000
R18  19493953.578 8 104060140.307 8      1791.125          51.000    19493956.594 8  80935653.552 8      1393.097          49.000
C27  21683133.570 8 112909758.232 8      1036.426          51.000
C28  23052654.359 6 120041204.349 6     -2089.188          38.000
C30  24727327.133 6 128761677.123 6      3199.543          36.000
E15  25374119.945 8 133341914.966 8      2907.609          50.000    25374120.586 8 102171089.635 8      2227.926          48.000
E30  22213124.211 8 116730750.580 8      -329.238          51.000    22213127.422 8  89443041.722 8      -252.256          51.000
> 2020 05 09 10 52  0.0000000  0 12        .000000000000
G24  24643387.406 5 129501858.245 5     -3716.484          35.000    24643384.617 5 100910536.283 5     -2895.962          31.000
G25  20286082.516 8 106604083.384 8      -740.102          51.000    20286084.398 8  83068120.820 8      -576.703          51.000
G29  20475307.461 8 107598472.839 8      1228.812          51.000    20475307.680 8  83842961.478 8       957.516          51.000
G32  23286889.172 8 122373472.133 8     -2456.199          48.000    23286892.516 8  95355936.020 8     -1913.928          48.000
R15  20175537.836 8 107811952.287 8     -1952.039          51.000    20175540.594 8  83853742.236 8     -1518.253          48.000
R17  20150457.062 7 107829180.731 7     -2359.555          44.000    20150459.070 6  83867149.703 6     -1835.212          41.000
R18  19483950.711 8 104006746.040 8      1767.078          50.000    19483954.211 8  80894124.663 8      1374.394          49.000
C27  21677200.141 8 112878860.414 8      1022.082          51.000
C28  23064715.156 6 120104007.557 6     -2099.340          38.000
C30  24708907.789 6 128665758.235 6      3194.285          37.000
E15  25357534.094 8 133254753.421 8      2901.867          51.000    25357537.000 8 102104303.550 8      2223.473          50.000
E30  22215018.070 8 116740703.317 8      -335.625          51.000    22215021.344 8  89450667.831 8      -257.179          51.000
> 2020 05 09 10 52 30.0000000  0 12        .000000000000
G24  24664608.594 5 129613392.057 5     -3717.359          33.000
G25  20290339.234 8 106626452.284 8      -751.152          51.000    20290340.961 8  83085551.121 8      -585.314          51.000
G29  20468336.969 8 107561842.991 8      1213.105          51.000    20468337.344 8  83814418.731 8       945.277          51.000
G32  23300939.812 7 122447309.110 7     -2466.262          46.000    23300943.250 7  95413471.289 7     -1921.762          46.000
R15  20186539.906 8 107870743.018 8     -1967.316          51.000    20186542.398 8  83899468.324 8     -1530.138          48.000
R17  20163742.281 7 107900273.119 7     -2379.867          43.000    20163745.117 6  83922443.860 6     -1851.005          40.000
R18  19474088.320 8 103954101.233 8      1742.621          51.000    19474092.219 8  80853178.696 8      1355.372          49.000
C27  21671354.953 8 112848422.180 8      1007.191          51.000
C28  23076839.102 6 120167138.655 6     -2109.520          38.000
C30  24690522.125 6 128570013.076 6      3188.789          38.000
E15  25340986.898 8 133167794.431 8      2895.516          51.000    25340991.320 8 102037672.663 8      2218.675          51.000
E30  22216954.305 8 116750878.130 8      -342.523          51.000    22216957.469 8  89458464.103 8      -262.531          51.000
> 2020 05 09 10 53  0.0000000  0 11        .000000000000
G25  20294663.922 8 106649178.786 8      -762.805          51.000    20294665.648 8  83103260.076 8      -594.393          51.000
G29  20461462.039 8 107525714.920 8      1196.656          51.000    20461462.242 8  83786266.986 8       932.459          51.000
G32  23315053.422 7 122521478.337 7     -2477.137          46.000    23315056.922 7  95471265.479 7     -1930.236          45.000
R15  20197633.625 8 107930024.125 8     -1983.441          51.000    20197636.039 8  83945575.805 8     -1542.680          48.000
R17  20177146.812 7 107972002.810 7     -2400.785          46.000    20177149.984 6  83978233.599 6     -1867.280          36.000
R18  19464369.312 8 103902220.796 8      1717.344          50.000    19464373.570 8  80812827.263 8      1335.712          49.000
C27  21665600.461 8 112818457.149 8       991.723          51.000
C28  23089027.773 6 120230609.132 6     -2120.598          38.000
C30  24672172.328 6 128474456.470 6      3182.824          38.000
E15  25324481.047 8 133081053.137 8      2888.465          51.000    25324486.062 8 101971208.582 8      2213.212          51.000
E30  22218935.664 8 116761289.015 8      -350.254          51.000    22218938.648 8  89466441.257 8      -268.394          51.000
> 2020 05 09 10 53 30.0000000  0 12        .000000000000
G12  21783141.570 6 114471193.542 6     -2340.035          36.000    21783146.438 6  89198328.291 6     -1823.404          36.000
G25  20299050.688 8 106672231.359 8      -773.504          51.000    20299052.430 8  83121223.112 8      -602.730          51.000
G29  20454676.945 8 107490057.005 8      1181.055          51.000    20454676.258 8  83758481.601 8       920.302          51.000
G32  23329223.992 8 122595945.386 8     -2486.949          48.000    23329227.344 8  95529291.752 8     -1937.879          48.000
R15  20208813.055 8 107989763.143 8     -1998.590          51.000    20208815.094 8  83992039.459 8     -1554.462          48.000
R17  20190664.359 7 108044333.860 7     -2420.750          43.000    20190665.828 5  84034491.073 5     -1882.803          34.000
R18  19454787.836 8 103851074.296 8      1692.969          50.000    19454792.234 8  80773046.691 8      1316.753          48.000
C27  21659931.062 8 112788934.366 8       977.008          51.000
C28  23101275.469 6 120294385.811 6     -2130.715          38.000
C30  24653853.359 6 128379058.721 6      3177.246          39.000
E15  25308010.438 8 132994499.739 8      2882.152          49.000    25308015.797 8 101904888.454 8      2208.462          51.000
E30  22220956.055 8 116771904.928 8      -357.008          51.000    22220958.758 8  89474575.524 8      -273.539          51.000
> 2020 05 09 10 54  0.0000000  0 13        .000000000000
G12  21796521.617 6 114541490.769 6     -2347.062          37.000    21796526.719 6  89253105.240 6     -1828.883          36.000
G24  24728335.562 5 129948270.589 5     -3723.004          31.000
G25  20303498.328 8 106695603.968 8      -785.043          51.000    20303500.086 8  83139435.525 8      -611.722          51.000
G29  20447980.203 8 107454863.791 8      1164.770          51.000    20447979.070 8  83731058.324 8       907.613          51.000
G32  23343449.867 8 122670701.453 8     -2497.277          49.000    23343453.125 8  95587543.198 8     -1945.933          49.000
R15  20220076.898 8 108049953.954 8     -2014.516          51.000    20220078.984 8  84038854.490 8     -1566.849          49.000
R17  20204291.539 7 108117256.890 7     -2441.098          44.000    20204294.062 5  84091209.001 5     -1898.632          31.000
R18  19445343.172 8 103800657.214 8      1667.809          51.000    19445347.227 8  80733833.393 8      1297.181          49.000
C27  21654345.336 8 112759848.304 8       961.633          51.000
C28  23113580.562 6 120358461.017 6     -2141.797          38.000
C30  24635563.953 6 128283815.532 6      3171.555          39.000
E15  25291574.172 8 132908130.075 8      2875.316          49.000    25291579.852 8 101838709.117 8      2203.197          51.000
E30  22223014.422 8 116782720.548 8      -364.445          51.000    22223016.625 8  89482862.818 8      -279.190          51.000
> 2020 05 09 10 54 30.0000000  0 13        .000000000000
G12  21809943.953 6 114612027.573 6     -2354.277          41.000    21809949.812 6  89308068.839 6     -1834.499          40.000
G24  24749598.805 6 130060027.126 6     -3725.480          36.000    24749603.906 6 101345492.796 6     -2902.972          37.000
G25  20308015.734 8 106719343.447 8      -796.324          51.000    20308017.523 8  83157933.808 8      -620.512          51.000
G29  20441380.453 8 107420182.287 8      1148.566          51.000    20441379.641 8  83704033.779 8       894.987          51.000
G32  23357739.094 8 122745790.393 8     -2507.383          49.000    23357742.531 8  95646054.003 8     -1953.808          49.000
R15  20231433.945 8 108110643.832 8     -2030.238          51.000    20231436.109 8  84086057.732 8     -1579.074          48.000
R17  20218037.875 7 108190816.161 7     -2461.477          44.000
R18  19436044.617 8 103751018.594 8      1642.656          51.000    19436048.469 8  80695225.597 8      1277.625          49.000
C27  21648852.250 8 112731245.612 8       946.465          51.000
C28  23125951.484 6 120422879.232 6     -2151.848          36.000
C30  24617313.656 6 128188774.912 6      3165.785          40.000
E15  25275182.086 8 132821992.685 8      2868.410          49.000    25275187.805 8 101772707.744 8      2197.888          51.000
E30  22225119.805 8 116793783.252 8      -371.855          51.000    22225121.672 8  89491339.433 8      -284.892          51.000
> 2020 05 09 10 55  0.0000000  0 13        .000000000000
G12  21823403.250 6 114682758.827 6     -2361.043          39.000    21823405.422 6  89363184.067 6     -1839.777          39.000
G24  24770873.234 6 130171818.776 6     -3727.121          37.000    24770877.969 6 101432603.030 6     -2904.253          37.000
G25  20312594.625 8 106743405.516 8      -807.328          51.000    20312596.148 8  83176683.474 8      -629.087          51.000
G29  20434869.773 8 107385968.429 8      1132.785          51.000    20434868.969 8  83677373.606 8       882.690          51.000
G32  23372082.672 8 122821165.119 8     -2517.078          49.000    23372086.391 8  95704787.520 8     -1961.363          49.000
R15  20242875.555 8 108171787.363 8     -2045.562          51.000    20242878.398 8  84133613.806 8     -1590.996          49.000
R17  20231894.227 7 108264962.855 7     -2481.340          42.000    20231924.297 4  84206117.328 4     -1929.922          29.000
R18  19426884.000 8 103702115.034 8      1618.016          51.000    19426886.789 8  80657189.509 8      1258.457          48.000
C27  21643443.883 8 112703082.797 8       931.520          51.000
C28  23138380.180 6 120487594.954 6     -2161.883          39.000
C30  24599094.141 6 128093894.607 6      3160.184          40.000
E15  25258826.750 8 132736045.053 8      2861.918          50.000    25258831.867 8 101706851.786 8      2192.934          51.000
E30  22227263.727 8 116805049.407 8      -378.762          51.000    22227265.578 8  89499971.941 8      -290.178          51.000
> 2020 05 09 10 55 30.0000000  0 14        .000000000000
G02  23373323.414 5 122827647.008 5     -1600.969          33.000
G12  21836904.992 7 114753711.920 7     -2367.984          43.000    21836906.789 7  89418472.122 7     -1845.186          43.000
G24  24792158.359 5 130283671.231 5     -3729.004          35.000    24792163.711 5 101519760.664 5     -2905.720          35.000
G25  20317240.219 8 106767818.063 8      -818.965          51.000    20317241.609 8  83195706.232 8      -638.154          51.000
G29  20428453.125 8 107352250.428 8      1116.449          49.000    20428452.594 8  83651099.811 8       869.960          49.000
G32  23386485.391 8 122896850.565 8     -2527.246          50.000    23386489.359 8  95763763.160 8     -1969.283          50.000
R15  20254407.539 8 108233412.860 8     -2061.496          51.000    20254411.219 8  84181544.718 8     -1603.389          49.000
R17  20245864.234 7 108339722.120 7     -2501.434          42.000    20245899.023 4  84264361.861 4     -1945.544          24.000
R18  19417866.328 8 103653976.155 8      1592.602          51.000    19417868.203 7  80619748.147 7      1238.690          47.000
C27  21638125.539 8 112675387.814 8       916.066          51.000
C28  23150870.750 6 120552634.056 6     -2172.617          39.000
C30  24580910.531 6 127999203.728 6      3154.094          38.000
E15  25242513.562 8 132650316.824 8      2854.617          51.000    25242517.633 8 101641163.958 8      2187.331          51.000
E30  22229451.688 8 116816547.491 8      -386.418          51.000    22229453.516 8  89508782.154 8      -296.066          51.000
> 2020 05 09 10 56  0.0000000  0 14        .000000000000
G02  23382505.195 5 122875903.729 5     -1616.320          34.000
G12  21850446.328 7 114824872.031 7     -2375.512          42.000    21850448.000 7  89473921.488 7     -1851.051          43.000
G24  24813452.164 5 130395568.713 5     -3730.594          33.000    24813457.547 5 101606953.351 5     -2906.962          34.000
G25  20321949.695 8 106792566.509 8      -830.641          51.000    20321951.055 8  83214990.725 8      -647.252          51.000
G29  20422127.797 8 107319014.066 8      1099.750          49.000    20422127.711 8  83625201.331 8       856.948          49.000
G32  23400943.891 8 122972829.351 8     -2537.652          50.000    23400947.906 8  95822967.372 8     -1977.391          49.000
R15  20266027.133 8 108295505.057 8     -2077.676          51.000    20266031.172 8  84229838.618 8     -1615.973          49.000
R17  20259946.031 6 108415075.612 6     -2521.590          39.000    20259970.891 4  84322970.423 4     -1961.224          26.000
R18  19408989.070 8 103606588.901 8      1566.914          51.000    19408990.445 7  80582891.396 7      1218.711          47.000
C27  21632894.273 8 112648146.476 8       900.387          51.000
C28  23163419.148 6 120617980.140 6     -2183.391          37.000
C30  24562760.797 6 127904689.639 6      3147.438          37.000
E15  25226239.852 8 132564795.204 8      2847.242          51.000    25226243.016 8 101575634.438 8      2181.638          51.000
E30  22231681.148 8 116828263.562 8      -394.250          51.000    22231683.094 8  89517759.395 8      -302.034          51.000
> 2020 05 09 10 56 30.0000000  0 14        .000000000000
G12  21864026.336 7 114896234.638 7     -2382.250          42.000    21864024.547 7  89529528.702 7     -1856.296          42.000
G24  24834754.102 4 130507504.907 4     -3731.859          28.000    24834758.953 4 101694176.271 4     -2907.945          27.000
G25  20326722.359 8 106817647.004 8      -841.637          51.000    20326723.680 8  83234533.972 8      -655.821          51.000
G29  20415894.109 8 107286255.481 8      1083.980          51.000    20415893.750 8  83599675.167 8       844.660          51.000
G32  23415456.609 8 123049094.618 8     -2546.969          48.000    23415460.648 8  95882394.814 8     -1984.651          48.000
R15  20277733.492 8 108358059.749 8     -2092.828          51.000    20277737.617 8  84278492.258 8     -1627.755          49.000
R17  20274136.086 7 108491015.722 7     -2541.047          42.000
R18  19400251.805 8 103559950.369 8      1542.145          51.000    19400253.219 7  80546617.008 7      1199.446          47.000
C27  21627749.461 8 112621355.281 8       885.543          51.000
C28  23176026.055 6 120683627.703 6     -2193.312          39.000
C30  24544644.250 5 127810349.908 5      3141.328          31.000
E02  26333878.453 5 138385464.483 5     -2198.156          34.000
E15  25210004.969 8 132479478.128 8      2840.418          51.000    25210007.500 8 101510261.647 8      2176.445          51.000
E30  22233951.477 8 116840194.360 8      -401.254          51.000    22233953.461 8  89526901.177 8      -307.463          51.000
> 2020 05 09 10 57  0.0000000  0 11        .000000000000
G12  21877648.555 6 114967819.742 6     -2390.781          40.000    21877645.336 6  89585309.306 6     -1862.943          40.000
G25  20331562.125 8 106843079.824 8      -854.672          51.000    20331563.500 8  83254351.758 8      -665.978          51.000
G29  20409755.570 8 107253995.372 8      1066.039          51.000    20409754.766 8  83574537.448 8       830.680          51.000
G32  23430027.047 7 123125663.887 7     -2558.473          47.000    23430030.984 7  95942059.139 7     -1993.615          47.000
R15  20289530.242 8 108421097.415 8     -2110.344          51.000    20289534.359 8  84327521.525 8     -1641.382          49.000
R17  20288440.859 6 108567559.968 6     -2562.500          41.000    20288448.625 4  84441430.212 4     -1993.056          29.000
R18  19391658.828 8 103514082.658 8      1515.090          51.000    19391660.578 7  80510942.138 7      1178.403          47.000
C27  21622695.047 8 112595034.642 8       868.590          51.000
C28  23188694.883 6 120749595.096 6     -2205.418          40.000
E15  25193812.805 8 132394387.647 8      2831.664          49.000    25193814.969 8 101445062.492 8      2169.660          50.000
E30  22236266.625 8 116852360.776 8      -410.426          51.000    22236268.617 8  89536223.500 8      -314.497          51.000
> 2020 05 09 10 57 30.0000000  0 11        .000000000000
G12  21891312.703 6 115039626.084 6     -2396.000          37.000    21891310.133 6  89641262.256 6     -1867.016          36.000
G25  20336468.836 8 106868864.574 8      -864.125          51.000    20336470.305 8  83274443.773 8      -673.344          51.000
G29  20403711.461 8 107222233.366 8      1051.566          51.000    20403710.734 8  83549787.884 8       819.402          51.000
G32  23444654.703 7 123202533.812 7     -2566.105          46.000    23444658.539 7  96001957.746 7     -1999.563          47.000
R15  20301417.391 8 108484617.274 8     -2124.219          51.000    20301421.055 8  84376925.829 8     -1652.170          49.000
R17  20302857.609 6 108644703.920 6     -2579.992          38.000    20302863.945 4  84501431.152 4     -2006.658          27.000
R18  19383210.398 8 103468986.744 8      1491.488          50.000    19383212.922 8  80475867.568 8      1160.046          48.000
C27  21617730.805 8 112569184.426 8       855.051          51.000
C28  23201424.320 6 120815879.956 6     -2213.473          38.000
E15  25177663.523 8 132309525.144 8      2826.172          48.000    25177665.625 8 101380038.008 8      2165.451          49.000
E30  22238626.500 8 116864763.029 8      -416.180          51.000    22238628.539 8  89545726.519 8      -318.876          51.000
> 2020 05 09 10 58  0.0000000  0 12        .000000000000
G12  21905013.578 6 115111624.848 6     -2403.531          36.000    21905011.938 6  89697365.178 6     -1872.881          36.000
G25  20341437.094 8 106894972.722 8      -876.359          51.000    20341438.516 8  83294787.784 8      -682.877          51.000
G29  20397756.773 8 107190941.010 8      1034.586          51.000    20397756.461 8  83525404.248 8       806.171          51.000
G32  23459333.773 7 123279672.930 7     -2576.535          46.000    23459337.445 7  96062066.105 7     -2007.690          46.000
R15  20313389.320 8 108548589.854 8     -2140.648          51.000    20313392.586 8  84426682.250 8     -1664.952          50.000
R17  20317379.680 6 108722415.257 6     -2600.512          40.000    20317376.367 4  84561852.165 4     -2022.626          28.000
R18  19374901.539 8 103424634.776 8      1465.312          50.000    19374904.617 8  80441371.595 8      1139.688          49.000
C27  21612851.305 8 112543776.568 8       838.812          51.000
C28  23214208.500 6 120882452.370 6     -2224.367          38.000
C30  24490498.406 4 127528464.057 4      3123.180          29.000
E15  25161552.398 8 132224863.836 8      2817.996          48.000    25161554.562 8 101315167.677 8      2159.307          49.000
E30  22241025.875 8 116877373.257 8      -424.457          51.000    22241028.023 8  89555388.897 8      -325.215          51.000
> 2020 05 09 10 58 30.0000000  0 12        .000000000000
G12  21918754.156 5 115183829.243 5     -2410.078          31.000    21918750.914 5  89753628.336 5     -1877.977          30.000
G25  20346469.516 8 106921417.910 8      -886.977          51.000    20346470.906 8  83315394.432 8      -691.151          51.000
G29  20391894.086 8 107160132.251 8      1019.066          51.000    20391893.953 8  83501397.419 8       794.078          51.000
G32  23474066.047 7 123357092.039 7     -2585.164          46.000    23474069.516 7  96122392.630 7     -2014.414          46.000
R15  20325448.148 8 108613028.732 8     -2155.602          51.000    20325451.477 8  84476801.340 8     -1676.579          49.000
R17  20332010.188 6 108800704.196 6     -2619.145          37.000    20332016.367 5  84622743.530 5     -2037.112          32.000
R18  19366734.672 8 103381041.864 8      1440.500          50.000    19366738.688 8  80407465.995 8      1120.389          50.000
C27  21608059.625 8 112518824.846 8       824.270          51.000
C28  23227050.891 6 120949324.164 6     -2234.137          40.000
C30  24472524.758 5 127434853.129 5      3117.469          30.000
E15  25145482.828 8 132140419.139 8      2811.359          49.000    25145485.156 8 101250463.335 8      2154.144          48.000
E30  22243467.500 8 116890205.681 8      -431.328          51.000    22243469.844 8  89565221.530 8      -330.468          51.000
> 2020 05 09 10 59  0.0000000  0 12        .000000000000
G25  20351566.664 8 106948203.698 8      -898.605          51.000    20351568.039 8  83336266.461 8      -700.212          51.000
G29  20386124.227 8 107129810.817 8      1002.535          51.000    20386123.945 8  83477770.338 8       781.196          51.000
G32  23488851.641 7 123434791.765 7     -2594.754          44.000    23488855.156 7  96182937.809 7     -2021.886          44.000
R15  20337594.555 8 108677937.036 8     -2171.469          51.000    20337598.086 8  84527285.571 8     -1688.920          49.000
R17  20346748.688 6 108879570.784 6     -2638.695          36.000    20346754.711 5  84684084.302 5     -2052.319          31.000
R18  19358711.219 8 103338212.965 8      1414.863          50.000    19358715.938 8  80374154.636 8      1100.449          50.000
C27  21603356.398 8 112494332.958 8       808.680          51.000
C28  23239951.203 6 121016496.888 6     -2244.047          41.000
C30  24454590.039 5 127341454.028 5      3110.203          34.000
E02                                                                  26396945.156 5 106289566.609 5     -1701.060          33.000
E15  25129455.852 8 132056196.252 8      2803.625          49.000    25129458.133 8 101185928.960 8      2148.205          49.000
E30  22245952.219 8 116903264.439 8      -439.172          51.000    22245954.742 8  89575227.586 8      -336.463          51.000
> 2020 05 09 10 59 30.0000000  0 12        .000000000000
G25  20356728.586 8 106975330.014 8      -910.266          51.000    20356730.117 8  83357403.830 8      -709.298          51.000
G29  20380447.266 8 107099977.036 8       985.910          51.000    20380446.734 8  83454523.252 8       768.245          51.000
G32  23503689.945 7 123512769.098 7     -2604.188          42.000    23503693.797 7  96243699.349 7     -2029.237          42.000
R15  20349828.758 8 108743314.719 8     -2187.422          51.000    20349832.578 8  84578134.837 8     -1701.331          49.000
R17  20361594.688 5 108959011.752 5     -2657.695          34.000    20361597.945 5  84745871.649 5     -2067.099          30.000
R18  19350831.102 8 103296148.990 8      1388.977          51.000    19350836.234 8  80341438.233 8      1080.315          51.000
C27  21598741.359 8 112470301.088 8       792.965          51.000
C28  23252907.938 6 121083968.737 6     -2254.355          37.000
C30  24436691.547 5 127248247.336 5      3103.473          34.000
E02                                                                  26409630.211 5 106340636.571 5     -1704.658          31.000
E15  25113471.570 8 131972197.007 8      2795.809          49.000    25113474.141 8 101121565.919 8      2142.300          49.000
E30  22248480.234 8 116916550.116 8      -447.012          51.000    22248483.039 8  89585407.510 8      -342.468          51.000
