     3.02           OBSERVATION DATA    M (MIXED)           RINEX VERSION / TYPE
SAVERINEX           SC600               20200510 075931 LCL PGM / RUN BY / DATE
       G = GPS       R = GLONASS       C = COMPASS          COMMENT
       S = SBAS      J = QZSS          E = GALILEO          COMMENT
BEAN                                                        MARKER NAME
1                                                           MARKER NUMBER
GEODETIC                                                    MARKER TYPE
Unige DICCA         GTER                                    OBSERVER / AGENCY
SC60291900056       SC600               2.12(191226)        REC # / TYPE / VERS
                    HEMA45          NONE                    ANT # / TYPE
  4509407.8091   693652.4678  4442337.6214                  APPROX POSITION XYZ
        0.0000        0.0000        0.0000                  ANTENNA: DELTA H/E/N
G    8 C1C L1C D1C S1C C2Y L2Y D2Y S2Y                      SYS / # / OBS TYPES
R    8 C1C L1C D1C S1C C2P L2P D2P S2P                      SYS / # / OBS TYPES
C    8 C1I L1I D1I S1I C7I L7I D7I S7I                      SYS / # / OBS TYPES
E    8 C1C L1C D1C S1C C7Q L7Q D7Q S7Q                      SYS / # / OBS TYPES
DBHZ                                                        COMMENT
     30.000                                                 INTERVAL
  2020    05    10    05    00    0.0000000     GPS         TIME OF FIRST OBS
  2020    05    10    05    59   30.0000000     GPS         TIME OF LAST OBS
     0                                                      RCV CLOCK OFFS APPL
G L1C  0.00000                                              SYS / PHASE SHIFT
G L2Y  0.00000                                              SYS / PHASE SHIFT
R L1C  0.00000                                              SYS / PHASE SHIFT
R L2P  0.25000                                              SYS / PHASE SHIFT
C L1I  0.00000                                              SYS / PHASE SHIFT
C L7I  0.00000                                              SYS / PHASE SHIFT
E L1C  0.50000                                              SYS / PHASE SHIFT
E L7Q -0.25000                                              SYS / PHASE SHIFT
 12 R01  1 R02 -4 R03  5 R04  6 R10 -5 R12 -1 R13 -2 R14 -7 GLONASS SLOT / FRQ #
    R15  0 R17  4 R22 -3 R23  3                             GLONASS SLOT / FRQ #
 C1C   71.950 C2C   71.950 C2P   71.950                     GLONASS COD/PHS/BIS
    18                                                      LEAP SECONDS
*** Above antenna height is from mark to ANTENNA BOTTOM.    COMMENT
    17     4        0.0000        ANT MEASURE TYPE/HEIGT    COMMENT
    0.0000    0.0000    0.0458    0.0405    0.0000          COMMENT
                    BASE STATION                            COMMENT
                                                            END OF HEADER
> 2020 05 10 05 00  0.0000000  0 18        .000000000000
G05  23190528.312 6 121866989.272 6     -3447.969          37.000    23190521.477 6  94961286.615 6     -2686.729          37.000
G13  20147965.766 8 105878276.948 8         -.785          51.000    20147963.898 8  82502531.968 8         -.612          49.000
G17  24254482.148 6 127458147.086 6      2739.840          37.000    24254482.461 6  99318019.557 6      2134.940          36.000
G24  23593185.180 5 123983024.264 5      3043.398          33.000
G28  21030738.250 8 110517346.318 8      -971.074          48.000    21030737.164 7  86117409.778 7      -756.681          45.000
R03  20722275.109 8 110927938.988 8     -3317.605          50.000    20722274.414 7  86277289.254 7     -2580.363          44.000
R04  19288713.406 8 103290203.933 8       580.984          49.000    19288715.344 7  80336814.409 7       451.877          45.000
R14  19318343.047 8 102977666.367 8       538.801          51.000    19318344.953 7  80093775.334 7       419.067          47.000
R15  22259578.398 8 118948439.536 8      3403.777          49.000    22259580.664 7  92515461.717 7      2647.385          45.000
C05  39784479.508 5 207168224.738 5        18.223          35.000    39784479.406 6 160195590.894 6        13.925          40.000
C14  23504480.258 8 122393988.572 8     -2902.793          48.000    23504479.008 8  94642778.458 8     -2244.539          51.000
C24  22093960.047 8 115049070.407 8     -1085.871          51.000
C25  22946064.461 6 119486177.145 6      1845.980          41.000
C26  24891942.078 5 129618884.475 5     -2812.387          32.000
E01  24862543.914 8 130653560.628 8     -1851.762          51.000    24862545.586 7 100111193.883 7     -1418.855          47.000
E04  24638419.984 8 129475756.690 8     -1983.969          51.000    24638424.383 8  99208679.801 8     -1520.118          51.000
E09  21697064.094 7 114018846.729 7       696.227          46.000    21697065.477 7  87365081.210 7       533.448          46.000
E31  23572024.078 8 123871831.508 8       881.195          51.000    23572028.266 8  94914791.309 8       675.235          51.000
> 2020 05 10 05 00 30.0000000  0 18        .000000000000
G05  23210228.203 6 121970517.445 6     -3453.305          37.000    23210222.945 6  95041957.881 6     -2690.884          37.000
G13  20148011.188 8 105878516.180 8       -14.539          51.000    20148009.727 8  82502718.359 8       -11.332          49.000
G17  24238854.570 5 127376021.692 5      2735.945          35.000    24238848.852 5  99254025.779 5      2131.915          34.000
G24  23575822.375 5 123891782.563 5      3038.285          33.000
G28  21036330.594 7 110546734.991 7      -987.434          47.000    21036329.484 7  86140310.015 7      -769.429          45.000
R03  20740912.938 7 111027717.374 7     -3333.730          46.000    20740913.664 7  86354894.621 7     -2592.901          44.000
R04  19285528.781 8 103273150.280 8       556.555          49.000    19285530.555 7  80323550.437 7       432.876          46.000
R14  19315364.281 8 102961786.883 8       520.395          51.000    19315365.734 7  80081424.618 7       404.751          47.000
R15  22240498.008 8 118846477.383 8      3394.371          48.000    22240499.586 7  92436157.849 7      2640.066          45.000
C05  39784376.031 5 207167685.718 5        18.672          35.000    39784375.875 6 160195174.076 6        14.363          40.000
C14  23521227.953 7 122481201.202 7     -2910.824          47.000    23521227.781 8  94710216.807 8     -2250.831          51.000
C24  22100243.211 8 115081789.302 8     -1094.793          51.000
C25  22935453.250 7 119430924.724 7      1837.961          44.000
C26  24908150.180 5 129703298.552 5     -2814.234          32.000
E01  24873138.078 8 130709232.812 8     -1859.117          50.000    24873139.344 7 100153851.759 7     -1424.509          47.000
E04  24649771.875 8 129535409.384 8     -1992.285          51.000    24649774.664 8  99254387.704 8     -1526.535          51.000
E09  21693120.367 7 113998122.558 7       685.980          46.000    21693122.133 7  87349201.623 7       525.612          46.000
E31  23567026.617 8 123845570.130 8       870.156          51.000    23567031.016 8  94894668.967 8       666.734          51.000
> 2020 05 10 05 01  0.0000000  0 17        .000000000000
G05  23229963.500 5 122074229.360 5     -3459.688          34.000    23229958.438 5  95122772.362 5     -2695.860          34.000
G13  20148139.414 8 105879190.441 8       -29.375          51.000    20148138.086 8  82503243.737 8       -22.890          50.000
G15  20801054.352 5 109310270.177 5      1642.543          32.000
G17  24223257.430 5 127294055.409 5      2729.926          35.000    24223249.398 5  99190156.166 5      2127.212          34.000
G28  21042020.516 7 110576635.822 7     -1004.879          47.000    21042019.391 7  86163609.348 7      -783.026          45.000
R03  20759645.875 7 111128001.342 7     -3350.828          47.000    20759648.094 7  86432893.271 7     -2606.200          45.000
R04  19282485.180 8 103256851.148 8       531.051          49.000    19282486.820 7  80310873.327 7       413.039          46.000
R14  19312493.117 8 102946483.666 8       500.891          51.000    19312495.039 8  80069522.127 8       389.582          48.000
R15  22221474.859 7 118744824.312 7      3383.656          46.000    22221476.445 7  92357094.381 7      2631.736          43.000
C05  39784273.320 5 207167151.330 5        17.816          35.000    39784273.031 6 160194760.061 6        13.952          40.000
C14  23538026.344 7 122568677.881 7     -2920.031          47.000    23538026.648 8  94777859.342 8     -2257.857          51.000
C24  22106582.227 8 115114798.298 8     -1104.742          51.000
C25  22924896.602 7 119375945.423 7      1828.465          47.000
E01  24883777.758 8 130765145.047 8     -1867.316          48.000    24883779.148 7 100196693.592 7     -1430.888          47.000
E04  24661175.805 8 129595335.106 8     -2001.738          51.000    24661176.719 8  99300304.794 8     -1533.767          50.000
E09  21689239.445 7 113977727.200 7       674.766          47.000    21689240.961 7  87333574.008 7       516.986          46.000
E31  23562097.133 8 123819663.483 8       858.020          51.000    23562100.844 8  94874818.409 8       657.423          51.000
> 2020 05 10 05 01 30.0000000  0 18        .000000000000
G05  23249728.555 5 122178095.896 5     -3465.391          30.000    23249723.180 5  95203707.259 5     -2700.307          30.000
G13  20148345.656 8 105880274.061 8       -44.543          51.000    20148344.219 8  82504088.104 8       -34.709          50.000
G17  24207685.844 6 127212224.525 6      2723.973          38.000    24207682.352 6  99126391.945 6      2122.579          37.000
G28  21047802.672 7 110607020.878 7     -1022.332          47.000    21047801.695 7  86187286.003 7      -796.622          44.000
G30  22673473.234 5 119149879.924 5     -2621.660          34.000    22673486.602 5  92844090.766 5     -2042.852          31.000
R03  20778469.102 8 111228761.151 8     -3368.129          50.000    20778471.281 7  86511261.991 7     -2619.656          45.000
R04  19279577.281 8 103241280.859 8       505.320          49.000    19279579.125 7  80298763.080 7       393.027          46.000
R14  19309725.008 8 102931729.131 8       481.234          50.000    19309727.312 8  80058046.375 8       374.293          48.000
R15  22202504.289 7 118643454.869 7      3372.789          46.000    22202507.055 7  92278251.479 7      2623.280          44.000
C05  39784166.164 5 207166593.235 5        17.914          35.000    39784165.875 6 160194328.489 6        13.698          40.000
C14  23554870.156 7 122656390.344 7     -2929.031          46.000    23554870.344 8  94845684.212 8     -2265.031          49.000
C24  22112971.805 8 115148069.827 8     -1114.898          51.000
C25  22914387.758 7 119321213.095 7      1818.758          47.000
E01  24894457.719 8 130821269.257 8     -1875.746          48.000    24894459.422 7 100239697.845 7     -1437.287          46.000
E04  24672626.438 8 129655506.733 8     -2011.281          51.000    24672625.477 8  99346410.295 8     -1541.049          50.000
E09  21685416.367 7 113957635.044 7       663.223          46.000    21685417.477 7  87318178.715 7       508.160          47.000
E24  24875001.438 5 130719013.654 5      2777.055          35.000
E31  23557229.977 8 123794084.798 8       845.754          51.000    23557232.547 8  94855219.139 8       648.000          51.000
> 2020 05 10 05 02  0.0000000  0 18        .000000000000
G05  23269532.461 5 122282217.475 5     -3469.809          32.000    23269526.719 5  95284800.412 5     -2703.750          32.000
G13  20148639.945 8 105881820.163 8       -56.773          51.000    20148638.305 8  82505292.849 8       -44.239          50.000
G17  24192150.734 6 127130584.826 6      2720.359          40.000    24192151.016 6  99062776.512 6      2119.754          38.000
G28  21053686.578 7 110637940.642 7     -1037.176          47.000    21053685.438 7  86211379.326 7      -808.186          44.000
G30  22688454.445 6 119228609.818 6     -2624.090          36.000    22688461.672 6  92905438.538 6     -2044.742          36.000
R03  20797391.062 8 111330046.910 8     -3382.289          51.000    20797392.680 7  86590039.779 7     -2630.669          46.000
R04  19276815.828 8 103226494.085 8       482.414          50.000    19276817.672 7  80287262.256 7       375.208          47.000
R14  19307069.219 8 102917575.178 8       464.355          50.000    19307072.445 8  80047037.734 8       361.165          49.000
R15  22183597.094 8 118542423.266 8      3364.645          48.000    22183601.617 7  92199671.340 7      2616.946          46.000
C05  39784064.547 5 207166064.019 5        19.387          35.000    39784064.312 6 160193919.246 6        15.094          40.000
C14  23571769.125 7 122744388.334 7     -2935.461          46.000    23571768.203 7  94913729.826 7     -2269.993          47.000
C24  22119421.305 8 115181654.280 8     -1122.184          51.000
C25  22903935.969 7 119266779.415 7      1811.996          46.000
E01  24905187.688 8 130877655.996 8     -1881.480          48.000    24905189.180 7 100282903.270 7     -1441.684          46.000
E04  24684133.727 8 129715975.697 8     -2018.016          51.000    24684130.828 8  99392743.616 8     -1546.314          49.000
E09  21681660.719 7 113937899.156 7       654.363          47.000    21681661.742 7  87303056.378 7       501.428          47.000
E24  24859162.969 6 130635778.919 6      2773.500          38.000
E31  23552435.133 8 123768885.971 8       836.145          51.000    23552437.039 8  94835910.961 8       640.655          51.000
> 2020 05 10 05 02 30.0000000  0 18        .000000000000
G05  23289376.227 5 122386495.905 5     -3470.492          35.000    23289369.586 5  95366056.276 5     -2704.283          34.000
G13  20149023.891 8 105883837.299 8       -66.301          51.000    20149022.141 8  82506864.637 8       -51.663          50.000
G17  24176654.070 6 127049147.216 6      2719.785          37.000    24176652.102 6  98999318.548 6      2119.310          38.000
G28  21059673.406 8 110669401.549 8     -1048.969          48.000    21059672.250 7  86235894.300 7      -817.381          42.000
G30  22703474.273 5 119307555.962 5     -2624.691          34.000
R03  20816411.969 8 111431864.168 8     -3393.809          50.000    20816413.805 7  86669230.947 7     -2639.629          46.000
R04  19274202.648 8 103212500.611 8       462.117          49.000    19274204.484 7  80276378.427 7       359.424          47.000
R14  19304527.805 8 102904029.154 8       450.285          50.000    19304531.812 8  80036501.925 8       350.222          49.000
R15  22164755.297 7 118441739.214 7      3359.227          47.000    22164761.297 7  92121361.514 7      2612.732          46.000
C05  39783970.023 5 207165571.686 5        24.332          35.000    39783969.789 6 160193538.517 6        18.930          40.000
C14  23588724.117 7 122832678.023 7     -2939.105          46.000    23588720.664 7  94982000.967 7     -2272.860          42.000
C24  22125932.109 8 115215558.465 8     -1126.828          51.000
C25  22893542.195 7 119212652.594 7      1807.703          44.000
E01  24915969.008 8 130934311.873 8     -1884.254          48.000    24915969.797 7 100326314.890 7     -1443.869          46.000
E04  24695698.992 8 129776749.502 8     -2022.047          51.000    24695695.008 8  99439310.522 8     -1549.394          49.000
E09  21677974.469 8 113918528.543 8       648.262          48.000    21677974.719 7  87288213.948 7       496.795          46.000
E24  24843361.578 6 130552741.374 6      2773.262          39.000    24843360.422 5 100033910.278 5      2125.075          33.000
E31  23547714.414 8 123744074.950 8       829.305          51.000    23547715.742 8  94816899.927 8       635.420          51.000
> 2020 05 10 05 03  0.0000000  0 18        .000000000000
G05  23309224.461 6 122490799.121 6     -3484.656          36.000    23309217.633 6  95447331.397 6     -2715.317          36.000
G13  20149463.133 8 105886145.291 8       -89.293          51.000    20149461.438 8  82508663.064 8       -69.579          50.000
G17  24161160.930 6 126967733.256 6      2705.383          36.000    24161157.406 6  98935879.100 6      2108.091          36.000
G28  21065728.555 7 110701221.243 7     -1074.102          47.000    21065727.008 7  86260688.841 7      -836.965          42.000
R03  20835496.102 7 111534025.464 7     -3418.566          46.000    20835498.594 7  86748689.747 7     -2658.882          44.000
R04  19271703.812 8 103199117.926 8       428.281          50.000    19271705.406 7  80265969.666 7       333.108          47.000
R14  19302065.844 8 102890906.412 8       422.820          50.000    19302069.805 8  80026295.344 8       328.860          48.000
R15  22145944.539 7 118341220.176 7      3340.180          47.000    22145951.109 7  92043179.991 7      2597.918          44.000
C05  39783848.062 5 207164936.848 5        16.129          35.000    39783847.836 6 160193047.643 6        12.520          40.000
C14  23605700.375 7 122921078.135 7     -2955.816          46.000    23605695.094 7  95050357.478 7     -2285.592          43.000
C24  22132469.742 8 115249601.927 8     -1144.543          51.000
C25  22883171.656 6 119158653.586 6      1790.352          41.000
C26  24989314.117 5 130125847.724 5     -2822.961          32.000
E01  24926766.812 7 130991054.429 7     -1900.289          47.000    24926767.328 7 100369792.927 7     -1456.087          45.000
E04  24707287.594 8 129837646.616 8     -2039.457          51.000    24707283.531 8  99485971.925 8     -1562.638          49.000
E09  21674323.609 8 113899343.225 8       629.004          48.000    21674322.867 7  87273513.537 7       481.835          46.000
E24  24827563.273 6 130469720.969 6      2759.492          38.000    24827566.305 5  99970297.280 5      2114.452          35.000
E31  23543032.797 8 123719470.574 8       809.223          51.000    23543033.297 8  94798047.225 8       620.054          51.000
> 2020 05 10 05 03 30.0000000  0 18        .000000000000
G05  23329133.523 6 122595422.467 6     -3487.254          39.000    23329127.047 6  95528855.968 6     -2717.344          39.000
G13  20150014.633 8 105889043.094 8      -101.016          51.000    20150013.094 8  82510921.087 8       -78.713          50.000
G17  24145729.453 6 126886644.268 6      2703.223          38.000    24145724.719 6  98872692.834 6      2106.404          38.000
G28  21071908.508 8 110733696.410 8     -1087.770          48.000    21071906.742 6  86285994.150 6      -847.613          41.000
R03  20854700.172 7 111636831.908 7     -3431.895          47.000    20854702.984 7  86828650.280 7     -2669.251          42.000
R04  19269375.898 8 103186651.110 8       405.926          50.000    19269377.227 7  80256273.250 7       315.720          47.000
R14  19299740.289 8 102878508.525 8       406.797          50.000    19299744.062 8  80016652.549 8       316.398          48.000
R15  22127222.344 8 118241170.675 8      3332.656          48.000    22127226.898 7  91965363.710 7      2592.066          43.000
C05  39783755.625 5 207164455.100 5        19.059          35.000    39783755.289 6 160192675.106 6        14.568          40.000
C14  23622754.445 7 123009882.432 7     -2961.285          45.000    23622749.305 7  95119026.537 7     -2289.941          46.000
C24  22139090.602 8 115284079.003 8     -1150.953          51.000
C25  22872881.234 7 119105078.099 7      1784.430          43.000
C26  25005585.648 5 130210573.563 5     -2821.574          33.000
E01  24937637.445 8 131048180.475 8     -1905.031          48.000    24937638.508 7 100413564.821 7     -1459.720          45.000
E04  24718955.922 8 129898964.767 8     -2045.461          51.000    24718953.078 8  99532955.943 8     -1567.286          50.000
E09  21670765.023 8 113880642.455 8       620.867          48.000    21670764.109 7  87259184.378 7       475.661          47.000
E24  24811825.625 6 130387016.861 6      2757.109          39.000    24811831.102 5  99906926.661 5      2112.306          34.000
E31  23538446.953 8 123695370.920 8       800.426          51.000    23538446.688 8  94779581.244 8       613.289          51.000
> 2020 05 10 05 04  0.0000000  0 18        .000000000000
G05  23349057.312 6 122700123.270 6     -3493.426          41.000    23349051.438 6  95610440.932 6     -2722.150          41.000
G13  20150632.812 8 105892291.773 8      -116.316          50.000    20150631.289 8  82513452.525 8       -90.636          50.000
G17  24130314.930 6 126805643.737 6      2696.199          38.000    24130309.156 6  98809575.533 6      2100.938          37.000
G28  21078167.297 8 110766585.812 8     -1105.336          48.000    21078165.656 6  86311622.255 6      -861.301          40.000
R03  20873979.672 8 111740036.505 8     -3449.000          48.000    20873981.312 7  86908920.400 7     -2682.556          42.000
R04  19267173.781 8 103174857.602 8       379.625          50.000    19267174.898 7  80247100.523 7       295.264          47.000
R14  19297504.930 8 102866591.404 8       386.980          49.000    19297508.406 8  80007383.673 8       300.985          48.000
R15  22108543.000 7 118141348.439 7      3321.441          46.000    22108544.188 7  91887724.294 7      2583.346          42.000
C05  39783646.891 5 207163888.899 5        17.844          35.000    39783646.484 6 160192237.254 6        13.916          40.000
C14  23639840.062 7 123098851.452 7     -2970.484          45.000    23639836.305 8  95187822.982 8     -2296.943          48.000
C24  22145748.953 8 115318750.996 8     -1161.145          51.000
C25  22862628.461 7 119051688.717 7      1774.402          46.000
C26  25021847.211 5 130295253.912 5     -2823.996          31.000
E01  24948535.172 8 131105448.833 8     -1913.430          48.000    24948536.945 7 100457445.753 7     -1466.206          45.000
E04  24730658.156 8 129960463.654 8     -2055.145          50.000    24730657.727 8  99580078.428 8     -1574.784          51.000
E09  21667253.172 8 113862187.499 8       608.793          48.000    21667252.500 8  87245043.548 8       466.597          48.000
E24  24796103.531 6 130304390.242 6      2750.914          40.000    24796109.734 5  99843615.387 5      2108.092          31.000
E31  23533911.414 8 123671536.134 8       787.879          51.000    23533911.422 8  94761318.217 8       603.711          51.000
> 2020 05 10 05 04 30.0000000  0 17        .000000000000
G05  23369016.898 7 122805012.693 7     -3499.242          42.000    23369011.734 7  95692172.897 7     -2726.685          42.000
G13  20151339.445 8 105896005.685 8      -131.168          49.000    20151337.961 8  82516346.478 8      -102.209          49.000
G17  24114939.828 6 126724848.411 6      2690.016          40.000    24114934.516 6  98746618.182 6      2096.122          40.000
G28  21084526.250 8 110800001.872 8     -1122.305          50.000    21084524.258 6  86337660.729 6      -874.523          39.000
R03  20893354.906 7 111843752.308 7     -3465.363          46.000    20893356.242 7  86989588.202 7     -2695.283          45.000
R04  19265119.195 8 103163854.763 8       353.844          51.000    19265120.195 7  80238542.747 7       275.212          47.000
R14  19295381.180 8 102855269.559 8       367.746          50.000    19295384.430 8  79998577.786 8       286.025          48.000
R15  22089927.422 7 118041870.542 7      3310.422          45.000    22089927.469 7  91810352.688 7      2574.776          43.000
C05  39783543.648 5 207163351.000 5        17.535          35.000    39783543.219 6 160191821.298 6        13.671          40.000
C14  23656978.484 7 123188096.038 7     -2979.059          45.000    23656976.438 8  95256832.562 8     -2303.591          50.000
C24  22152466.398 8 115353729.456 8     -1170.746          51.000
C25  22852433.609 7 118998598.368 7      1765.090          45.000
E01  24959481.477 7 131162971.778 7     -1921.410          47.000    24959483.445 7 100501521.760 7     -1472.207          45.000
E04  24742416.305 8 130022256.415 8     -2064.281          50.000    24742418.211 8  99627426.106 8     -1581.701          51.000
E09  21663809.867 8 113844093.052 8       597.520          48.000    21663809.484 8  87231178.971 8       457.765          48.000
E24  24780417.734 6 130221955.840 6      2745.020          41.000
E31  23529447.766 8 123648079.788 8       775.926          51.000    23529448.461 8  94743345.178 8       594.561          51.000
> 2020 05 10 05 05  0.0000000  0 17        .000000000000
G05  23389004.336 7 122910047.881 7     -3503.590          43.000    23388999.047 6  95774018.467 6     -2730.070          41.000
G13  20152127.258 8 105900146.096 8      -145.387          49.000    20152125.781 8  82519572.773 8      -113.288          49.000
G17  24099597.039 6 126644221.569 6      2684.434          41.000    24099593.711 6  98683792.124 6      2091.769          41.000
G28  21090977.656 8 110833903.304 8     -1138.359          49.000    21090975.734 6  86364077.411 6      -887.033          38.000
R03  20912816.734 7 111947935.863 7     -3480.793          43.000    20912819.273 7  87070619.884 7     -2707.280          47.000
R04  19263204.859 8 103153603.638 8       328.945          51.000    19263205.648 7  80230569.654 7       255.846          47.000
R14  19293361.344 8 102844501.804 8       349.504          50.000    19293364.203 8  79990202.854 8       271.836          48.000
R15  22071368.453 7 117942698.219 7      3300.453          43.000    22071369.422 7  91733218.663 7      2567.019          43.000
C05  39783438.219 5 207162802.137 5        18.809          34.000    39783437.906 6 160191396.873 6        14.281          40.000
C14  23674162.023 7 123277575.090 7     -2986.660          45.000    23674161.492 8  95326023.447 8     -2309.548          51.000
C24  22159235.039 8 115388974.016 8     -1179.410          51.000
C25  22842287.750 7 118945768.038 7      1756.504          43.000
E01  24970468.352 7 131220708.234 7     -1928.359          47.000    24970470.125 7 100545761.372 7     -1477.583          45.000
E04  24754223.000 8 130084302.888 8     -2072.648          51.000    24754226.422 8  99674968.207 8     -1588.139          51.000
E09  21660427.695 8 113826320.502 8       586.918          48.000    21660427.867 8  87217561.020 8       449.695          49.000
E24  24764760.805 6 130139674.940 6      2739.707          41.000
E31  23525048.398 8 123624962.086 8       764.730          51.000    23525049.258 8  94725631.609 8       586.007          51.000
> 2020 05 10 05 05 30.0000000  0 18        .000000000000
G05  23409021.930 7 123015241.208 7     -3509.070          44.000    23409015.508 6  95855987.225 6     -2734.344          38.000
G13  20152999.188 8 105904728.479 8      -160.133          48.000    20152997.891 8  82523143.475 8      -124.779          48.000
G17  24084289.867 6 126563781.632 6      2678.352          41.000    24084288.727 6  98621111.670 6      2087.027          41.000
G24  23403733.328 5 122987433.425 5      2990.230          34.000
G28  21097523.727 8 110868303.218 8     -1155.004          49.000    21097522.242 6  86390882.551 6      -900.003          37.000
R03  20932365.547 6 112052599.537 6     -3496.719          41.000    20932372.273 7  87152025.080 7     -2719.670          47.000
R04  19261434.039 8 103144120.748 8       303.152          51.000    19261434.789 7  80223194.071 7       235.785          47.000
R14  19291448.031 8 102834302.132 8       330.453          51.000    19291450.422 7  79982269.787 7       257.019          47.000
R15  22052868.219 7 117843847.883 7      3289.547          44.000    22052871.805 7  91656334.963 7      2558.533          43.000
C05  39783333.594 5 207162257.050 5        18.441          35.000    39783333.297 6 160190975.381 6        13.934          39.000
C14  23691393.539 7 123367301.439 7     -2995.184          46.000    23691393.523 8  95395405.521 8     -2315.987          51.000
C24  22166057.219 8 115424498.186 8     -1188.875          51.000
C25  22832194.094 7 118893212.634 7      1747.059          44.000
E01  24981498.414 7 131278671.591 7     -1936.023          46.000    24981499.859 7 100590174.832 7     -1483.405          45.000
E04  24766081.141 8 130146617.309 8     -2081.777          51.000    24766084.969 8  99722715.621 8     -1595.134          51.000
E09  21657109.742 8 113808885.656 8       575.414          48.000    21657110.727 8  87204201.833 8       440.911          49.000
E24  24749136.594 6 130057563.174 6      2733.879          38.000
E31  23520716.203 8 123602197.683 8       752.797          51.000    23520717.180 8  94708188.743 8       576.830          51.000
> 2020 05 10 05 06  0.0000000  0 17        .000000000000
G05  23429065.938 7 123120573.056 7     -3513.742          44.000    23429054.977 6  95938063.856 6     -2737.987          37.000
G13  20153952.180 8 105909736.669 8      -174.461          49.000    20153951.125 8  82527045.969 8      -135.944          49.000
G17  24069015.531 6 126483514.248 6      2672.238          41.000    24069015.602 6  98558565.609 6      2082.261          41.000
G28  21104161.320 8 110903184.049 8     -1171.133          49.000    21104159.375 5  86418062.412 5      -912.571          35.000
R03  20952003.492 7 112157723.759 7     -3512.234          46.000    20952010.883 7  87233788.366 7     -2731.738          46.000
R04  19259803.602 8 103135390.572 8       278.059          51.000    19259804.727 8  80216403.922 8       216.268          48.000
R14  19289637.984 8 102824652.624 8       312.160          51.000    19289640.078 8  79974764.608 8       242.791          48.000
R15  22034428.172 8 117745303.922 8      3279.379          48.000    22034431.266 7  91579689.636 7      2550.628          44.000
C05  39783226.477 5 207161699.418 5        18.324          35.000    39783226.258 6 160190544.143 6        14.215          39.000
C14  23708669.555 8 123457256.795 8     -3002.598          48.000    23708668.875 8  95464964.687 8     -2321.826          51.000
C24  22172929.648 8 115460284.431 8     -1197.594          51.000
C25  22822151.367 7 118840915.894 7      1738.531          46.000
E01  24992568.242 7 131336843.856 7     -1942.938          46.000    24992569.781 7 100634748.378 7     -1488.723          44.000
E04  24777987.414 8 130209182.553 8     -2090.074          51.000    24777990.883 8  99770655.219 8     -1601.470          51.000
E09  21653853.102 8 113791772.921 8       564.688          48.000    21653854.664 8  87191089.461 8       432.719          49.000
E24  24733542.336 6 129975604.956 6      2728.875          36.000    24733555.547 5  99591767.946 5      2090.905          32.000
E31  23516447.984 8 123579769.826 8       741.684          51.000    23516449.875 8  94691003.771 8       568.273          51.000
> 2020 05 10 05 06 30.0000000  0 17        .000000000000
G05  23449140.508 7 123226065.351 7     -3520.555          43.000    23449125.867 6  96020265.530 6     -2743.289          37.000
G13  20154991.023 8 105915196.299 8      -191.020          49.000    20154990.227 8  82531300.208 8      -148.849          50.000
G17  24053778.883 6 126403447.416 6      2664.094          40.000    24053779.695 6  98496175.843 6      2075.914          40.000
G28  21110894.547 8 110938567.956 8     -1189.359          48.000    21110892.188 5  86445634.305 5      -926.770          35.000
R03  20971733.266 8 112263330.440 8     -3529.688          50.000    20971738.930 7  87315926.827 7     -2745.316          43.000
R04  19258318.875 8 103127439.652 8       250.508          51.000    19258320.086 7  80210219.846 7       194.839          47.000
R14  19287935.445 8 102815577.380 8       291.430          51.000    19287937.711 8  79967706.079 8       226.668          48.000
R15  22016051.164 8 117647092.716 8      3266.602          49.000    22016052.766 7  91503303.171 7      2540.690          45.000
C05  39783121.633 5 207161153.591 5        16.246          35.000    39783121.406 6 160190122.052 6        12.883          39.000
C14  23725993.688 8 123547463.674 8     -3012.531          48.000    23725992.141 8  95534718.317 8     -2329.465          51.000
C24  22179856.953 8 115496355.987 8     -1208.566          51.000
C25  22812163.766 8 118788902.439 8      1727.523          48.000
E01  25003682.367 7 131395248.202 7     -1952.176          46.000    25003684.289 7 100679499.754 7     -1495.820          45.000
E04  24789946.188 8 130272022.678 8     -2100.652          51.000    24789948.859 8  99818805.425 8     -1609.624          51.000
E09  21650662.797 8 113775007.882 8       551.574          49.000    21650664.273 8  87178243.527 8       422.605          50.000
E24  24717980.539 5 129893863.839 5      2721.566          33.000
E31  23512248.641 8 123557702.962 8       728.082          51.000    23512251.203 8  94674095.395 8       557.860          51.000
> 2020 05 10 05 07  0.0000000  0 16        .000000000000
G05  23469244.695 7 123331713.728 7     -3523.102          43.000    23469229.711 6  96102588.845 6     -2745.277          36.000
G13  20156115.773 8 105921106.395 8      -203.633          50.000    20156114.812 8  82535905.469 8      -158.675          50.000
G17  24038580.172 6 126323582.401 6      2659.895          37.000    24038582.211 6  98433943.389 6      2072.645          36.000
G28  21117723.102 8 110974452.304 8     -1203.633          49.000    21117721.945 5  86473596.147 5      -937.896          33.000
R03  20991552.812 8 112369415.161 8     -3543.281          51.000    20991555.602 7  87398437.108 7     -2755.888          43.000
R04  19256979.734 8 103120267.490 8       226.957          50.000    19256980.602 7  80204641.504 7       176.522          47.000
R14  19286340.164 8 102807073.685 8       274.828          50.000    19286342.516 8  79961092.070 8       213.755          48.000
R15  21997735.648 7 117549214.314 7      3257.785          47.000    21997735.969 7  91427175.547 7      2533.833          45.000
C05  39783018.828 5 207160618.029 5        18.285          34.000    39783018.578 6 160189707.919 6        14.148          40.000
C14  23743364.984 8 123637918.631 8     -3018.395          48.000    23743362.766 8  95604663.791 8     -2334.120          51.000
C24  22186838.492 8 115532710.167 8     -1215.703          51.000
C25  22802229.969 7 118737170.832 7      1720.566          47.000
E01  25014839.984 7 131453881.638 7     -1957.410          46.000    25014842.289 7 100724426.670 7     -1499.927          44.000
E04  24801957.023 8 130335135.479 8     -2107.465          51.000    24801958.516 8  99867164.577 8     -1614.886          51.000
E09  21647538.812 8 113758589.943 8       542.145          49.000    21647539.852 8  87165663.545 8       415.436          50.000
E31  23508117.750 8 123535995.272 8       718.395          51.000    23508120.312 8  94657462.206 8       550.485          51.000
> 2020 05 10 05 07 30.0000000  0 18        .000000000000
G05  23489370.617 7 123437476.741 7     -3527.555          43.000    23489357.734 6  96185001.524 6     -2748.747          37.000
G13  20157319.133 8 105927429.183 8      -217.824          51.000    20157317.648 8  82540832.305 8      -169.733          51.000
G15  20686138.297 5 108706389.603 5      1454.137          30.000
G17  24023413.555 5 126243884.122 5      2653.977          35.000    24023416.086 6  98371840.772 6      2068.031          37.000
G24  23335676.047 5 122629804.327 5      2971.125          34.000
G28  21124639.445 8 111010797.015 8     -1219.180          48.000    21124638.922 5  86501916.776 5      -950.007          32.000
R03  21011453.547 8 112475935.786 8     -3557.996          51.000    21011453.805 7  87481286.431 7     -2767.333          44.000
R04  19255778.781 8 103113836.284 8       201.902          50.000    19255779.930 8  80199639.437 8       157.035          48.000
R14  19284844.281 8 102799101.501 8       256.758          50.000    19284847.141 8  79954891.470 8       199.701          48.000
R15  21979473.125 7 117451630.705 7      3247.668          44.000    21979474.000 7  91351277.189 7      2525.961          45.000
C05  39782910.672 5 207160054.678 5        18.938          35.000    39782910.422 6 160189272.267 6        14.943          39.000
C14  23760775.828 8 123728581.628 8     -3025.668          49.000    23760773.508 8  95674770.131 8     -2339.654          51.000
C24  22193866.656 8 115569307.651 8     -1224.051          51.000
C25  22792342.719 7 118685683.127 7      1712.031          46.000
E01  25026033.664 7 131512704.216 7     -1964.039          46.000    25026035.750 7 100769498.484 7     -1504.919          43.000
E04  24814011.836 8 130398481.883 8     -2115.586          51.000    24814012.547 8  99915702.709 8     -1620.982          51.000
E09  21644473.625 8 113742481.527 8       531.652          49.000    21644474.578 8  87153320.727 8       407.394          50.000
E31  23504047.789 8 123514608.066 8       707.461          51.000    23504050.719 8  94641074.603 8       542.083          51.000
> 2020 05 10 05 08  0.0000000  0 17        .000000000000
G05  23509525.008 6 123543390.200 6     -3532.535          40.000    23509514.875 6  96267531.442 6     -2752.628          40.000
G13  20158608.469 8 105934204.327 8      -233.219          51.000    20158606.531 8  82546111.630 8      -181.729          50.000
G17  24008286.938 6 126164394.005 6      2646.859          36.000    24008289.633 5  98309900.411 5      2062.488          35.000
G28  21131650.320 8 111047639.260 8     -1236.117          48.000    21131648.008 4  86530625.070 4      -963.208          28.000
R03  21031442.180 8 112582929.061 8     -3574.129          51.000    21031441.359 7  87564503.394 7     -2779.878          44.000
R04  19254723.836 8 103108186.903 8       175.395          50.000    19254725.062 7  80195245.466 7       136.418          47.000
R14  19283455.367 8 102791699.070 8       237.492          50.000    19283458.469 7  79949134.019 7       184.716          47.000
R15  21961272.430 7 117354383.016 7      3236.102          44.000    21961275.102 7  91275640.077 7      2516.968          45.000
C05  39782804.594 5 207159503.054 5        18.570          35.000    39782804.312 6 160188844.940 6        14.251          39.000
C14  23778233.891 8 123819489.316 8     -3034.043          50.000    23778231.641 8  95745065.695 8     -2346.118          51.000
C24  22200948.742 8 115606185.855 8     -1233.750          51.000
C25  22782509.789 7 118634478.033 7      1702.289          45.000
E01  25037270.461 7 131571753.364 7     -1971.918          46.000    25037271.898 7 100814743.911 7     -1510.974          44.000
E04  24826117.719 8 130462100.148 8     -2124.977          51.000    24826118.367 8  99964449.162 8     -1628.190          51.000
E09  21641474.664 8 113726722.502 8       519.699          49.000    21641475.836 8  87141245.626 8       398.142          51.000
E24  24671474.305 6 129649461.320 6      2706.406          40.000
E31  23500046.312 8 123493580.008 8       695.129          51.000    23500049.656 8  94624962.205 8       532.652          51.000
> 2020 05 10 05 08 30.0000000  0 17        .000000000000
G05  23529703.508 6 123649432.798 6     -3536.906          38.000    23529696.844 6  96350161.994 6     -2756.031          37.000
G13  20159980.469 8 105941413.841 8      -247.559          51.000    20159978.359 8  82551729.415 8      -192.903          50.000
G17  23993197.156 5 126085096.947 5      2639.797          35.000    23993200.141 5  98248110.516 5      2056.985          35.000
G28  21138752.094 7 111084958.982 7     -1251.961          47.000    21138748.836 4  86559705.391 4      -975.554          29.000
R03  21051514.070 8 112690372.907 8     -3588.969          51.000    21051513.414 7  87648070.791 7     -2791.423          43.000
R04  19253811.414 8 103103301.778 8       150.070          49.000    19253812.734 7  80191445.926 7       116.721          47.000
R14  19282169.594 8 102784846.491 8       219.387          49.000    19282173.070 8  79943804.230 8       170.634          48.000
R15  21943133.234 7 117257453.611 7      3225.684          47.000    21943136.609 7  91200250.536 7      2508.868          47.000
C05  39782697.062 5 207158942.826 5        18.719          35.000    39782696.773 6 160188411.710 6        14.426          39.000
C14  23795734.867 8 123910621.441 8     -3041.406          50.000    23795733.156 8  95815534.814 8     -2351.869          51.000
C24  22208081.055 8 115643325.243 8     -1242.262          51.000
C25  22772726.773 7 118583537.351 7      1693.801          44.000
E01  25048546.617 7 131631009.092 7     -1978.617          46.000    25048547.633 7 100860147.640 7     -1516.104          44.000
E04  24838271.141 8 130525971.094 8     -2133.312          49.000    24838272.430 8 100013389.237 8     -1634.613          51.000
E09  21638538.828 8 113711295.237 8       508.629          49.000    21638540.156 8  87129424.725 8       389.717          51.000
E24  24656039.969 7 129568344.936 7      2701.188          42.000
E31  23496109.555 8 123472892.316 8       683.859          51.000    23496112.750 8  94609110.614 8       523.975          51.000
> 2020 05 10 05 09  0.0000000  0 17        .000000000000
G05  23549905.766 5 123755603.371 5     -3541.156          35.000    23549902.398 5  96432892.221 5     -2759.343          35.000
G13  20161435.531 8 105949059.881 8      -262.461          51.000    20161433.500 8  82557687.343 8      -204.515          50.000
G17  23978145.297 6 126005997.483 6      2632.582          37.000    23978148.039 6  98186474.572 6      2051.363          36.000
G28  21145944.445 7 111122756.061 7     -1267.867          45.000    21145942.484 5  86589157.720 5      -987.948          35.000
R03  21071669.203 8 112798266.134 8     -3604.102          50.000    21071668.461 6  87731987.682 6     -2803.193          39.000
R04  19253041.883 8 103099183.358 8       124.281          49.000    19253043.789 7  80188242.706 7        96.663          47.000
R14  19280986.992 8 102778544.394 8       200.727          49.000    19280991.078 7  79938902.601 7       156.121          47.000
R15  21925054.734 7 117160845.280 7      3214.707          47.000    21925058.836 8  91125110.714 8      2500.328          48.000
C05  39782588.320 5 207158376.607 5        18.867          35.000    39782587.953 6 160187973.845 6        14.499          39.000
C14  23813278.750 8 124001977.604 8     -3049.117          51.000    23813277.625 8  95886177.177 8     -2357.762          51.000
C24  22215263.562 8 115680726.230 8     -1251.266          51.000
C25  22762993.500 6 118532862.838 6      1684.656          41.000
E01  25059862.195 7 131690471.515 7     -1985.688          46.000    25059863.352 7 100905709.760 7     -1521.456          44.000
E04  24850472.273 7 130590095.664 7     -2141.918          47.000    24850475.203 8 100062523.656 8     -1641.171          51.000
E09  21635666.625 8 113696202.221 8       497.410          50.000    21635668.102 8  87117859.942 8       381.052          51.000
E24  24640636.102 6 129487393.878 6      2695.340          41.000
E31  23492237.805 8 123452546.318 8       672.309          51.000    23492240.250 8  94593520.817 8       515.164          51.000
> 2020 05 10 05 09 30.0000000  0 18        .000000000000
G05  23570133.727 5 123861907.071 5     -3544.801          32.000    23570133.328 5  96515726.260 5     -2762.182          31.000
G13  20162975.195 8 105957150.722 8      -276.828          51.000    20162973.312 8  82563991.874 8      -215.710          50.000
G17  23963133.164 5 125927106.145 5      2626.418          35.000    23963135.086 6  98125000.758 6      2046.559          36.000
G28  21153228.914 7 111161036.842 7     -1283.754          45.000    21153226.914 6  86618986.921 6     -1000.328          36.000
R03  21091908.281 7 112906613.508 7     -3618.820          47.000    21091905.484 6  87816257.724 6     -2814.644          38.000
R04  19252417.273 8 103095840.789 8        98.855          48.000    19252419.594 7  80185642.930 7        76.888          47.000
R14  19279909.086 8 102772799.419 8       182.594          49.000    19279913.344 7  79934434.279 7       142.017          46.000
R15  21907037.008 7 117064567.258 7      3204.043          46.000    21907042.359 7  91050227.759 7      2492.030          47.000
C05  39782479.898 5 207157812.011 5        18.738          35.000    39782479.547 6 160187537.232 6        14.931          39.000
C14  23830866.633 8 124093563.597 8     -3056.312          50.000    23830866.086 8  95956997.257 8     -2363.374          51.000
C24  22222497.375 8 115718395.292 8     -1259.738          51.000
C25  22753312.789 6 118482462.185 6      1675.773          40.000
C26  25201199.289 5 131229249.994 5     -2835.242          32.000
E01  25071218.109 7 131750147.025 7     -1992.332          47.000    25071219.852 7 100951435.127 7     -1526.616          44.000
E04  24862723.375 8 130654481.013 8     -2150.090          48.000    24862728.008 8 100111857.880 8     -1647.507          51.000
E09  21632859.570 8 113681452.144 8       486.332          49.000    21632861.250 8  87106557.930 8       372.668          51.000
E24  24625265.820 6 129406616.727 6      2690.047          40.000    24625279.055 5  99155787.845 5      2061.342          34.000
E31  23488432.609 8 123432549.519 8       661.125          51.000    23488434.758 8  94578198.593 8       506.591          51.000
> 2020 05 10 05 10  0.0000000  0 18        .000000000000
G05  23590386.289 4 123968315.850 4     -3548.941          27.000    23590388.938 4  96598698.427 4     -2765.409          27.000
G13  20164599.820 8 105965688.151 8      -291.582          51.000    20164597.977 8  82570644.380 8      -227.207          49.000
G17  23948161.320 5 125848427.025 5      2619.742          33.000    23948162.312 5  98063692.391 5      2041.361          33.000
G28  21160605.070 7 111199799.985 7     -1299.598          43.000    21160602.578 6  86649191.982 6     -1012.673          36.000
R03  21112231.508 7 113015413.175 7     -3633.629          47.000    21112230.125 7  87900879.689 7     -2826.156          43.000
R04  19251938.367 8 103093276.312 8        72.988          49.000    19251941.031 7  80183648.335 7        56.769          47.000
R14  19278936.023 8 102767611.285 8       164.234          50.000    19278939.734 7  79930399.067 7       127.738          46.000
R15  21889081.469 8 116968622.011 8      3193.098          49.000    21889087.039 7  90975603.628 7      2483.520          47.000
C05  39782372.000 5 207157250.178 5        19.379          35.000    39782371.664 6 160187102.799 6        14.604          40.000
C14  23848498.250 8 124185378.559 8     -3063.844          49.000    23848498.266 8  96027994.382 8     -2369.152          51.000
C24  22229782.664 8 115756332.439 8     -1268.543          51.000
C25  22743686.055 6 118432336.703 6      1666.652          40.000
C26  25217539.656 5 131314327.178 5     -2836.043          32.000
E01  25082614.453 7 131810035.247 7     -1999.352          45.000    25082616.508 7 100997323.471 7     -1532.016          43.000
E04  24875024.891 8 130719127.595 8     -2158.762          49.000    24875030.594 8 100161392.270 8     -1654.149          51.000
E09  21630118.266 8 113667047.066 8       474.828          50.000    21630119.992 8  87095520.260 8       363.880          51.000
E24  24609929.789 6 129326015.526 6      2684.258          40.000    24609939.062 5  99094028.525 5      2056.625          33.000
E31  23484693.961 8 123412902.776 8       649.539          51.000    23484696.484 8  94563144.621 8       497.693          51.000
> 2020 05 10 05 10 30.0000000  0 18        .000000000000
G13  20166305.859 8 105974653.351 8      -305.172          51.000    20166303.719 8  82577630.224 8      -237.799          49.000
G17  23933226.953 5 125769943.863 5      2613.117          32.000    23933227.484 5  98002536.687 5      2036.198          32.000
G24  23234449.508 5 122097855.335 5      2940.375          32.000
G28  21168069.242 7 111239024.703 7     -1314.516          43.000    21168067.039 6  86679756.702 6     -1024.295          36.000
R03  21132636.180 8 113124642.231 8     -3647.398          49.000    21132636.984 7  87985835.660 7     -2836.865          46.000
R04  19251600.953 8 103091471.135 8        48.309          49.000    19251603.758 7  80182244.297 7        37.570          47.000
R14  19278063.586 8 102762959.226 8       147.004          48.000    19278066.781 7  79926780.818 7       114.336          45.000
R15  21871186.023 8 116872990.965 8      3183.152          49.000    21871189.953 7  90901223.946 7      2475.785          46.000
C05  39782261.047 5 207156671.908 5        20.172          35.000    39782260.609 6 160186655.582 6        15.861          39.000
C14  23866169.773 8 124277401.315 8     -3070.168          49.000    23866170.086 8  96099152.189 8     -2374.064          51.000
C24  22237115.531 8 115794517.197 8     -1276.211          51.000
C25  22734109.430 7 118382467.280 7      1658.652          43.000
C26  25233880.461 5 131399414.612 5     -2835.520          31.000
E01  25094047.211 7 131870115.161 7     -2005.160          42.000    25094049.008 7 101043358.734 7     -1536.371          42.000
E04  24887372.930 8 130784015.282 8     -2166.266          51.000    24887378.836 8 100211111.374 8     -1659.860          51.000
E09  21627439.070 8 113652968.369 8       464.547          50.000    21627440.867 8  87084732.682 8       355.984          51.000
E24  24594624.055 6 129245571.631 6      2679.648          40.000    24594623.812 5  99032378.607 5      2053.303          33.000
E31  23481018.180 8 123393586.351 8       639.090          51.000    23481020.680 8  94548343.724 8       489.692          51.000
> 2020 05 10 05 11  0.0000000  0 17        .000000000000
G13  20168099.812 8 105984080.603 8      -328.074          51.000    20168097.391 8  82584976.116 8      -255.642          48.000
G24  23217683.750 5 122009750.788 5      2927.211          31.000
G28  21175627.422 6 111278742.921 6     -1338.098          39.000    21175625.617 6  86710705.966 6     -1042.673          37.000
R03  21153127.539 8 113234332.017 8     -3670.230          51.000    21153129.484 8  88071149.934 8     -2854.624          48.000
R04  19251412.336 8 103090460.581 8        14.215          49.000    19251415.023 7  80181458.298 7        11.053          46.000
R14  19277298.023 8 102758876.260 8       120.438          49.000    19277300.734 7  79923605.163 7        93.674          45.000
R15  21853355.922 8 116777709.673 8      3163.895          50.000    21853358.539 7  90827116.323 7      2460.807          46.000
C05  39782153.367 6 207156111.532 6        11.977          36.000    39782152.820 6 160186221.476 6         9.427          40.000
C14  23883887.055 7 124369663.238 7     -3085.406          47.000    23883887.562 8  96170494.938 8     -2385.880          51.000
C24  22244502.086 8 115832981.732 8     -1292.809          51.000
C25  22724588.977 7 118332887.300 7      1641.562          44.000
C26  25250227.312 5 131484544.575 5     -2844.195          32.000
E01  25105522.328 7 131930419.031 7     -2019.910          43.000    25105523.586 7 101089565.625 7     -1547.822          42.000
E04  24899773.531 8 130849177.021 8     -2182.766          51.000    24899778.469 8 100261040.500 8     -1672.527          51.000
E09  21624828.398 8 113639250.602 8       445.031          51.000    21624830.453 8  87074221.663 8       341.031          51.000
E24  24579353.945 6 129165319.539 6      2665.883          39.000    24579346.320 5  98970886.748 5      2042.534          34.000
E31  23477411.539 8 123374633.568 8       619.551          51.000    23477413.477 8  94533821.434 8       474.724          51.000
> 2020 05 10 05 11 30.0000000  0 16        .000000000000
G13  20169988.812 8 105994007.401 8      -335.691          51.000    20169986.297 8  82592711.278 8      -261.578          48.000
G28  21183286.133 6 111318990.014 6     -1346.883          40.000    21183284.586 5  86742067.341 5     -1049.519          35.000
R03  21173711.547 8 113344517.018 8     -3677.586          51.000    21173713.750 8  88156849.360 8     -2860.345          48.000
R04  19251379.242 8 103090283.211 8        -4.414          48.000    19251381.719 7  80181320.307 7        -3.436          46.000
R14  19276645.570 8 102755398.440 8       109.320          48.000    19276648.594 7  79920900.200 7        85.027          45.000
R15  21835598.031 8 116682816.877 8      3160.031          48.000    21835600.516 7  90753310.807 7      2457.802          46.000
C05  39782055.758 5 207155603.615 5        19.477          35.000    39782055.297 6 160185828.736 6        14.846          39.000
C14  23901656.992 7 124462199.006 7     -3085.641          47.000    23901657.422 8  96242049.443 8     -2385.998          50.000
C24  22251949.430 8 115871761.512 8     -1294.488          51.000
C25  22715131.609 7 118283633.521 7      1639.707          45.000
C26  25266591.539 5 131569752.935 5     -2837.906          32.000
E01  25117047.141 7 131990982.445 7     -2019.668          43.000    25117047.602 6 101135971.299 6     -1547.565          41.000
E04  24912233.188 8 130914649.123 8     -2184.094          51.000    24912236.516 8 100311207.444 8     -1673.592          51.000
E09  21622293.883 8 113625931.607 8       440.723          51.000    21622295.961 8  87064016.188 8       337.730          51.000
E24  24564126.016 6 129085296.995 6      2667.008          39.000    24564116.250 5  98909570.826 5      2043.803          34.000
E31  23473881.023 8 123356081.094 8       615.191          51.000    23473882.891 8  94519605.880 8       471.371          51.000
> 2020 05 10 05 12  0.0000000  0 17        .000000000000
G05  23671627.828 5 124395224.912 5     -3565.062          32.000    23671630.070 5  96931358.605 5     -2777.980          30.000
G13  20171936.781 8 106004244.366 8      -350.129          50.000    20171934.586 8  82600688.124 8      -272.828          50.000
G28  21191008.977 6 111359574.406 6     -1361.719          36.000    21191007.672 5  86773691.421 5     -1061.083          35.000
R03  21194351.320 8 113455000.703 8     -3691.363          50.000    21194353.312 7  88242781.086 7     -2871.060          47.000
R04  19251466.148 8 103090746.614 8       -29.891          49.000    19251468.164 7  80181680.697 7       -23.248          46.000
R14  19276070.656 8 102752332.263 8        91.691          49.000    19276073.211 7  79918515.367 7        71.316          45.000
R15  21817876.500 8 116588120.787 8      3149.570          49.000    21817879.539 7  90679658.272 7      2449.666          47.000
C05  39781932.398 5 207154961.164 5        19.633          35.000    39781931.930 6 160185331.888 6        15.707          39.000
C14  23919443.484 7 124554818.562 7     -3092.250          47.000    23919443.539 8  96313668.741 8     -2391.106          49.000
C24  22259421.086 8 115910667.263 8     -1302.512          51.000
C25  22705700.922 7 118234517.976 7      1631.273          45.000
C26  25282934.852 5 131654850.717 5     -2838.508          31.000
E01  25128585.031 6 132051614.000 6     -2025.906          41.000    25128584.930 6 101182429.204 6     -1552.051          41.000
E04  24924715.492 8 130980241.047 8     -2191.945          51.000    24924717.078 8 100361466.169 8     -1679.486          50.000
E09  21619799.414 8 113612822.382 8       429.922          51.000    21619801.484 8  87053971.455 8       329.391          51.000
E24  24548904.898 6 129005315.045 6      2661.613          38.000    24548894.594 5  98848286.016 5      2039.265          33.000
E31  23470390.680 8 123337738.752 8       604.379          51.000    23470392.695 8  94505551.356 8       463.128          51.000
> 2020 05 10 05 12 30.0000000  0 16        .000000000000
G05  23691992.414 5 124502234.451 5     -3565.258          35.000    23691993.430 6  97014742.606 6     -2778.123          36.000
G13  20173980.781 8 106014985.310 8      -361.367          51.000    20173979.016 8  82609057.680 8      -281.585          50.000
G17  23873919.352 5 125458283.909 5      2587.297          32.000    23873908.320 5  97759673.915 5      2016.075          31.000
R03  21215082.969 8 113565976.812 8     -3702.109          48.000    21215084.867 7  88329095.815 7     -2879.421          46.000
R04  19251709.117 7 103092048.242 7       -52.215          47.000    19251711.102 7  80182693.070 7       -40.612          46.000
R14  19275609.117 8 102749872.015 8        77.039          48.000    19275611.836 7  79916601.866 7        59.919          45.000
R15  21800229.508 8 116493819.033 8      3141.988          50.000    21800232.406 7  90606312.474 7      2443.769          47.000
C05  39781819.953 6 207154375.421 6        23.926          36.000    39781819.492 6 160184878.983 6        18.344          39.000
C14  23937283.016 7 124647711.320 7     -3095.809          47.000    23937282.078 8  96385499.269 8     -2393.906          48.000
C24  22266953.172 8 115949889.238 8     -1307.555          51.000
C25  22696333.219 7 118185732.177 7      1625.672          46.000
E01  25140172.062 6 132112505.417 6     -2028.918          39.000    25140171.820 6 101229086.288 6     -1554.739          40.000
E04  24937257.039 8 131046145.293 8     -2196.910          51.000    24937257.219 8 100411964.180 8     -1683.344          50.000
E09  21617381.602 8 113600116.997 8       421.895          51.000    21617383.969 8  87044236.146 8       323.258          51.000
E24  24533726.703 6 128925567.639 6      2659.641          38.000    24533717.938 5  98787180.904 5      2037.700          33.000
E31  23466977.008 8 123319799.423 8       596.391          51.000    23466978.844 8  94491805.633 8       456.969          51.000
> 2020 05 10 05 13  0.0000000  0 16        .000000000000
G05  23712374.336 5 124609341.506 5     -3572.770          35.000    23712376.625 5  97098202.551 5     -2783.979          35.000
G13  20176107.352 8 106026160.027 8      -380.547          51.000    20176105.789 8  82617765.246 8      -296.530          50.000
G17  23859189.633 5 125380886.427 5      2575.449          34.000    23859181.633 5  97699364.165 5      2006.837          34.000
R03  21235892.484 8 113677370.116 8     -3720.816          49.000    21235893.727 7  88415735.013 7     -2893.971          43.000
R04  19252095.000 8 103094116.831 8       -82.480          48.000    19252097.586 7  80184301.962 7       -64.151          47.000
R14  19275247.797 8 102747944.715 8        54.598          48.000    19275250.055 7  79915102.842 7        42.465          44.000
R15  21782642.734 8 116399840.940 8      3126.391          49.000    21782645.172 7  90533218.418 7      2431.637          46.000
C05                                                                  39781704.445 6 160184415.576 6        15.320          39.000
C14  23955161.453 7 124740805.085 7     -3107.184          47.000    23955159.086 7  96457485.233 7     -2402.611          47.000
C24  22274532.117 8 115989355.939 8     -1320.395          51.000
C25  22687014.578 7 118137205.861 7      1612.594          46.000
E01  25151794.641 6 132173584.307 6     -2039.691          40.000    25151794.664 6 101275886.984 6     -1562.761          39.000
E04  24949844.305 8 131112290.184 8     -2209.625          51.000    24949843.375 8 100462646.564 8     -1693.041          50.000
E09  21615027.211 8 113587745.322 8       406.105          51.000    21615030.008 8  87034756.537 8       311.163          51.000
E24  24518578.352 6 128845984.684 6      2649.414          37.000    24518572.945 5  98726134.805 5      2029.657          33.000
E31  23463626.375 8 123302191.788 8       580.668          51.000    23463627.656 8  94478314.063 8       444.975          51.000
> 2020 05 10 05 13 30.0000000  0 18        .000000000000
G05  23732779.609 5 124716566.985 5     -3575.094          35.000    23732782.312 5  97181754.750 5     -2785.793          34.000
G13  20178320.898 8 106037791.961 8      -394.207          51.000    20178319.203 8  82626829.085 8      -307.174          50.000
G17  23844508.516 5 125303737.577 5      2567.988          31.000    23844498.477 5  97639234.220 5      2001.033          31.000
G28  21214742.234 5 111484225.431 5     -1408.816          30.000    21214741.969 5  86870834.038 5     -1097.767          30.000
G30  23039874.445 5 121075373.559 5     -2722.355          30.000    23039886.500 4  94344483.361 4     -2121.316          27.000
R03  21256783.828 8 113789201.139 8     -3733.828          50.000    21256783.773 7  88502714.591 7     -2904.092          42.000
R04  19252629.094 8 103096976.852 8      -107.438          49.000    19252631.852 7  80186526.432 7       -83.562          46.000
R14  19274990.227 7 102746572.509 7        37.531          47.000    19274992.547 7  79914035.583 7        29.194          44.000
R15  21765120.625 8 116306211.010 8      3116.348          50.000    21765123.281 7  90460395.128 7      2423.826          46.000
C05                                                                  39781591.219 6 160183959.616 6        15.897          39.000
C14  23973082.641 8 124834120.976 8     -3113.012          48.000    23973079.250 7  96529642.981 7     -2407.269          47.000
C24  22282162.414 8 116029089.269 8     -1327.840          51.000
C25  22677749.484 7 118088962.220 7      1604.434          45.000
E01  25163457.367 6 132234872.503 6     -2045.414          40.000    25163457.953 6 101322848.081 6     -1567.110          39.000
E04  24962481.531 8 131178698.288 8     -2216.895          51.000    24962480.500 8 100513530.629 8     -1698.665          51.000
E09  21612741.047 8 113575731.510 8       395.586          51.000    21612743.938 8  87025551.135 8       303.117          51.000
E24  24503465.844 6 128766590.218 6      2644.535          38.000    24503464.930 5  98665300.107 5      2026.452          34.000
E31  23460343.297 8 123284938.814 8       570.285          51.000    23460344.148 8  94465094.245 8       437.032          51.000
> 2020 05 10 05 14  0.0000000  0 18        .000000000000
G05  23753207.461 5 124823910.532 5     -3579.246          34.000    23753206.945 5  97265399.066 5     -2789.026          32.000
G13  20180622.227 8 106049885.055 8      -410.379          51.000    20180620.289 8  82636252.281 8      -319.776          49.000
G15  20585496.703 5 108177498.568 5      1256.719          34.000    20585494.062 5  84294158.943 5       979.264          35.000
G17  23829871.328 4 125226818.235 4      2560.559          29.000    23829864.695 5  97579303.221 5      1995.240          30.000
G28  21222834.680 6 111526748.403 6     -1424.793          36.000    21222835.258 5  86903969.324 5     -1110.247          32.000
R03  21277757.266 8 113901470.051 8     -3749.148          50.000    21277755.820 7  88590034.784 7     -2916.004          44.000
R04  19253312.078 8 103100632.550 8      -134.715          49.000    19253314.461 8  80189369.734 8      -104.778          48.000
R14  19274837.375 7 102745757.716 7        18.457          47.000    19274839.789 7  79913401.862 7        14.359          45.000
R15  21747665.320 8 116212933.901 8      3103.789          51.000    21747667.648 7  90387846.264 7      2414.061          47.000
C05  39781480.961 5 207152609.780 5        19.594          35.000    39781480.453 6 160183513.623 6        15.015          38.000
C14  23991046.898 8 124927660.254 8     -3121.238          49.000    23991042.734 7  96601973.450 7     -2413.606          46.000
C24  22289844.469 8 116069091.385 8     -1337.457          51.000
C25  22668538.711 7 118041004.650 7      1594.137          43.000
E01  25175160.609 6 132296371.895 6     -2053.047          41.000    25175161.820 6 101369970.992 6     -1573.180          38.000
E04  24975169.328 8 131245372.209 8     -2226.410          51.000    24975168.406 8 100564618.386 8     -1705.951          49.000
E09  21610523.891 8 113564079.742 8       382.770          51.000    21610526.562 8  87016623.143 8       293.312          51.000
E24  24488391.758 6 128687388.466 6      2637.379          41.000    24488394.602 5  98604613.084 5      2020.702          33.000
E31  23457128.258 8 123268043.477 8       557.641          51.000    23457129.305 8  94452148.468 8       427.298          51.000
> 2020 05 10 05 14 30.0000000  0 18        .000000000000
G05  23773655.133 5 124931355.721 5     -3582.953          33.000    23773651.172 5  97349122.482 5     -2791.921          33.000
G13  20183008.625 8 106062425.425 8      -424.973          51.000    20183006.680 8  82646023.980 8      -331.148          50.000
G15  20578368.125 5 108140037.142 5      1241.898          32.000    20578365.945 5  84264968.207 5       967.713          32.000
G17  23815269.797 4 125150087.415 4      2551.668          29.000
G28  21231015.703 5 111569736.389 5     -1441.133          34.000    21231013.391 5  86937466.544 5     -1122.955          31.000
R03  21298808.953 7 114014159.064 7     -3762.703          47.000    21298806.523 7  88677681.748 7     -2926.547          42.000
R04  19254141.023 8 103105069.933 8      -160.492          49.000    19254143.039 7  80192821.003 7      -124.827          46.000
R14  19274785.898 7 102745484.416 7          .516          45.000    19274788.258 7  79913189.272 7          .401          43.000
R15  21730273.992 8 116119996.295 8      3092.820          51.000    21730275.945 7  90315561.449 7      2405.527          46.000
C05  39781369.914 5 207152032.725 5        19.848          35.000    39781369.469 6 160183066.583 6        15.453          40.000
C14  24009050.555 8 125021406.823 8     -3127.871          49.000    24009046.016 7  96674464.183 7     -2418.626          47.000
C24  22297575.164 8 116109346.961 8     -1345.578          51.000
C25  22659380.164 7 117993319.124 7      1585.453          44.000
E01  25186900.969 6 132358066.761 6     -2059.332          41.000    25186902.953 6 101417243.642 6     -1577.912          40.000
E04  24987904.938 8 131312296.954 8     -2234.488          51.000    24987904.211 8 100615898.344 8     -1712.149          51.000
E09  21608373.312 8 113552776.540 8       371.426          51.000    21608375.602 8  87007962.241 8       284.587          51.000
E24  24473353.359 7 128608365.821 7      2631.770          43.000    24473358.758 6  98544063.279 6      2016.536          36.000
E31  23453978.320 8 123251491.093 8       546.574          51.000    23453979.922 8  94439465.480 8       418.762          51.000
> 2020 05 10 05 15  0.0000000  0 18        .000000000000
G05  23794118.773 5 125038881.868 5     -3586.355          34.000    23794111.953 5  97432909.050 5     -2794.566          35.000
G13  20185476.922 8 106075396.199 8      -440.246          51.000    20185475.016 8  82656131.069 8      -343.049          51.000
G15  20571325.164 5 108103025.432 5      1225.477          35.000    20571321.547 5  84236127.990 5       954.923          35.000
G17  23800721.766 5 125073634.988 5      2544.055          33.000    23800731.602 5  97460009.367 5      1982.377          31.000
G28  21239281.359 5 111613154.093 5     -1455.988          35.000    21239281.477 5  86971294.556 5     -1134.536          32.000
R03  21319932.516 7 114127247.001 7     -3776.855          43.000    21319931.438 6  88765639.102 6     -2937.548          40.000
R04  19255113.039 8 103110271.913 8      -186.910          49.000    19255114.562 7  80196866.957 7      -145.378          47.000
R14  19274832.203 7 102745733.315 7       -17.836          45.000    19274835.008 7  79913382.852 7       -13.872          42.000
R15  21712942.602 8 116027381.443 8      3080.984          50.000    21712944.328 7  90243527.673 7      2396.318          44.000
C05  39781255.266 5 207151434.976 5        19.535          35.000    39781254.883 6 160182605.140 6        15.106          39.000
C14  24027089.859 8 125115341.233 8     -3135.035          48.000    24027084.547 7  96747100.172 7     -2424.072          44.000
C24  22305350.852 8 116149837.400 8     -1354.352          51.000
C25  22650271.562 7 117945888.146 7      1576.066          46.000
E01  25198674.758 6 132419938.060 6     -2066.051          40.000    25198677.641 6 101464651.479 6     -1583.111          40.000
E04  25000684.672 8 131379454.198 8     -2243.203          51.000    25000684.406 8 100667356.476 8     -1718.797          51.000
E09  21606285.836 8 113541805.142 8       359.441          51.000    21606287.984 8  86999555.593 8       275.386          51.000
E24  24458346.602 7 128529505.523 7      2625.293          45.000    24458353.102 6  98483637.890 6      2011.220          37.000
E31  23450890.312 8 123235263.769 8       534.754          51.000    23450892.141 8  94427031.547 8       409.729          51.000
> 2020 05 10 05 15 30.0000000  0 17        .000000000000
G05  23814600.641 5 125146508.674 5     -3587.355          35.000    23814591.227 6  97516774.094 6     -2795.345          36.000
G13  20188031.469 8 106088820.103 8      -453.398          51.000    20188029.391 8  82666591.243 8      -353.297          51.000
G15  20564372.898 6 108066487.545 6      1211.246          37.000    20564370.258 6  84207656.881 6       943.831          36.000
G28  21247633.602 5 111657048.760 5     -1469.434          35.000    21247632.477 5  87005498.023 5     -1145.007          35.000
R03  21341135.234 8 114240753.908 8     -3788.758          49.000    21341133.734 6  88853922.215 6     -2946.815          38.000
R04  19256231.562 8 103116261.882 8      -211.223          48.000    19256232.922 7  80201525.822 7      -164.284          47.000
R14  19274980.852 7 102746525.773 7       -33.766          46.000    19274983.750 7  79913999.186 7       -26.262          42.000
R15  21695675.570 8 115935113.388 8      3071.426          49.000    21695677.234 7  90171763.634 7      2388.887          45.000
C05                                                                  39781140.969 6 160182146.333 6        16.522          39.000
C14  24045168.750 7 125209483.691 7     -3139.973          47.000    24045162.148 7  96819897.030 7     -2427.899          42.000
C24  22313175.680 8 116190583.680 8     -1360.875          51.000
C25  22641216.531 7 117898734.005 7      1568.879          45.000
E01  25210485.875 6 132482006.619 6     -2070.652          39.000    25210489.852 6 101512210.518 6     -1586.583          40.000
E04  25013512.273 8 131446865.547 8     -2249.684          50.000    25013512.977 8 100719009.318 8     -1723.798          51.000
E09  21604265.531 8 113531188.724 8       349.648          51.000    21604267.953 8  86991420.925 8       267.883          51.000
E24  24443375.430 7 128450830.686 7      2621.109          46.000    24443381.852 6  98423354.573 6      2008.359          38.000
E31  23447868.359 8 123219383.442 8       525.195          51.000    23447870.375 8  94414863.484 8       402.461          51.000
> 2020 05 10 05 16  0.0000000  0 18        .000000000000
G05  23835101.281 5 125254235.805 5     -3591.766          35.000    23835090.969 5  97600717.223 5     -2798.788          33.000
G13  20190672.828 8 106102700.268 8      -469.871          51.000    20190670.672 8  82677406.935 8      -366.133          51.000
G15  20557510.719 6 108030427.563 6      1194.844          36.000    20557509.797 6  84179558.188 6       931.050          36.000
G17  23771764.391 5 124921463.658 5      2528.117          35.000    23771775.250 5  97341438.968 5      1969.961          34.000
G28  21256074.898 5 111701426.575 5     -1486.188          31.000    21256073.234 5  87040064.088 5     -1158.062          30.000
R03  21362418.234 8 114354679.205 8     -3804.055          51.000    21362416.750 7  88942530.668 7     -2958.712          42.000
R04  19257497.695 8 103123043.252 8      -238.867          48.000    19257499.203 7  80206800.223 7      -185.786          47.000
R14  19275231.891 7 102747863.257 7       -53.293          46.000    19275233.719 6  79915039.458 6       -41.450          40.000
R15  21678474.414 8 115843195.864 8      3058.520          50.000    21678476.172 7  90100272.229 7      2378.849          46.000
C05                                                                  39781028.172 6 160181692.259 6        15.296          39.000
C14  24063287.430 7 125303834.852 7     -3148.105          46.000    24063280.477 7  96892855.252 7     -2434.303          42.000
C24  22321049.914 8 116231587.329 8     -1370.656          51.000
C25  22632215.164 7 117851859.485 7      1558.148          44.000
E01  25222334.836 6 132544273.780 6     -2078.555          41.000    25222339.023 6 101559921.720 6     -1592.590          39.000
E04  25026388.070 8 131514532.894 8     -2259.398          49.000    25026389.930 8 100770858.369 8     -1731.266          51.000
E09  21602313.219 8 113520930.823 8       336.363          51.000    21602316.070 8  86983560.959 8       257.685          51.000
E24  24428440.477 7 128372344.825 7      2613.418          46.000    24428446.656 6  98363216.054 6      2002.576          40.000
E31  23444912.930 8 123203852.449 8       512.215          51.000    23444915.180 8  94402963.111 8       392.506          51.000
> 2020 05 10 05 16 30.0000000  0 17        .000000000000
G05  23855616.672 5 125362042.157 5     -3595.656          34.000    23855605.953 5  97684722.155 5     -2801.807          34.000
G13  20193397.578 8 106117018.949 8      -485.199          51.000    20193395.258 8  82688564.344 8      -378.077          51.000
G15  20550735.945 5 107994828.755 5      1178.332          33.000    20550735.414 5  84151818.847 5       918.187          31.000
G17  23757354.859 5 124845740.819 5      2521.398          31.000    23757368.039 5  97282449.262 5      1964.717          32.000
R03  21383775.477 8 114469000.923 8     -3817.824          51.000    21383775.492 7  89031447.529 7     -2969.419          45.000
R04  19258908.516 8 103130597.943 8      -265.320          50.000    19258909.922 8  80212676.106 8      -206.360          48.000
R14  19275581.562 7 102749725.706 7       -71.391          46.000    19275582.906 6  79916488.027 6       -55.526          41.000
R15  21661336.172 8 115751611.270 8      3046.723          51.000    21661338.109 8  90029039.777 8      2369.673          48.000
C05  39780913.641 5 207149656.271 5        19.855          35.000    39780913.117 6 160181228.921 6        15.021          39.000
C14  24081442.031 7 125398374.608 7     -3154.980          44.000    24081436.789 7  96965959.326 7     -2439.625          44.000
C24  22328969.906 8 116272829.059 8     -1379.234          51.000
C25  22623264.203 7 117805246.482 7      1548.840          44.000
E01  25234217.977 7 132606719.834 7     -2085.055          42.000    25234220.961 6 101607769.961 6     -1597.484          39.000
E04  25039309.203 8 131582437.315 8     -2267.918          50.000    25039311.711 8 100822889.069 8     -1737.785          51.000
E09  21600426.070 8 113511013.914 8       324.387          51.000    21600428.891 8  86975962.275 8       248.553          51.000
E24  24413538.047 7 128294030.396 7      2607.016          43.000    24413544.922 7  98303208.940 7      1997.712          42.000
E31  23442020.469 8 123188652.110 8       500.609          51.000    23442022.844 8  94391316.102 8       383.596          51.000
> 2020 05 10 05 17  0.0000000  0 16        .000000000000
G13  20196216.164 8 106131831.136 8      -505.543          51.000    20196213.641 8  82700106.302 8      -393.930          50.000
G15  20544059.539 5 107959747.495 5      1156.801          32.000    20544058.984 5  84124482.802 5       901.406          32.000
G28  21273222.352 6 111791536.190 6     -1521.680          39.000    21273220.688 5  87110279.028 5     -1185.724          35.000
R03  21405216.109 8 114583771.672 8     -3836.738          51.000    21405217.312 7  89120713.677 7     -2984.130          46.000
R04  19260474.312 8 103138982.023 8      -296.836          50.000    19260475.883 8  80219197.037 8      -230.875          48.000
R14  19276039.617 7 102752167.054 7       -94.605          47.000    19276041.039 6  79918386.888 6       -73.582          40.000
R15  21644270.742 8 115660416.497 8      3029.711          51.000    21644273.516 8  89958110.527 8      2356.442          48.000
C05  39780806.711 5 207149099.208 5        14.852          35.000    39780806.102 6 160180798.145 6        10.959          39.000
C14  24099642.727 7 125493155.098 7     -3167.023          43.000    24099640.711 7  97039249.580 7     -2448.880          45.000
C24  22336945.938 8 116314361.838 8     -1392.773          51.000
C25  22614374.117 7 117758949.187 7      1534.660          43.000
E01  25246145.266 6 132669397.919 6     -2096.500          40.000    25246146.516 6 101655795.974 6     -1606.553          38.000
E04  25052286.594 8 131650632.703 8     -2281.543          51.000    25052288.992 8 100875142.670 8     -1748.207          51.000
E09  21598614.445 8 113501493.450 8       307.160          51.000    21598617.000 8  86968667.370 8       235.350          51.000
E24  24398678.906 6 128215942.809 6      2595.641          40.000    24398686.922 7  98243375.645 7      1988.796          43.000
E31  23439201.297 8 123173836.646 8       483.891          51.000    23439203.859 8  94379963.993 8       370.746          51.000
> 2020 05 10 05 17 30.0000000  0 16        .000000000000
G13  20199107.914 8 106147027.983 8      -518.645          51.000    20199105.281 8  82711947.985 8      -404.139          50.000
G28  21281916.578 6 111837224.230 6     -1534.625          38.000    21281914.320 5  87145880.065 5     -1195.812          35.000
G30  23164969.109 5 121732670.468 5     -2757.988          35.000    23164959.383 5  94856635.464 5     -2149.082          31.000
R03  21426718.484 8 114698876.622 8     -3848.168          49.000    21426720.750 7  89210239.778 7     -2993.016          45.000
R04  19262174.562 8 103148084.664 8      -321.203          51.000    19262175.523 7  80226276.859 7      -249.825          47.000
R14  19276585.633 7 102755075.066 7      -110.496          46.000    19276586.430 6  79920648.649 6       -85.941          41.000
R15  21627257.070 8 115569501.227 8      3020.016          50.000    21627261.070 7  89887398.669 7      2348.901          47.000
C05  39780687.047 5 207148475.941 5        16.031          35.000    39780686.383 6 160180316.174 6        12.336          39.000
C14  24117869.047 7 125588065.902 7     -3171.562          42.000    24117869.609 7  97112640.626 7     -2452.260          46.000
C24  22344956.828 8 116356076.103 8     -1399.105          51.000
C25  22605522.266 6 117712859.324 6      1527.078          38.000
E01  25258095.477 6 132732197.146 6     -2101.012          36.000    25258095.805 6 101703914.828 6     -1609.821          38.000
E04  25065298.586 8 131719008.844 8     -2287.945          51.000    25065300.445 8 100927534.752 8     -1753.155          51.000
E09  21596857.703 8 113492260.794 8       297.266          51.000    21596859.891 8  86961592.991 8       227.751          51.000
E24  24383841.758 6 128137973.530 6      2591.426          37.000    24383852.008 7  98183632.907 7      1985.566          45.000
E31  23436434.391 8 123159296.243 8       474.422          51.000    23436437.180 8  94368822.647 8       363.497          51.000
> 2020 05 10 05 18  0.0000000  0 16        .000000000000
G13  20202094.102 8 106162720.738 8      -528.035          51.000    20202091.242 8  82724176.094 8      -411.456          50.000
G17  23714426.703 6 124620154.845 6      2496.258          36.000    23714426.445 6  97106600.175 6      1945.136          36.000
G28  21290704.930 6 111883407.316 6     -1544.180          39.000    21290703.078 6  87181866.849 6     -1203.260          37.000
R03  21448303.359 8 114814425.572 8     -3855.738          49.000    21448305.641 7  89300111.230 7     -2998.908          42.000
R04  19264030.133 8 103158019.313 8      -341.617          51.000    19264030.766 7  80234003.796 7      -265.702          47.000
R14  19277239.484 7 102758560.890 7      -122.430          46.000    19277240.680 7  79923359.871 7       -95.223          42.000
R15  21610316.570 8 115478979.577 8      3014.180          49.000    21610321.195 7  89816992.919 7      2344.362          45.000
C05  39780575.758 6 207147896.297 6        22.367          36.000    39780575.055 6 160179867.952 6        16.906          39.000
C14  24136141.938 7 125683215.025 7     -3172.273          42.000    24136143.453 7  97186215.969 7     -2452.961          47.000
C24  22353023.508 8 116398080.661 8     -1401.668          51.000
C25  22596728.031 6 117667086.910 6      1524.086          36.000
E01  25270089.539 6 132795226.973 6     -2101.855          38.000    25270090.328 6 101752210.471 6     -1610.100          38.000
E04  25078365.391 8 131787675.953 8     -2290.398          50.000    25078366.922 8 100980149.763 8     -1755.037          51.000
E09  21595177.062 8 113483427.703 8       291.078          51.000    21595178.844 8  86954824.776 8       223.052          51.000
E24  24369046.234 6 128060234.304 6      2590.785          39.000    24369061.031 7  98124066.358 7      1985.090          46.000
E31  23433740.812 8 123145141.463 8       468.738          51.000    23433743.469 8  94357976.787 8       359.133          51.000
> 2020 05 10 05 18 30.0000000  0 16        .000000000000
G13  20205159.281 8 106178829.025 8      -544.730          51.000    20205156.398 8  82736727.998 8      -424.465          49.000
G17  23700206.688 6 124545434.969 6      2486.078          37.000    23700206.562 6  97048376.907 6      1937.201          36.000
G28  21299571.852 6 111930002.846 6     -1560.824          38.000    21299570.602 6  87218175.064 6     -1216.227          36.000
R03  21469955.891 8 114930333.265 8     -3870.391          50.000    21469955.914 6  89390261.619 6     -3010.307          37.000
R04  19266025.391 8 103168703.962 8      -369.523          51.000    19266025.766 7  80242314.053 7      -287.407          46.000
R14  19277986.555 7 102762541.115 7      -141.688          46.000    19277987.773 7  79926455.562 7      -110.201          42.000
R15  21593434.297 8 115388770.426 8      3000.824          48.000    21593438.055 7  89746830.258 7      2333.974          42.000
C05                                                                  39780456.719 6 160179391.610 6        15.650          39.000
C14  24154444.609 6 125778520.376 6     -3180.305          41.000    24154446.406 7  97259912.106 7     -2459.177          45.000
C24  22361130.383 8 116440294.280 8     -1411.504          51.000
C25  22587982.922 6 117621551.752 6      1512.957          41.000
E01  25282112.055 7 132858405.359 7     -2109.391          42.000    25282114.164 6 101800619.878 6     -1616.265          36.000
E04  25091471.539 8 131856552.428 8     -2300.184          49.000    25091473.133 8 101032925.173 8     -1762.469          51.000
E09  21593557.000 8 113474914.135 8       277.547          51.000    21593558.469 8  86948301.385 8       212.681          51.000
E24  24354281.234 7 127982644.860 7      2582.910          44.000    24354298.242 7  98064614.653 7      1979.053          46.000
E31  23431105.156 8 123131291.058 8       455.770          51.000    23431107.656 8  94347364.143 8       349.235          51.000
> 2020 05 10 05 19  0.0000000  0 16        .000000000000
G13  20208313.461 8 106195404.980 8      -559.008          51.000    20208310.648 8  82749644.308 8      -435.591          49.000
G17  23686039.305 5 124470992.757 5      2478.016          35.000    23686039.602 5  96990369.959 5      1930.921          35.000
G28  21308526.531 6 111977060.462 6     -1574.707          39.000    21308525.898 6  87254843.391 6     -1227.041          37.000
R03  21491685.289 8 115046648.868 8     -3882.543          51.000    21491681.625 6  89480729.125 6     -3019.759          38.000
R04  19268170.664 8 103180191.783 8      -394.934          51.000    19268170.883 7  80251249.027 7      -307.171          46.000
R14  19278835.469 7 102767066.479 7      -158.590          47.000    19278837.023 7  79929975.334 7      -123.348          42.000
R15  21576620.531 8 115298927.243 8      2990.090          48.000    21576622.367 6  89676952.237 6      2325.628          41.000
C05  39780342.289 5 207146681.126 5        21.016          35.000    39780341.336 6 160178926.718 6        16.296          39.000
C14  24172786.016 6 125874031.116 6     -3185.652          40.000    24172788.047 7  97333767.083 7     -2463.421          45.000
C24  22369287.008 8 116482766.978 8     -1418.652          51.000
C25  22579294.797 6 117576305.078 6      1505.109          41.000
E01  25294172.133 7 132921782.478 7     -2114.496          43.000    25294175.945 6 101849181.527 6     -1620.234          36.000
E04  25104626.969 7 131925689.063 7     -2307.492          47.000    25104629.031 8 101085899.950 8     -1768.028          50.000
E09  21592007.539 8 113466772.509 8       266.578          51.000    21592008.828 8  86942062.989 8       204.264          51.000
E24  24339555.664 7 127905257.594 7      2577.562          46.000    24339573.297 7  98005317.918 7      1975.075          46.000
E31  23428537.148 8 123117796.268 8       445.352          51.000    23428539.789 8  94337023.996 8       341.255          51.000
> 2020 05 10 05 19 30.0000000  0 17        .000000000000
G13  20211544.320 8 106212383.232 8      -574.016          51.000    20211541.500 8  82762874.097 8      -447.285          50.000
G17  23671913.898 6 124396765.007 6      2468.641          36.000    23671912.633 5  96932530.123 5      1923.616          35.000
G28  21317556.352 6 112024512.524 6     -1589.547          41.000    21317555.852 6  87291819.007 6     -1238.605          36.000
G30  23228015.469 5 122064007.108 5     -2767.691          35.000    23228019.219 5  95114837.044 5     -2156.646          33.000
R03  21513477.383 8 115163301.958 8     -3895.363          49.000    21513474.711 7  89571459.242 7     -3029.727          42.000
R04  19270453.125 8 103192415.816 8      -421.148          51.000    19270453.727 7  80260756.582 7      -327.560          46.000
R14  19279773.789 7 102772069.054 7      -176.078          45.000    19279775.445 7  79933866.181 7      -136.950          42.000
R15  21559863.695 8 115209384.137 8      2978.430          49.000    21559865.625 7  89607307.648 7      2316.559          43.000
C05                                                                  39780216.250 6 160178422.823 6        16.447          39.000
C14  24191153.766 6 125969679.918 6     -3191.930          40.000    24191156.133 7  97407728.837 7     -2468.082          44.000
C24  22377480.500 8 116525432.347 8     -1426.680          51.000
C25  22570649.469 6 117531281.775 6      1495.762          40.000
E01  25306257.188 7 132985291.008 7     -2120.469          42.000    25306262.266 5 101897843.844 5     -1624.637          35.000
E04  25117818.945 7 131995019.274 7     -2315.590          45.000    25117821.922 8 101139023.069 8     -1774.280          50.000
E09  21590516.633 8 113458937.729 8       254.738          51.000    21590517.828 8  86936059.710 8       195.168          51.000
E24  24324856.266 7 127828007.498 7      2571.398          47.000    24324873.469 7  97946126.305 7      1970.220          45.000
E31  23426024.117 8 123104590.815 8       434.008          51.000    23426026.859 8  94326905.539 8       332.572          51.000
> 2020 05 10 05 20  0.0000000  0 17        .000000000000
G13  20214877.258 8 106229897.329 8      -589.762          51.000    20214874.523 8  82776521.438 8      -459.555          50.000
G15  20505858.672 5 107759014.621 5      1067.277          34.000
G17  23657855.664 6 124322887.940 6      2460.129          38.000    23657853.352 6  96874963.641 6      1916.987          38.000
G28  21326686.250 6 112072490.533 6     -1604.738          40.000    21326686.039 6  87329204.483 6     -1250.442          39.000
R03  21535356.406 7 115280425.306 7     -3908.859          45.000    21535356.492 7  89662555.147 7     -3040.224          45.000
R04  19272898.773 8 103205512.385 8      -448.070          51.000    19272899.219 7  80270942.788 7      -348.499          46.000
R14  19280826.328 7 102777682.121 7      -194.246          45.000    19280828.695 7  79938231.875 7      -151.083          42.000
R15  21543188.484 8 115120277.703 8      2965.926          49.000    21543190.961 7  89538002.652 7      2306.828          43.000
C05  39780107.531 6 207145458.516 6        20.535          36.000    39780106.875 6 160177982.067 6        16.012          39.000
C14  24209574.516 7 126065596.926 7     -3198.773          43.000    24209575.453 7  97481897.988 7     -2473.398          42.000
C24  22385736.055 8 116568421.339 8     -1435.379          51.000
C25  22562072.828 6 117486613.967 6      1485.883          40.000
E01  25318392.492 6 133049062.793 6     -2126.953          39.000    25318397.367 5 101946707.902 5     -1629.965          35.000
E04  25131073.688 7 132064675.516 7     -2324.371          47.000    25131077.141 8 101192396.050 8     -1781.012          51.000
E09  21589109.789 8 113451543.850 8       242.109          51.000    21589110.953 8  86930394.259 8       185.500          51.000
E24  24310208.250 7 127751028.610 7      2564.383          47.000    24310223.797 7  97887142.506 7      1964.929          43.000
E31  23423591.500 8 123091807.531 8       422.137          51.000    23423594.094 8  94317110.561 8       323.411          51.000
> 2020 05 10 05 20 30.0000000  0 18        .000000000000
G05  24020284.484 5 126227446.194 5     -3616.688          30.000
G13  20218289.492 8 106247828.424 8      -606.715          51.000    20218286.906 8  82790493.709 8      -472.768          50.000
G15  20499813.438 5 107727259.830 5      1049.832          33.000    20499815.891 5  83943312.642 5       818.048          33.000
G17  23643841.977 6 124249245.841 6      2448.719          37.000    23643835.648 5  96817580.164 5      1908.102          32.000
G28  21335893.156 6 112120873.181 6     -1621.664          40.000    21335893.031 6  87366905.271 6     -1263.631          37.000
R03  21557299.469 6 115397894.229 6     -3923.672          37.000    21557302.305 7  89753919.821 7     -3051.745          46.000
R04  19275484.617 8 103219360.279 8      -476.219          51.000    19275484.969 7  80281713.352 7      -370.392          46.000
R14  19281970.469 7 102783783.673 7      -213.488          44.000    19281973.375 6  79942977.527 6      -166.046          41.000
R15  21526572.617 8 115031487.993 8      2952.258          49.000    21526575.500 7  89468943.992 7      2296.201          43.000
C05  39779991.078 5 207144852.246 5        18.758          35.000    39779990.375 6 160177513.235 6        14.441          39.000
C14  24228024.516 7 126161662.194 7     -3206.621          46.000    24228022.984 6  97556181.762 6     -2479.578          40.000
C24  22394030.805 8 116611614.792 8     -1445.184          51.000
C25  22553540.758 6 117442183.662 6      1475.199          40.000
E01  25330555.789 6 133112977.254 6     -2134.766          36.000    25330558.688 6 101995681.352 6     -1635.996          36.000
E04  25144368.812 8 132134537.985 8     -2334.258          50.000    25144372.094 8 101245927.026 8     -1788.608          51.000
E09  21587764.352 8 113444472.512 8       228.281          51.000    21587765.352 8  86924975.963 8       174.893          51.000
E24  24295588.688 7 127674202.583 7      2556.242          47.000    24295602.180 7  97828275.838 7      1958.682          43.000
E31  23421216.477 8 123079326.917 8       408.910          51.000    23421219.031 8  94307547.491 8       313.342          51.000
> 2020 05 10 05 21  0.0000000  0 17        .000000000000
G13  20221789.133 8 106266219.046 8      -620.367          51.000    20221786.727 8  82804824.046 8      -483.403          50.000
G15  20493863.047 5 107695985.705 5      1035.211          33.000    20493864.500 5  83918943.118 5       806.655          34.000
G17  23629880.195 5 124175882.818 5      2440.789          35.000
G28  21345184.836 6 112169700.815 6     -1635.055          40.000    21345184.391 6  87404952.760 6     -1274.069          39.000
R03  21579307.539 6 115515748.144 6     -3934.582          37.000    21579319.164 7  89845584.183 7     -3060.230          46.000
R04  19278218.953 8 103234002.597 8      -500.918          50.000    19278219.320 7  80293101.820 7      -389.600          46.000
R14  19283214.383 7 102790414.794 7      -229.363          45.000    19283217.727 7  79948135.054 7      -178.394          42.000
R15  21510024.633 8 114943058.784 8      2941.945          50.000    21510027.969 7  89400165.743 7      2288.183          45.000
C05  39779875.695 6 207144251.249 6        20.484          36.000    39779874.859 6 160177048.534 6        15.807          39.000
C14  24246510.406 7 126257915.325 7     -3211.125          46.000    24246506.180 5  97630610.720 5     -2482.901          34.000
C24  22402372.617 8 116655053.287 8     -1451.633          51.000
C25  22545061.859 6 117398032.555 6      1467.562          41.000
E01  25342753.695 6 133177075.139 6     -2139.402          38.000    25342754.914 5 102044795.298 5     -1639.013          35.000
E04  25157711.641 8 132204647.940 8     -2340.727          51.000    25157714.055 8 101299647.622 8     -1793.511          51.000
E09  21586488.305 8 113437766.548 8       217.809          51.000    21586489.250 8  86919837.613 8       166.889          51.000
E24  24281005.805 7 127597572.209 7      2551.406          46.000    24281018.430 7  97769559.075 7      1955.102          43.000
E31  23418906.914 8 123067190.541 8       399.199          51.000    23418909.594 8  94298248.187 8       305.886          51.000
> 2020 05 10 05 21 30.0000000  0 18        .000000000000
G13  20225375.859 8 106285067.096 8      -636.293          51.000    20225373.703 8  82819510.822 8      -495.813          50.000
G15  20488004.477 5 107665190.412 5      1017.332          31.000    20488006.438 5  83894956.137 5       792.726          31.000
G17  23615970.641 5 124102799.613 5      2430.785          34.000    23615966.969 5  96703432.246 5      1894.118          33.000
G19  24810197.930 7 130378469.382 7      3439.953          47.000    24810192.609 6 101593591.041 6      2680.486          39.000
G28  21354560.375 6 112218968.681 6     -1649.070          40.000    21354559.781 6  87443343.316 6     -1284.987          37.000
R03  21601393.438 7 115633981.370 7     -3947.762          44.000    21601406.430 7  89937543.326 7     -3070.484          46.000
R04  19281100.812 8 103249437.048 8      -528.098          49.000    19281101.555 7  80305106.389 7      -410.743          46.000
R14  19284556.422 7 102797571.278 7      -247.758          44.000    19284560.500 7  79953701.185 7      -192.701          42.000
R15  21493544.047 8 114854988.315 8      2929.375          50.000    21493548.016 7  89331666.494 7      2278.403          45.000
C05  39779760.852 6 207143653.121 6        19.438          36.000    39779760.008 6 160176586.004 6        14.967          39.000
C14  24265031.125 7 126354351.692 7     -3218.023          47.000    24265039.938 4  97705243.583 4     -2488.374          28.000
C24  22410760.820 8 116698733.068 8     -1460.359          51.000
C25  22536635.625 6 117354158.102 6      1457.617          40.000
E01  25354985.047 6 133241352.495 6     -2146.000          40.000    25354985.289 5 102094046.773 5     -1644.272          34.000
E04  25171100.789 8 132275002.004 8     -2349.523          51.000    25171102.242 8 101353555.253 8     -1800.281          51.000
E09  21585281.281 8 113431424.072 8       205.066          51.000    21585282.539 8  86914977.778 8       157.096          51.000
E24  24266459.547 7 127521135.660 7      2544.348          45.000    24266473.086 7  97710990.799 7      1949.592          45.000
E31  23416662.484 8 123055395.342 8       387.141          51.000    23416665.203 8  94289210.294 8       296.676          51.000
> 2020 05 10 05 22  0.0000000  0 18        .000000000000
G13  20229044.344 8 106304344.906 8      -651.902          51.000    20229042.406 8  82834532.488 8      -507.976          50.000
G15  20482234.047 5 107634871.275 5      1001.219          30.000    20482236.742 4  83871330.843 4       780.170          29.000
G17  23602110.820 5 124029971.693 5      2420.883          34.000    23602111.250 5  96646683.201 5      1886.402          34.000
G19  24790554.500 8 130275240.684 8      3438.957          48.000    24790549.344 6 101513153.113 6      2679.707          38.000
G28  21364014.117 5 112268647.172 5     -1665.480          35.000    21364013.273 5  87482053.872 5     -1297.771          35.000
R03  21623546.992 7 115752562.460 7     -3960.617          47.000    21623558.258 7  90029772.990 7     -3080.483          46.000
R04  19284125.391 8 103265635.190 8      -554.848          49.000    19284126.492 7  80317704.943 7      -431.548          46.000
R14  19285992.250 7 102805223.574 7      -265.586          46.000    19285995.969 7  79959652.973 7      -206.570          42.000
R15  21477125.008 8 114767249.531 8      2916.844          49.000    21477130.078 7  89263425.223 7      2268.653          45.000
C05  39779641.234 6 207143030.200 6        18.734          36.000    39779640.352 6 160176104.294 6        14.647          39.000
C14  24283580.562 7 126450941.777 7     -3224.211          45.000    24283586.023 6  97779932.588 6     -2493.222          39.000
C24  22419189.891 8 116742625.523 8     -1468.777          51.000
C25  22528257.156 6 117310532.891 6      1447.867          39.000
E01  25367244.633 6 133305780.082 6     -2152.191          40.000    25367244.492 5 102143413.336 5     -1649.180          33.000
E04  25184530.172 8 132345571.575 8     -2358.074          51.000    25184531.445 8 101407627.994 8     -1806.797          51.000
E09  21584138.320 8 113425418.054 8       192.484          51.000    21584139.695 8  86910375.746 8       147.473          51.000
E24  24251945.195 7 127444865.879 7      2537.500          44.000    24251960.273 7  97652550.278 7      1944.318          46.000
E31  23414477.570 8 123043913.107 8       375.363          51.000    23414480.391 8  94280412.218 8       287.649          51.000
> 2020 05 10 05 22 30.0000000  0 18        .000000000000
G13  20232803.695 8 106324100.652 8      -665.742          51.000    20232802.023 8  82849926.571 8      -518.760          49.000
G15  20476561.875 5 107605056.813 5       985.004          34.000    20476564.328 5  83848104.788 5       767.542          34.000
G17  23588309.945 4 123957449.078 4      2411.664          28.000    23588311.648 4  96590172.025 4      1879.219          27.000
G19  24770918.484 8 130172052.381 8      3439.594          48.000    24770914.297 6 101432746.648 6      2680.203          40.000
G28  21373554.227 6 112318781.924 6     -1678.383          36.000    21373553.227 5  87521119.903 5     -1307.828          35.000
R03  21645774.750 8 115871536.259 8     -3971.484          48.000    21645783.414 7  90122308.093 7     -3088.935          46.000
R04  19287301.836 8 103282645.815 8      -579.797          48.000    19287302.805 7  80330935.464 7      -450.950          45.000
R14  19287529.789 7 102813418.330 7      -281.219          46.000    19287533.375 7  79966026.664 7      -218.726          42.000
R15  21460777.602 8 114679891.741 8      2906.340          50.000    21460782.883 7  89195480.221 7      2260.487          44.000
C05  39779525.984 6 207142429.806 6        20.082          36.000    39779525.023 6 160175640.018 6        15.767          39.000
C14  24302167.500 7 126547730.814 7     -3228.918          45.000    24302171.516 7  97854775.948 7     -2496.629          43.000
C24  22427668.578 8 116786776.655 8     -1475.289          51.000
C25  22519935.930 6 117267204.002 6      1439.840          39.000
E01  25379541.773 6 133370404.148 6     -2156.742          41.000    25379541.992 5 102192930.406 5     -1652.488          34.000
E04  25198009.195 8 132416403.413 8     -2364.762          51.000    25198010.609 8 101461901.713 8     -1811.954          51.000
E09  21583068.719 8 113419796.823 8       181.703          51.000    21583069.789 8  86906068.560 8       139.191          51.000
E24  24237472.250 7 127368811.185 7      2532.293          45.000    24237488.086 7  97594274.552 7      1940.370          46.000
E31  23412361.109 8 123032790.973 8       365.527          51.000    23412364.023 8  94271890.067 8       280.043          51.000
> 2020 05 10 05 23  0.0000000  0 17        .000000000000
G13  20236644.547 8 106344284.771 8      -680.223          51.000    20236643.406 8  82865654.448 8      -530.044          50.000
G15  20470978.555 5 107575718.330 5       970.738          31.000    20470980.961 4  83825242.210 4       756.413          29.000
G19  24751281.188 7 130068857.497 7      3439.762          47.000    24751278.625 7 101352335.090 7      2680.337          43.000
G28  21383170.578 5 112369317.771 5     -1691.902          33.000    21383170.469 5  87560499.878 5     -1318.362          31.000
R03  21668065.648 8 115990848.614 8     -3982.957          49.000    21668071.914 7  90215106.522 7     -3097.859          45.000
R04  19290620.594 8 103300417.968 8      -605.375          49.000    19290622.109 7  80344758.227 7      -470.847          46.000
R14  19289159.516 7 102822103.225 7      -298.004          46.000    19289162.664 7  79972781.564 7      -231.781          42.000
R15  21444492.570 8 114592864.984 8      2895.102          50.000    21444496.602 6  89127792.747 6      2251.746          41.000
C05                                                                  39779404.492 6 160175154.696 6        16.196          39.000
C14  24320782.641 7 126644667.027 7     -3233.855          43.000    24320785.109 7  97929733.197 7     -2500.643          44.000
C24  22436187.078 8 116831135.732 8     -1482.328          51.000
C25  22511662.734 6 117224121.798 6      1431.523          39.000
E01  25391866.500 6 133435173.106 6     -2161.801          39.000    25391868.367 6 102242558.548 6     -1656.322          36.000
E04  25211528.086 8 132487446.607 8     -2371.891          51.000    25211530.039 8 101516337.373 8     -1817.450          51.000
E09  21582062.930 8 113414510.992 8       170.344          51.000    21582063.875 8  86902018.365 8       130.532          51.000
E24  24223031.180 7 127292922.145 7      2526.586          46.000    24223046.812 7  97536125.798 7      1935.994          47.000
E31  23410303.602 8 123021978.386 8       355.039          51.000    23410306.492 8  94263605.086 8       272.022          51.000
> 2020 05 10 05 23 30.0000000  0 18        .000000000000
G13  20240571.422 8 106364921.116 8      -694.844          51.000    20240570.898 8  82881734.698 8      -541.437          50.000
G15  20465488.312 5 107546866.197 5       952.965          31.000    20465490.492 5  83802760.606 5       742.564          31.000
G17  23560865.133 5 123813183.693 5      2395.035          32.000
G19  24731647.906 7 129965683.223 7      3439.297          47.000    24731646.211 7 101271939.595 7      2679.975          43.000
G28  21392870.555 6 112420283.222 6     -1705.418          37.000    21392868.703 5  87600213.298 5     -1328.891          35.000
R03  21690423.117 7 116110520.770 7     -3994.535          46.000    21690427.375 7  90308184.821 7     -3106.861          43.000
R04  19294086.641 8 103318976.122 8      -631.168          49.000    19294088.172 7  80359192.344 7      -490.908          46.000
R14  19290885.133 7 102831301.108 7      -314.684          47.000    19290888.156 7  79979935.496 7      -244.754          42.000
R15  21428273.500 8 114506194.848 8      2883.582          48.000    21428274.758 6  89060382.690 6      2242.789          39.000
C05  39779284.500 6 207141172.313 6        21.875          36.000    39779283.430 6 160174666.876 6        16.640          39.000
C14  24339430.047 6 126741772.326 6     -3239.008          41.000    24339431.281 7  98004821.197 7     -2504.652          45.000
C24  22444749.953 8 116875725.500 8     -1489.602          51.000
C25  22503441.867 6 117181310.255 6      1423.109          39.000
E01  25404223.375 5 133500109.682 5     -2166.742          34.000    25404227.359 6 102292315.109 6     -1660.045          37.000
E04  25225091.758 8 132558724.384 8     -2379.227          51.000    25225093.828 8 101570952.795 8     -1823.023          51.000
E09  21581125.570 8 113409585.389 8       158.691          51.000    21581126.594 8  86898244.182 8       121.607          51.000
E24  24208626.656 7 127217223.647 7      2520.688          47.000    24208641.188 7  97478123.056 7      1931.442          47.000
E31  23408309.305 8 123011498.950 8       344.324          51.000    23408312.219 8  94255575.371 8       263.815          51.000
> 2020 05 10 05 24  0.0000000  0 18        .000000000000
G13  20244583.906 8 106386007.002 8      -710.707          51.000    20244583.656 8  82898165.243 8      -553.798          50.000
G15  20460091.430 6 107518503.721 6       936.801          37.000    20460093.141 6  83780659.974 6       729.975          38.000
G17  23547223.141 6 123741489.270 6      2384.855          37.000    23547224.914 6  96421936.824 6      1858.335          37.000
G19  24712018.484 7 129862529.597 7      3437.688          47.000    24712017.133 6 101191560.148 6      2678.718          41.000
G28  21402650.539 5 112471669.581 5     -1721.152          35.000    21402646.398 5  87640254.629 5     -1341.152          33.000
R03  21712845.891 7 116230546.030 7     -4007.074          44.000    21712848.250 7  90401537.734 7     -3116.613          42.000
R04  19297698.625 8 103338317.225 8      -658.078          50.000    19297700.258 7  80374235.380 7      -511.839          46.000
R14  19292706.273 7 102841007.243 7      -332.305          47.000    19292708.766 7  79987484.708 7      -258.459          42.000
R15  21412119.727 7 114419878.979 7      2870.906          47.000    21412119.672 6  88993248.184 6      2232.927          40.000
C05  39779162.102 5 207140535.034 5        20.633          35.000    39779160.977 6 160174174.054 6        16.356          39.000
C14  24358108.875 6 126839041.438 6     -3245.211          40.000    24358109.672 7  98080035.856 7     -2509.521          46.000
C24  22453356.477 8 116920541.590 8     -1498.031          51.000
C25  22495271.781 6 117138766.054 6      1413.570          37.000
E01                                                                  25416616.609 6 102342196.580 6     -1664.993          37.000
E04  25238699.234 8 132630232.692 8     -2387.770          51.000    25238701.109 8 101625744.873 8     -1829.569          51.000
E09  21580256.211 8 113405017.413 8       145.973          51.000    21580257.234 8  86894744.033 8       111.858          51.000
E24  24194257.633 7 127141713.088 7      2513.535          47.000    24194270.859 7  97420264.339 7      1925.967          47.000
E31  23406377.570 8 123001348.880 8       332.531          51.000    23406380.781 8  94247798.029 8       254.791          51.000
> 2020 05 10 05 24 30.0000000  0 19        .000000000000
G13  20248686.539 8 106407566.060 8      -725.422          51.000    20248686.312 8  82914964.489 8      -565.264          50.000
G15  20454791.875 5 107490654.024 5       920.641          35.000    20454793.398 5  83758958.897 5       717.379          35.000
G17  23533638.859 6 123670105.584 6      2375.402          36.000    23533642.242 5  96366313.210 5      1850.969          31.000
G19  24692397.961 7 129759423.088 7      3437.230          46.000    24692396.703 6 101111217.350 6      2678.361          39.000
G24  22776568.117 5 119691673.180 5      2786.512          33.000
G28  21412513.164 6 112523498.156 6     -1733.965          39.000    21412509.211 6  87680640.534 6     -1351.141          36.000
R03  21735338.273 7 116350944.657 7     -4018.277          43.000    21735339.227 7  90495181.079 7     -3125.330          43.000
R04  19301461.672 8 103358464.624 8      -683.855          51.000    19301462.797 7  80389905.578 7      -531.888          46.000
R14  19294626.438 8 102851243.467 8      -348.867          48.000    19294628.844 7  79995446.217 7      -271.341          43.000
R15  21396037.281 8 114333941.953 8      2859.457          48.000    21396038.031 7  88926408.291 7      2224.022          42.000
C05  39779042.930 5 207139914.319 5        21.402          35.000    39779041.750 6 160173694.074 6        16.658          39.000
C14  24376823.203 6 126936495.507 6     -3250.664          38.000    24376824.203 7  98155393.471 7     -2513.302          45.000
C24  22462010.797 8 116965605.969 8     -1505.148          51.000
C25  22487157.852 6 117096512.422 6      1404.977          39.000
E01  25429035.266 5 133630482.622 5     -2178.820          33.000    25429039.172 6 102392219.698 6     -1668.812          36.000
E04  25252354.930 8 132701994.004 8     -2395.039          51.000    25252356.852 8 101680730.808 8     -1835.178          51.000
E09  21579459.508 8 113400831.082 8       134.418          51.000    21579460.594 8  86891536.309 8       103.017          51.000
E24  24179928.258 7 127066414.475 7      2507.723          46.000    24179941.078 7  97362568.037 7      1921.439          47.000
E31  23404512.906 8 122991551.005 8       321.926          51.000    23404516.484 8  94240290.554 8       246.742          51.000
> 2020 05 10 05 25  0.0000000  0 17        .000000000000
G13  20252878.031 8 106429592.187 8      -741.887          51.000    20252877.500 8  82932127.700 8      -578.094          51.000
G15  20449588.727 6 107463312.549 6       903.398          36.000    20449590.078 6  83737653.816 6       703.947          36.000
G19  24672785.680 7 129656360.412 7      3434.871          45.000    24672784.445 6 101030908.717 6      2676.523          39.000
G28  21422458.656 6 112575761.103 6     -1748.930          38.000    21422454.836 6  87721364.926 6     -1362.802          38.000
R03  21757897.961 7 116471707.265 7     -4031.199          44.000    21757899.188 7  90589107.541 7     -3135.377          44.000
R04  19305373.922 8 103379412.200 8      -711.438          51.000    19305374.812 7  80406198.094 7      -553.343          47.000
R14  19296644.977 7 102862001.959 7      -367.238          46.000    19296647.492 7  80003813.921 7      -285.630          43.000
R15  21380025.078 7 114248378.241 7      2846.027          47.000    21380027.094 7  88859858.754 7      2213.577          44.000
C05  39778925.758 6 207139305.039 6        20.414          36.000    39778924.594 6 160173222.159 6        15.616          39.000
C14  24395571.547 6 127034126.205 6     -3257.496          37.000    24395572.453 7  98230887.695 7     -2518.679          43.000
C24  22470711.398 8 117010911.336 8     -1514.020          51.000
C25  22479098.859 6 117054543.181 6      1394.207          41.000
E01  25441491.984 6 133695942.246 6     -2184.785          36.000    25441494.508 6 102442378.610 6     -1673.814          36.000
E04  25266057.672 8 132774001.209 8     -2404.316          51.000    25266059.492 8 101735905.143 8     -1842.244          51.000
E09  21578734.398 8 113397020.815 8       120.844          51.000    21578735.602 8  86888616.746 8        92.604          51.000
E24  24165638.055 7 126991322.281 7      2499.707          47.000    24165651.289 7  97305029.872 7      1915.417          47.000
E31  23402714.227 8 122982098.533 8       309.422          51.000    23402717.539 8  94233047.739 8       237.084          51.000
> 2020 05 10 05 25 30.0000000  0 17        .000000000000
G13  20257152.875 8 106452056.147 8      -756.531          51.000    20257152.109 8  82949632.077 8      -589.505          51.000
G15  20444477.086 5 107436450.660 5       886.703          35.000    20444478.625 5  83716722.482 5       690.938          35.000
G19  24653176.164 7 129553315.345 7      3434.137          43.000    24653174.852 6 100950613.840 6      2675.951          39.000
G28  21432479.961 6 112628426.560 6     -1762.703          40.000    21432477.016 6  87762403.007 6     -1373.532          37.000
R03  21780518.414 7 116592800.315 7     -4042.367          42.000    21780520.773 7  90683291.037 7     -3144.063          44.000
R04  19309429.852 8 103401129.323 8      -737.203          51.000    19309430.281 7  80423089.172 7      -573.380          47.000
R14  19298755.055 7 102873250.958 7      -383.613          46.000    19298757.633 7  80012563.169 7      -298.366          42.000
R15  21364077.602 7 114163159.013 7      2834.398          47.000    21364080.328 7  88793577.136 7      2204.529          44.000
C05  39778804.953 5 207138675.909 5        20.754          35.000    39778803.711 6 160172735.660 6        16.084          39.000
C14  24414347.492 5 127131902.168 5     -3261.945          34.000    24414348.945 7  98306494.307 7     -2522.316          43.000
C24  22479452.344 8 117056427.277 8     -1521.152          51.000
C25  22471088.812 6 117012828.839 6      1386.105          40.000
E01  25453976.219 5 133761550.168 5     -2189.484          35.000    25453978.219 6 102492649.625 6     -1677.869          37.000
E04  25279801.297 8 132846223.897 8     -2411.391          51.000    25279802.578 8 101791244.579 8     -1847.695          51.000
E09  21578075.352 8 113393557.685 8       109.258          51.000    21578076.773 8  86885963.163 8        83.714          51.000
E24  24151382.094 8 126916407.591 8      2493.773          48.000    24151395.836 8  97247627.713 8      1910.813          48.000
E31  23400975.625 8 122972961.389 8       298.832          51.000    23400978.406 8  94226046.541 8       229.035          51.000
> 2020 05 10 05 26  0.0000000  0 17        .000000000000
G13  20261513.656 8 106474971.125 8      -771.254          51.000    20261512.805 8  82967487.898 8      -600.977          51.000
G15  20439460.000 6 107410082.842 6       870.902          38.000    20439460.922 6  83696176.070 6       678.625          37.000
G19  24633572.812 7 129450303.828 7      3433.062          42.000    24633571.039 6 100870345.113 6      2675.117          38.000
G28  21442580.250 7 112681505.287 7     -1775.688          42.000    21442577.211 6  87803763.000 6     -1383.653          37.000
R03  21803202.367 7 116714233.493 7     -4053.309          43.000    21803205.805 7  90777739.066 7     -3152.573          43.000
R04  19313631.555 8 103423629.352 8      -762.965          51.000    19313632.289 7  80440589.176 7      -593.417          47.000
R14  19300959.547 7 102885002.067 7      -399.945          45.000    19300961.859 7  80021702.879 7      -311.072          42.000
R15  21348196.773 7 114078297.927 7      2822.836          47.000    21348200.539 7  88727574.089 7      2195.539          45.000
C05  39778683.094 6 207138040.732 6        21.664          36.000    39778681.648 6 160172244.505 6        16.507          39.000
C14  24433152.789 5 127229834.242 5     -3266.238          32.000    24433155.859 6  98382221.603 6     -2526.261          40.000
C24  22488235.742 8 117102165.457 8     -1528.211          51.000
C25  22463129.180 6 116971382.412 6      1377.094          39.000
E01  25466485.734 5 133827277.899 5     -2194.469          30.000    25466492.789 6 102543041.546 6     -1681.805          37.000
E04  25293587.797 8 132918674.153 8     -2418.656          50.000    25293588.695 8 101846758.366 8     -1853.271          50.000
E09  21577484.992 8 113390455.323 8        97.434          51.000    21577486.531 8  86883586.013 8        74.693          51.000
E24  24137162.961 8 126841684.068 8      2487.617          50.000    24137176.906 8  97190372.023 8      1906.087          48.000
E31  23399299.328 8 122964151.989 8       288.258          51.000    23399302.008 8  94219296.487 8       220.864          51.000
> 2020 05 10 05 26 30.0000000  0 17        .000000000000
G13  20265961.406 8 106498343.567 8      -786.355          51.000    20265960.406 8  82985700.180 8      -612.745          51.000
G15  20434538.430 6 107384216.650 6       854.648          38.000    20434538.391 6  83676020.578 6       665.960          39.000
G19  24613978.219 7 129347335.557 7      3432.051          43.000    24613976.289 6 100790110.099 6      2674.325          39.000
G28  21452759.992 6 112735001.718 6     -1789.793          41.000    21452757.070 6  87845448.554 6     -1394.644          37.000
R03  21825950.461 7 116836010.012 7     -4064.430          42.000    21825954.875 6  90872454.190 6     -3161.220          40.000
R04  19317980.344 8 103446918.277 8      -789.059          50.000    19317981.008 7  80458702.778 7      -613.712          46.000
R14  19303258.484 7 102897260.154 7      -416.605          43.000    19303261.695 7  80031236.975 7      -324.023          43.000
R15  21332384.359 7 113993802.837 7      2810.801          47.000    21332388.422 7  88661855.647 7      2186.175          44.000
C05  39778561.094 6 207137405.901 6        21.645          36.000    39778559.773 6 160171753.604 6        16.522          39.000
C14  24451989.477 5 127327926.707 5     -3271.695          31.000    24451992.648 5  98458072.932 5     -2530.115          34.000
C24  22497062.641 8 117148131.096 8     -1535.625          51.000
C25  22455221.391 6 116930210.096 6      1368.199          40.000
E01                                                                  25479038.844 6 102593558.206 6     -1685.915          37.000
E04  25307418.328 8 132991357.469 8     -2426.332          50.000    25307419.375 8 101902450.720 8     -1859.147          49.000
E09  21576964.633 8 113387720.716 8        85.391          51.000    21576966.141 8  86881490.651 8        65.435          51.000
E24  24122981.766 8 126767158.697 8      2481.223          51.000    24122995.516 8  97133268.169 8      1901.161          49.000
E31  23397686.352 8 122955676.161 8       277.340          51.000    23397689.266 8  94212802.025 8       212.498          51.000
> 2020 05 10 05 27  0.0000000  0 17        .000000000000
G13  20270495.664 8 106522171.148 8      -801.895          51.000    20270494.570 8  83004267.124 8      -624.853          51.000
G15  20429711.938 6 107358850.583 6       837.039          40.000    20429710.812 6  83656254.809 6       652.238          40.000
G19  24594392.352 7 129244411.035 7      3429.953          44.000    24594391.188 7 100709909.217 7      2672.691          43.000
G28  21463018.156 7 112788910.830 7     -1803.949          43.000    21463015.945 6  87887455.663 6     -1405.675          37.000
R03  21848761.539 7 116958123.345 7     -4075.938          43.000    21848767.789 6  90967431.289 6     -3170.174          37.000
R04  19322475.672 8 103470992.989 8      -815.625          51.000    19322476.352 7  80477427.542 7      -634.375          46.000
R14  19305652.297 7 102910020.490 7      -433.855          45.000    19305655.742 7  80041161.657 7      -337.443          43.000
R15  21316640.617 7 113909671.221 7      2798.238          47.000    21316644.273 7  88596419.915 7      2176.408          44.000
C05  39778438.531 6 207136768.398 6        21.492          36.000    39778437.320 6 160171260.638 6        16.420          39.000
C14  24470856.906 5 127426174.598 5     -3277.113          31.000    24470863.164 5  98534044.535 5     -2533.966          30.000
C24  22505932.586 8 117194320.089 8     -1543.391          51.000
C25  22447366.633 6 116889308.824 6      1358.953          41.000
E01  25491617.617 5 133959354.239 5     -2205.672          33.000    25491615.148 6 102644196.244 6     -1690.006          36.000
E04  25321293.102 8 133064269.924 8     -2434.246          51.000    25321293.469 8 101958318.662 8     -1865.228          48.000
E09  21576513.922 8 113385351.523 8        72.871          51.000    21576515.406 8  86879675.280 8        55.842          51.000
E24  24108837.938 8 126692829.192 8      2474.430          51.000    24108851.016 8  97076314.404 8      1895.923          49.000
E31  23396136.188 8 122947530.389 8       265.996          51.000    23396139.094 8  94206560.450 8       203.821          51.000
> 2020 05 10 05 27 30.0000000  0 18        .000000000000
G13  20275115.633 8 106546449.319 8      -817.332          51.000    20275114.336 8  83023185.180 8      -636.885          50.000
G15  20424979.312 6 107333981.135 6       820.375          39.000    20424978.352 6  83636876.013 6       639.250          39.000
G19  24574814.672 7 129141528.618 7      3428.047          45.000    24574814.391 7 100629741.122 7      2671.208          44.000
G28  21473353.969 6 112843226.302 6     -1817.828          39.000    21473351.812 6  87929779.389 6     -1416.486          38.000
G30  23483401.953 5 123406102.881 5     -2821.910          35.000    23483398.734 5  96160597.734 5     -2198.891          34.000
R03  21871635.938 7 117080565.980 7     -4087.398          45.000
R04  19327116.945 8 103495848.523 8      -842.020          51.000    19327117.633 7  80496759.626 7      -654.901          46.000
R14  19308138.898 7 102923276.951 7      -450.477          44.000    19308142.641 7  80051472.184 7      -350.374          43.000
R15  21300964.430 7 113825899.615 7      2785.906          47.000    21300967.953 7  88531264.240 7      2166.816          44.000
C05  39778314.742 6 207136123.913 6        20.969          36.000    39778313.570 6 160170762.258 6        16.278          39.000
C14  24489754.992 5 127524571.494 5     -3283.148          30.000    24489766.727 5  98610131.286 5     -2538.195          31.000
C24  22514844.672 8 117240726.980 8     -1550.984          51.000
C25  22439563.703 7 116848674.321 7      1349.609          42.000
E01  25504222.445 6 134025592.853 6     -2211.012          36.000    25504220.367 5 102694951.240 5     -1693.942          35.000
E04  25335211.000 8 133137406.264 8     -2442.027          51.000    25335209.766 7 102014358.170 7     -1871.281          47.000
E09  21576132.008 8 113383343.964 8        60.418          51.000    21576133.539 8  86878137.006 8        46.306          51.000
E24  24094730.477 8 126618691.791 8      2467.586          51.000    24094742.852 8  97019507.820 8      1890.757          49.000
E31  23394647.945 8 122939709.664 8       254.832          51.000    23394650.734 8  94200567.943 8       195.258          51.000
> 2020 05 10 05 28  0.0000000  0 17        .000000000000
G13  20279823.711 8 106571190.542 8      -832.547          51.000    20279822.305 8  83042464.041 8      -648.738          50.000
G15  20420344.023 6 107309622.075 6       803.328          41.000    20420343.266 6  83617894.911 6       625.973          41.000
G19  24555247.922 7 129038704.001 7      3426.355          44.000    24555248.242 7 100549618.063 7      2669.887          44.000
G28  21483768.609 7 112897958.243 7     -1831.516          43.000    21483766.539 5  87972427.679 5     -1427.158          35.000
R03  21894574.125 8 117203346.897 8     -4098.461          48.000    21894572.352 5  91158142.239 5     -3187.695          33.000
R04  19331906.172 8 103521497.454 8      -868.402          50.000    19331907.477 7  80516708.772 7      -675.424          46.000
R14  19310720.422 7 102937040.241 7      -467.340          44.000    19310724.766 7  80062176.986 7      -363.487          43.000
R15  21285357.750 7 113742501.609 7      2773.512          47.000    21285361.750 7  88466399.134 7      2157.173          44.000
C05  39778191.930 6 207135483.709 6        21.070          36.000    39778190.812 6 160170267.988 6        16.332          39.000
C14  24508684.266 5 127623141.557 5     -3288.758          31.000    24508696.469 5  98686341.094 5     -2542.602          35.000
C24  22523800.719 8 117287362.968 8     -1558.535          51.000
C25  22431813.805 6 116808318.807 6      1340.426          41.000
E01  25516858.117 5 134091994.134 5     -2216.750          34.000    25516856.500 5 102745831.638 5     -1698.369          35.000
E04  25349173.891 8 133210777.986 8     -2449.809          51.000    25349170.859 7 102070578.037 7     -1877.132          47.000
E09  21575821.352 8 113381711.090 8        47.988          51.000    21575822.750 8  86876885.837 8        36.764          51.000
E24  24080661.695 8 126544759.595 8      2460.734          51.000    24080674.164 8  96962858.479 8      1885.540          50.000
E31  23393223.891 8 122932225.893 8       243.660          51.000    23393226.578 8  94194833.625 8       186.695          51.000
> 2020 05 10 05 28 30.0000000  0 17        .000000000000
G13  20284618.031 8 106596384.839 8      -847.816          51.000    20284616.617 8  83062095.947 8      -660.636          49.000
G15  20415804.031 6 107285764.481 6       786.566          39.000    20415802.844 6  83599304.570 6       612.909          39.000
G19  24535690.672 7 128935930.018 7      3424.465          43.000    24535691.289 7 100469534.430 7      2668.411          43.000
G28  21494260.688 6 112953094.401 6     -1845.359          41.000    21494259.875 5  88015390.879 5     -1437.939          35.000
R03  21917572.828 8 117326452.263 8     -4109.414          50.000    21917572.938 6  91253890.834 6     -3196.214          38.000
R04  19336841.945 8 103547928.793 8      -894.602          51.000    19336843.398 7  80537266.462 7      -695.801          46.000
R14  19313395.750 7 102951298.567 7      -484.020          46.000    19313399.422 7  80073266.773 7      -376.460          42.000
R15  21269819.383 8 113659467.336 8      2761.281          48.000    21269822.914 6  88401816.925 6      2147.663          41.000
C05  39778068.453 5 207134840.605 5        21.309          35.000    39778067.164 6 160169769.932 6        16.157          39.000
C14  24527642.820 5 127721844.438 5     -3292.898          32.000    24527652.289 6  98762664.426 6     -2546.517          38.000
C24  22532798.477 8 117334216.697 8     -1565.902          51.000
C25  22424114.773 6 116768232.027 6      1331.250          41.000
E01                                                                  25529521.273 5 102796828.492 5     -1702.613          34.000
E04  25363179.422 8 133284373.944 8     -2457.453          51.000    25363175.469 8 102126969.721 8     -1883.005          48.000
E09  21575580.000 8 113380443.179 8        35.672          51.000    21575581.391 8  86875914.321 8        27.273          51.000
E24  24066629.914 8 126471022.900 8      2454.039          51.000    24066643.188 8  96906358.953 8      1880.353          50.000
E31  23391861.992 8 122925068.183 8       232.621          51.000    23391864.453 8  94189349.148 8       178.203          51.000
> 2020 05 10 05 29  0.0000000  0 17        .000000000000
G13  20289500.984 8 106622044.693 8      -863.129          51.000    20289499.227 8  83082090.618 8      -672.568          49.000
G15  20411361.836 6 107262421.655 6       769.488          37.000    20411360.289 6  83581115.373 6       599.601          37.000
G19  24516145.383 6 128833222.187 6      3422.340          40.000    24516146.453 6 100389502.326 6      2666.755          40.000
G28  21504831.406 6 113008644.768 6     -1859.062          40.000    21504831.398 5  88058676.931 5     -1448.614          32.000
R03  21940633.672 8 117449891.196 8     -4120.168          50.000    21940634.094 6  91349898.871 6     -3204.575          41.000
R04  19341925.992 8 103575154.486 8      -920.797          50.000    19341927.594 7  80558441.982 7      -716.178          46.000
R14  19316165.570 7 102966062.193 7      -500.531          45.000    19316169.078 7  80084749.616 7      -389.299          43.000
R15  21254351.922 7 113576810.048 7      2748.746          47.000    21254352.281 6  88337527.963 6      2137.917          39.000
C05  39777946.062 6 207134203.671 6        20.895          36.000    39777944.758 6 160169277.383 6        16.015          39.000
C14  24546631.266 4 127820704.290 4     -3297.609          29.000    24546636.891 6  98839109.117 6     -2550.467          37.000
C24  22541840.242 8 117381299.096 8     -1573.285          51.000
C25  22416470.094 7 116728426.020 7      1322.152          43.000
E01  25542214.906 5 134225243.184 5     -2226.715          32.000    25542216.898 5 102847923.964 5     -1706.148          33.000
E04  25377229.617 8 133358205.365 8     -2465.168          51.000    25377226.227 8 102183541.828 8     -1888.898          49.000
E09  21575410.391 8 113379553.010 8        23.172          51.000    21575412.000 8  86875232.222 8        17.764          51.000
E24  24052637.844 8 126397494.554 8      2447.324          51.000    24052651.492 8  96850019.066 8      1875.196          50.000
E31  23390564.273 8 122918248.122 8       221.617          51.000    23390566.680 8  94184123.391 8       169.724          51.000
> 2020 05 10 05 29 30.0000000  0 18        .000000000000
G05  24393256.797 5 128187429.526 5     -3638.496          32.000
G13  20294471.641 8 106648165.362 8      -877.973          51.000    20294469.273 8  83102444.362 8      -684.135          48.000
G15  20407016.859 6 107239590.034 6       752.902          39.000    20407015.781 6  83563324.472 6       586.674          39.000
G19  24496611.898 6 128730578.971 6      3420.504          38.000    24496613.852 6 100309520.597 6      2665.328          38.000
G28  21515479.625 7 113064602.820 7     -1872.000          42.000    21515477.656 4  88102280.520 4     -1458.704          24.000
R03  21963754.766 8 117573655.207 8     -4130.551          49.000    21963755.250 7  91446159.769 7     -3212.651          42.000
R04  19347157.641 8 103603169.041 8      -946.617          49.000    19347159.141 7  80580231.064 7      -736.258          47.000
R14  19319029.430 7 102981325.023 7      -516.676          47.000    19319032.250 7  80096620.693 7      -401.859          43.000
R15  21238953.500 7 113494525.866 7      2736.980          46.000    21238952.445 6  88273529.220 6      2128.763          41.000
C05                                                                  39777822.852 6 160168786.692 6        16.658          39.000
C14  24565647.500 4 127919772.330 4     -3302.148          28.000    24565648.836 6  98915669.971 6     -2553.669          39.000
C24  22550924.977 8 117428604.370 8     -1580.180          51.000
C25  22408878.977 7 116688896.010 7      1313.348          44.000
E01  25554939.438 5 134292119.761 5     -2231.492          34.000    25554942.406 5 102899165.495 5     -1709.976          32.000
E04  25391323.086 8 133432266.564 8     -2472.172          51.000    25391321.305 8 102240289.987 8     -1894.289          51.000
E09  21575311.891 8 113379036.392 8        11.312          51.000    21575313.688 8  86874836.372 8         8.665          51.000
E24  24038684.523 8 126324170.405 8      2441.105          51.000    24038697.812 8  96793835.627 8      1870.457          50.000
E31  23389329.859 8 122911760.365 8       211.094          51.000    23389331.977 8  94179152.239 8       161.720          51.000
> 2020 05 10 05 30  0.0000000  0 18        .000000000000
G13  20299528.047 8 106674736.710 8      -893.520          51.000    20299525.156 8  83123149.289 8      -696.249          48.000
G15  20402767.750 6 107217260.909 6       735.574          41.000    20402766.930 6  83545925.127 6       573.175          41.000
G17  23388034.219 5 122904948.795 5      2260.754          32.000
G19  24477090.453 7 128627993.435 7      3418.414          42.000    24477092.453 7 100229583.796 7      2663.696          42.000
G28  21526203.305 6 113120956.032 6     -1885.484          38.000    21526200.586 5  88146192.058 5     -1469.199          30.000
R03  21986933.383 7 117697730.699 7     -4141.250          47.000    21986935.281 7  91542662.923 7     -3220.972          43.000
R04  19352534.641 8 103631961.826 8      -973.004          50.000    19352535.805 7  80602625.433 7      -756.781          46.000
R14  19321984.125 7 102997074.714 7      -533.402          46.000    19321987.062 7  80108870.470 7      -414.865          43.000
R15  21223622.219 7 113412605.420 7      2724.156          45.000    21223623.680 7  88209813.295 7      2118.788          44.000
C05  39777700.844 5 207132925.977 5        21.105          35.000    39777699.500 6 160168290.140 6        16.480          39.000
C14  24584690.016 5 128018929.435 5     -3307.703          30.000    24584687.773 6  98992337.518 6     -2557.469          39.000
C24  22560050.367 8 117476121.339 8     -1587.648          51.000
C25  22401338.562 7 116649631.876 7      1304.199          43.000
E01  25567692.914 5 134359139.423 5     -2236.633          34.000    25567695.875 5 102950516.134 5     -1713.790          31.000
E04  25405457.750 8 133506546.503 8     -2479.883          51.000    25405457.898 8 102297205.742 8     -1900.137          51.000
E09  21575282.617 8 113378883.768 8        -1.211          51.000    21575284.922 8  86874719.418 8         -.916          51.000
E24  24024768.469 8 126251040.957 8      2434.145          51.000    24024780.992 8  96737801.373 8      1865.154          51.000
E31  23388156.695 8 122905594.169 8       199.953          51.000    23388158.258 8  94174427.479 8       153.217          51.000
> 2020 05 10 05 30 30.0000000  0 17        .000000000000
G13  20304668.969 8 106701752.293 8      -907.945          51.000    20304665.883 8  83144200.366 8      -707.490          48.000
G15  20398613.234 7 107195428.420 7       719.445          42.000    20398611.891 6  83528912.824 6       560.607          41.000
G17  23375158.992 5 122837272.375 5      2250.539          34.000    23375158.539 5  95717379.035 5      1753.664          34.000
G19  24457580.094 7 128525462.233 7      3416.602          44.000    24457581.977 7 100149689.355 7      2662.287          42.000
R03  22010167.602 7 117822107.340 7     -4150.906          44.000    22010171.219 7  91639400.345 7     -3228.483          42.000
R04  19358055.477 8 103661525.450 8      -998.273          49.000    19358056.367 7  80625619.369 7      -776.435          47.000
R14  19325028.711 7 103013302.829 7      -548.793          46.000    19325031.555 7  80121492.345 7      -426.839          42.000
R15  21208358.750 7 113331042.197 7      2712.832          44.000    21208361.703 7  88146375.243 7      2109.980          44.000
C05  39777574.797 6 207132269.501 6        22.473          36.000    39777573.500 6 160167782.533 6        17.175          38.000
C14  24603757.703 5 128118206.705 5     -3310.234          31.000    24603750.883 6  99069105.059 6     -2560.544          39.000
C24  22569214.781 8 117523842.230 8     -1594.082          51.000
C25  22393847.992 7 116610626.897 7      1295.969          44.000
E01  25580474.125 5 134426299.094 5     -2240.543          34.000
E04  25419632.492 8 133581037.490 8     -2486.422          51.000    25419634.172 8 102354283.232 8     -1905.222          51.000
E09  21575321.461 8 113379088.986 8       -12.727          51.000    21575324.344 8  86874876.659 8        -9.811          51.000
E24  24010888.609 8 126178100.082 8      2428.219          51.000    24010900.766 8  96681911.613 8      1860.574          51.000
E31  23387043.273 8 122899742.212 8       189.871          51.000    23387044.742 8  94169943.518 8       145.471          51.000
> 2020 05 10 05 31  0.0000000  0 18        .000000000000
G13  20309891.906 8 106729199.359 8      -921.520          51.000    20309888.875 8  83165587.668 8      -718.067          48.000
G15  20394550.961 7 107174081.260 7       704.156          43.000    20394549.727 7  83512278.684 7       548.693          43.000
G19  24438078.609 7 128422975.631 7      3415.930          46.000    24438079.867 7 100069829.715 7      2661.766          42.000
G24  22572622.734 5 118619937.358 5      2710.949          32.000
G28  21547868.922 6 113234809.388 6     -1909.520          37.000    21547867.289 5  88234910.504 5     -1487.937          32.000
R03  22033454.984 7 117946768.740 7     -4159.508          43.000    22033459.852 6  91736359.283 6     -3235.170          39.000
R04  19363717.914 8 103691846.367 8     -1022.703          51.000    19363719.023 8  80649202.271 8      -795.439          48.000
R14  19328160.164 7 103029994.807 7      -563.516          45.000    19328162.906 7  80134474.976 7      -438.290          42.000
R15  21193160.094 7 113249824.257 7      2702.078          44.000    21193162.430 6  88083205.772 6      2101.616          41.000
C05  39777443.648 5 207131586.262 5        23.320          35.000    39777442.211 6 160167254.156 6        18.471          38.000
C14  24622846.852 4 128217598.727 4     -3313.492          28.000    24622835.688 6  99145961.244 6     -2562.840          38.000
C24  22578415.516 8 117571753.382 8     -1599.691          51.000
C25  22386405.266 7 116571868.508 7      1288.480          45.000
E01  25593277.523 5 134493579.757 5     -2244.078          32.000
E04  25433844.734 8 133655725.926 8     -2492.309          51.000    25433847.492 8 102411512.010 8     -1909.718          51.000
E09  21575426.195 8 113379639.936 8       -23.637          51.000    21575429.273 8  86875298.816 8       -18.081          51.000
E24  23997042.141 8 126105335.700 8      2423.062          51.000    23997054.672 8  96626157.086 8      1856.629          51.000
E31  23385987.047 8 122894191.183 8       180.574          51.000    23385988.703 8  94165690.146 8       138.326          51.000
> 2020 05 10 05 31 30.0000000  0 17        .000000000000
G13  20315214.328 8 106757169.791 8      -939.402          51.000    20315211.586 8  83187382.806 8      -731.999          49.000
G15  20390598.734 7 107153311.820 7       684.211          44.000    20390598.008 7  83496094.691 7       533.151          44.000
G19  24418603.711 7 128320628.340 7      3410.832          47.000    24418603.758 6  99990078.577 6      2657.791          40.000
G28  21558824.172 6 113292381.106 6     -1925.055          36.000    21558822.383 5  88279771.465 5     -1500.043          35.000
R03  22056813.164 7 118071804.584 7     -4172.438          43.000    22056818.953 6  91833609.463 6     -3245.226          37.000
R04  19369539.508 8 103723016.776 8     -1051.465          51.000    19369540.141 8  80673445.933 8      -817.806          48.000
R14  19331395.578 7 103047241.252 7      -582.402          46.000    19331398.086 6  80147888.898 6      -452.980          41.000
R15  21178042.922 7 113169045.429 7      2687.066          42.000    21178044.422 6  88020377.761 6      2089.938          40.000
C05  39777324.711 6 207130967.457 6        20.992          36.000    39777323.180 6 160166774.884 6        16.453          38.000
C14  24641968.891 4 128317200.684 4     -3320.379          28.000    24641960.609 6  99222974.328 6     -2568.536          36.000
C24  22587669.758 8 117619944.045 8     -1609.344          51.000
C25  22379027.391 7 116533446.954 7      1276.762          45.000
E01  25606119.688 5 134561067.137 5     -2251.695          32.000    25606122.352 5 103105241.560 5     -1725.136          31.000
E04  25448111.875 8 133730702.081 8     -2502.383          51.000    25448115.133 8 102468961.234 8     -1917.440          51.000
E09  21575613.992 8 113380628.337 8       -38.676          51.000    21575617.414 8  86876056.158 8       -29.620          51.000
E24  23983246.242 8 126032839.622 8      2413.660          50.000    23983259.562 8  96570608.153 8      1849.404          51.000
E31  23385005.273 8 122889031.703 8       167.062          51.000    23385006.750 8  94161736.772 8       127.982          51.000
> 2020 05 10 05 32  0.0000000  0 17        .000000000000
G13  20320614.984 8 106785551.765 8      -953.781          50.000    20320612.555 8  83209498.612 8      -743.206          49.000
G15  20386735.438 7 107133009.581 7       668.152          45.000    20386734.953 7  83480274.760 7       520.638          44.000
G19  24399134.430 8 128218311.953 8      3409.199          48.000    24399132.586 6  99910351.480 6      2656.519          38.000
G28  21569845.297 5 113350299.952 5     -1936.902          35.000    21569843.695 5  88324903.051 5     -1509.278          34.000
R03  22080219.648 7 118197097.728 7     -4181.473          42.000    22080226.336 6  91931059.782 6     -3252.253          36.000
R04  19375498.094 8 103754922.829 8     -1076.598          51.000    19375498.711 8  80698261.740 8      -837.354          48.000
R14  19334713.508 7 103064927.502 7      -597.562          45.000    19334716.422 6  80161644.866 6      -464.771          41.000
R15  21162986.773 7 113088592.969 7      2675.473          43.000    21162988.641 6  87957803.554 6      2080.923          40.000
C05  39777196.555 6 207130299.831 6        22.227          36.000    39777195.133 6 160166259.412 6        17.196          38.000
C14  24661104.938 5 128416860.324 5     -3325.242          31.000
C24  22596956.336 8 117668302.752 8     -1615.477          50.000
C25  22371692.680 7 116495251.794 7      1268.551          45.000
E01                                                                  25618985.930 5 103157039.099 5     -1728.046          32.000
E04  25462412.828 8 133805853.607 8     -2508.680          51.000    25462415.945 8 102526544.853 8     -1922.256          51.000
E09  21575864.219 8 113381943.379 8       -49.992          51.000    21575867.820 8  86877063.784 8       -38.348          51.000
E24  23969479.992 8 125960501.113 8      2407.988          50.000    23969493.992 8  96515179.933 8      1845.031          51.000
E31  23384076.594 8 122884151.784 8       157.277          51.000    23384077.953 8  94157997.608 8       120.544          51.000
> 2020 05 10 05 32 30.0000000  0 19        .000000000000
G13  20326097.398 8 106814363.400 8      -967.344          51.000    20326095.359 8  83231949.249 8      -753.774          49.000
G15  20382964.578 7 107113193.853 7       652.598          45.000    20382964.430 7  83464833.921 7       508.518          44.000
G17  23324273.883 5 122569892.591 5      2207.324          34.000    23324270.766 5  95508977.868 5      1719.990          32.000
G19  24379674.914 8 128116047.851 8      3408.117          49.000    24379671.438 6  99830665.152 6      2655.676          38.000
G24  22526386.617 5 118376984.413 5      2692.598          35.000
G28  21580935.781 6 113408581.957 6     -1948.773          40.000    21580934.328 5  88370317.490 5     -1518.528          35.000
R03  22103676.414 6 118322663.228 6     -4189.949          40.000    22103681.320 6  92028721.921 6     -3258.846          36.000
R04  19381597.227 8 103787582.018 8     -1101.023          51.000    19381597.969 7  80723663.296 7      -856.352          47.000
R14  19338116.914 7 103083069.897 7      -612.168          43.000    19338120.133 6  80175755.657 6      -476.131          41.000
R15  21147995.930 7 113008485.860 7      2664.711          44.000    21147998.070 6  87895498.048 6      2072.556          39.000
C05  39777063.094 6 207129605.188 6        24.246          36.000    39777061.508 6 160165721.525 6        18.190          38.000
C14  24680265.266 5 128516652.105 5     -3328.086          34.000    24680280.172 5  99377233.989 5     -2572.959          32.000
C24  22606278.609 8 117716846.284 8     -1620.957          49.000
C25  22364404.461 7 116457300.825 7      1261.059          45.000
E01                                                                  25631871.398 5 103208920.017 5     -1730.425          33.000
E04  25476750.305 8 133881197.588 8     -2514.457          50.000    25476753.148 8 102584275.933 8     -1926.662          51.000
E09  21576180.555 8 113383603.580 8       -60.938          51.000    21576183.867 8  86878335.886 8       -46.707          51.000
E24  23955747.500 8 125888338.789 8      2402.637          50.000    23955761.641 8  96459886.710 8      1840.972          51.000
E31  23383204.305 8 122879568.796 8       148.004          51.000    23383206.086 8  94154485.981 8       113.388          51.000
> 2020 05 10 05 33  0.0000000  0 18        .000000000000
G13  20331682.258 8 106843712.642 8      -986.168          51.000    20331680.492 8  83254818.786 8      -768.440          49.000
G15  20379307.000 7 107093973.232 7       631.957          44.000    20379306.852 7  83449856.806 7       492.434          45.000
G17  23311723.016 5 122503941.349 5      2192.926          35.000    23311719.320 5  95457587.376 5      1708.786          34.000
G19  24360246.133 8 128013947.113 8      3401.781          49.000    24360241.453 6  99751106.127 6      2650.739          36.000
G28  21592115.656 6 113467332.417 6     -1964.848          37.000    21592115.391 6  88416096.974 6     -1531.053          37.000
R03  22127205.109 6 118448607.360 6     -4203.344          39.000    22127207.289 6  92126678.494 6     -3269.267          39.000
R04  19387857.109 8 103821103.197 8     -1130.480          51.000    19387857.812 7  80749735.316 7      -879.266          46.000
R14  19341626.250 7 103101776.235 7      -631.574          43.000    19341628.492 6  80190304.986 6      -491.227          40.000
R15  21133090.375 7 112928834.469 7      2648.523          44.000    21133091.867 6  87833546.966 6      2059.963          38.000
C05  39776944.359 6 207128987.220 6        20.508          36.000    39776942.758 6 160165243.635 6        15.973          38.000
C14  24699467.133 5 128616654.762 5     -3335.000          31.000    24699483.859 5  99454562.479 5     -2579.226          32.000
C24  22615656.812 8 117765680.192 8     -1631.445          50.000
C25  22357183.555 7 116419700.678 7      1248.695          44.000
E01  25644795.016 5 134764310.429 5     -2266.973          34.000    25644798.867 5 103260971.843 5     -1737.330          33.000
E04  25491144.719 8 133956840.731 8     -2525.305          50.000    25491147.211 8 102642236.241 8     -1934.935          51.000
E09  21576583.117 8 113385717.131 8       -76.852          51.000    21576586.188 8  86879955.352 8       -58.916          51.000
E24  23942069.672 8 125816460.850 8      2392.344          50.000    23942083.320 8  96404811.412 8      1833.095          51.000
E31  23382408.875 8 122875389.747 8       133.730          51.000    23382411.000 8  94151283.856 8       102.493          51.000
> 2020 05 10 05 33 30.0000000  0 17        .000000000000
G13  20337345.375 8 106873472.339 8     -1000.020          51.000    20337344.062 8  83278008.149 8      -779.236          50.000
G15  20375738.742 7 107075221.816 7       616.160          45.000    20375738.156 7  83435245.305 7       480.125          45.000
G17  23299230.711 5 122438286.653 5      2182.488          34.000
G19  24340824.312 7 127911885.667 7      3400.156          47.000    24340819.906 6  99671577.753 6      2649.475          37.000
G28  21603358.898 6 113526428.141 6     -1976.453          36.000    21603357.172 5  88462134.961 5     -1540.096          35.000
R04  19394253.016 8 103855356.342 8     -1155.012          49.000    19394254.594 7  80776376.609 7      -898.342          46.000
R14  19345216.508 7 103120915.500 7      -646.273          42.000    19345219.016 6  80205191.061 6      -502.657          41.000
R15  21118245.727 7 112849510.317 7      2637.699          45.000    21118247.555 6  87771850.453 6      2051.544          40.000
C05  39776816.406 5 207128321.039 5        22.316          35.000    39776814.750 6 160164728.515 6        16.770          38.000
C14  24718686.242 5 128716740.401 5     -3337.945          32.000    24718695.664 6  99531955.114 6     -2581.658          37.000
C24  22625066.250 8 117814677.510 8     -1637.031          49.000
C25  22350005.719 7 116382325.283 7      1241.176          44.000
E01  25657738.562 5 134832336.982 5     -2270.156          35.000    25657743.805 5 103313102.049 5     -1739.545          32.000
E04  25505571.789 8 134032654.918 8     -2531.125          48.000    25505573.969 8 102700327.644 8     -1939.415          51.000
E09  21577047.742 8 113388157.466 8       -87.941          51.000    21577050.516 8  86881825.201 8       -67.372          51.000
E24  23928422.117 8 125744740.795 8      2386.922          51.000    23928434.969 8  96349857.107 8      1828.922          51.000
E31  23381666.141 8 122871486.923 8       124.430          51.000    23381668.133 8  94148293.371 8        95.339          51.000
> 2020 05 10 05 34  0.0000000  0 18        .000000000000
G13  20343095.164 8 106903687.223 8     -1014.961          51.000    20343094.328 8  83301552.192 8      -790.879          50.000
G15  20372268.531 7 107056985.522 7       599.148          45.000    20372267.305 7  83421035.181 7       466.866          46.000
G17  23286803.305 6 122372974.024 6      2171.277          36.000    23286807.328 5  95355586.810 5      1691.907          33.000
G19  24321418.422 7 127809911.519 7      3397.406          43.000    24321413.586 5  99592117.472 5      2647.336          35.000
G28  21614677.453 6 113585899.619 6     -1988.867          39.000    21614675.695 6  88508476.266 6     -1549.773          38.000
R03  22174418.812 5 118701369.115 5     -4220.715          34.000    22174404.367 6  92323257.496 6     -3282.781          37.000
R04  19400793.609 8 103890385.887 8     -1180.742          48.000    19400795.914 7  80803621.792 7      -918.355          45.000
R14  19348896.523 7 103140531.463 7      -662.191          43.000    19348898.812 6  80220447.917 6      -515.041          39.000
R15  21103470.977 7 112770559.673 7      2625.145          43.000    21103473.914 6  87710444.393 6      2041.779          41.000
C05  39776687.742 6 207127650.924 6        22.508          36.000    39776686.109 6 160164210.334 6        17.045          38.000
C14  24737930.453 5 128816951.127 5     -3342.609          31.000    24737935.219 7  99609444.360 7     -2584.699          42.000
C24  22634515.008 8 117863881.419 8     -1643.777          48.000
C25  22342880.094 7 116345218.977 7      1232.207          46.000
E01  25670708.625 5 134900485.531 5     -2274.344          33.000    25670715.031 5 103365331.969 5     -1742.718          31.000
E04  25520039.070 7 134108683.937 7     -2538.203          46.000    25520041.617 8 102758583.681 8     -1944.803          51.000
E09  21577583.195 8 113390969.821 8      -100.152          51.000    21577585.500 8  86883980.109 8       -76.737          51.000
E24  23914813.383 8 125673223.981 8      2380.320          51.000    23914825.422 8  96295058.526 8      1823.858          51.000
E31  23380984.312 8 122867904.428 8       113.914          51.000    23380986.352 8  94145548.343 8        87.249          51.000
> 2020 05 10 05 34 30.0000000  0 20        .000000000000
G13  20348929.297 8 106934345.549 8     -1024.352          51.000    20348928.867 8  83325441.766 8      -798.196          49.000
G15  20368894.289 7 107039253.752 7       587.613          46.000    20368893.023 7  83407218.223 7       457.880          46.000
G17  23274441.469 5 122307995.313 5      2165.605          32.000    23274445.664 5  95304953.902 5      1687.482          31.000
G19  24302026.094 6 127708015.981 6      3400.172          38.000    24302020.023 5  99512718.451 5      2649.485          32.000
G24  22465237.414 5 118055622.654 5      2671.902          33.000
G28  21626064.672 5 113645738.051 5     -1995.906          31.000    21626064.344 5  88555104.444 5     -1555.242          30.000
R03  22198085.664 6 118828119.136 6     -4224.328          39.000    22198082.602 5  92421840.752 5     -3285.592          35.000
R04  19407476.664 7 103926179.169 7     -1200.660          46.000    19407479.867 7  80831461.008 7      -933.847          45.000
R14  19352663.297 6 103160610.420 6      -671.910          41.000    19352664.945 6  80236064.819 6      -522.597          39.000
R15  21088763.828 6 112691971.014 6      2618.699          40.000    21088767.359 6  87649319.909 6      2036.766          40.000
C05  39776556.125 6 207126965.287 6        27.816          36.000    39776554.438 6 160163680.138 6        21.528          38.000
C14  24757196.758 5 128917273.238 5     -3341.453          33.000    24757199.273 7  99687019.746 7     -2583.373          44.000
C23  26149910.594 6 136169457.708 6      2765.246          37.000
C24  22644000.992 7 117913279.173 7     -1644.703          47.000
C25  22335804.008 7 116308369.977 7      1228.836          47.000
E01  25683702.758 5 134968768.856 5     -2273.430          35.000    25683710.430 5 103417658.583 5     -1741.763          31.000
E04  25534544.953 7 134184915.062 7     -2539.449          47.000    25534547.312 8 102816994.610 8     -1945.767          50.000
E09  21578187.133 8 113394142.918 8      -106.773          51.000    21578189.266 8  86886411.433 8       -81.798          51.000
E24  23901241.047 8 125601899.224 8      2379.316          51.000    23901252.852 8  96240407.095 8      1823.080          51.000
E31  23380360.953 8 122864629.836 8       109.059          51.000    23380363.312 8  94143039.253 8        83.546          51.000
> 2020 05 10 05 35  0.0000000  0 19        .000000000000
G13  20354863.711 8 106965530.764 8     -1044.484          51.000    20354863.305 8  83349741.912 8      -813.884          49.000
G15  20365632.016 7 107022110.887 7       565.492          46.000    20365631.391 7  83393860.129 7       440.643          46.000
G17  23262158.898 5 122243478.518 5      2148.539          31.000
G19  24282666.812 7 127606286.556 7      3392.074          42.000    24282660.023 6  99433448.698 6      2643.169          37.000
G28  21637536.086 6 113706013.033 6     -2013.328          40.000    21637535.930 6  88602086.876 6     -1568.827          38.000
R03  22221822.758 7 118955222.891 7     -4238.723          42.000    22221823.492 4  92520699.201 4     -3296.784          29.000
R04  19414318.906 7 103962820.449 7     -1231.703          47.000    19414322.484 7  80859959.771 7      -957.991          46.000
R14  19356532.078 7 103181235.008 7      -692.676          42.000    19356534.625 6  80252106.215 6      -538.748          38.000
R15  21074140.453 6 112613830.042 6      2601.102          40.000    21074143.820 6  87588543.638 6      2023.085          39.000
C05  39776437.258 6 207126346.835 6        23.180          36.000    39776435.656 6 160163201.916 6        18.012          38.000
C14  24776500.094 5 129017787.342 5     -3350.027          32.000    24776501.242 7  99764743.731 7     -2590.411          45.000
C23  26134012.734 6 136086776.122 6      2757.102          37.000
C24  22653540.422 8 117962952.503 8     -1656.539          48.000
C25  22328792.594 7 116271860.950 7      1215.070          45.000
E01  25696737.289 5 135037265.185 5     -2282.754          34.000    25696745.930 5 103470144.794 5     -1749.261          32.000
E04  25549106.555 8 134261430.926 8     -2551.484          50.000    25549107.164 8 102875623.661 8     -1955.045          49.000
E09  21578875.617 8 113397760.800 8      -124.262          51.000    21578877.906 8  86889183.557 8       -95.184          51.000
E24  23887720.695 8 125530850.645 8      2367.449          49.000    23887733.047 8  96185967.274 8      1814.008          51.000
E31  23379812.156 8 122861746.035 8        93.410          51.000    23379814.469 8  94140829.585 8        71.535          51.000
> 2020 05 10 05 35 30.0000000  0 21        .000000000000
G05  24642562.914 5 129497541.742 5     -3638.812          30.000
G13  20360856.492 8 106997022.919 8     -1061.441          51.000    20360855.984 8  83374281.232 8      -827.097          49.000
G15  20362440.172 7 107005337.699 7       546.246          47.000    20362439.750 7  83380790.084 7       425.646          47.000
G19  24263299.273 7 127504505.946 7      3386.797          45.000    24263293.531 7  99354139.216 7      2639.066          42.000
G24  22434862.406 6 117895981.545 6      2651.918          36.000    22434871.531 5  91867043.996 5      2066.430          32.000
G28  21649052.992 6 113766529.080 6     -2027.496          40.000    21649051.625 6  88649242.191 6     -1579.870          38.000
G30  23743346.711 4 124772133.702 4     -2869.379          28.000
R03  22245588.156 6 119082453.011 6     -4249.719          41.000
R04  19421278.008 8 104000084.508 8     -1259.234          49.000    19421281.523 8  80888942.908 8      -979.408          48.000
R14  19360461.594 7 103202180.439 7      -710.160          42.000    19360463.078 6  80268397.066 6      -552.350          38.000
R15  21059559.953 7 112535913.701 7      2586.848          44.000    21059563.656 6  87527942.070 6      2011.993          41.000
C05  39776289.523 6 207125576.463 6        21.797          36.000    39776287.867 6 160162606.979 6        16.719          38.000
C14  24795798.141 5 129118273.357 5     -3355.672          31.000    24795798.758 7  99842445.924 7     -2594.728          45.000
C23  26118122.258 6 136004044.830 6      2751.941          38.000
C24  22663090.977 8 118012682.159 8     -1665.020          48.000
C25  22321804.445 7 116235473.686 7      1204.270          46.000
E01  25709770.281 5 135105752.048 5     -2289.309          31.000    25709778.969 5 103522617.852 5     -1754.041          31.000
E04  25563680.422 8 134338010.382 8     -2560.312          51.000    25563679.430 8 102934301.377 8     -1961.885          48.000
E09  21579606.914 8 113401603.770 8      -138.535          51.000    21579609.430 8  86892128.164 8      -106.156          51.000
E24  23874210.781 8 125459858.605 8      2358.863          49.000    23874223.812 8  96131570.777 8      1807.384          51.000
E31  23379295.641 8 122859032.209 8        80.957          51.000    23379298.062 8  94138750.153 8        61.981          51.000
> 2020 05 10 05 36  0.0000000  0 20        .000000000000
G05  24663331.336 5 129606682.380 5     -3636.980          31.000    24663326.703 5 100992195.768 5     -2834.017          31.000
G13  20366958.180 8 107029087.316 8     -1075.762          51.000    20366957.555 8  83399266.454 8      -838.259          50.000
G15  20359369.633 8 106989200.896 8       529.867          49.000    20359368.945 8  83368215.958 8       412.884          49.000
G17  23237752.797 5 122115233.540 5      2124.340          34.000
G19  24243973.211 8 127402942.669 8      3384.324          48.000    24243968.953 7  99274999.067 7      2637.136          42.000
G28  21660662.484 6 113827535.190 6     -2039.141          40.000    21660660.570 6  88696779.452 6     -1588.941          40.000
R03  22269427.844 6 119210076.095 6     -4257.961          40.000    22269441.562 4  92718902.902 4     -3311.747          29.000
R04  19428404.289 8 104038240.654 8     -1284.102          51.000    19428407.062 8  80918619.918 8      -998.746          48.000
R14  19364500.734 7 103223713.669 7      -724.859          42.000    19364502.258 6  80285145.135 6      -563.780          39.000
R15  21045073.180 7 112458492.505 7      2575.133          43.000    21045076.477 6  87467725.557 6      2002.881          41.000
C05  39776163.203 6 207124919.125 6        22.453          36.000    39776161.648 6 160162098.681 6        17.365          38.000
C14  24815141.938 6 129218992.224 6     -3358.461          36.000    24815141.508 7  99920328.139 7     -2597.165          45.000
C23  26102275.062 6 135921527.252 6      2749.695          37.000
C24  22672702.469 8 118062730.086 8     -1671.031          48.000
C25  22314890.422 7 116199471.017 7      1196.215          45.000
E01  25722853.000 5 135174509.476 5     -2293.078          32.000    25722858.688 4 103575292.145 4     -1756.322          29.000
E04  25578316.219 8 134414917.819 8     -2566.535          51.000    25578313.883 8 102993230.369 8     -1966.527          48.000
E09  21580431.430 8 113405937.683 8      -150.105          51.000    21580434.078 8  86895448.943 8      -115.016          51.000
E24  23860762.750 8 125389189.083 8      2352.762          50.000    23860776.000 8  96077421.397 8      1802.783          51.000
E31  23378861.766 8 122856753.048 8        71.281          51.000    23378864.586 8  94137003.784 8        54.624          51.000
> 2020 05 10 05 36 30.0000000  0 20        .000000000000
G05  24684094.227 5 129715784.833 5     -3636.672          32.000    24684088.586 4 101077214.428 4     -2833.770          27.000
G13  20373144.016 8 107061593.867 8     -1090.809          51.000    20373143.305 8  83424596.222 8      -849.981          50.000
G15  20356395.461 8 106973571.117 8       512.621          49.000    20356394.820 8  83356036.912 8       399.445          49.000
G19  24224664.086 7 127301470.315 7      3380.992          46.000    24224661.445 7  99195929.735 7      2634.539          45.000
G24  22404645.984 5 117737235.327 5      2640.781          34.000    22404638.117 5  91743250.987 5      2057.746          31.000
G28  21672340.219 7 113888899.794 7     -2051.457          43.000    21672337.484 6  88744596.008 6     -1598.535          40.000
R03  22293316.070 7 119337956.428 7     -4266.938          42.000    22293328.430 5  92818365.387 5     -3318.729          33.000
R04  19435671.852 8 104077155.580 8     -1309.680          51.000    19435673.828 8  80948887.077 8     -1018.640          48.000
R14  19368625.523 7 103245701.462 7      -740.258          42.000    19368627.586 6  80302246.750 6      -575.756          39.000
R15  21030652.328 6 112381435.082 6      2562.508          36.000    21030656.016 6  87407791.927 6      1993.056          39.000
C05  39776033.836 6 207124245.069 6        22.566          36.000    39776032.180 6 160161577.439 6        17.725          38.000
C14  24834505.578 6 129319813.060 6     -3362.152          39.000    24834503.969 7  99998289.159 7     -2599.962          43.000
C23  26086444.305 6 135839095.108 6      2746.133          36.000
C24  22682349.797 8 118112966.352 8     -1677.566          48.000
C25  22308024.953 7 116163724.117 7      1187.363          43.000
E01  25735954.320 5 135243353.143 5     -2296.809          34.000
E04  25592988.961 8 134492022.229 8     -2573.328          51.000    25592985.914 8 103052310.303 8     -1971.843          48.000
E09  21581324.625 8 113410633.063 8      -162.449          51.000    21581327.445 8  86899046.690 8      -124.459          51.000
E24  23847351.758 8 125318712.650 8      2346.109          50.000    23847365.367 8  96023419.986 8      1797.629          51.000
E31  23378485.992 8 122854777.968 8        60.828          51.000    23378488.727 8  94135490.412 8        46.585          51.000
> 2020 05 10 05 37  0.0000000  0 19        .000000000000
G05  24704853.125 5 129824871.581 5     -3637.461          34.000    24704850.047 5 101162217.116 5     -2834.388          34.000
G13  20379417.172 8 107094559.210 8     -1107.906          51.000    20379416.359 8  83450283.502 8      -863.304          50.000
G15  20353521.109 8 106958466.577 8       493.320          48.000    20353520.188 8  83344267.125 8       384.405          48.000
G19  24205375.523 7 127200108.822 7      3375.555          45.000    24205374.516 7  99116946.820 7      2630.305          45.000
G28  21684088.758 7 113950637.149 7     -2065.352          42.000    21684086.484 6  88792703.008 6     -1609.362          38.000
R03  22317255.852 7 119466107.758 7     -4277.590          43.000    22317267.297 6  92918038.629 6     -3327.017          36.000
R04  19443084.164 8 104116845.228 8     -1337.250          51.000    19443085.438 8  80979756.798 8     -1040.083          48.000
R14  19372837.891 7 103268158.776 7      -757.637          44.000    19372840.625 6  80319713.593 6      -589.273          38.000
R15  21016303.219 6 112304759.039 6      2548.266          41.000    21016305.031 6  87348154.936 6      1981.987          37.000
C05  39775904.516 6 207123570.912 6        21.375          36.000    39775902.781 6 160161056.169 6        16.538          38.000
C14  24853891.578 6 129420750.314 6     -3367.820          41.000    24853888.508 6 100076340.236 6     -2604.094          41.000
C23  26070633.227 5 135756765.401 5      2741.492          32.000
C24  22692036.164 7 118163406.601 7     -1685.996          47.000
C25  22301210.688 6 116128249.529 6      1176.668          41.000
E01  25749079.750 6 135312336.658 6     -2303.008          36.000
E04  25607701.820 8 134569339.453 8     -2582.012          51.000    25607699.266 8 103111553.294 8     -1978.416          48.000
E09  21582290.094 8 113415707.154 8      -176.688          51.000    21582293.055 8  86902934.612 8      -135.375          51.000
E24  23833980.719 8 125248446.683 8      2337.367          49.000    23833995.086 8  95969579.839 8      1791.068          51.000
E31  23378171.070 8 122853123.079 8        48.547          51.000    23378173.562 8  94134222.375 8        37.216          51.000
> 2020 05 10 05 37 30.0000000  0 18        .000000000000
G13  20385783.430 8 107128014.254 8     -1127.363          51.000    20385782.617 8  83476352.356 8      -878.465          50.000
G15  20350752.609 8 106943918.961 8       471.664          49.000    20350751.516 8  83332931.320 8       367.530          49.000
G17  23201688.531 6 121925670.067 6      2082.082          37.000    23201680.047 6  95006988.478 6      1622.402          36.000
G19  24186114.047 7 127098892.516 7      3367.328          43.000    24186114.164 7  99038077.004 7      2623.892          43.000
G28  21695913.219 7 114012775.854 7     -2082.125          42.000    21695911.445 6  88841122.817 6     -1622.432          37.000
R03  22341252.984 7 119594558.084 7     -4290.734          42.000    22341262.820 6  93017944.394 6     -3337.238          38.000
R04  19450646.695 8 104157340.064 8     -1367.391          51.000    19450647.344 8  81011252.772 8     -1063.526          48.000
R14  19377144.672 7 103291115.373 7      -777.477          45.000    19377146.617 6  80337568.651 6      -604.707          39.000
R15  21002032.898 7 112228496.376 7      2531.035          43.000    21002033.297 6  87288839.602 6      1968.583          38.000
C05  39775780.805 6 207122927.296 6        16.867          36.000    39775779.180 6 160160558.471 6        13.067          38.000
C14  24873305.031 6 129521832.617 6     -3375.824          41.000    24873300.914 6 100154503.425 6     -2610.401          39.000
C24  22701767.391 7 118214080.366 7     -1696.855          47.000
C25  22294456.008 7 116093077.736 7      1163.254          45.000
E01  25762236.469 5 135381483.485 5     -2311.695          35.000
E04  25622460.922 8 134646899.363 8     -2593.406          51.000    25622459.359 8 103170982.280 8     -1987.176          49.000
E09  21583333.695 8 113421191.273 8      -193.734          51.000    21583336.555 8  86907136.718 8      -148.413          51.000
E24  23820655.773 8 125178422.643 8      2326.031          49.000    23820670.609 8  95915925.063 8      1782.233          51.000
E31  23377922.797 8 122851818.560 8        33.598          51.000    23377925.359 8  94133222.819 8        25.738          51.000
> 2020 05 10 05 38  0.0000000  0 18        .000000000000
G13  20392237.039 8 107161928.059 8     -1135.746          51.000    20392236.125 8  83502778.679 8      -884.997          50.000
G15  20348084.344 8 106929897.700 8       460.977          50.000    20348083.492 8  83322005.656 8       359.203          50.000
G17  23189812.328 6 121863253.873 6      2076.895          36.000    23189803.914 6  94958352.497 6      1618.359          36.000
G19  24166875.008 7 126997793.121 7      3370.371          44.000    24166875.398 7  98959298.285 7      2626.266          44.000
G28  21707807.727 7 114075282.467 7     -2087.125          43.000    21707805.203 6  88889829.208 6     -1626.334          38.000
R03  22365300.438 7 119723271.707 7     -4292.336          42.000    22365307.641 6  93118054.951 6     -3338.487          38.000
R04  19458352.891 8 104198606.732 8     -1385.984          51.000    19458353.523 8  81043349.045 8     -1077.988          48.000
R14  19381538.352 7 103314537.020 7      -785.949          45.000    19381540.992 6  80355785.521 6      -611.294          40.000
R15  20987834.141 7 112152615.639 7      2525.402          43.000    20987834.422 6  87229821.300 6      1964.202          39.000
C05  39775657.047 6 207122283.935 6        24.090          36.000    39775655.375 6 160160060.238 6        18.099          38.000
C14  24892739.312 6 129623026.552 6     -3372.688          40.000    24892733.992 5 100232752.936 5     -2607.870          35.000
C24  22711537.500 7 118264955.317 7     -1696.762          47.000
C25  22287754.562 7 116058177.385 7      1161.141          45.000
E01  25775418.992 6 135450760.733 6     -2308.836          36.000
E04  25637259.961 8 134724669.380 8     -2593.434          51.000    25637259.562 8 103230572.250 8     -1987.134          50.000
E09  21584449.297 8 113427054.294 8      -199.340          51.000    21584452.008 8  86911629.156 8      -152.747          51.000
E24  23807370.875 8 125108609.479 8      2325.941          48.000    23807385.703 8  95862431.849 8      1782.263          51.000
E31  23377735.266 8 122850832.194 8        29.977          51.000    23377738.039 8  94132467.036 8        22.975          51.000
> 2020 05 10 05 38 30.0000000  0 18        .000000000000
G13  20398771.703 8 107196267.640 8     -1153.137          51.000    20398770.805 8  83529536.772 8      -898.551          50.000
G15  20345510.367 8 106916371.411 8       441.191          50.000    20345509.586 8  83311465.676 8       343.786          50.000
G17  23177997.766 5 121801175.272 5      2062.320          34.000    23177990.617 5  94909979.597 5      1607.009          33.000
G19  24147652.898 7 126896781.742 7      3364.148          44.000    24147653.195 7  98880588.154 7      2621.417          44.000
G28  21719765.695 7 114138122.553 7     -2101.516          42.000    21719763.062 6  88938795.497 6     -1637.548          40.000
R03  22389390.445 6 119852212.214 6     -4303.293          41.000    22389395.000 6  93218341.999 6     -3347.009          38.000
R04  19466196.852 8 104240611.341 8     -1413.836          51.000    19466197.750 8  81076019.294 8     -1099.650          48.000
R14  19386013.375 7 103338389.440 7      -803.664          45.000    19386016.203 6  80374337.359 6      -625.075          40.000
R15  20973700.344 7 112077084.619 7      2510.340          42.000    20973699.844 6  87171075.014 6      1952.490          37.000
C05  39775526.961 6 207121606.998 6        20.938          36.000    39775525.273 6 160159536.699 6        16.761          38.000
C14  24912187.820 6 129724298.180 6     -3378.488          39.000    24912179.477 4 100311062.418 4     -2612.525          29.000
C24  22721340.172 7 118315998.502 7     -1705.531          46.000
C25  22281098.539 7 116023516.501 7      1150.203          43.000
E01  25788621.023 5 135520115.934 5     -2315.469          33.000
E04  25652092.531 8 134802616.330 8     -2602.637          51.000    25652093.125 8 103290297.788 8     -1994.204          50.000
E09  21585630.820 8 113433264.473 8      -214.242          51.000    21585633.398 8  86916387.590 8      -164.169          51.000
E24  23794120.203 8 125038975.545 8      2316.773          49.000    23794134.469 8  95809075.988 8      1775.091          51.000
E31  23377601.820 8 122850131.077 8        17.195          51.000    23377604.836 8  94131929.813 8        13.155          51.000
> 2020 05 10 05 39  0.0000000  0 18        .000000000000
G13  20405391.281 8 107231053.822 8     -1167.277          51.000    20405390.289 8  83556642.876 8      -909.567          49.000
G15  20343034.805 8 106903361.983 8       424.789          50.000    20343034.148 8  83301328.454 8       331.004          50.000
G17  23166253.742 5 121739457.726 5      2050.711          35.000    23166245.367 5  94861888.039 5      1597.950          32.000
G19  24128452.453 7 126795882.567 7      3361.250          47.000    24128452.367 6  98801965.416 6      2619.156          41.000
G28  21731790.672 7 114201314.146 7     -2112.246          43.000    21731788.523 6  88988035.710 6     -1645.906          39.000
R03  22413525.578 6 119981397.328 6     -4310.453          37.000    22413527.914 6  93318819.308 6     -3352.572          37.000
R04  19474181.984 8 104283373.671 8     -1438.293          50.000    19474183.508 8  81109278.862 8     -1118.675          48.000
R14  19390572.406 7 103362691.514 7      -817.762          45.000    19390575.406 6  80393238.979 6      -636.037          41.000
R15  20959636.320 7 112001925.137 7      2498.945          43.000    20959634.453 6  87112617.716 6      1943.627          38.000
C05  39775394.656 6 207120917.829 6        22.848          36.000    39775392.883 6 160159003.812 6        17.688          38.000
C14  24931654.391 6 129825665.893 6     -3380.777          40.000
C24  22731178.531 7 118367229.391 7     -1710.855          45.000
C25  22274491.336 7 115989115.472 7      1142.133          43.000
E01  25801845.023 5 135589610.468 5     -2318.180          32.000
E04  25666962.523 8 134880759.850 8     -2608.277          51.000    25666963.242 8 103350173.946 8     -1998.484          49.000
E09  21586882.477 8 113439842.854 8      -225.605          51.000    21586884.828 8  86921428.153 8      -172.879          51.000
E24  23780907.508 8 124969542.050 8      2310.871          50.000    23780921.148 8  95755873.701 8      1770.724          50.000
E31  23377526.453 8 122849735.177 8         7.926          51.000    23377529.328 8  94131626.450 8         6.043          51.000
> 2020 05 10 05 39 30.0000000  0 19        .000000000000
G13  20412098.758 8 107266301.806 8     -1185.375          51.000    20412097.766 8  83584108.825 8      -923.669          49.000
G15  20340660.719 8 106890885.446 8       404.297          51.000    20340660.250 8  83291606.457 8       315.037          51.000
G17  23154582.711 5 121678119.012 5      2035.465          35.000    23154572.266 5  94814091.856 5      1586.089          31.000
G19  24109277.375 8 126695114.106 8      3354.156          48.000    24109276.789 7  98723444.531 7      2613.631          43.000
G28  21743885.289 7 114264871.065 7     -2127.285          44.000    21743882.953 6  89037560.547 6     -1657.628          36.000
R03  22437705.312 4 120110839.393 4     -4322.336          28.000    22437707.578 5  93419496.557 5     -3361.811          34.000
R04  19482311.508 8 104326908.359 8     -1466.773          50.000    19482313.375 7  81143139.142 7     -1140.824          47.000
R14  19395218.664 7 103387457.166 7      -835.977          44.000    19395221.578 6  80412501.156 6      -650.204          40.000
R15  20945645.570 7 111927153.444 7      2483.207          43.000    20945644.359 6  87054461.991 6      1931.386          39.000
C05  39775263.039 6 207120231.897 6        19.824          36.000    39775261.148 6 160158473.403 6        15.447          38.000
C14  24951142.219 6 129927142.913 6     -3386.906          38.000
C23  25991868.344 4 135346472.899 4      2722.836          28.000
C24  22741055.195 7 118418662.165 7     -1720.438          42.000
C25  22267938.367 7 115954989.421 7      1130.250          46.000
E01  25815091.508 5 135659226.450 5     -2325.367          34.000
E04  25681872.523 8 134959114.392 8     -2617.953          51.000    25681872.773 8 103410211.794 8     -2005.973          48.000
E09  21588207.445 8 113446805.332 8      -241.082          51.000    21588209.539 8  86926763.027 8      -184.755          51.000
E24  23767736.211 8 124900324.975 8      2300.965          51.000    23767748.859 8  95702837.240 8      1763.137          49.000
E31  23377512.055 8 122849659.294 8        -5.445          51.000    23377514.664 8  94131568.307 8        -4.139          51.000
> 2020 05 10 05 40  0.0000000  0 17        .000000000000
G13  20418892.219 8 107302001.861 8     -1196.828          51.000    20418891.586 8  83611927.052 8      -932.593          49.000
G15  20338386.367 8 106878932.978 8       390.547          51.000    20338385.766 8  83282292.847 8       304.322          51.000
G19  24090125.938 8 126594469.821 8      3353.473          48.000    24090124.703 7  98645020.427 7      2613.096          42.000
G24  22300032.984 5 117187463.452 5      2596.816          32.000
G28  21756047.008 7 114328781.000 7     -2135.195          42.000    21756044.289 6  89087360.461 6     -1663.789          38.000
R04  19490583.039 8 104371203.861 8     -1488.402          49.000    19490585.180 7  81177591.181 7     -1157.646          46.000
R14  19399949.734 7 103412674.574 7      -847.207          45.000    19399951.562 6  80432114.672 6      -658.939          39.000
R15  20931724.438 6 111852760.091 6      2474.324          40.000    20931723.914 6  86996600.391 6      1924.465          39.000
C05  39775130.016 6 207119539.247 6        23.789          36.000    39775128.086 6 160157937.783 6        18.495          38.000
C14  24970648.273 5 130028717.289 5     -3386.719          34.000
C24  22750968.477 7 118470285.925 7     -1723.324          42.000
C25  22261437.094 7 115921128.432 7      1124.961          45.000
E01  25828367.695 5 135728966.729 5     -2325.867          34.000
E04  25696820.578 8 135037668.951 8     -2621.035          51.000    25696820.523 8 103470402.899 8     -2008.299          48.000
E09  21589603.742 8 113454142.337 8      -250.043          51.000    21589605.703 8  86932384.884 8      -191.570          51.000
E24  23754604.312 8 124831314.908 8      2297.742          51.000    23754616.141 8  95649959.406 8      1760.539          49.000
E31  23377556.469 8 122849892.710 8       -12.141          51.000    23377559.141 8  94131747.165 8        -9.267          51.000
> 2020 05 10 05 40 30.0000000  0 18        .000000000000
G13  20425771.031 8 107338150.742 8     -1214.434          51.000    20425770.875 8  83640095.010 8      -946.312          50.000
G15  20336211.305 8 106867502.652 8       370.410          51.000    20336210.594 8  83273386.078 8       288.631          51.000
G19  24070997.992 7 126493950.065 7      3346.434          45.000    24070996.742 7  98566693.329 7      2607.614          43.000
G24  22285234.992 5 117109700.212 5      2587.895          33.000
G28  21768274.586 6 114393038.748 6     -2149.633          39.000    21768272.086 6  89137431.439 6     -1675.036          39.000
R03  22486199.711 5 120370366.854 5     -4336.996          32.000    22486204.688 5  93621410.447 5     -3373.219          31.000
R04  19498995.984 8 104416256.166 8     -1516.379          49.000    19498998.258 7  81212631.846 7     -1179.406          46.000
R14  19404764.484 7 103438339.047 7      -864.875          45.000    19404766.023 6  80452075.931 6      -672.678          41.000
R15  20917870.734 7 111778742.759 7      2459.043          42.000    20917872.430 6  86939031.268 6      1912.586          38.000
C05  39774995.102 6 207118837.190 6        21.629          36.000    39774993.289 6 160157394.910 6        16.658          38.000
C14  24990171.711 5 130130384.274 5     -3392.895          32.000    24990184.102 4 100625106.066 4     -2623.351          29.000
C24  22760917.766 6 118522096.968 6     -1732.094          41.000
C25  22254985.367 7 115887529.591 7      1113.566          43.000
E01  25841665.023 5 135798865.087 5     -2332.320          33.000
E04  25711805.766 8 135116419.693 8     -2630.344          50.000    25711806.062 8 103530744.351 8     -2015.437          48.000
E09  21591070.820 8 113461851.466 8      -265.176          51.000    21591072.648 8  86938291.873 8      -203.193          51.000
E24  23741511.047 8 124762509.548 8      2288.078          51.000    23741522.250 8  95597238.414 8      1753.182          48.000
E31  23377659.023 8 122850431.956 8       -25.016          51.000    23377661.984 8  94132160.356 8       -19.180          51.000
> 2020 05 10 05 41  0.0000000  0 16        .000000000000
G13  20432744.758 8 107374798.084 8     -1229.031          51.000    20432744.805 8  83668651.368 8      -957.687          50.000
G15  20334145.258 8 106856645.254 8       353.266          51.000    20334144.344 8  83264925.758 8       275.272          51.000
G17  23120002.133 5 121496421.506 5      1999.852          34.000    23119998.117 5  94672533.985 5      1558.326          33.000
G19  24051902.695 7 126393608.004 7      3342.645          42.000    24051902.398 7  98488504.781 7      2604.658          42.000
G28  21780577.266 6 114457692.368 6     -2160.816          41.000    21780575.758 6  89187810.929 6     -1683.753          37.000
R03  22510525.586 5 120500573.329 5     -4343.906          35.000    22510527.422 4  93722682.134 4     -3378.594          28.000
R04  19507559.977 8 104462114.857 8     -1541.145          49.000    19507561.961 7  81248299.713 7     -1198.668          45.000
R14  19409672.250 7 103464499.278 7      -879.379          45.000    19409673.984 6  80472422.811 6      -683.961          40.000
R15  20904098.594 6 111705152.636 6      2446.969          40.000    20904100.562 6  86881794.506 6      1903.201          38.000
C05  39774868.031 6 207118175.222 6        22.598          36.000    39774866.227 6 160156883.030 6        17.272          38.000
C24  22770912.750 6 118574143.625 6     -1737.699          39.000
C25  22248592.484 7 115854242.333 7      1105.180          43.000
E04  25726837.422 8 135195415.508 8     -2636.461          49.000    25726838.695 8 103591273.609 8     -2020.059          48.000
E09  21592618.344 8 113469983.031 8      -277.234          51.000    21592619.945 8  86944522.549 8      -212.438          51.000
E24  23728466.086 8 124693959.340 8      2281.625          51.000    23728476.688 8  95544712.918 8      1748.237          48.000
E31  23377829.070 8 122851326.226 8       -34.836          51.000    23377832.227 8  94132845.570 8       -26.752          51.000
> 2020 05 10 05 41 30.0000000  0 16        .000000000000
G13  20439805.523 8 107411902.470 8     -1243.828          51.000    20439805.297 8  83697563.875 8      -969.217          49.000
G15  20332180.430 8 106846319.887 8       335.891          51.000    20332179.164 8  83256880.011 8       261.733          51.000
G19  24032833.766 6 126293405.921 6      3338.184          40.000    24032834.781 6  98410425.232 6      2601.185          41.000
G28  21792947.344 7 114522697.857 7     -2172.203          44.000    21792946.156 6  89238464.531 6     -1692.626          36.000
R03  22534897.391 5 120631017.946 5     -4351.750          32.000    22534896.031 4  93824139.111 4     -3384.691          26.000
R04  19516266.391 8 104508735.947 8     -1566.059          50.000    19516267.344 7  81284560.538 7     -1218.046          43.000
R14  19414664.289 7 103491110.819 7      -893.863          44.000    19414665.672 6  80493120.674 6      -695.227          40.000
R15  20890396.195 5 111631948.241 5      2434.418          33.000    20890400.852 6  86824857.616 6      1893.427          38.000
C05  39774740.688 6 207117512.033 6        22.609          36.000    39774738.859 6 160156370.179 6        17.667          38.000
C14  25029290.031 5 130334085.719 5     -3397.707          30.000
C24  22780945.234 6 118626383.669 6     -1743.738          41.000
C25  22242252.117 7 115821225.218 7      1096.785          44.000
E04  25741907.781 8 135274613.696 8     -2642.559          48.000    25741910.078 8 103651957.972 8     -2024.851          49.000
E09  21594238.547 8 113478495.731 8      -289.430          51.000    21594240.023 8  86951045.248 8      -221.756          51.000
E24  23715461.703 8 124625623.159 8      2274.957          51.000    23715472.688 8  95492351.428 8      1743.179          49.000
E31  23378058.750 8 122852533.121 8       -44.812          51.000    23378061.922 8  94133770.308 8       -34.232          51.000
> 2020 05 10 05 42  0.0000000  0 16        .000000000000
G13  20446944.062 8 107449415.857 8     -1257.492          51.000    20446943.344 8  83726795.083 8      -979.864          49.000
G15  20330308.008 8 106836479.987 8       319.633          51.000    20330306.438 8  83249212.556 8       249.065          51.000
G19  24013783.898 7 126193299.158 7      3335.203          45.000    24013785.297 7  98332420.003 7      2598.863          45.000
G28  21805375.086 7 114588005.180 7     -2182.098          43.000    21805373.586 6  89289353.346 6     -1700.333          37.000
R04  19525106.125 8 104556069.454 8     -1589.953          51.000    19525105.477 7  81321375.495 7     -1236.630          43.000
R14  19419731.742 7 103518123.690 7      -907.219          44.000    19419734.172 7  80514130.671 7      -705.615          42.000
R15  20876760.938 6 111559081.046 6      2422.902          38.000    20876764.828 6  86768183.185 6      1884.486          37.000
C05  39774604.016 6 207116800.438 6        24.035          36.000    39774602.141 6 160155819.925 6        18.821          38.000
C14  25048870.141 4 130436039.948 4     -3399.336          29.000
C23  25913613.664 5 134938944.947 5      2709.391          34.000
C24  22791005.648 7 118678768.775 7     -1748.684          42.000
C25  22235955.062 7 115788430.810 7      1089.102          45.000
E04  25757007.711 8 135353965.527 8     -2647.793          48.000    25757010.664 8 103712760.054 8     -2028.846          50.000
E09  21595922.406 8 113487342.217 8      -300.621          51.000    21595923.672 8  86957823.725 8      -230.385          51.000
E24  23702489.078 8 124557453.764 8      2269.395          51.000    23702500.828 8  95440117.754 8      1738.878          49.000
E31  23378338.906 8 122854004.239 8       -53.668          51.000    23378342.031 8  94134897.522 8       -41.128          51.000
> 2020 05 10 05 42 30.0000000  0 17        .000000000000
G13  20454165.914 8 107487367.299 8     -1273.750          51.000    20454165.000 8  83756367.612 8      -992.532          49.000
G15  20328533.641 8 106827155.291 8       300.934          51.000    20328532.070 8  83241946.553 8       234.494          51.000
G19  23994759.195 7 126093320.179 7      3328.980          47.000    23994760.227 7  98254514.326 7      2594.014          46.000
G28  21817865.492 7 114653641.681 7     -2194.555          44.000    21817863.547 5  89340498.646 5     -1710.043          34.000
R03  22583741.516 5 120892515.541 5     -4366.410          34.000
R04  19534083.898 8 104604143.575 8     -1616.117          51.000    19534082.766 7  81358766.449 7     -1256.980          45.000
R14  19424879.312 7 103545565.594 7      -923.422          43.000    19424883.391 7  80535474.344 7      -718.220          42.000
R15  20863194.289 6 111486581.642 6      2408.859          41.000    20863197.727 6  86711794.864 6      1873.560          38.000
C05  39774463.617 6 207116069.365 6        23.164          36.000    39774461.750 6 160155254.612 6        17.867          38.000
C14                                                                  25068455.055 5 100940285.431 5     -2631.053          30.000
C23  25898020.016 5 134857712.970 5      2704.660          35.000
C24  22801099.297 6 118731326.854 6     -1756.230          41.000
C25  22229705.906 7 115755887.957 7      1079.246          45.000
E04  25772142.414 8 135433499.245 8     -2655.484          49.000    25772145.586 8 103773701.483 8     -2034.800          50.000
E09  21597675.391 8 113496552.082 8      -314.453          51.000    21597676.203 8  86964880.633 8      -240.972          51.000
E24  23689553.969 8 124489480.947 8      2261.125          51.000    23689566.336 8  95388034.692 8      1732.458          50.000
E31  23378674.820 8 122855768.086 8       -65.059          51.000    23378677.680 8  94136249.034 8       -49.832          51.000
> 2020 05 10 05 43  0.0000000  0 18        .000000000000
G13  20461475.070 8 107525777.208 8     -1285.016          51.000    20461473.945 8  83786297.391 8     -1001.311          48.000
G15  20326861.250 8 106818367.196 8       286.922          51.000    20326859.906 8  83235098.677 8       223.575          51.000
G19  23975763.703 8 125993493.201 8      3327.906          48.000    23975764.062 7  98176727.118 7      2593.177          46.000
G24  22211815.883 5 116723858.311 5      2560.266          35.000    22211796.859 5  90953599.485 5      1995.012          33.000
G28  21830421.961 7 114719625.892 7     -2202.055          43.000    21830420.016 6  89391914.904 6     -1715.887          36.000
R03  22608229.961 6 121023589.237 6     -4369.949          36.000
R04  19543203.578 8 104652977.989 8     -1637.504          51.000    19543202.492 7  81396748.733 7     -1273.614          45.000
R14  19430111.195 7 103573455.486 7      -934.090          44.000    19430115.242 7  80557166.431 7      -726.517          42.000
R15  20849700.141 6 111414471.606 6      2400.363          38.000    20849704.312 6  86655709.319 6      1866.952          38.000
C05  39774323.375 6 207115339.224 6        27.457          36.000    39774321.445 6 160154690.023 6        21.180          38.000
C14  25088081.781 5 130640224.813 5     -3402.449          30.000    25088064.828 5 101019249.010 5     -2630.265          30.000
C23  25882443.188 6 134776589.250 6      2705.117          37.000
C24  22811229.562 6 118784077.302 6     -1758.375          38.000
C25  22223508.273 7 115723616.986 7      1074.051          45.000
E04  25787315.867 8 135513234.357 8     -2658.277          50.000    25787318.188 8 103834797.203 8     -2036.850          50.000
E09  21599501.234 8 113506146.245 8      -323.219          51.000    21599501.742 8  86972232.011 8      -247.655          51.000
E24  23676660.844 8 124421725.750 8      2257.816          51.000    23676673.609 8  95336118.363 8      1730.096          51.000
E31  23379070.219 8 122857844.492 8       -71.426          51.000    23379072.625 8  94137840.044 8       -54.723          51.000
> 2020 05 10 05 43 30.0000000  0 18        .000000000000
G13  20468882.266 8 107564702.467 8     -1304.777          51.000    20468880.781 8  83816628.739 8     -1016.710          48.000
G15  20325301.938 8 106810173.390 8       264.418          51.000    20325300.672 8  83228713.883 8       206.040          51.000
G17  23063820.719 4 121201189.051 4      1934.176          29.000
G19  23956808.508 7 125893878.104 7      3318.211          47.000    23956807.812 7  98099105.013 7      2585.622          43.000
G28  21843054.617 7 114786011.950 7     -2218.426          42.000    21843052.766 5  89443644.270 5     -1728.643          34.000
R03  22632771.117 6 121154947.387 6     -4381.973          37.000    22632767.055 4  94231645.998 4     -3408.201          25.000
R04  19552475.906 8 104702629.058 8     -1667.367          51.000    19552475.086 7  81435366.218 7     -1296.841          46.000
R14  19435438.016 7 103601849.145 7      -953.547          44.000    19435442.469 7  80579250.402 7      -741.648          42.000
R15  20836289.133 6 111342809.250 6      2382.652          38.000    20836295.141 6  86599971.917 6      1853.174          38.000
C05  39774194.055 6 207114665.392 6        22.727          36.000    39774192.227 6 160154169.713 6        17.601          38.000
C14  25107720.422 5 130742488.935 5     -3409.926          32.000    25107706.523 5 101098326.144 5     -2636.777          34.000
C23  25866896.367 6 134695630.642 6      2697.164          37.000
C24  22821407.250 6 118837075.525 6     -1769.629          37.000
C25  22217373.836 7 115691674.077 7      1060.629          45.000
E04  25802538.438 8 135593226.687 8     -2669.477          51.000    25802539.438 8 103896089.990 8     -2045.413          49.000
E09  21601410.836 8 113516181.949 8      -340.633          51.000    21601411.375 8  86979921.688 8      -260.945          51.000
E24  23663820.469 8 124354245.529 8      2246.086          51.000    23663833.500 8  95284412.745 8      1721.015          51.000
E31  23379535.758 8 122860289.636 8       -86.414          51.000    23379537.938 8  94139713.584 8       -66.195          51.000
> 2020 05 10 05 44  0.0000000  0 19        .000000000000
G13  20476363.766 8 107604017.971 8     -1315.867          51.000    20476362.164 8  83847264.181 8     -1025.354          49.000
G15  20323832.344 8 106802450.443 8       250.684          51.000    20323831.242 8  83222695.987 8       195.338          51.000
G19  23937870.305 7 125794354.150 7      3317.016          46.000    23937869.000 7  98021553.856 7      2584.688          44.000
G24  22182693.359 5 116570866.241 5      2545.602          31.000
G28  21855739.711 7 114852673.635 7     -2225.289          44.000    21855737.859 6  89495588.440 6     -1733.991          36.000
G30  24024034.219 5 126247143.835 5     -2910.691          32.000    24024035.281 5  98374421.049 5     -2268.071          32.000
R03  22657339.312 5 121286459.575 5     -4385.379          34.000    22657334.711 4  94333928.154 4     -3410.856          26.000
R04  19561876.477 8 104752968.253 8     -1688.238          51.000    19561876.500 8  81474518.902 8     -1313.074          48.000
R14  19440835.078 7 103630618.288 7      -963.973          43.000    19440839.453 6  80601626.394 6      -749.757          41.000
R15  20822939.367 6 111271468.215 6      2374.062          36.000    20822944.836 5  86544484.518 5      1846.496          35.000
C05  39774052.188 5 207113926.418 5        26.770          35.000    39774050.312 6 160153598.294 6        20.815          38.000
C14  25127363.695 6 130844774.171 6     -3408.750          36.000    25127351.305 5 101177419.534 5     -2635.892          35.000
C23  25851356.875 5 134614713.970 5      2697.289          35.000
C24  22831609.281 5 118890196.927 5     -1771.492          35.000
C25  22211278.883 7 115659935.693 7      1055.828          44.000
E04  25817786.086 8 135673350.549 8     -2671.754          51.000    25817785.969 8 103957483.549 8     -2047.233          49.000
E09  21603380.695 8 113526534.887 8      -349.164          51.000    21603381.172 8  86987854.455 8      -267.568          51.000
E24  23651008.867 8 124286916.178 8      2242.887          51.000    23651021.672 8  95232822.738 8      1718.582          51.000
E31  23380047.406 8 122862978.169 8       -92.461          51.000    23380049.680 8  94141773.619 8       -70.829          51.000
> 2020 05 10 05 44 30.0000000  0 17        .000000000000
G13  20483944.445 8 107643853.922 8     -1338.902          51.000    20483942.773 8  83878305.163 8     -1043.301          48.000
G15  20322477.273 8 106795328.841 8       225.066          51.000    20322476.164 8  83217146.678 8       175.376          51.000
G19  23918973.562 7 125695054.635 7      3303.879          43.000    23918972.664 7  97944177.643 7      2574.451          43.000
G28  21868501.719 7 114919738.444 7     -2244.582          43.000    21868500.023 6  89547846.686 6     -1749.025          36.000
G30  24040680.320 5 126334616.600 5     -2919.594          33.000    24040683.977 5  98442581.615 5     -2275.011          33.000
R03  22681960.594 6 121418254.916 6     -4400.184          37.000
R04  19571430.016 8 104804126.658 8     -1721.312          51.000    19571430.578 8  81514308.780 8     -1338.796          48.000
R14  19446327.172 7 103659893.200 7      -986.668          43.000    19446330.477 6  80624395.762 6      -767.408          40.000
C05  39773922.422 6 207113250.392 6        19.426          36.000    39773920.445 6 160153075.518 6        15.048          38.000
C14  25147034.242 6 130947207.573 6     -3419.129          37.000    25147024.078 5 101256627.441 5     -2643.785          32.000
C23  25835849.438 5 134533968.666 5      2686.035          35.000
C24  22841859.180 5 118943569.831 5     -1785.867          33.000
C25  22205247.250 7 115628530.798 7      1038.957          43.000
E04  25833083.297 8 135753735.169 8     -2686.102          51.000    25833082.078 8 104019076.892 8     -2058.167          49.000
E09  21605435.859 8 113537335.609 8      -369.727          51.000    21605435.758 8  86996130.337 8      -283.333          51.000
E24  23638250.461 8 124219868.425 8      2228.004          51.000    23638262.820 8  95181448.519 8      1707.166          51.000
E31  23380629.742 8 122866039.530 8      -110.543          51.000    23380632.133 8  94144119.337 8       -84.687          51.000
> 2020 05 10 05 45  0.0000000  0 19        .000000000000
G13  20491614.734 8 107684160.690 8     -1350.352          51.000    20491612.852 8  83909713.017 8     -1052.222          49.000
G15  20321227.367 8 106788760.187 8       210.785          51.000    20321226.047 8  83212028.245 8       164.248          51.000
G19  23900110.781 7 125595933.617 7      3302.051          43.000    23900110.484 7  97866940.448 7      2573.027          43.000
G24  22153752.883 6 116418776.288 6      2528.234          36.000    22153753.797 5  90715924.810 5      1970.050          31.000
G28  21881330.648 7 114987154.857 7     -2252.098          44.000    21881329.328 6  89600378.977 6     -1754.881          36.000
G30  24057341.758 5 126422177.661 5     -2918.844          31.000    24057348.484 5  98510810.949 5     -2274.430          31.000
R03  22706625.016 5 121550279.857 5     -4403.590          35.000
R04  19581126.492 8 104856052.366 8     -1742.609          51.000    19581127.836 8  81554695.430 8     -1355.363          49.000
R14  19451904.102 7 103689621.930 7      -997.477          42.000    19451907.297 6  80647518.100 6      -775.812          40.000
R15  20796484.094 6 111130093.935 6      2343.676          38.000    20796494.797 5  86434522.396 5      1822.862          30.000
C05  39773795.305 6 207112588.498 6        22.938          36.000    39773793.344 6 160152563.699 6        17.562          37.000
C14  25166723.195 6 131049738.239 6     -3418.000          37.000
C23  25820362.898 6 134453346.310 6      2686.242          36.000
C24  22852145.969 5 118997144.031 5     -1787.586          32.000
C25  22199269.914 7 115597410.430 7      1033.703          43.000
E04  25848420.578 8 135834330.103 8     -2688.844          51.000    25848418.766 8 104080831.393 8     -2060.316          49.000
E09  21607567.031 8 113548535.147 8      -378.820          51.000    21607566.516 8  87004711.801 8      -290.286          51.000
E24  23625535.648 8 124153053.484 8      2224.406          51.000    23625547.805 8  95130252.671 8      1704.403          51.000
E31  23381273.703 8 122869423.714 8      -117.055          51.000    23381275.922 8  94146712.407 8       -89.697          51.000
> 2020 05 10 05 45 30.0000000  0 18        .000000000000
G13  20499364.039 8 107724883.430 8     -1367.156          51.000    20499362.141 8  83941445.002 8     -1065.317          49.000
G15  20320072.242 8 106782690.367 8       191.195          51.000    20320070.867 8  83207298.507 8       148.983          51.000
G19  23881272.578 7 125496939.529 7      3294.883          46.000    23881272.391 7  97789802.271 7      2567.441          43.000
G24  22139343.211 5 116343021.762 5      2519.613          32.000
G28  21894215.648 7 115054865.954 7     -2264.586          45.000    21894214.375 5  89653140.850 5     -1764.615          33.000
R03  22731319.844 5 121682535.730 5     -4412.031          30.000
R04  19590955.648 8 104908688.197 8     -1769.117          51.000    19590957.562 8  81595634.393 8     -1375.980          48.000
R14  19457555.461 6 103719747.129 6     -1013.660          41.000    19457558.539 6  80670948.824 6      -788.402          39.000
R15  20783358.375 6 111059961.578 6      2329.164          39.000    20783370.977 5  86379975.003 5      1811.572          33.000
C05  39773660.461 5 207111886.580 5        21.027          35.000    39773658.469 6 160152020.908 6        16.299          38.000
C14  25186419.484 6 131152309.951 6     -3422.152          37.000
C23  25804889.812 6 134372793.233 6      2681.195          37.000
C24  22862461.867 5 119050864.604 5     -1795.391          32.000
C25  22193337.570 7 115566520.169 7      1023.133          45.000
E04  25863787.250 8 135915079.678 8     -2697.156          51.000    25863785.828 8 104142704.374 8     -2066.658          51.000
E09  21609763.656 8 113560079.128 8      -393.434          51.000    21609763.414 8  87013557.174 8      -301.420          51.000
E24  23612854.359 8 124086417.133 8      2215.367          50.000    23612867.000 8  95079193.655 8      1697.462          51.000
E31  23381968.805 8 122873075.314 8      -128.973          51.000    23381970.750 8  94149510.367 8       -98.874          51.000
> 2020 05 10 05 46  0.0000000  0 16        .000000000000
G13  20507200.516 8 107766065.116 8     -1379.988          51.000    20507198.969 8  83973534.604 8     -1075.316          49.000
G15  20319020.375 8 106777163.533 8       175.664          51.000    20319019.156 8  83202991.863 8       136.881          51.000
G19  23862468.180 8 125398119.190 8      3291.504          48.000    23862467.039 7  97712799.436 7      2564.811          42.000
G28  21907164.680 7 115122912.884 7     -2273.312          46.000    21907163.086 5  89706164.418 5     -1771.412          32.000
R04  19600925.508 8 104962076.242 8     -1791.641          51.000    19600927.141 7  81637158.418 7     -1393.498          47.000
R14  19463289.375 6 103750310.509 6     -1025.480          41.000    19463291.461 6  80694720.332 6      -797.596          38.000
R15  20770306.141 6 110990223.250 6      2318.602          37.000    20770321.422 5  86325733.970 5      1803.348          34.000
C05  39773526.211 6 207111187.472 6        23.422          36.000    39773524.148 6 160151480.278 6        18.453          38.000
C14  25206130.906 6 131254963.449 6     -3422.758          38.000
C23  25789439.992 6 134292352.488 6      2680.145          37.000
C24  22872814.930 6 119104773.401 6     -1799.828          36.000
C25  22187458.219 7 115535902.704 7      1016.508          46.000
E04  25879191.320 8 135996025.994 8     -2701.062          51.000    25879190.633 8 104204728.111 8     -2069.651          51.000
E09  21612034.180 8 113572011.055 8      -403.789          51.000    21612034.320 8  87022699.788 8      -309.364          51.000
E24  23600215.516 8 124020003.027 8      2210.418          50.000    23600228.875 8  95028304.918 8      1693.754          51.000
E31  23382722.492 8 122877036.708 8      -136.750          51.000    23382724.711 8  94152545.725 8      -104.797          51.000
> 2020 05 10 05 46 30.0000000  0 16        .000000000000
G13  20515122.719 8 107807697.996 8     -1394.938          50.000    20515121.461 8  84005975.791 8     -1086.964          48.000
G15  20318070.664 8 106772173.107 8       157.613          51.000    20318069.602 8  83199103.205 8       122.816          51.000
G19  23843696.297 8 125299468.975 8      3285.707          48.000    23843693.938 6  97635929.182 6      2560.291          39.000
G28  21920175.898 7 115191286.531 7     -2284.164          45.000    21920173.547 5  89759442.560 5     -1779.868          35.000
R04  19611034.047 8 105016207.540 8     -1816.453          51.000    19611035.219 7  81679260.512 7     -1412.797          47.000
R14  19469103.859 7 103781303.064 7     -1039.770          42.000    19469106.719 6  80718825.629 6      -808.713          38.000
R15  20757329.188 6 110920872.096 6      2305.590          38.000    20757343.547 5  86271794.029 5      1793.230          31.000
C05  39773391.062 5 207110483.973 5        23.922          35.000    39773389.047 6 160150936.252 6        18.679          37.000
C14  25225856.758 6 131357689.403 6     -3425.121          39.000
C23  25774010.719 6 134212017.358 6      2676.141          39.000
C24  22883202.680 6 119158862.087 6     -1805.559          38.000
C25  22181629.922 7 115505550.726 7      1007.461          46.000
E04  25894631.023 8 136077160.650 8     -2707.246          51.000    25894631.055 8 104266896.179 8     -2074.389          51.000
E09  21614377.430 8 113584323.896 8      -416.484          51.000    21614377.570 8  87032134.286 8      -319.109          51.000
E24  23587618.328 8 123953804.344 8      2203.324          51.000    23587631.641 8  94977581.264 8      1688.270          51.000
E31  23383533.719 8 122881299.896 8      -146.832          51.000    23383536.055 8  94155812.324 8      -112.502          51.000
> 2020 05 10 05 47  0.0000000  0 16        .000000000000
G13  20523129.844 8 107849778.273 8     -1409.902          48.000    20523128.914 7  84038765.633 7     -1098.625          47.000
G15  20317222.492 8 106767715.646 8       139.934          51.000    20317221.453 8  83195629.849 8       109.039          51.000
G19  23824956.242 7 125200988.055 7      3280.059          46.000    23824951.531 5  97559190.811 5      2555.890          35.000
G28  21933248.016 7 115259980.259 7     -2294.668          45.000    21933245.070 5  89812970.131 5     -1788.056          32.000
R04  19621280.414 8 105071076.060 8     -1840.949          51.000    19621280.852 7  81721936.001 7     -1431.849          46.000
R14  19474996.609 6 103812718.546 6     -1053.652          39.000    19474999.797 6  80743259.882 6      -819.507          36.000
R15  20744425.266 6 110851904.069 6      2292.969          36.000
C05  39773254.352 5 207109772.160 5        24.375          35.000    39773252.266 6 160150385.851 6        18.649          37.000
C14  25245595.984 6 131460481.849 6     -3427.441          39.000    25245588.688 4 101653540.541 4     -2650.049          29.000
C23  25758602.164 6 134131784.271 6      2672.914          37.000
C24  22893624.469 6 119213125.797 6     -1811.289          38.000
C25  22175851.516 7 115475460.197 7       998.965          46.000
E04  25910105.023 8 136158478.660 8     -2713.387          50.000    25910106.148 8 104329204.764 8     -2079.053          51.000
E09  21616792.383 8 113597013.993 8      -429.039          51.000    21616792.438 8  87041857.863 8      -328.729          51.000
E24  23575061.906 8 123887817.611 8      2196.301          50.000    23575074.453 8  94927020.013 8      1682.889          51.000
E31  23384401.625 8 122885860.192 8      -156.703          51.000    23384403.797 8  94159306.557 8      -120.098          51.000
> 2020 05 10 05 47 30.0000000  0 17        .000000000000
G13  20531215.211 8 107892269.229 8     -1422.973          49.000    20531214.820 8  84071875.463 8     -1108.810          48.000
G15  20316468.930 8 106763755.969 8       123.895          51.000    20316467.773 8  83192544.385 8        96.541          51.000
G19  23806240.977 6 125102644.161 6      3276.051          39.000    23806235.703 6  97482559.236 6      2552.764          38.000
G24  22082059.422 5 116041998.409 5      2496.809          34.000    22082054.336 5  90422326.806 5      1945.565          32.000
G28  21946373.625 7 115328955.928 7     -2303.715          44.000    21946371.039 5  89866717.397 5     -1795.102          31.000
R04  19631657.422 8 105126643.592 8     -1863.707          49.000    19631657.594 7  81765155.158 7     -1449.553          46.000
R14  19480961.766 6 103844518.806 6     -1066.336          40.000    19480964.867 6  80767993.412 6      -829.375          36.000
R15  20731582.969 5 110783283.407 5      2281.363          34.000    20731591.125 5  86164785.140 5      1774.394          30.000
C05  39773109.250 5 207109016.596 5        26.039          35.000    39773107.125 6 160149801.575 6        20.232          37.000
C14  25265341.023 6 131563303.120 6     -3427.812          39.000    25265339.688 5 101733047.916 5     -2650.267          34.000
C23  25743206.805 6 134051617.955 6      2671.441          36.000
C24  22904073.312 6 119267528.035 6     -1815.602          38.000
C25  22170115.773 7 115445595.380 7       991.887          44.000
E04  25925606.094 7 136239942.954 7     -2717.691          47.000    25925608.742 8 104391625.445 8     -2082.414          51.000
E09  21619272.227 8 113610045.647 8      -439.934          51.000    21619272.703 8  87051843.145 8      -337.110          51.000
E24  23562538.609 8 123822007.342 8      2190.906          49.000    23562550.906 8  94876593.982 8      1678.734          51.000
E31  23385318.750 8 122890680.822 8      -164.840          51.000    23385321.078 8  94163000.286 8      -126.285          51.000
> 2020 05 10 05 48  0.0000000  0 19        .000000000000
G13  20539394.531 8 107935250.929 8     -1440.898          51.000    20539394.398 8  84105367.671 8     -1122.778          49.000
G15  20315825.508 8 106760375.190 8       103.043          51.000    20315824.516 8  83189909.998 8        80.293          51.000
G17  22967506.602 5 120695061.772 5      1812.480          32.000
G19  23787565.797 6 125004520.659 6      3267.102          38.000    23787561.805 6  97406099.316 6      2545.793          37.000
G24  22067838.047 5 115967253.541 5      2487.629          31.000
G28  21959567.891 7 115398292.003 7     -2317.227          43.000    21959566.016 5  89920745.473 5     -1805.631          33.000
R03  22855341.078 5 122346458.752 5     -4442.895          32.000    22855349.039 5  95158358.478 5     -3455.585          35.000
R04  19642179.844 7 105182990.040 7     -1891.086          47.000    19642180.172 7  81808980.143 7     -1470.848          47.000
R14  19487014.328 6 103876783.258 6     -1083.191          41.000    19487016.719 6  80793087.947 6      -842.482          36.000
R15  20718821.312 6 110715092.401 6      2265.848          38.000    20718827.148 5  86111747.593 5      1762.326          34.000
C05  39772971.070 5 207108296.808 5        23.406          35.000    39772968.828 6 160149244.976 6        18.057          37.000
C14  25285106.727 6 131666230.810 6     -3432.863          38.000    25285106.859 6 101812638.100 6     -2654.438          36.000
C23  25727839.383 5 133971598.484 5      2664.938          34.000
C24  22914563.352 6 119322147.412 6     -1824.316          38.000
C25  22164438.586 7 115416035.762 7       980.340          45.000
E04  25941150.273 8 136321632.855 8     -2726.871          48.000    25941153.875 8 104454218.982 8     -2089.340          51.000
E09  21621832.320 8 113623499.470 8      -455.520          51.000    21621833.672 8  87062151.896 8      -349.046          51.000
E24  23550064.117 8 123756454.372 8      2180.770          48.000    23550076.812 8  94826365.077 8      1670.985          51.000
E31  23386300.805 8 122895841.436 8      -177.656          51.000    23386303.289 8  94166954.513 8      -136.162          51.000
> 2020 05 10 05 48 30.0000000  0 18        .000000000000
G13  20547660.156 8 107978685.701 8     -1455.184          51.000    20547660.219 8  84139212.928 8     -1133.909          50.000
G15  20315285.258 8 106757536.265 8        85.742          51.000    20315284.430 8  83187697.832 8        66.812          51.000
G19  23768929.211 6 124906583.317 6      3261.410          40.000    23768924.703 6  97329784.550 6      2541.365          39.000
G24  22053655.523 5 115892716.972 5      2481.219          32.000
G28  21972823.242 6 115467948.329 6     -2327.203          37.000    21972821.031 6  89975023.132 6     -1813.399          37.000
R03  22880255.094 5 122479829.568 5     -4448.566          31.000    22880264.086 6  95262091.274 6     -3459.996          37.000
R04  19652839.922 7 105240075.347 7     -1914.980          46.000    19652841.008 8  81853379.862 8     -1489.429          48.000
R14  19493146.953 7 103909471.820 7     -1096.355          42.000    19493149.805 6  80818512.422 6      -852.718          38.000
R15  20706134.766 6 110647292.888 6      2253.582          37.000    20706139.266 6  86059014.712 6      1752.786          36.000
C05  39772832.516 5 207107575.488 5        24.160          35.000    39772830.289 6 160148687.153 6        19.008          37.000
C14  25304886.055 6 131769225.517 6     -3434.332          37.000    25304887.133 6 101892280.129 6     -2655.595          37.000
C23  25712493.703 5 133891688.936 5      2662.199          35.000
C24  22925086.547 5 119376945.614 5     -1829.574          34.000
C25  22158813.789 7 115386743.932 7       972.070          46.000
E04  25956730.672 8 136403509.638 8     -2732.230          49.000    25956734.445 8 104516955.734 8     -2093.533          51.000
E09  21624465.516 8 113637338.082 8      -467.676          51.000    21624467.539 8  87072755.483 8      -358.325          51.000
E24  23537631.852 8 123691121.492 8      2174.031          51.000    23537645.102 8  94776304.813 8      1665.834          51.000
E31  23387340.414 8 122901303.604 8      -187.004          51.000    23387343.000 8  94171139.797 8      -143.316          51.000
> 2020 05 10 05 49  0.0000000  0 16        .000000000000
G13  20556027.438 8 108022655.171 8     -1470.016          51.000    20556027.547 8  84173474.830 8     -1145.467          51.000
G15  20314863.906 8 106755321.899 8        67.902          51.000    20314862.914 8  83185972.352 8        52.911          51.000
G19  23750344.750 7 124808917.403 7      3255.461          45.000    23750339.758 6  97253681.300 6      2536.726          39.000
G28  21986154.023 6 115538004.490 6     -2337.309          40.000    21986151.281 5  90029612.409 5     -1821.276          33.000
R03  22905218.797 4 122613430.141 4     -4455.086          29.000    22905228.867 6  95366033.055 6     -3465.070          37.000
R04  19663652.586 8 105297980.727 8     -1939.121          49.000    19663654.672 8  81898417.415 8     -1508.205          48.000
R14  19499374.836 7 103942665.973 7     -1110.441          42.000    19499377.219 6  80844330.099 6      -863.680          36.000
C05  39772709.266 5 207106933.937 5        24.688          35.000    39772707.172 6 160148191.077 6        19.020          38.000
C14  25324693.562 5 131872366.331 5     -3435.906          31.000    25324694.703 6 101972035.102 6     -2656.613          37.000
C23  25697184.461 6 133811970.793 6      2658.555          36.000
C24  22935657.234 5 119432002.953 5     -1834.867          31.000
C25  22153256.359 7 115357800.823 7       963.430          47.000
E04  25972362.422 8 136485654.084 8     -2738.059          50.000    25972365.930 8 104579897.559 8     -2098.011          51.000
E09  21627187.859 8 113651643.595 8      -480.066          51.000    21627189.891 8  87083716.840 8      -367.861          51.000
E24  23525257.742 8 123626091.011 8      2167.164          51.000    23525271.148 8  94726476.258 8      1660.542          51.000
E31  23388452.547 8 122907148.430 8      -196.680          51.000    23388455.188 8  94175618.298 8      -150.691          51.000
> 2020 05 10 05 49 30.0000000  0 17        .000000000000
G13  20564462.625 8 108066981.002 8     -1485.043          51.000    20564462.602 8  84208014.439 8     -1157.176          51.000
G15  20314527.656 8 106753554.734 8        49.871          51.000    20314526.781 8  83184595.326 8        38.858          51.000
G19  23731779.227 8 124711349.058 8      3249.035          48.000    23731774.109 7  97177654.036 7      2531.716          42.000
G28  21999526.867 6 115608280.849 6     -2347.707          41.000    21999524.578 5  90084373.142 5     -1829.385          34.000
R03  22930202.133 5 122747154.075 5     -4460.188          33.000    22930209.133 6  95470040.464 6     -3469.038          36.000
R04  19674584.945 8 105356523.418 8     -1963.523          51.000    19674587.117 8  81943950.595 8     -1527.188          48.000
R14  19505663.500 7 103976183.128 7     -1124.148          43.000    19505665.414 6  80870398.952 6      -874.341          37.000
R15  20681019.711 5 110512994.836 5      2228.039          32.000    20681001.117 6  85954540.599 6      1732.922          37.000
C05  39772567.523 5 207106195.960 5        24.781          34.000    39772565.422 6 160147620.399 6        19.265          37.000
C14  25344494.641 5 131975432.181 5     -3437.734          31.000    25344496.062 6 102051765.296 6     -2658.407          38.000
C23  25681878.477 5 133732268.402 5      2654.949          35.000
C24  22946244.711 5 119487142.093 5     -1840.207          31.000
C25  22147731.789 7 115329030.157 7       954.625          46.000
E04  25988011.539 8 136567887.324 8     -2744.016          51.000    25988014.508 8 104642907.411 8     -2102.492          51.000
E09  21629965.359 8 113666238.434 8      -492.801          51.000    21629967.234 8  87094899.893 8      -377.568          51.000
E24  23512907.203 8 123561185.572 8      2159.938          51.000    23512920.469 8  94676743.518 8      1655.080          51.000
E31  23389603.539 8 122913197.323 8      -206.441          51.000    23389605.883 8  94180253.156 8      -158.194          51.000
> 2020 05 10 05 50  0.0000000  0 17        .000000000000
G13  20572987.281 8 108111777.578 8     -1500.547          51.000    20572987.391 8  84242920.880 8     -1169.257          51.000
G15  20314298.305 8 106752349.697 8        31.234          51.000    20314297.648 8  83183656.326 8        24.338          51.000
G19  23713254.742 8 124613996.080 8      3241.996          48.000    23713250.273 7  97101794.581 7      2526.234          44.000
G28  22012963.031 6 115678889.830 6     -2358.578          40.000    22012961.469 5  90139393.097 5     -1837.853          30.000
R03  22955220.336 5 122881075.464 5     -4466.895          35.000    22955226.664 5  95574201.534 5     -3474.251          34.000
R04  19685658.250 8 105415818.323 8     -1988.449          51.000    19685660.008 7  81990068.820 7     -1546.572          47.000
R14  19512033.719 6 104010137.464 6     -1138.547          40.000    19512036.688 5  80896807.929 5      -885.536          35.000
R15  20668527.703 5 110446321.362 5      2213.824          31.000    20668530.969 5  85902729.122 5      1721.869          34.000
C05  39772429.148 5 207105475.273 5        24.254          35.000    39772427.047 6 160147063.118 6        18.803          37.000
C14  25364312.438 5 132078620.542 5     -3440.305          30.000    25364312.711 6 102131557.007 6     -2660.410          38.000
C23  25666597.594 6 133652695.701 6      2650.863          36.000
C24  22956870.625 5 119542476.019 5     -1847.242          33.000
C25  22142261.727 7 115300545.509 7       945.281          46.000
E04  26003699.203 8 136650323.001 8     -2750.719          51.000    26003701.719 8 104706072.404 8     -2107.688          51.000
E09  21632819.586 8 113681237.604 8      -506.168          51.000    21632821.461 8  87106392.755 8      -387.876          51.000
E24  23500601.688 8 123496520.426 8      2152.039          49.000    23500614.664 8  94627194.876 8      1648.935          51.000
E31  23390815.195 8 122919564.283 8      -217.012          51.000    23390817.430 8  94185131.730 8      -166.306          51.000
> 2020 05 10 05 50 30.0000000  0 17        .000000000000
G13  20581597.805 8 108157026.025 8     -1515.562          51.000    20581597.961 8  84278179.414 8     -1180.958          50.000
G15  20314172.555 8 106751689.114 8        13.125          51.000    20314171.977 8  83183141.569 8        10.227          51.000
G19  23694767.789 8 124516843.337 8      3235.199          49.000    23694764.516 7  97026091.155 7      2520.934          47.000
G28  22026458.812 6 115749810.693 6     -2368.578          39.000    22026457.562 6  90194656.128 6     -1845.645          37.000
R03  22980270.883 5 123015172.227 5     -4472.777          30.000    22980277.250 5  95678498.971 5     -3478.830          33.000
R04  19696867.758 8 105475844.383 8     -2012.863          51.000    19696869.484 7  82036755.743 7     -1565.560          47.000
R14  19518482.250 6 104044508.586 6     -1152.297          40.000    19518483.336 5  80923541.042 5      -896.231          32.000
R15  20656128.781 5 110380097.282 5      2201.129          32.000    20656138.078 5  85851221.626 5      1711.989          33.000
C05  39772290.531 5 207104753.571 5        24.090          34.000    39772288.367 6 160146505.046 6        18.776          37.000
C14  25384142.188 4 132181885.948 4     -3443.027          29.000    25384139.797 6 102211394.324 6     -2661.884          36.000
C23  25651338.375 5 133573234.804 5      2647.293          35.000
C24  22967530.508 6 119597985.284 6     -1853.105          36.000
C25  22136842.984 7 115272328.327 7       936.406          46.000
E04  26019421.273 8 136732941.414 8     -2756.820          50.000    26019423.500 8 104769377.410 8     -2112.405          51.000
E09  21635747.312 8 113696622.667 8      -519.020          51.000    21635749.195 8  87118181.296 8      -397.729          51.000
E24  23488337.391 8 123432077.382 8      2144.582          48.000    23488350.938 8  94577816.410 8      1643.242          51.000
E31  23392083.781 8 122926229.918 8      -226.980          51.000    23392086.070 8  94190239.159 8      -173.911          51.000
> 2020 05 10 05 51  0.0000000  0 17        .000000000000
G13  20590291.898 8 108202713.046 8     -1530.133          51.000    20590291.609 8  84313779.702 8     -1192.311          49.000
G15  20314148.180 8 106751560.689 8        -4.465          51.000    20314147.469 8  83183041.489 8        -3.479          51.000
G19  23676316.766 8 124419881.400 8      3228.988          48.000    23676314.547 8  96950536.425 8      2516.095          48.000
G28  22040011.125 6 115821028.153 6     -2378.656          39.000    22040010.227 5  90250150.280 5     -1853.492          34.000
R03  23005351.797 5 123149427.470 5     -4477.254          30.000    23005357.211 5  95782919.640 5     -3482.312          31.000
R04  19708210.719 8 105536586.365 8     -2036.512          51.000    19708212.531 7  82083999.503 7     -1583.954          46.000
R14  19525005.531 6 104079281.458 6     -1165.633          40.000    19525006.234 5  80950586.587 5      -906.603          33.000
R15  20643811.977 5 110314254.152 5      2188.492          32.000    20643815.977 5  85800010.234 5      1702.158          31.000
C05  39772149.266 5 207104017.967 5        25.277          34.000    39772147.031 6 160145936.236 6        19.229          38.000
C14                                                                  25403974.258 5 102291265.855 5     -2662.476          33.000
C23  25636098.898 5 133493873.183 5      2643.641          34.000
C24  22978221.383 5 119653656.127 5     -1858.012          33.000
C25  22131472.492 7 115244365.610 7       927.922          45.000
E04  26035174.969 8 136815728.458 8     -2762.211          49.000    26035177.172 8 104832811.640 8     -2116.517          51.000
E09  21638746.203 8 113712380.876 8      -531.348          51.000    21638748.062 8  87130255.762 8      -407.151          51.000
E24  23476113.734 8 123367843.878 8      2137.699          50.000    23476126.945 8  94528598.514 8      1637.974          51.000
E31  23393406.523 8 122933180.480 8      -236.320          51.000    23393408.703 8  94195564.912 8      -181.059          51.000
> 2020 05 10 05 51 30.0000000  0 15        .000000000000
G13  20599073.859 8 108248860.620 8     -1545.676          51.000    20599072.828 8  84349738.847 8     -1204.423          48.000
G15  20314229.430 8 106751987.102 8       -23.234          51.000    20314228.453 8  83183373.761 8       -18.105          51.000
G19  23657906.703 8 124323136.045 8      3221.500          48.000    23657905.078 7  96875150.490 7      2510.263          47.000
G28  22053623.984 6 115892562.685 6     -2389.426          40.000    22053623.289 5  90305891.466 5     -1861.893          34.000
R04  19719691.414 8 105598065.025 8     -2061.305          51.000    19719692.898 7  82131816.228 7     -1603.237          45.000
R14  19531606.867 6 104114476.732 6     -1180.008          37.000    19531608.508 5  80977960.716 5      -917.781          31.000
C05  39772009.578 5 207103289.876 5        24.777          35.000    39772007.492 6 160145373.973 6        18.676          37.000
C14                                                                  25423820.438 5 102371187.267 5     -2664.475          32.000
C23  25620882.430 5 133414633.492 5      2639.277          34.000
C24  22988947.344 5 119709509.910 5     -1864.375          32.000
C25  22126155.328 7 115216679.532 7       918.492          46.000
E04  26050964.570 8 136898705.568 8     -2768.785          49.000    26050966.969 8 104896391.518 8     -2121.570          51.000
E09  21641820.336 8 113728534.973 8      -544.820          51.000    21641822.156 8  87142633.567 8      -417.478          51.000
E24  23463935.086 8 123303842.873 8      2129.656          51.000    23463947.648 8  94479558.800 8      1631.859          51.000
E31  23394787.594 8 122940437.707 8      -246.777          51.000    23394789.453 8  94201125.631 8      -189.068          51.000
> 2020 05 10 05 52  0.0000000  0 16        .000000000000
G13  20607940.875 8 108295456.045 8     -1561.043          51.000    20607939.281 7  84386046.926 7     -1216.400          46.000
G15  20314414.031 8 106752956.710 8       -41.785          51.000    20314412.984 8  83184129.305 8       -32.560          51.000
G19  23639536.164 8 124226598.034 8      3214.082          49.000    23639534.391 7  96799926.100 7      2504.480          46.000
G28  22067294.156 6 115964399.384 6     -2399.961          40.000    22067293.438 6  90361868.048 6     -1870.106          36.000
R03  23055611.227 5 123418485.083 5     -4489.469          31.000    23055609.484 4  95992154.865 4     -3491.812          26.000
R04  19731306.836 8 105660265.816 8     -2085.723          50.000    19731308.555 7  82180194.579 7     -1622.232          45.000
R14  19538285.344 5 104150080.136 5     -1193.750          35.000    19538288.047 5  81005652.268 5      -928.472          34.000
C05  39771869.188 5 207102558.957 5        23.773          35.000    39771867.211 6 160144808.735 6        18.779          37.000
C14                                                                  25443677.266 5 102451147.322 5     -2666.381          33.000
C23  25605686.164 5 133335503.777 5      2635.633          33.000
C24  22999706.805 5 119765533.341 5     -1870.727          35.000
C25  22120889.516 7 115189257.615 7       909.285          46.000
E04  26066787.484 8 136981859.150 8     -2775.090          48.000    26066790.258 8 104960106.594 8     -2126.362          50.000
E09  21644967.250 8 113745072.650 8      -558.070          51.000    21644969.000 8  87155305.283 8      -427.603          51.000
E24  23451798.578 8 123240062.276 8      2121.867          51.000    23451811.000 8  94430687.977 8      1625.954          51.000
E31  23396224.414 8 122947988.329 8      -256.996          51.000    23396226.266 8  94206911.166 8      -196.922          51.000
> 2020 05 10 05 52 30.0000000  0 18        .000000000000
G13  20616893.188 8 108342500.862 8     -1576.035          51.000    20616890.602 7  84422705.163 7     -1228.079          44.000
G15  20314702.328 8 106754472.087 8       -60.020          51.000    20314701.500 8  83185310.117 8       -46.768          51.000
G17  22877643.469 5 120222837.634 5      1684.117          33.000    22877636.594 5  93680106.189 5      1312.299          32.000
G19  23621206.398 8 124130273.123 8      3206.879          50.000    23621204.297 7  96724867.752 7      2498.867          47.000
G28  22081021.789 6 116036538.163 6     -2410.352          38.000    22081020.078 5  90418080.082 5     -1878.193          35.000
R03  23080781.438 5 123553240.538 5     -4494.871          32.000
R04  19743057.414 8 105723188.478 8     -2109.785          51.000    19743059.336 7  82229134.390 7     -1640.947          45.000
R14  19545038.672 5 104186091.416 5     -1207.527          34.000    19545045.273 5  81033661.133 5      -939.182          33.000
R15  20607296.609 5 110119110.601 5      2148.566          33.000    20607296.117 5  85648214.473 5      1671.107          35.000
C05  39771728.469 5 207101826.289 5        24.047          34.000    39771726.508 6 160144242.192 6        18.746          37.000
C14                                                                  25463544.086 5 102531146.041 5     -2667.357          32.000
C23  25590510.250 5 133256486.448 5      2631.508          33.000
C24  23010498.930 6 119821727.602 6     -1876.148          36.000
C25  22115674.797 7 115162101.736 7       900.379          45.000
E04  26082644.352 8 137065190.177 8     -2781.152          48.000    26082646.938 8 105023957.649 8     -2130.917          48.000
E09  21648187.477 8 113761996.068 8      -570.910          51.000    21648189.336 8  87168272.590 8      -437.454          51.000
E24  23439704.328 8 123176504.590 8      2114.523          51.000    23439717.125 8  94381987.968 8      1620.171          51.000
E31  23397717.156 8 122955833.568 8      -266.797          51.000    23397719.375 8  94212922.465 8      -204.438          51.000
> 2020 05 10 05 53  0.0000000  0 17        .000000000000
G13  20625932.969 8 108390005.451 8     -1591.316          51.000    20625929.703 7  84459721.668 7     -1239.987          44.000
G15  20315096.461 8 106756544.549 8       -78.547          51.000    20315095.969 8  83186925.010 8       -61.208          51.000
G17  22868070.828 5 120172538.025 5      1668.910          35.000    22868069.680 5  93640911.631 5      1300.449          35.000
G19  23602919.977 8 124034175.498 8      3199.242          51.000    23602917.602 7  96649986.502 7      2492.916          47.000
G28  22094808.672 6 116108987.556 6     -2420.301          39.000    22094806.531 5  90474534.163 5     -1885.946          31.000
R04  19754944.750 8 105786841.961 8     -2134.121          51.000    19754946.195 7  82278642.615 7     -1659.872          46.000
R14  19551871.805 5 104222520.008 5     -1220.797          33.000    19551877.180 5  81061994.397 5      -949.512          31.000
R15  20595278.312 6 110054861.917 6      2134.844          39.000    20595272.172 5  85598243.305 5      1660.437          33.000
C05  39771589.430 5 207101102.688 5        23.684          35.000    39771587.516 6 160143682.659 6        18.314          37.000
C14                                                                  25483423.258 5 102611190.204 5     -2668.701          31.000
C23  25575357.445 5 133177592.708 5      2627.449          33.000
C24  23021325.539 5 119878102.506 5     -1882.477          34.000
C25  22110512.758 7 115135222.514 7       891.305          45.000
E04  26098537.312 8 137148708.302 8     -2787.199          49.000    26098539.352 7 105087952.088 7     -2135.682          47.000
E09  21651483.117 8 113779316.339 8      -584.148          51.000    21651485.320 8  87181543.945 8      -447.558          51.000
E24  23427654.133 8 123113181.102 8      2106.746          51.000    23427667.438 8  94333467.383 8      1614.206          51.000
E31  23399267.898 8 122963983.512 8      -276.898          51.000    23399270.125 8  94219167.237 8      -212.157          51.000
> 2020 05 10 05 53 30.0000000  0 17        .000000000000
G13  20635057.211 8 108437954.768 8     -1605.766          51.000    20635054.102 7  84497084.728 7     -1251.246          46.000
G15  20315593.891 8 106759159.827 8       -96.168          51.000    20315593.648 8  83188962.892 8       -74.936          51.000
G17  22858588.547 5 120122681.718 5      1654.805          33.000
G19  23584674.641 8 123938294.148 8      3192.477          51.000    23584672.258 7  96575273.747 7      2487.641          47.000
G28  22108651.250 6 116181731.044 6     -2429.695          41.000    22108649.508 5  90531217.406 5     -1893.269          32.000
R04  19766965.305 8 105851208.933 8     -2157.371          51.000    19766966.336 7  82328705.808 7     -1677.958          47.000
R14  19558780.852 5 104259348.822 5     -1234.051          35.000    19558787.156 5  81090639.034 5      -959.814          33.000
R15  20583328.789 6 109991003.937 6      2122.242          38.000    20583323.672 5  85548575.948 5      1650.630          34.000
C05  39771449.344 5 207100372.591 5        24.281          34.000    39771447.430 6 160143118.872 6        18.679          37.000
C14                                                                  25503312.617 4 102691267.083 4     -2669.683          28.000
C23  25560227.094 5 133098808.297 5      2624.363          34.000
C24  23032183.609 5 119934642.621 5     -1887.395          35.000
C25  22105401.070 7 115108605.226 7       882.891          45.000
E04  26114463.023 8 137232397.829 8     -2792.457          49.000    26114463.977 7 105152077.811 7     -2139.630          44.000
E09  21654851.836 8 113797018.870 8      -596.422          51.000    21654853.969 8  87195108.224 8      -457.040          51.000
E24  23415645.320 8 123050077.533 8      2099.816          50.000    23415658.969 8  94285115.276 8      1608.962          51.000
E31  23400873.695 8 122972422.689 8      -286.148          51.000    23400875.516 8  94225633.611 8      -219.245          51.000
> 2020 05 10 05 54  0.0000000  0 16        .000000000000
G13  20644261.914 8 108486326.331 8     -1619.922          51.000    20644259.297 7  84534776.839 7     -1262.277          47.000
G15  20316190.617 8 106762296.450 8      -113.809          51.000    20316190.578 8  83191406.997 8       -88.682          51.000
G17  22849182.234 5 120073237.097 5      1640.797          34.000
G19  23566466.391 8 123842610.162 8      3185.754          49.000    23566464.438 7  96500714.789 7      2482.406          47.000
G28  22122545.328 6 116254744.220 6     -2438.734          40.000    22122543.289 5  90588110.720 5     -1900.319          30.000
R04  19779114.195 8 105916265.066 8     -2180.484          51.000    19779114.883 7  82379305.018 7     -1695.932          47.000
R14  19565761.750 6 104296553.492 6     -1246.684          40.000    19565767.055 4  81119576.071 4      -969.643          29.000
R15  20571445.125 6 109927514.635 6      2109.590          41.000    20571444.477 5  85499195.332 5      1640.792          34.000
C05  39771304.125 5 207099617.283 5        24.965          35.000    39771302.109 6 160142534.066 6        18.830          37.000
C23  25545114.250 5 133020111.800 5      2620.766          33.000
C24  23043069.211 4 119991325.142 4     -1892.422          29.000
C25  22100335.562 7 115082227.920 7       874.855          45.000
E04  26130416.984 8 137316235.579 8     -2797.566          50.000    26130414.391 6 105216317.093 6     -2143.617          37.000
E09  21658289.359 8 113815081.802 8      -608.637          51.000    21658291.086 8  87208948.658 8      -466.352          51.000
E24  23403674.406 8 122987172.246 8      2093.039          51.000    23403688.219 8  94236915.117 8      1603.766          51.000
E31  23402530.141 8 122981128.283 8      -295.125          51.000    23402532.039 8  94232304.122 8      -226.156          51.000
> 2020 05 10 05 54 30.0000000  0 17        .000000000000
G13  20653560.078 8 108535187.501 8     -1634.840          51.000    20653557.922 8  84572850.470 8     -1273.901          49.000
G15  20316899.586 8 106766022.357 8      -131.992          51.000    20316899.406 8  83194310.315 8      -102.851          51.000
G17  22839862.570 5 120024259.325 5      1625.668          31.000
G19  23548308.750 7 123747194.730 7      3178.191          46.000    23548307.891 7  96426365.123 7      2476.513          46.000
G28  22136503.211 6 116328092.391 6     -2448.672          36.000    22136501.656 5  90645265.129 5     -1908.053          34.000
R03  23181771.211 5 124093815.195 5     -4513.852          30.000    23181770.805 5  96517403.794 5     -3510.776          31.000
R04  19791404.000 8 105982076.911 8     -2204.211          51.000    19791404.641 8  82430491.997 8     -1714.386          48.000
R14  19572825.039 6 104334201.250 6     -1260.215          39.000    19572824.914 5  81148790.045 5      -980.170          31.000
R15  20559643.664 6 109864463.025 6      2096.652          39.000    20559646.328 5  85450155.219 5      1630.730          32.000
C05  39771166.633 5 207098900.919 5        25.301          34.000    39771164.523 6 160141980.094 6        19.540          37.000
C23  25530031.766 4 132941570.740 4      2616.906          28.000
C24  23053994.320 5 120048195.460 5     -1897.688          30.000
C25  22095329.008 7 115056157.603 7       865.875          45.000
E04  26146411.969 8 137400288.142 8     -2803.348          50.000    26146400.008 5 105280720.808 5     -2147.990          35.000
E09  21661808.109 8 113833573.007 8      -621.508          51.000    21661809.766 8  87223117.232 8      -476.226          51.000
E24  23391754.383 8 122924533.350 8      2085.492          51.000    23391768.516 8  94188919.096 8      1597.975          51.000
E31  23404249.938 8 122990167.160 8      -304.844          51.000    23404252.453 8  94239230.021 8      -233.579          51.000
> 2020 05 10 05 55  0.0000000  0 15        .000000000000
G13  20662933.820 8 108584445.582 8     -1651.402          51.000    20662932.188 8  84611233.388 8     -1286.807          50.000
G15  20317703.234 8 106770245.951 8      -151.883          50.000    20317702.961 8  83197601.427 8      -118.350          51.000
G19  23530184.688 7 123651959.631 7      3168.535          44.000    23530185.516 7  96352155.984 7      2468.991          44.000
G28  22150506.445 6 116401681.447 6     -2459.945          37.000    22150506.250 5  90702607.270 5     -1916.841          33.000
R03  23207079.688 5 124229293.776 5     -4520.605          33.000    23207080.375 5  96622775.991 5     -3516.030          32.000
R04  19803817.102 8 106048548.488 8     -2229.539          51.000    19803817.883 8  82482192.094 8     -1734.086          48.000
R14  19579953.164 6 104372196.415 6     -1275.668          36.000    19579958.898 5  81178341.332 5      -992.186          34.000
R15  20547907.531 6 109801755.933 6      2081.457          38.000    20547911.125 4  85401382.963 4      1618.905          25.000
R23  22960367.633 6 122822489.669 6      2039.707          36.000    22960376.328 4  95528631.909 4      1586.442          27.000
C05  39771019.203 5 207098133.320 5        23.746          34.000    39771017.062 6 160141386.534 6        18.151          37.000
C25  22090364.195 7 115030302.889 7       855.453          46.000
E04  26162429.984 8 137484462.292 8     -2810.555          49.000    26162416.461 6 105345217.760 6     -2153.485          38.000
E09  21665390.938 8 113852400.532 8      -635.918          51.000    21665392.320 8  87237543.501 8      -487.250          51.000
E24  23379867.766 8 122862069.179 8      2076.406          51.000    23379882.445 8  94141056.952 8      1591.069          51.000
E31  23406015.656 8 122999446.485 8      -316.090          51.000    23406018.430 8  94246340.143 8      -242.160          51.000
> 2020 05 10 05 55 30.0000000  0 17        .000000000000
G13  20672403.594 8 108634208.622 8     -1664.863          51.000    20672402.258 8  84650009.775 8     -1297.296          50.000
G15  20318622.555 8 106775076.303 8      -168.770          51.000    20318622.336 8  83201365.326 8      -131.509          51.000
G19  23512115.977 7 123557016.500 7      3162.164          44.000    23512117.914 7  96278174.293 7      2464.024          44.000
G28  22164576.062 6 116475617.969 6     -2467.973          39.000    22164575.117 5  90760220.106 5     -1923.105          30.000
R03  23232427.094 5 124364971.375 5     -4523.238          32.000    23232426.977 5  96728302.899 5     -3518.080          33.000
R04  19816373.797 8 106115787.934 8     -2251.684          51.000    19816374.258 7  82534489.425 7     -1751.309          47.000
R14  19587165.391 6 104410647.110 6     -1287.133          37.000    19587172.117 5  81208247.438 5     -1001.106          33.000
R15  20536254.164 5 109739503.807 5      2071.176          31.000
R23  22948986.969 5 122761614.794 5      2020.164          33.000    22948993.297 4  95481284.720 4      1571.236          25.000
C05  39770882.500 5 207097421.100 5        25.289          35.000    39770880.562 6 160140836.571 6        19.404          37.000
C23  25499924.703 5 132784797.421 5      2609.395          31.000
C24  23075930.516 4 120162424.521 4     -1909.500          29.000
C25  22085461.219 7 115004771.139 7       848.105          46.000
E04  26178491.180 8 137568865.469 8     -2814.840          49.000    26178483.305 7 105409890.232 7     -2156.703          44.000
E09  21669058.547 8 113871673.033 8      -647.336          51.000    21669059.297 8  87252310.743 8      -495.996          51.000
E24  23368035.086 8 122799888.705 8      2070.418          49.000    23368050.172 8  94093412.181 8      1586.460          51.000
E31  23407847.773 8 123009073.982 8      -324.230          51.000    23407850.391 8  94253717.041 8      -248.418          51.000
> 2020 05 10 05 56  0.0000000  0 17        .000000000000
G13  20681949.195 8 108684370.761 8     -1679.684          51.000    20681948.062 8  84689097.144 8     -1308.844          50.000
G15  20319637.523 8 106780408.273 8      -187.145          51.000    20319637.211 8  83205520.106 8      -145.827          51.000
G19  23494084.391 7 123462263.337 7      3154.328          45.000    23494086.047 7  96204340.676 7      2457.918          44.000
G28  22178691.375 6 116549793.952 6     -2477.672          38.000    22178688.477 5  90818019.688 5     -1930.638          30.000
R03  23257789.398 5 124500737.359 5     -4528.234          35.000    23257788.562 5  96833898.587 5     -3521.960          31.000
R04  19829053.383 8 106183685.542 8     -2275.316          51.000    19829053.453 7  82587298.679 7     -1769.691          47.000
R14  19594444.570 6 104449444.596 6     -1300.258          38.000    19594449.656 5  81238423.201 5     -1011.315          34.000
R15  20524666.344 5 109677594.058 5      2057.672          31.000
R23  22937715.695 5 122701318.770 5      1999.074          35.000    22937721.273 4  95434376.933 4      1554.836          26.000
C05  39770736.648 5 207096661.801 5        25.406          34.000    39770734.750 6 160140249.450 6        19.326          37.000
C23  25484901.383 5 132706561.721 5      2605.758          32.000
C24  23086944.961 5 120219768.873 5     -1914.562          33.000
C25  22080599.914 7 114979457.747 7       839.090          44.000
E04  26194575.398 8 137653391.049 8     -2820.559          48.000    26194574.164 8 105474656.568 8     -2161.222          50.000
E09  21672790.773 8 113891285.144 8      -660.441          51.000    21672791.086 8  87267338.200 8      -506.067          51.000
E24  23356236.703 8 122737886.794 8      2062.715          50.000    23356250.969 8  94045904.229 8      1580.525          50.000
E31  23409725.695 8 123018943.360 8      -334.027          51.000    23409728.445 8  94261279.289 8      -255.976          51.000
> 2020 05 10 05 56 30.0000000  0 16        .000000000000
G13  20691582.383 8 108734993.672 8     -1694.621          51.000    20691581.664 8  84728543.562 8     -1320.484          50.000
G15  20320759.742 8 106786304.159 8      -205.508          51.000    20320759.156 8  83210114.301 8      -160.136          51.000
G19  23476102.172 7 123367765.268 7      3146.105          47.000    23476102.133 6  96130705.872 6      2451.514          41.000
G28  22192863.516 6 116624269.295 6     -2487.074          39.000    22192859.508 5  90876049.219 5     -1937.989          31.000
R03  23283178.930 5 124636651.314 5     -4532.434          33.000    23283177.469 4  96939609.388 4     -3525.232          29.000
R04  19841866.969 8 106252302.066 8     -2298.648          51.000    19841866.867 7  82640667.081 7     -1787.838          46.000
R15  20513158.180 6 109616101.610 6      2043.441          38.000    20513170.102 4  85257013.749 4      1589.343          26.000
R23  22926565.164 5 122641668.332 5      1977.730          35.000    22926570.211 4  95387982.181 4      1538.238          26.000
C05  39770593.438 5 207095916.039 5        24.539          34.000    39770591.453 6 160139672.729 6        19.791          37.000
C23  25469904.531 6 132628456.393 6      2601.367          36.000
C24  23097996.023 5 120277296.178 5     -1919.895          34.000
C25  22075792.633 7 114954424.118 7       830.273          45.000
E04  26210694.477 8 137738099.961 8     -2826.102          48.000    26210698.023 8 105539563.392 8     -2165.457          51.000
E09  21676599.359 8 113911299.033 8      -673.238          51.000    21676599.500 8  87282673.504 8      -515.867          51.000
E24  23344484.633 8 122676125.914 8      2055.242          51.000    23344497.109 8  93998580.980 8      1574.736          50.000
E31  23411661.453 8 123029115.897 8      -343.578          51.000    23411664.352 8  94269073.835 8      -263.240          51.000
> 2020 05 10 05 57  0.0000000  0 17        .000000000000
G13  20701297.344 8 108786047.345 8     -1708.738          51.000    20701297.023 8  84768325.655 8     -1331.484          49.000
G15  20321983.672 8 106792735.003 8      -222.992          51.000    20321982.852 8  83215125.356 8      -173.760          51.000
G19  23458163.914 8 123273497.021 8      3138.664          48.000    23458161.055 6  96057250.190 6      2445.715          40.000
G28  22207086.750 6 116699012.557 6     -2495.410          41.000    22207083.492 4  90934290.766 4     -1944.478          26.000
R03  23308590.430 5 124772680.276 5     -4536.293          32.000    23308587.555 4  97045409.659 4     -3528.228          29.000
R04  19854808.445 8 106321605.386 8     -2321.355          51.000    19854808.797 7  82694569.651 7     -1805.499          47.000
R14  19609227.852 6 104528177.918 6     -1325.316          40.000    19609223.688 4  81299715.401 4     -1030.805          29.000
R15  20501723.422 6 109554991.412 6      2030.613          40.000    20501738.086 4  85209484.561 4      1579.366          27.000
R23  22915530.234 5 122582637.154 5      1957.363          33.000    22915535.578 4  95342069.124 4      1522.394          26.000
C05                                                                  39770445.211 6 160139084.076 6        20.078          36.000
C23  25454927.977 6 132550452.484 6      2599.059          36.000
C24  23109073.500 6 120334972.208 6     -1925.090          36.000
C25  22071033.352 7 114929641.019 7       822.164          44.000
E04  26226842.875 8 137822961.817 8     -2831.004          49.000    26226849.203 8 105604587.410 8     -2169.217          51.000
E09  21680478.602 8 113931685.528 8      -685.508          51.000    21680478.648 8  87298294.307 8      -525.244          51.000
E24  23332772.883 8 122614577.171 8      2048.371          51.000    23332783.570 8  93951420.258 8      1569.543          49.000
E31  23413649.344 8 123039561.476 8      -352.480          51.000    23413652.234 8  94277077.598 8      -270.053          51.000
> 2020 05 10 05 57 30.0000000  0 19        .000000000000
G13  20711098.430 8 108837554.942 8     -1723.914          51.000    20711098.531 8  84808461.449 8     -1343.310          49.000
G15  20323314.008 8 106799725.106 8      -241.641          51.000    20323313.297 8  83220572.180 8      -188.291          51.000
G17  22785733.391 5 119739826.122 5      1534.805          33.000    22785731.320 5  93303751.949 5      1195.952          34.000
G19  23440274.312 7 123179485.450 7      3130.043          46.000    23440271.008 7  95983994.498 7      2438.998          42.000
G28  22221365.117 6 116774045.378 6     -2505.172          40.000    22221363.195 3  90992757.791 3     -1952.094          23.000
R03  23334028.102 5 124908844.435 5     -4540.371          34.000    23334023.406 5  97151315.057 5     -3531.403          31.000
R04  19867882.180 8 106391616.996 8     -2344.797          50.000    19867883.305 7  82749023.127 7     -1823.731          47.000
R14  19616728.742 6 104568157.479 6     -1338.559          39.000    19616726.375 5  81330806.587 5     -1041.101          30.000
R15  20490365.078 6 109494287.186 6      2017.363          40.000
R23  22904615.617 5 122524252.793 5      1935.824          33.000
C05                                                                  39770300.430 6 160138501.558 6        20.050          36.000
C14  25662667.008 4 133632215.024 4     -3461.566          29.000    25662671.062 6 103332934.584 6     -2676.564          36.000
C23  25439973.852 6 132472574.050 6      2594.707          36.000
C24  23120183.133 6 120392819.348 6     -1930.652          37.000
C25  22066326.523 7 114905131.699 7       813.129          44.000
E04  26243025.031 8 137907999.052 8     -2836.801          50.000    26243032.242 8 105669745.819 8     -2173.599          51.000
E09  21684433.227 8 113952468.295 8      -698.617          51.000    21684433.055 8  87314218.749 8      -535.295          51.000
E24  23321105.547 8 122553264.576 8      2040.504          50.000    23321115.734 8  93904440.474 8      1563.530          49.000
E31  23415693.250 8 123050302.884 8      -362.250          51.000    23415696.328 8  94285308.047 8      -277.562          51.000
> 2020 05 10 05 58  0.0000000  0 19        .000000000000
G13  20720983.836 8 108889504.706 8     -1739.477          51.000    20720984.148 8  84848941.761 8     -1355.436          48.000
G15  20324748.484 8 106807263.242 8      -260.832          51.000    20324748.055 8  83226446.032 8      -203.246          51.000
G17  22777015.227 6 119694019.186 6      1519.180          36.000    22777014.930 5  93268058.385 5      1183.789          33.000
G19  23422431.883 7 123085723.039 7      3120.879          46.000    23422429.750 7  95910932.909 7      2431.857          43.000
G28  22235696.062 6 116849354.465 6     -2515.383          38.000    22235693.406 5  91051440.249 5     -1960.039          32.000
R03  23359488.188 5 125045129.433 5     -4545.188          30.000    23359482.711 5  97257314.327 5     -3535.152          31.000
R04  19881085.719 8 106462323.071 8     -2368.832          51.000    19881087.391 7  82804016.721 7     -1842.425          47.000
R14  19624297.516 6 104608521.685 6     -1352.359          39.000    19624299.234 5  81362201.102 5     -1051.832          30.000
R15  20479079.391 6 109433978.216 6      2003.137          37.000
R23  22893819.797 5 122466507.295 5      1914.023          31.000
C05                                                                  39770155.023 6 160137916.665 6        19.622          36.000
C14                                                                  25682615.031 5 103413249.657 5     -2677.820          34.000
C23  25425040.789 5 132394810.306 5      2590.172          35.000
C24  23131323.312 5 120450825.635 5     -1936.398          35.000
C25  22061670.195 7 114880884.994 7       803.414          44.000
E04  26259238.578 8 137993199.384 8     -2842.969          51.000    26259245.328 8 105735029.186 8     -2178.307          51.000
E09  21688461.203 8 113973636.232 8      -712.254          51.000    21688461.008 8  87330438.338 8      -545.798          51.000
E24  23309480.828 8 122492177.308 8      2032.098          51.000    23309491.195 8  93857633.319 8      1557.185          50.000
E31  23417791.266 8 123061328.153 8      -372.543          51.000    23417794.320 8  94293755.988 8      -285.407          51.000
> 2020 05 10 05 58 30.0000000  0 18        .000000000000
G13  20730956.430 8 108941911.261 8     -1754.355          51.000    20730956.609 8  84889778.039 8     -1367.030          48.000
G15  20326290.203 8 106815364.898 8      -279.332          51.000    20326289.734 8  83232759.000 8      -217.661          51.000
G19  23404640.188 7 122992227.996 7      3112.098          46.000    23404639.508 7  95838079.629 7      2425.011          45.000
G28  22250081.734 6 116924952.366 6     -2524.398          37.000
R03  23384971.383 5 125181546.763 5     -4549.305          34.000    23384967.102 5  97363416.638 5     -3538.351          31.000
R04  19894422.211 8 106533736.442 8     -2392.035          51.000    19894423.352 7  82859560.422 7     -1860.472          47.000
R14  19631945.008 6 104649284.105 6     -1365.383          41.000    19631948.227 5  81393905.233 5     -1061.961          34.000
R15  20467868.031 5 109374079.996 5      1989.699          34.000
R23  22883147.516 6 122409419.414 6      1892.117          37.000
C05                                                                  39770012.023 6 160137341.050 6        19.057          37.000
C14                                                                  25702566.391 5 103493594.793 5     -2678.560          33.000
C23  25410131.359 6 132317176.520 6      2585.762          38.000
C24  23142495.547 5 120509005.216 5     -1942.070          34.000
C25  22057067.375 7 114856915.596 7       794.508          44.000
E04  26275485.812 8 138078576.644 8     -2848.734          51.000    26275491.367 8 105800448.108 8     -2182.749          51.000
E09  21692565.266 8 113995204.414 8      -725.535          51.000    21692565.664 8  87346964.591 8      -555.912          51.000
E24  23297901.938 8 122431330.700 8      2024.266          51.000    23297912.953 8  93811010.603 8      1551.097          51.000
E31  23419946.141 8 123072651.454 8      -382.324          51.000    23419949.125 8  94302432.278 8      -292.947          51.000
> 2020 05 10 05 59  0.0000000  0 18        .000000000000
G13  20741007.664 8 108994731.029 8     -1769.387          51.000    20741007.570 8  84930936.304 8     -1378.743          49.000
G15  20327931.109 8 106823987.708 8      -297.887          51.000    20327930.539 8  83239478.061 8      -232.120          51.000
G19  23386892.547 8 122898961.021 8      3103.266          48.000    23386891.922 7  95765404.040 7      2418.129          44.000
G28  22264513.836 6 117000794.331 6     -2533.941          39.000    22264509.836 5  91169462.288 5     -1974.475          30.000
R03  23410469.828 4 125318049.755 4     -4552.758          29.000    23410467.547 4  97469585.563 4     -3541.037          29.000
R04  19907882.352 8 106605811.069 8     -2415.273          51.000    19907882.734 7  82915618.447 7     -1878.546          46.000
R14  19639657.547 6 104690399.341 6     -1378.176          37.000    19639662.047 5  81425883.799 5     -1071.914          34.000
R15  20456728.320 5 109314549.293 5      1976.508          35.000    20456737.062 4  85022454.401 4      1537.284          29.000
R23  22872591.664 5 122352949.056 5      1870.371          32.000
C05                                                                  39769863.195 6 160136741.958 6        18.860          36.000
C14                                                                  25722518.703 5 103573935.589 5     -2679.216          35.000
C23  25395239.234 6 132239630.736 6      2581.738          40.000
C25  22052509.477 7 114833181.011 7       785.418          44.000
E01  26347874.398 6 138458980.848 6     -2453.035          37.000
E04  26291758.156 8 138164087.007 8     -2854.289          50.000    26291762.188 8 105865969.010 8     -2187.053          51.000
E09  21696737.281 8 114017130.195 8      -738.574          51.000    21696738.617 8  87363764.839 8      -565.900          51.000
E24  23286360.891 8 122370682.451 8      2016.547          51.000    23286372.680 8  93764539.886 8      1545.152          51.000
E31  23422149.391 8 123084229.257 8      -391.879          51.000    23422152.648 8  94311303.591 8      -300.250          51.000
> 2020 05 10 05 59 30.0000000  0 16        .000000000000
G13  20751152.133 8 109048040.300 8     -1784.242          51.000    20751151.852 8  84972475.993 8     -1390.319          48.000
G15  20329685.688 8 106833208.430 8      -316.449          51.000    20329685.242 8  83246663.023 8      -246.584          51.000
G17  22751402.141 4 119559409.654 4      1472.191          28.000
G19  23369203.992 8 122806002.007 8      3094.367          49.000    23369202.211 7  95692968.443 7      2411.195          42.000
G28  22279006.719 6 117076954.669 6     -2542.961          41.000    22279009.594 4  91228807.941 4     -1981.543          25.000
R04  19921479.336 8 106678622.429 8     -2438.410          51.000    19921479.414 7  82972249.457 7     -1896.544          45.000
R14  19647451.195 6 104731943.436 6     -1390.961          40.000    19647452.148 5  81458195.834 5     -1081.859          33.000
R15  20445672.820 5 109255463.930 5      1963.164          35.000    20445684.898 5  84976499.211 5      1526.908          34.000
C05                                                                  39769723.109 6 160136194.111 6        18.848          36.000
C14                                                                  25742484.305 5 103654329.283 5     -2679.781          35.000
C23  25380378.789 6 132162249.209 6      2577.367          39.000
C25  22048011.047 7 114809757.029 7       776.516          44.000
E04  26308070.195 8 138249805.853 8     -2859.879          50.000    26308072.508 8 105931649.652 8     -2191.294          49.000
E09  21700992.031 8 114039490.176 8      -751.680          51.000    21700994.070 8  87380897.788 8      -575.941          51.000
E24  23274872.266 8 122310309.501 8      2008.742          51.000    23274884.781 8  93718280.121 8      1539.178          51.000
E31  23424415.500 8 123096137.329 8      -401.547          51.000    23424418.961 8  94320427.962 8      -307.670          51.000
