     3.02           OBSERVATION DATA    M (MIXED)           RINEX VERSION / TYPE
SAVERINEX           SC600               20200509 065930 LCL PGM / RUN BY / DATE
       G = GPS       R = GLONASS       C = COMPASS          COMMENT
       S = SBAS      J = QZSS          E = GALILEO          COMMENT
BEAN                                                        MARKER NAME
1                                                           MARKER NUMBER
GEODETIC                                                    MARKER TYPE
Unige DICCA         GTER                                    OBSERVER / AGENCY
SC60291900056       SC600               2.12(191226)        REC # / TYPE / VERS
                    HEMA45          NONE                    ANT # / TYPE
  4509407.8091   693652.4678  4442337.6214                  APPROX POSITION XYZ
        0.0000        0.0000        0.0000                  ANTENNA: DELTA H/E/N
G    8 C1C L1C D1C S1C C2Y L2Y D2Y S2Y                      SYS / # / OBS TYPES
R    8 C1C L1C D1C S1C C2P L2P D2P S2P                      SYS / # / OBS TYPES
C    8 C1I L1I D1I S1I C7I L7I D7I S7I                      SYS / # / OBS TYPES
E    8 C1C L1C D1C S1C C7Q L7Q D7Q S7Q                      SYS / # / OBS TYPES
DBHZ                                                        COMMENT
     30.000                                                 INTERVAL
  2020    05    09    04    00    0.0000000     GPS         TIME OF FIRST OBS
  2020    05    09    04    59   30.0000000     GPS         TIME OF LAST OBS
     0                                                      RCV CLOCK OFFS APPL
G L1C  0.00000                                              SYS / PHASE SHIFT
G L2Y  0.00000                                              SYS / PHASE SHIFT
R L1C  0.00000                                              SYS / PHASE SHIFT
R L2P  0.25000                                              SYS / PHASE SHIFT
C L1I  0.00000                                              SYS / PHASE SHIFT
C L7I  0.00000                                              SYS / PHASE SHIFT
E L1C  0.50000                                              SYS / PHASE SHIFT
E L7Q -0.25000                                              SYS / PHASE SHIFT
 13 R01  1 R02 -4 R03  5 R07  5 R08  6 R10 -5 R11  0 R12 -1 GLONASS SLOT / FRQ #
    R13 -2 R14 -7 R21  4 R22 -3 R23  3                      GLONASS SLOT / FRQ #
 C1C   71.950 C2C   71.950 C2P   71.950                     GLONASS COD/PHS/BIS
    18                                                      LEAP SECONDS
*** Above antenna height is from mark to ANTENNA BOTTOM.    COMMENT
    17     4        0.0000        ANT MEASURE TYPE/HEIGT    COMMENT
    0.0000    0.0000    0.0458    0.0405    0.0000          COMMENT
                    BASE STATION                            COMMENT
                                                            END OF HEADER
> 2020 05 09 04 00  0.0000000  0 14        .000000000000
G05  21135559.539 8 111068112.845 8     -1930.613          51.000    21135558.992 8  86546579.402 8     -1504.374          51.000
G28  21168566.383 8 111241584.468 8      1361.031          49.000    21168565.484 7  86681762.516 7      1060.544          45.000
G30  21016755.531 8 110443837.001 8     -1679.188          51.000    21016756.992 8  86060143.467 8     -1308.461          51.000
R01  23189094.891 6 123958949.153 6     -3985.285          40.000    23189100.727 5  96412556.586 5     -3099.666          34.000
R02  19114104.375 8 101996510.213 8      -637.305          51.000    19114106.016 8  79330645.213 8      -495.681          49.000
R12  19267907.227 8 102925731.023 8     -1074.098          51.000    19267910.297 8  80053367.332 8      -835.409          50.000
R13  20608573.484 6 110048628.772 6      2961.887          37.000    20608575.469 7  85593345.474 7      2303.690          44.000
C05                                                                  39791923.031 6 160225579.170 6         6.364          40.000
C23  24048244.344 8 125225539.021 8      2638.414          49.000
C25  21719422.500 8 113098785.402 8        96.578          51.000
E03  23560275.547 6 123810104.599 6       827.785          39.000    23560277.898 7  94867488.936 7       634.127          42.000
E05  24516229.781 8 128833645.635 8     -1686.227          51.000    24516233.102 8  98716722.012 8     -1291.990          51.000
E24  23006648.906 7 120900755.769 7     -1583.129          42.000    23006660.547 7  92638305.059 7     -1212.963          42.000
E25  23853139.102 8 125349162.001 8      1328.871          51.000    23853142.109 8  96046744.648 8      1018.223          51.000
> 2020 05 09 04 00 30.0000000  0 14        .000000000000
G05  21146622.914 8 111126248.997 8     -1946.922          51.000    21146621.953 8  86591880.304 8     -1517.082          51.000
G28  21160839.875 8 111200983.166 8      1344.047          48.000    21160839.312 7  86650125.134 7      1047.309          47.000
G30  21026363.945 8 110494329.758 8     -1688.934          51.000    21026365.336 8  86099488.446 8     -1316.055          51.000
R01  23211474.742 7 124078582.615 7     -3992.062          43.000    23211480.258 5  96505604.905 5     -3104.934          33.000
R02  19117743.328 8 102015926.955 8      -658.809          51.000    19117744.594 8  79345747.113 8      -512.407          49.000
R12  19273993.539 8 102958242.287 8     -1095.156          51.000    19273996.438 8  80078653.868 8      -851.788          50.000
R13  20591974.836 6 109959992.472 6      2945.520          39.000    20591977.766 7  85524406.122 7      2290.957          44.000
C05  39791871.422 6 207206716.115 6         8.535          36.000    39791869.648 6 160225364.306 6         6.703          41.000
C23  24033061.070 8 125146475.912 8      2630.852          49.000
C25  21718897.742 8 113096053.333 8        83.848          51.000
E03  23555569.469 6 123785373.235 6       819.387          40.000    23555572.188 7  94848538.876 7       627.970          43.000
E05  24525872.438 8 128884319.734 8     -1693.824          51.000    24525875.719 8  98755550.208 8     -1297.859          51.000
E24  23015711.305 7 120948378.902 7     -1593.539          43.000    23015723.445 7  92674795.476 7     -1220.781          42.000
E25  23845582.430 8 125309453.273 8      1316.688          51.000    23845585.508 8  96016318.463 8      1008.914          51.000
> 2020 05 09 04 01  0.0000000  0 15        .000000000000
G05  21157791.133 8 111184936.155 8     -1965.512          51.000    21157789.758 8  86637610.543 8     -1531.568          51.000
G28  21153222.297 8 111160953.377 8      1324.773          49.000    21153222.336 8  86618933.105 8      1032.291          48.000
G30  21036038.539 8 110545170.438 8     -1700.523          50.000    21036039.711 8  86139104.532 8     -1325.083          50.000
R01  23233904.000 7 124198475.135 7     -4000.910          44.000    23233908.492 5  96598854.651 5     -3111.822          35.000
R02  19121514.312 8 102036049.746 8      -682.582          51.000    19121515.367 8  79361398.165 8      -530.897          48.000
R12  19280208.773 8 102991442.969 8     -1118.254          51.000    19280211.648 8  80104476.631 8      -869.750          50.000
R13  20575479.484 6 109871907.410 6      2926.672          39.000    20575482.852 7  85455895.493 7      2276.300          44.000
C05  39791826.320 6 207206481.206 6         7.148          36.000    39791824.594 6 160225182.650 6         5.383          40.000
C14  25991279.844 5 135343416.246 5     -3340.105          30.000    25991278.711 4 104656111.153 4     -2581.854          26.000
C23  24017932.531 8 125067698.214 8      2621.027          48.000
C25  21718457.461 8 113093760.668 8        69.113          51.000
E03  23550920.062 6 123760938.138 6       809.613          41.000    23550922.359 7  94829815.876 7       620.275          43.000
E05  24535569.758 8 128935278.119 8     -1703.367          51.000    24535572.703 8  98794596.237 8     -1305.201          51.000
E24  23024843.648 7 120996370.644 7     -1605.824          42.000    23024855.914 6  92711568.393 6     -1230.592          41.000
E25  23838106.539 8 125270167.985 8      1302.422          51.000    23838109.391 8  95986216.730 8       997.978          51.000
> 2020 05 09 04 01 30.0000000  0 16        .000000000000
G05  21169039.453 8 111244044.804 8     -1978.629          51.000    21169037.773 8  86683669.221 8     -1541.789          51.000
G28  21145689.688 8 111121369.291 8      1310.691          51.000    21145689.883 8  86588088.367 8      1021.318          48.000
G30  21045754.828 8 110596230.281 8     -1707.012          51.000    21045755.875 8  86178891.396 8     -1330.139          51.000
R01  23256357.305 7 124318495.279 7     -4004.172          44.000    23256360.703 5  96692203.607 5     -3114.359          35.000
R02  19125393.633 8 102056750.100 8      -700.965          51.000    19125394.766 8  79377498.438 8      -545.195          49.000
R11  22381056.258 5 119597564.844 5     -3841.949          33.000    22381056.648 4  93020341.563 4     -2988.189          28.000
R12  19286528.555 8 103025201.331 8     -1135.941          51.000    19286531.453 8  80130733.133 8      -883.510          50.000
R13  20559063.148 6 109784245.394 6      2913.762          38.000    20559066.289 7  85387713.919 7      2266.259          42.000
C05  39791765.188 6 207206163.037 6        10.789          36.000    39791763.461 6 160224936.621 6         8.171          40.000
C23  24002833.945 7 124989080.728 7      2616.602          46.000
C25  21718077.055 8 113091780.622 8        59.414          51.000
E02  26830341.414 6 140994402.018 6      3069.371          40.000    26830343.398 5 108034674.319 5      2351.910          33.000
E03  23546302.898 7 123736673.084 7       804.566          43.000    23546304.461 7  94811223.161 7       616.633          43.000
E05  24545297.047 8 128986393.469 8     -1707.773          51.000    24545299.562 8  98833762.515 8     -1308.512          51.000
E24  23034021.641 7 121044602.286 7     -1613.066          44.000    23034033.758 6  92748525.093 6     -1235.998          41.000
E25  23830687.289 8 125231179.324 8      1293.367          51.000    23830690.039 8  95956342.292 8       990.959          51.000
> 2020 05 09 04 02  0.0000000  0 16        .000000000000
G05  21180393.695 8 111303711.062 8     -1997.277          51.000    21180392.016 8  86730162.395 8     -1556.320          51.000
G28  21138268.461 8 111082369.661 8      1291.035          51.000    21138268.312 8  86557699.027 8      1006.001          48.000
G30  21055538.773 8 110647645.520 8     -1718.973          50.000    21055540.078 8  86218955.196 8     -1339.459          51.000
R01  23278860.039 6 124438780.637 6     -4013.031          41.000    23278861.914 5  96785758.855 5     -3121.247          34.000
R02  19129407.258 8 102078168.049 8      -725.082          51.000    19129409.062 8  79394156.815 8      -563.953          49.000
R11  22402651.938 5 119712966.224 5     -3849.340          33.000    22402650.664 4  93110098.122 4     -2993.931          28.000
R12  19292978.219 8 103059654.814 8     -1159.164          51.000    19292981.078 8  80157530.280 8      -901.572          50.000
R13  20542751.906 6 109697148.862 6      2894.656          36.000    20542754.375 6  85319972.160 6      2251.402          40.000
C05  39791714.195 6 207205897.092 6         8.641          36.000    39791712.555 6 160224731.688 6         7.098          40.000
C23  23987792.172 7 124910760.715 7      2606.457          46.000
C25  21717782.711 8 113090248.888 8        44.453          51.000
E02  26812840.547 6 140902440.006 6      3063.375          38.000    26812843.812 5 107964209.953 5      2347.531          35.000
E03  23541744.359 7 123712716.655 7       794.020          42.000    23541745.602 7  94792866.958 7       608.452          43.000
E05  24555080.328 8 129037803.278 8     -1717.707          51.000    24555082.484 8  98873154.394 8     -1316.162          51.000
E24  23043271.477 7 121093210.035 7     -1625.727          45.000    23043283.812 6  92785769.960 6     -1245.687          41.000
E25  23823350.898 8 125192625.308 8      1278.730          51.000    23823353.375 8  95926800.890 8       979.881          51.000
> 2020 05 09 04 02 30.0000000  0 17        .000000000000
G05  21191844.445 8 111363885.968 8     -2014.727          51.000    21191843.195 8  86777051.934 8     -1569.917          51.000
G28  21130949.812 8 111043908.380 8      1272.586          51.000    21130949.320 8  86527729.177 8       991.625          49.000
G30  21065381.164 8 110699367.393 8     -1729.746          49.000    21065382.438 8  86259257.949 8     -1347.854          49.000
R01  23301402.562 6 124559280.788 6     -4020.742          41.000    23301403.375 5  96879481.157 5     -3127.244          34.000
R02  19133546.531 8 102100256.159 8      -747.875          51.000    19133548.250 8  79411336.460 8      -581.681          48.000
R11  22424280.695 5 119828547.527 5     -3856.270          35.000    22424280.422 4  93199994.621 4     -2999.324          27.000
R12  19299548.664 8 103094752.872 8     -1181.156          51.000    19299551.469 8  80184828.752 8      -918.680          50.000
R13  20526538.430 6 109610571.210 6      2876.711          38.000    20526540.289 7  85252634.015 7      2237.442          43.000
C05  39791664.500 6 207205638.512 6         8.246          36.000    39791662.953 6 160224531.743 6         6.234          41.000
C23  23972800.188 8 124832692.178 8      2597.488          49.000
C24  24304861.258 4 126561790.026 4     -2667.730          28.000
C25  21717565.383 8 113089117.941 8        30.562          51.000
E02  26795364.117 6 140810606.072 6      3058.898          36.000    26795366.867 6 107893843.737 6      2343.601          36.000
E03  23537235.867 7 123689022.598 7       785.121          42.000    23537237.180 7  94774711.753 7       601.547          43.000
E05  24564910.734 8 129089460.113 8     -1726.551          51.000    24564912.453 8  98912735.569 8     -1322.950          51.000
E24  23052583.516 7 121142145.110 7     -1637.074          44.000    23052596.680 6  92823265.640 6     -1254.361          41.000
E25  23816088.305 8 125154459.158 8      1265.215          51.000    23816090.484 8  95897556.688 8       969.465          51.000
> 2020 05 09 04 03  0.0000000  0 18        .000000000000
G05  21203391.383 8 111424568.074 8     -2031.137          51.000    21203390.922 8  86824336.672 8     -1582.704          51.000
G07  23414075.539 5 123041773.756 5     -2735.105          34.000
G28  21123733.891 8 111005987.682 8      1255.004          51.000    21123733.320 8  86498180.585 8       977.925          48.000
G30  21075281.797 8 110751395.526 8     -1739.336          48.000    21075282.727 8  86299799.355 8     -1355.327          48.000
R01  23323984.469 6 124679994.875 6     -4027.371          40.000    23323985.492 5  96973369.860 5     -3132.400          34.000
R02  19137811.602 8 102123015.670 8      -769.812          51.000    19137813.383 8  79429038.279 8      -598.743          48.000
R11  22445942.461 5 119944306.509 5     -3861.020          30.000    22445943.930 4  93290029.229 4     -3003.021          25.000
R12  19306239.266 8 103130494.187 8     -1201.977          51.000    19306242.406 8  80212627.555 8      -934.871          50.000
R13  20510423.352 6 109524515.188 6      2859.898          39.000    20510425.328 7  85185701.596 7      2224.368          44.000
C05  39791616.266 6 207205387.368 6         8.184          36.000    39791614.727 6 160224337.523 6         6.228          40.000
C23  23957857.375 8 124754877.068 8      2589.668          50.000
C24  24320239.172 5 126641867.310 5     -2672.168          32.000
C25  21717425.273 8 113088388.172 8        17.723          51.000
E02  26777912.852 5 140718882.648 5      3054.613          34.000    26777916.000 6 107823577.561 6      2340.530          38.000
E03  23532777.484 7 123665592.961 7       776.688          43.000    23532778.703 7  94756759.186 7       594.992          43.000
E05  24574788.172 8 129141364.916 8     -1734.184          51.000    24574789.375 8  98952506.749 8     -1328.784          51.000
E24  23061957.742 7 121191407.152 7     -1647.465          45.000    23061970.867 6  92861011.886 6     -1262.508          40.000
E25  23808899.570 8 125116682.332 8      1252.824          51.000    23808901.945 8  95868610.798 8       960.022          51.000
> 2020 05 09 04 03 30.0000000  0 19        .000000000000
G05  21215024.883 8 111485705.180 8     -2053.004          51.000    21215024.867 8  86871975.971 8     -1599.743          50.000
G07  23429688.250 6 123123836.151 6     -2743.949          37.000    23429688.000 5  95940654.070 5     -2138.130          34.000
G15  22454211.867 5 117997699.982 5      2894.266          35.000    22454206.461 4  91946230.791 4      2255.266          29.000
G28  21116611.297 8 110968558.471 8      1231.875          50.000    21116610.664 8  86469014.963 8       959.903          48.000
G30  21085230.797 8 110803677.979 8     -1754.559          48.000    21085231.586 8  86340538.945 8     -1367.189          48.000
R01  23346595.781 6 124800868.940 6     -4039.578          39.000    23346597.555 5  97067382.945 5     -3141.897          33.000
R02  19142192.984 8 102146396.285 8      -797.336          51.000    19142195.062 8  79447223.157 8      -620.150          48.000
R11  22467628.227 5 120060188.671 5     -3872.359          33.000
R12  19313040.516 8 103166824.803 8     -1228.531          51.000    19313043.469 8  80240884.678 8      -955.524          50.000
R13  20494396.742 6 109438931.743 6      2837.023          39.000    20494399.047 7  85119136.702 7      2206.574          45.000
C05  39791559.875 6 207205093.542 6         2.996          36.000    39791558.453 6 160224110.280 6         2.362          41.000
C23  23942953.922 8 124677266.155 8      2576.082          51.000
C24  24335638.258 5 126722055.248 5     -2682.238          35.000
C25  21717352.219 8 113088008.698 8         -.734          51.000
E02  26760477.398 6 140627260.528 6      3045.445          37.000    26760480.891 6 107753373.632 6      2333.592          38.000
E03  23528360.039 7 123642378.121 7       762.551          43.000    23528360.602 7  94738971.188 7       584.313          43.000
E05  24584702.938 8 129193466.964 8     -1747.562          51.000    24584703.922 8  98992429.069 8     -1339.047          51.000
E24  23071384.531 7 121240944.082 7     -1663.445          45.000    23071396.203 6  92898968.709 6     -1274.543          40.000
E25  23801775.062 8 125079244.628 8      1234.629          51.000    23801778.047 8  95839924.783 8       946.011          51.000
> 2020 05 09 04 04  0.0000000  0 19        .000000000000
G05  21226753.945 8 111547342.140 8     -2062.867          51.000    21226753.688 8  86920004.785 8     -1607.429          51.000
G07  23445324.789 6 123206004.199 6     -2741.031          37.000    23445318.688 5  96004681.142 5     -2135.865          33.000
G15  22437670.008 5 117910761.394 5      2895.027          33.000    22437692.422 5  91878598.166 5      2255.865          32.000
G28  21109591.023 8 110931667.948 8      1220.871          49.000    21109590.266 7  86440269.062 7       951.325          46.000
G30  21095236.734 8 110856259.459 8     -1757.699          48.000    21095237.547 7  86381511.522 7     -1369.636          47.000
R01  23369245.289 6 124921947.721 6     -4039.176          41.000    23369248.180 5  97161555.241 5     -3141.581          33.000
R02  19146699.586 8 102170445.226 8      -812.715          51.000    19146701.648 8  79465927.865 8      -632.112          48.000
R11  22489345.414 5 120176238.014 5     -3871.270          33.000
R12  19319960.219 8 103203789.226 8     -1242.621          51.000    19319963.227 8  80269634.780 8      -966.483          50.000
R13  20478467.352 6 109353869.863 6      2826.727          38.000    20478470.359 7  85052977.444 7      2198.562          45.000
C05  39791504.094 6 207204802.868 6         9.156          36.000    39791502.570 6 160223885.476 6         7.570          41.000
C23  23928098.164 8 124599906.159 8      2574.484          50.000
C24  24351067.492 4 126802401.545 4     -2680.367          29.000
C25  21717355.062 8 113088024.673 8        -7.047          51.000
E02  26743066.789 6 140535767.327 6      3047.723          39.000    26743069.695 6 107683268.478 6      2335.334          38.000
E03  23523992.531 7 123619425.319 7       760.785          43.000    23523992.859 7  94721383.970 7       582.867          44.000
E05  24594663.711 8 129245812.375 8     -1748.895          51.000    24594665.266 8  99032537.859 8     -1340.059          51.000
E24  23080871.992 7 121290800.675 7     -1667.203          45.000    23080883.117 6  92937170.482 6     -1277.488          40.000
E25  23794724.008 8 125042192.735 8      1228.777          51.000    23794727.633 8  95811534.378 8       941.516          51.000
> 2020 05 09 04 04 30.0000000  0 18        .000000000000
G05  21238584.750 8 111609512.120 8     -2086.133          51.000    21238584.000 8  86968448.939 8     -1625.558          51.000
G07  23460985.961 5 123288308.392 5     -2750.969          35.000
G15  22421169.836 5 117824042.409 5      2881.379          34.000
G28  21102680.023 8 110895352.515 8      1196.012          49.000    21102679.312 7  86411971.268 7       931.957          44.000
G30  21105306.102 7 110909173.994 7     -1774.211          47.000    21105306.758 7  86422743.624 7     -1382.502          47.000
R01  23391940.266 7 125043264.950 7     -4052.785          43.000    23391943.578 5  97255913.063 5     -3152.166          31.000
R02  19151338.188 8 102195198.381 8      -841.840          51.000    19151340.242 8  79485180.293 8      -654.767          48.000
R11  22511098.594 5 120292486.939 5     -3882.785          31.000
R12  19327005.000 8 103241420.794 8     -1270.426          51.000    19327008.000 8  80298903.772 8      -988.109          49.000
R13  20462642.117 6 109269366.453 6      2802.160          37.000    20462645.969 7  84987252.537 7      2179.458          45.000
C05  39791455.789 6 207204551.386 6         2.922          36.000    39791454.078 6 160223690.265 6         2.048          41.000
C23  23913296.641 8 124522833.021 8      2559.445          50.000
C25  21717440.602 8 113088470.440 8       -26.914          51.000
E02  26725688.133 6 140444439.735 6      3036.562          40.000    26725690.164 6 107613290.205 6      2326.765          37.000
E03  23519681.578 7 123596770.935 7       745.086          44.000    23519682.492 7  94704025.399 7       571.024          45.000
E05  24604677.438 8 129298436.346 8     -1763.770          51.000    24604679.898 8  99072860.092 8     -1351.475          51.000
E24  23090426.531 7 121341010.842 7     -1684.566          44.000    23090438.602 6  92975643.179 6     -1290.736          41.000
E25  23787753.320 8 125005562.459 8      1208.910          51.000    23787757.312 8  95783467.019 8       926.317          51.000
> 2020 05 09 04 05  0.0000000  0 17        .000000000000
G05  21250524.383 8 111672253.533 8     -2100.215          51.000    21250522.805 8  87017338.346 8     -1636.531          51.000
G13  20667349.484 5 108607653.815 5      1450.680          31.000
G28  21095886.641 8 110859653.907 8      1180.266          49.000    21095885.953 7  86384154.189 7       919.687          43.000
G30  21115446.352 7 110962460.626 7     -1781.785          45.000    21115446.766 7  86464265.676 7     -1388.401          45.000
R01  23414687.273 7 125164859.733 7     -4057.168          42.000    23414691.422 5  97350486.793 5     -3155.575          31.000
R02  19156116.469 8 102220697.536 8      -861.793          50.000    19156118.844 8  79505012.963 8      -670.283          49.000
R12  19334181.867 8 103279758.226 8     -1289.125          51.000    19334184.875 8  80328721.764 8     -1002.653          50.000
R13  20446929.688 6 109185465.169 6      2787.359          39.000    20446933.680 7  84921995.926 7      2167.946          44.000
C05  39791422.375 6 207204377.350 6         5.039          36.000    39791420.703 6 160223555.632 6         4.017          41.000
C23  23898558.133 8 124446087.746 8      2553.266          51.000
C24  24382039.195 5 126963692.626 5     -2696.102          32.000
C25  21717616.281 8 113089385.378 8       -37.707          51.000
E02  26708349.320 6 140353319.596 6      3034.441          41.000    26708350.680 6 107543470.872 6      2325.082          36.000
E03  23515435.188 7 123574456.382 7       738.809          45.000    23515436.727 7  94686927.246 7       566.013          45.000
E05  24614751.844 8 129351379.217 8     -1769.457          51.000    24614754.781 8  99113426.703 8     -1355.794          51.000
E24  23100055.898 7 121391613.593 7     -1692.762          44.000    23100068.914 6  93014416.703 6     -1296.824          41.000
E25  23780870.453 8 124969394.593 8      1198.520          51.000    23780874.539 8  95755753.983 8       918.340          51.000
> 2020 05 09 04 05 30.0000000  0 18        .000000000000
G05  21262522.703 8 111735303.220 8     -2110.801          51.000    21262520.438 8  87066467.974 8     -1644.780          51.000
G07  23492374.930 5 123453248.550 5     -2749.195          34.000
G15  22388277.742 5 117651196.897 5      2875.465          33.000
G28  21089161.742 8 110824311.935 8      1168.109          51.000    21089159.898 6  86356615.016 6       910.218          41.000
G30  21125607.375 7 111015856.649 7     -1785.848          45.000    21125607.773 7  86505872.991 7     -1391.570          45.000
R01  23437435.789 6 125286463.743 6     -4057.500          40.000    23437440.922 4  97445067.665 4     -3155.833          29.000
R02  19160984.828 8 102246678.151 8      -878.195          49.000    19160987.641 8  79525220.124 8      -683.041          50.000
R12  19341440.648 8 103318533.405 8     -1303.863          51.000    19341443.914 8  80358880.221 8     -1014.116          50.000
R13  20431281.211 6 109101901.894 6      2775.785          40.000    20431284.695 7  84857002.304 7      2158.947          44.000
C05  39791354.281 5 207204022.852 5        10.805          35.000    39791352.602 6 160223281.505 6         8.340          40.000
C23  23883833.000 8 124369412.297 8      2550.699          50.000
C24  24397541.398 5 127044431.060 5     -2694.961          31.000
C25  21717832.188 8 113090509.874 8       -44.949          51.000
E02  26691000.883 7 140262146.983 7      3035.855          42.000    26691001.359 5 107473611.302 5      2326.286          35.000
E03  23511203.953 7 123552221.470 7       735.852          45.000    23511205.414 7  94669890.096 7       563.795          45.000
E05  24624837.141 8 129404379.691 8     -1771.734          51.000    24624840.188 8  99154037.442 8     -1357.575          51.000
E24  23109709.836 7 121442346.224 7     -1697.414          44.000    23109723.180 6  93053289.750 6     -1300.502          41.000
E25  23774025.914 8 124933428.332 8      1191.336          51.000    23774029.930 8  95728195.422 8       912.842          51.000
> 2020 05 09 04 06  0.0000000  0 17        .000000000000
G05  21274631.844 8 111798936.170 8     -2128.320          51.000    21274629.344 8  87116052.089 8     -1658.431          51.000
G15  22371890.125 5 117565089.041 5      2866.699          34.000
G28  21082557.734 8 110789604.823 8      1148.758          51.000    21082554.438 7  86329570.559 7       895.139          42.000
G30  21135841.664 7 111069637.955 7     -1796.816          46.000    21135842.086 7  86547780.500 7     -1400.117          46.000
R01  23460238.547 6 125408356.933 6     -4065.520          40.000    23460243.641 5  97539873.417 5     -3162.074          30.000
R02  19165995.969 8 102273421.637 8      -901.680          50.000    19165999.031 8  79546020.640 8      -701.306          50.000
R12  19348833.562 8 103358025.555 8     -1325.801          51.000    19348836.938 8  80389596.325 8     -1031.178          49.000
R13  20415749.680 6 109018960.113 6      2756.758          40.000    20415752.188 7  84792492.111 7      2144.148          44.000
C05                                                                  39791302.680 6 160223080.290 6         7.234          40.000
C23  23869174.359 8 124293082.239 8      2540.961          51.000
C24  24413090.867 5 127125412.650 5     -2700.574          31.000
C25  21718141.086 8 113092117.990 8       -59.285          51.000
E02  26673695.469 7 140171200.476 7      3030.062          42.000    26673695.484 6 107403924.984 6      2321.727          36.000
E03  23507040.695 7 123530344.416 7       725.746          45.000    23507041.859 7  94653127.160 7       556.019          45.000
E05  24634986.438 8 129457714.795 8     -1781.043          51.000    24634989.562 8  99194904.594 8     -1364.671          51.000
E24  23119441.109 7 121493484.480 7     -1708.859          43.000    23119454.258 6  93092473.595 6     -1309.332          41.000
E25  23767273.141 8 124897941.280 8      1177.410          51.000    23767276.781 8  95701004.040 8       902.124          51.000
> 2020 05 09 04 06 30.0000000  0 17        .000000000000
G05  21286834.281 8 111863061.158 8     -2143.539          51.000    21286832.344 8  87166019.594 8     -1670.290          51.000
G15  22355545.992 5 117479191.930 5      2862.789          34.000    22355538.734 5  91542178.602 5      2230.745          32.000
G28  21076057.617 8 110755443.980 8      1131.672          51.000    21076053.711 7  86302951.766 7       881.822          43.000
G30  21146131.953 7 111123713.393 7     -1805.285          46.000    21146132.414 7  86589917.177 7     -1406.716          47.000
R01  23483078.508 6 125530445.892 6     -4070.848          39.000    23483083.547 5  97634831.431 5     -3166.218          31.000
R02  19171133.414 8 102300837.025 8      -922.883          51.000    19171136.500 8  79567343.711 8      -717.798          49.000
R12  19356343.203 8 103398140.767 8     -1345.379          51.000    19356346.516 8  80420797.040 8     -1046.406          49.000
R13  20400317.594 6 108936550.934 6      2740.305          38.000    20400319.992 7  84728396.109 7      2131.348          45.000
C05  39791255.320 6 207203507.864 6        10.652          36.000    39791253.797 6 160222883.235 6         8.228          40.000
C23  23854565.211 8 124217009.497 8      2533.598          51.000
C24  24428673.477 5 127206546.663 5     -2705.594          30.000
C25  21718525.523 8 113094119.974 8       -71.152          51.000
E02  26656416.281 7 140080391.685 7      3026.781          42.000    26656416.281 6 107334344.161 6      2319.177          36.000
E03  23502928.367 7 123508736.428 7       717.824          44.000    23502929.836 7  94636570.379 7       550.024          46.000
E05  24645182.609 8 129511294.591 8     -1787.879          51.000    24645185.656 8  99235959.239 8     -1369.957          51.000
E24  23129232.188 7 121544937.156 7     -1718.199          43.000    23129245.297 6  93131898.353 6     -1316.473          41.000
E25  23760594.758 8 124862844.063 8      1165.434          51.000    23760597.883 8  95674111.350 8       893.004          51.000
> 2020 05 09 04 07  0.0000000  0 17        .000000000000
G05  21299123.375 8 111927642.558 8     -2156.898          51.000    21299122.414 8  87216342.739 8     -1680.700          51.000
G15  22339232.148 5 117393459.015 5      2857.898          34.000
G28  21069655.219 8 110721797.288 8      1116.418          51.000    21069651.203 7  86276733.599 7       869.939          45.000
G30  21156471.523 7 111178048.094 7     -1812.055          45.000    21156471.953 7  86632255.873 7     -1411.991          45.000
R01  23505948.742 6 125652693.894 6     -4074.277          37.000    23505953.508 5  97729913.144 5     -3168.885          31.000
R02  19176390.953 8 102328891.140 8      -942.211          51.000    19176393.797 8  79589163.554 8      -732.834          48.000
R12  19363962.766 8 103438842.409 8     -1362.895          51.000    19363965.812 8  80452453.858 8     -1060.029          49.000
R13  20384977.516 6 108854641.504 6      2725.645          36.000    20384981.320 7  84664688.712 7      2119.940          44.000
C05  39791201.023 5 207203225.345 5        13.438          35.000    39791199.555 6 160222664.779 6        10.155          40.000
C23  23839999.820 8 124141161.820 8      2527.891          51.000
C24  24444279.883 4 127287768.497 4     -2707.395          28.000
C25  21718979.031 8 113096482.004 8       -81.293          51.000
E02  26639156.984 6 139989688.525 6      3025.152          41.000    26639156.250 6 107264844.274 6      2318.067          36.000
E03  23498861.258 7 123487365.087 7       711.938          46.000    23498863.391 7  94620194.914 7       545.451          46.000
E05  24655418.977 8 129565085.577 8     -1793.176          51.000    24655421.539 8  99277175.689 8     -1373.935          51.000
E24  23139076.305 7 121596669.311 7     -1725.523          42.000    23139089.352 6  93171537.281 6     -1322.220          41.000
E25  23753984.164 8 124828103.542 8      1155.629          51.000    23753986.672 8  95647491.995 8       885.419          51.000
> 2020 05 09 04 07 30.0000000  0 18        .000000000000
G05  21311503.328 8 111992700.515 8     -2178.648          51.000    21311502.867 8  87267037.235 8     -1697.645          51.000
G07  23555321.398 6 123784048.789 6     -2765.539          36.000
G15  22322959.547 5 117307945.065 5      2845.438          31.000
G28  21063354.789 8 110688687.958 8      1092.559          51.000    21063351.023 7  86250934.121 7       851.344          46.000
G30  21166864.516 7 111232663.232 7     -1827.266          45.000    21166864.781 7  86674813.111 7     -1423.843          45.000
R01  23528852.070 6 125775121.981 6     -4085.934          36.000    23528856.773 4  97825134.983 4     -3177.945          29.000
R02  19181772.438 8 102357606.722 8      -970.309          51.000    19181774.625 7  79611497.861 7      -754.688          47.000
R12  19371695.883 8 103480151.020 8     -1389.152          51.000    19371698.992 8  80484582.796 8     -1080.452          49.000
R13  20369736.289 6 108773257.174 6      2701.879          39.000    20369740.445 7  84601389.754 7      2101.461          43.000
C05  39791145.789 5 207202937.603 5         7.629          35.000    39791144.352 6 160222442.230 6         5.926          40.000
C23  23825482.203 8 124065562.458 8      2513.828          51.000
C24  24459913.219 4 127369175.911 4     -2717.328          28.000
C25  21719506.039 8 113099225.721 8       -99.824          51.000
E02  26621922.133 6 139899114.941 6      3015.051          41.000    26621920.352 6 107195443.716 6      2310.159          38.000
E03  23494844.023 7 123466253.990 7       697.328          46.000    23494846.602 7  94604018.865 7       534.394          47.000
E05  24665699.734 8 129619110.195 8     -1806.770          51.000    24665702.070 8  99318571.148 8     -1384.429          51.000
E24  23148977.469 7 121648702.165 7     -1741.570          42.000    23148990.188 6  93211406.567 6     -1334.453          40.000
E25  23747445.945 8 124793742.736 8      1136.945          51.000    23747447.820 8  95621163.564 8       871.184          51.000
> 2020 05 09 04 08  0.0000000  0 16        .000000000000
G05  21323975.586 8 112058242.611 8     -2192.043          51.000    21323975.125 8  87318108.988 8     -1708.085          51.000
G15  22306724.727 5 117222628.730 5      2840.492          32.000
G28  21057158.312 8 110656125.967 8      1076.980          51.000    21057155.094 8  86225561.133 8       839.206          48.000
G30  21177312.148 7 111287566.323 7     -1834.094          44.000    21177312.539 7  86717594.725 7     -1429.164          43.000
R01  23551789.461 5 125897736.832 5     -4089.156          33.000    23551795.242 4  97920502.097 4     -3180.455          28.000
R02  19187279.828 8 102386993.481 8      -989.938          51.000    19187281.469 7  79634354.185 7      -769.951          47.000
R12  19379543.914 8 103522072.870 8     -1406.902          51.000    19379546.727 8  80517188.663 8     -1094.257          49.000
R13  20354596.055 6 108692408.038 6      2686.867          40.000    20354599.531 7  84538507.111 7      2089.786          42.000
C05  39791091.156 6 207202653.436 6        10.043          36.000    39791089.797 6 160222222.462 6         7.793          40.000
C23  23811013.695 8 123990221.045 8      2507.742          50.000
C25  21720107.836 8 113102359.150 8      -110.176          51.000
E02  26604713.680 6 139808681.159 6      3012.828          40.000    26604711.031 6 107126150.245 6      2308.626          38.000
E03  23490878.367 7 123445412.984 7       690.828          45.000    23490881.016 7  94588049.777 7       529.300          47.000
E05  24676026.484 8 129673377.058 8     -1812.133          51.000    24676028.734 8  99360152.243 8     -1388.541          51.000
E24  23158937.492 6 121701043.014 6     -1749.082          40.000    23158949.992 6  93251511.881 6     -1340.197          40.000
E25  23740981.766 8 124759770.833 8      1126.672          51.000    23740983.297 8  95595133.133 8       863.294          51.000
> 2020 05 09 04 08 30.0000000  0 16        .000000000000
G05  21336537.078 8 112124253.905 8     -2208.117          51.000    21336536.617 8  87369546.350 8     -1720.611          51.000
G15  22290530.031 6 117137526.294 6      2833.523          37.000    22290524.305 6  91275958.755 6      2207.943          36.000
G28  21051063.805 8 110624100.103 8      1058.645          51.000    21051061.305 8  86200605.898 8       824.918          49.000
G30  21187811.852 7 111342743.482 7     -1843.676          42.000    21187812.789 7  86760589.882 7     -1436.630          43.000
R01  23574758.711 5 126020594.712 5     -4096.320          30.000    23574765.391 4  98016002.892 4     -3186.027          27.000
R02  19192910.312 8 102417038.504 8     -1012.430          51.000    19192911.828 8  79657722.475 8      -787.448          48.000
R12  19387503.672 8 103564592.690 8     -1427.262          51.000    19387506.625 8  80550259.626 8     -1110.092          49.000
R13  20339553.922 6 108612083.533 6      2668.586          39.000    20339556.617 7  84476032.541 7      2075.570          42.000
C05  39791034.914 6 207202360.492 6         9.945          36.000    39791033.516 6 160221995.918 6         7.757          40.000
C23  23796591.898 8 123915126.084 8      2499.164          49.000
C25  21720781.930 8 113105869.155 8      -123.176          51.000
E02  26587529.078 6 139718375.973 6      3008.148          38.000    26587525.578 6 107056955.347 6      2304.816          38.000
E03  23486961.938 7 123424830.598 7       681.828          46.000    23486964.609 8  94572278.832 8       522.362          48.000
E05  24686396.875 8 129727873.608 8     -1820.305          51.000    24686398.945 8  99401909.326 8     -1394.797          51.000
E24  23168954.047 6 121753677.896 6     -1759.418          40.000    23168966.695 6  93291842.503 6     -1347.991          40.000
E25  23734589.250 8 124726175.661 8      1113.574          51.000    23734590.531 8  95569391.367 8       853.252          51.000
> 2020 05 09 04 09  0.0000000  0 16        .000000000000
G05  21349191.250 8 112190752.115 8     -2223.934          51.000    21349191.008 8  87421363.127 8     -1732.932          51.000
G15  22274378.641 6 117052648.445 6      2826.398          37.000    22274375.383 4  91209842.323 4      2202.404          24.000
G28  21045075.164 8 110592630.572 8      1040.543          51.000    21045073.250 8  86176084.172 8       810.810          49.000
G30  21198367.008 7 111398212.948 7     -1853.047          42.000    21198368.836 7  86803812.858 7     -1443.933          42.000
R01  23597763.602 5 126143570.799 5     -4102.219          32.000    23597769.656 4  98111691.919 4     -3190.618          26.000
R02  19198668.078 8 102447762.190 8     -1034.672          51.000    19198669.875 8  79681618.659 8      -804.745          50.000
R12  19395578.617 8 103607727.674 8     -1447.184          51.000    19395581.625 8  80583809.035 8     -1125.590          49.000
R13  20324613.570 6 108532304.496 6      2651.141          38.000    20324616.570 7  84413982.227 7      2062.001          43.000
C05  39790980.719 6 207202078.336 6         9.727          36.000    39790979.273 6 160221777.723 6         7.766          40.000
C23  23782220.375 8 123840297.857 8      2490.465          48.000
C25  21721532.117 8 113109774.472 8      -135.949          51.000
E02  26570372.516 6 139628220.464 6      3003.621          39.000    26570369.102 6 106987875.103 6      2301.422          39.000
E03  23483098.516 7 123404527.438 7       672.980          47.000    23483101.266 8  94556721.857 8       515.684          48.000
E05  24696814.938 8 129782619.292 8     -1828.141          51.000    24696816.734 8  99443857.304 8     -1400.792          51.000
E24  23179029.523 6 121806625.046 6     -1769.047          41.000    23179042.797 6  93332412.429 6     -1355.884          40.000
E25  23728272.203 8 124692977.208 8      1100.844          51.000    23728273.141 8  95543953.584 8       843.519          51.000
> 2020 05 09 04 09 30.0000000  0 17        .000000000000
G05  21361928.109 8 112257684.262 8     -2238.852          50.000    21361927.836 8  87473518.055 8     -1744.557          50.000
G15  22258261.609 6 116967945.476 6      2820.273          36.000
G28  21039182.820 8 110561667.749 8      1023.148          51.000    21039181.367 8  86151957.291 8       797.262          49.000
G30  21208968.070 7 111453922.651 7     -1861.336          42.000    21208970.508 7  86847223.002 7     -1450.392          42.000
R02  19204543.172 8 102479113.150 8     -1055.949          51.000    19204545.523 8  79706002.753 8      -821.294          51.000
R11  22730117.688 5 121462818.607 5     -3922.324          34.000    22730121.156 5  94471103.548 5     -3050.700          35.000
R12  19403758.500 8 103651423.656 8     -1466.355          51.000    19403761.641 8  80617794.791 8     -1140.499          49.000
R13  20309765.688 6 108453022.125 6      2634.004          37.000    20309770.039 7  84352318.165 7      2048.670          45.000
C05  39790919.008 6 207201756.683 6        10.676          36.000    39790917.602 6 160221528.989 6         8.258          40.000
C23  23767891.547 8 123765686.976 8      2482.824          48.000
C24  24522701.336 5 127696151.650 5     -2732.941          32.000
C25  21722348.461 8 113114024.046 8      -147.859          51.000
E02  26553234.727 6 139538165.201 6      2999.816          38.000    26553232.078 6 106918871.686 6      2298.471          39.000
E03  23479278.859 7 123384453.821 7       664.719          47.000    23479281.438 8  94541340.766 8       509.294          48.000
E05  24707270.672 8 129837563.252 8     -1835.293          51.000    24707272.070 8  99485957.182 8     -1406.260          51.000
E24  23189154.594 6 121859832.270 6     -1778.480          39.000    23189167.102 6  93373181.546 6     -1362.639          40.000
E25  23722020.781 8 124660125.030 8      1088.797          51.000    23722021.617 8  95518781.140 8       834.258          51.000
> 2020 05 09 04 10  0.0000000  0 18        .000000000000
G05  21374759.141 8 112325110.832 8     -2255.594          51.000    21374758.656 8  87526058.233 8     -1757.606          51.000
G07  23634421.297 5 124199728.237 5     -2778.324          33.000
G15  22242190.117 5 116883480.947 5      2811.734          33.000    22242184.188 5  91078034.273 5      2190.968          33.000
G28  21033398.898 8 110531274.866 8      1003.746          51.000    21033397.727 8  86128274.507 8       782.140          48.000
G30  21219626.609 6 111509933.267 6     -1872.141          40.000    21219629.133 6  86890867.622 6     -1458.808          40.000
R02  19210547.453 8 102511154.343 8     -1079.391          51.000    19210550.539 8  79730923.710 8      -839.526          51.000
R11  22752155.531 5 121580580.790 5     -3927.578          34.000    22752159.016 6  94562696.320 6     -3054.789          36.000
R12  19412054.852 8 103695740.982 8     -1487.348          51.000    19412057.844 8  80652263.809 8     -1156.829          48.000
R13  20295023.305 6 108374300.626 6      2614.953          39.000    20295028.461 7  84291090.318 7      2033.849          45.000
C05  39790861.617 5 207201457.164 5        10.121          35.000    39790860.133 6 160221297.356 6         7.500          40.000
C23  23753617.062 8 123691355.662 8      2473.270          49.000
C24  24538461.141 5 127778225.835 5     -2738.887          32.000
C25  21723242.445 8 113118678.627 8      -161.793          51.000
E02  26536128.195 6 139448273.601 6      2993.848          40.000    26536125.312 6 106849993.665 6      2293.775          39.000
E03  23475514.789 8 123364672.764 8       654.648          48.000    23475517.211 8  94526183.852 8       501.572          49.000
E05  24717775.711 8 129892767.335 8     -1844.355          51.000    24717776.695 8  99528256.397 8     -1413.216          51.000
E24  23199340.633 6 121913360.021 6     -1789.559          40.000    23199352.055 6  93414196.329 6     -1371.142          41.000
E25  23715847.070 8 124627681.544 8      1074.754          51.000    23715848.031 8  95493921.842 8       823.468          51.000
> 2020 05 09 04 10 30.0000000  0 16        .000000000000
G05  21387680.641 8 112393012.675 8     -2270.910          51.000    21387679.461 8  87578968.724 8     -1769.540          51.000
G15  22226160.016 5 116799240.581 5      2804.750          32.000    22226152.141 5  91012392.557 5      2185.516          30.000
G28  21027720.375 8 110501436.136 8       985.730          49.000    21027719.555 8  86105023.529 8       768.099          49.000
G30  21230338.977 6 111566226.831 6     -1880.492          39.000    21230341.227 6  86934732.717 6     -1465.319          39.000
R02  19216678.266 8 102543869.372 8     -1101.277          51.000    19216681.766 8  79756368.734 8      -856.549          51.000
R11  22774217.172 6 121698472.631 6     -3931.309          36.000    22774221.531 6  94654389.893 6     -3057.684          37.000
R12  19420463.766 8 103740660.043 8     -1506.891          50.000    19420466.586 7  80687200.860 7     -1172.023          47.000
R13  20280384.055 6 108296124.043 6      2597.219          40.000    20280388.500 7  84230286.287 7      2020.059          44.000
C05  39790805.148 5 207201163.439 5         9.973          35.000    39790803.781 6 160221070.175 6         7.820          40.000
C23  23739393.625 8 123617288.456 8      2464.914          50.000
C25  21724210.836 8 113123721.011 8      -174.191          51.000
E02  26519050.258 6 139358530.466 6      2989.254          41.000    26519046.438 6 106781229.386 6      2290.428          40.000
E03  23471803.266 8 123345168.754 8       645.809          48.000    23471805.648 8  94511239.209 8       494.882          49.000
E05  24728326.930 8 129948214.841 8     -1851.977          51.000    24728327.930 8  99570742.144 8     -1419.038          51.000
E24  23209583.891 7 121967190.449 7     -1799.098          42.000    23209595.867 6  93455442.975 6     -1378.565          41.000
E25  23709747.969 8 124595630.442 8      1062.219          51.000    23709749.195 8  95469363.203 8       813.923          51.000
> 2020 05 09 04 11  0.0000000  0 16        .000000000000
G05  21400697.250 8 112461413.905 8     -2286.059          51.000    21400694.758 8  87632268.360 8     -1781.344          51.000
G28  21022152.305 8 110472178.223 8       967.957          49.000    21022152.078 8  86082225.141 8       754.252          48.000
G30  21241109.898 5 111622827.915 5     -1889.141          33.000    21241111.672 5  86978837.470 5     -1472.055          33.000
R02  19222940.469 8 102577284.594 8     -1123.203          51.000    19222943.836 8  79782358.363 8      -873.599          50.000
R11  22796307.914 6 121816517.445 6     -3934.738          37.000    22796312.109 6  94746202.475 6     -3060.352          36.000
R12  19428989.719 8 103786204.585 8     -1526.207          50.000    19428992.547 7  80722624.394 7     -1187.050          47.000
R13  20265852.234 6 108218521.518 6      2579.098          39.000    20265855.719 7  84169928.763 7      2005.965          43.000
C05  39790754.867 5 207200901.177 5         9.957          35.000    39790753.438 6 160220867.333 6         8.050          40.000
C23  23725226.305 8 123543511.845 8      2456.625          51.000
C24  24570065.812 5 127942680.824 5     -2745.996          32.000
C25  21725258.492 8 113129176.122 8      -186.324          51.000
E02  26502005.836 6 139268962.977 6      2985.133          41.000    26502001.391 6 106712599.734 6      2287.088          40.000
E03  23468149.570 8 123325968.704 8       637.273          48.000    23468152.305 8  94496527.461 8       488.321          50.000
E05  24738929.125 8 130003931.524 8     -1859.352          51.000    24738930.891 8  99613434.120 8     -1424.653          51.000
E24  23219889.531 6 122021347.866 6     -1808.207          41.000    23219903.039 6  93496940.210 6     -1385.599          41.000
E25  23703728.055 8 124563997.979 8      1049.719          51.000    23703729.648 8  95445125.357 8       804.357          51.000
> 2020 05 09 04 11 30.0000000  0 16        .000000000000
G05  21413791.742 8 112530225.015 8     -2303.312          51.000    21413788.297 8  87685887.390 8     -1794.789          51.000
G28  21016678.695 8 110443415.143 8       947.516          48.000    21016678.836 8  86059812.319 8       738.321          48.000
G30  21251922.656 6 111679648.184 6     -1900.738          37.000    21251923.859 6  87023113.004 6     -1481.095          38.000
R02  19229317.117 8 102611311.596 8     -1147.242          51.000    19229320.375 8  79808823.791 8      -892.299          49.000
R11  22818409.844 6 121934623.701 6     -3941.004          38.000    22818413.797 5  94838062.854 5     -3065.228          35.000
R12  19437615.711 8 103832283.340 8     -1547.641          50.000    19437618.266 7  80758463.424 7     -1203.720          47.000
R13  20251410.586 6 108141404.886 6      2559.727          37.000    20251413.812 7  84109949.161 7      1990.898          42.000
C05  39790693.938 5 207200584.238 5         8.734          35.000    39790692.578 6 160220622.272 6         6.642          40.000
C23  23711098.570 8 123469940.375 8      2446.215          51.000
C24  24585904.328 5 128025135.869 5     -2752.777          33.000
C25  21726368.539 8 113134956.877 8      -200.840          51.000
E02  26484979.070 7 139179485.544 7      2978.242          42.000    26484973.695 6 106644039.047 6      2281.985          41.000
E03  23464537.477 8 123306986.520 8       626.215          49.000    23464540.586 8  94481982.650 8       479.893          50.000
E05  24749565.867 8 130059830.157 8     -1869.008          51.000    24749568.203 8  99656265.515 8     -1432.121          51.000
E24  23230240.992 7 122075743.785 7     -1820.078          42.000    23230255.281 6  93538620.184 6     -1394.378          40.000
E25  23697771.250 8 124532697.356 8      1035.141          51.000    23697772.828 8  95421141.767 8       793.103          51.000
> 2020 05 09 04 12  0.0000000  0 17        .000000000000
G05  21426978.461 8 112599523.147 8     -2317.477          51.000    21426975.164 8  87739885.923 8     -1805.826          51.000
G07  23697972.391 5 124533683.634 5     -2789.457          30.000
G28  21011314.844 8 110415226.543 8       930.609          49.000    21011314.914 8  86037847.166 8       725.147          48.000
G30  21262791.570 6 111736764.895 6     -1907.738          37.000    21262792.727 6  87067619.504 6     -1486.549          37.000
R02  19235823.469 8 102646030.487 8     -1168.215          51.000    19235826.727 8  79835827.338 8      -908.612          48.000
R11  22840537.633 6 122052868.560 6     -3943.055          38.000    22840541.469 5  94930031.067 5     -3066.823          33.000
R12  19446356.219 8 103878973.736 8     -1565.941          49.000    19446359.031 7  80794778.164 7     -1217.954          47.000
R13  20237075.180 6 108064857.284 6      2542.836          38.000    20237078.289 6  84050412.108 6      1977.761          41.000
C05  39790637.680 5 207200291.713 5         9.500          35.000    39790636.258 6 160220395.242 6         7.678          41.000
C23  23697025.578 8 123396652.875 8      2438.711          51.000
C24  24601767.773 4 128107863.024 4     -2755.430          27.000
C25  21727556.172 8 113141140.540 8      -212.266          51.000
E02  26467984.898 6 139090178.164 6      2974.617          41.000    26467978.656 6 106575608.667 6      2279.231          41.000
E03  23460982.039 8 123288301.926 8       618.500          50.000    23460985.266 8  94467665.881 8       473.883          51.000
E05  24760252.273 8 130115989.272 8     -1875.703          51.000    24760254.914 8  99699296.533 8     -1437.302          51.000
E24  23240652.586 7 122130455.494 7     -1828.270          42.000    23240666.242 6  93580542.133 6     -1401.121          40.000
E25  23691892.812 8 124501807.598 8      1023.328          51.000    23691894.297 8  95397472.991 8       784.091          51.000
> 2020 05 09 04 12 30.0000000  0 16        .000000000000
G05  21440250.820 8 112669273.040 8     -2332.594          51.000    21440247.812 8  87794236.465 8     -1817.606          50.000
G07  23713909.680 5 124617435.811 5     -2792.590          34.000
G28  21006054.531 8 110387580.702 8       912.422          51.000    21006054.078 8  86016304.956 8       710.978          48.000
G30  21273710.391 5 111794144.245 5     -1916.965          35.000    21273711.664 5  87112330.660 5     -1493.736          35.000
R02  19242452.883 8 102681407.642 8     -1190.371          51.000    19242455.719 7  79863342.861 7      -925.844          47.000
R11  22862684.617 6 122171216.120 6     -3946.727          36.000    22862688.789 5  95022079.109 5     -3069.679          31.000
R12  19455204.492 8 103926239.770 8     -1585.211          48.000    19455207.508 7  80831540.632 7     -1232.942          47.000
R13  20222840.719 6 107988845.728 6      2524.496          40.000    20222843.273 7  83991292.044 7      1963.497          42.000
C05  39790579.523 6 207199989.339 6        10.062          36.000    39790578.234 6 160220161.411 6         7.911          40.000
C23  23683000.492 8 123323617.880 8      2430.230          50.000
C25  21728814.867 8 113147694.027 8      -224.723          51.000
E02  26451017.242 6 139001009.609 6      2970.055          41.000    26451010.273 6 106507284.670 6      2275.601          41.000
E03  23457477.305 8 123269883.430 8       609.340          50.000    23457480.281 8  94453552.985 8       466.939          51.000
E05  24770982.039 8 130172376.149 8     -1883.438          51.000    24770985.023 8  99742502.056 8     -1443.210          51.000
E24  23251117.734 6 122185448.909 6     -1837.875          40.000    23251130.102 6  93622679.901 6     -1408.377          40.000
E25  23686086.453 8 124471296.356 8      1010.730          51.000    23686087.766 8  95374094.264 8       774.423          51.000
> 2020 05 09 04 13  0.0000000  0 16        .000000000000
G05  21453609.188 8 112739474.094 8     -2347.719          50.000    21453606.250 8  87848938.571 8     -1829.391          51.000
G07  23729869.672 6 124701284.274 6     -2794.805          37.000    23729862.188 6  97169823.512 6     -2177.770          36.000
G28  21000897.734 8 110360479.083 8       894.027          51.000    21000896.672 8  85995186.812 8       696.645          48.000
G30  21284678.734 5 111851785.885 5     -1927.281          32.000    21284680.695 5  87157246.281 5     -1501.775          31.000
R02  19249206.125 8 102717444.604 8     -1212.508          51.000    19249208.727 7  79891371.560 7      -943.062          47.000
R11  22884850.781 6 122289664.582 6     -3950.047          36.000    22884855.258 4  95114205.653 4     -3072.262          28.000
R12  19464160.102 8 103974079.915 8     -1604.500          49.000    19464162.961 7  80868749.625 7     -1247.944          46.000
R13  20208707.789 6 107913373.076 6      2506.523          41.000    20208710.141 7  83932591.119 7      1949.518          44.000
C05  39790519.977 5 207199678.368 5        10.172          35.000    39790518.695 6 160219921.705 6         7.875          40.000
C23  23669022.836 7 123250837.397 7      2421.449          46.000
C25  21730144.359 8 113154617.583 8      -237.230          51.000
E02  26434076.625 6 138911982.336 6      2965.008          40.000    26434069.148 6 106439068.907 6      2271.880          41.000
E03  23454023.617 8 123251733.056 8       600.242          51.000    23454026.031 8  94439645.552 8       459.935          51.000
E05  24781755.359 8 130228991.656 8     -1891.152          50.000    24781758.820 8  99785882.769 8     -1449.119          51.000
E24  23261636.492 6 122240723.543 6     -1847.152          39.000    23261648.328 6  93665033.241 6     -1415.776          40.000
E25  23680352.445 8 124441165.058 8       997.703          51.000    23680353.117 8  95351006.648 8       764.462          51.000
> 2020 05 09 04 13 30.0000000  0 15        .000000000000
G05  21467056.203 8 112810139.462 8     -2363.281          50.000    21467053.688 8  87904002.488 8     -1841.518          50.000
G28  20995847.367 8 110333937.993 8       875.121          51.000    20995846.391 8  85974505.469 8       681.913          48.000
G30  21295700.250 6 111909658.761 6     -1935.090          37.000    21295702.477 6  87202377.079 6     -1507.862          37.000
R02  19256085.922 8 102754156.474 8     -1235.145          51.000    19256088.461 8  79919925.189 8      -960.671          48.000
R11  22907038.031 5 122408226.952 5     -3954.047          34.000    22907042.320 4  95206420.794 4     -3075.370          27.000
R12  19473225.867 8 104022506.849 8     -1624.059          49.000    19473228.930 7  80906414.987 7     -1263.157          47.000
R13  20194678.945 6 107838457.020 6      2487.734          39.000    20194681.414 7  83874323.089 7      1934.905          45.000
C05  39790461.992 6 207199376.959 6         9.676          36.000    39790460.609 6 160219687.821 6         7.557          40.000
C23  23655096.375 7 123178327.302 7      2412.254          47.000
C25  21731548.180 8 113161925.633 8      -250.129          51.000
E02  26417165.727 6 138823112.959 6      2959.750          37.000    26417158.031 6 106370974.122 6      2267.798          41.000
E03  23450624.055 8 123233867.085 8       590.734          51.000    23450625.859 8  94425956.047 8       452.593          51.000
E05  24792575.039 8 130285850.942 8     -1899.523          50.000    24792579.203 8  99829450.266 8     -1455.434          51.000
E24  23272211.328 6 122296293.375 6     -1857.184          41.000    23272223.625 6  93707612.681 6     -1423.055          41.000
E25  23674693.930 8 124411429.175 8       984.594          51.000    23674693.953 8  95328222.010 8       754.396          51.000
> 2020 05 09 04 14  0.0000000  0 15        .000000000000
G05  21480589.375 8 112881256.773 8     -2377.906          50.000    21480587.766 8  87959418.561 8     -1852.914          50.000
G28  20990901.789 8 110307948.140 8       857.426          51.000    20990900.906 8  85954253.629 8       668.124          48.000
G30  21306772.156 6 111967841.495 6     -1943.391          37.000    21306774.617 6  87247714.287 6     -1514.330          38.000
R02  19263090.578 8 102791533.375 8     -1256.734          51.000    19263092.805 8  79948996.095 8      -977.460          49.000
R11  22929243.727 5 122526889.688 5     -3956.816          32.000    22929247.969 4  95298714.060 4     -3077.530          28.000
R12  19482398.820 8 104071507.418 8     -1642.543          49.000    19482401.727 7  80944526.551 7     -1277.533          45.000
R13  20180751.672 6 107764088.175 6      2470.223          36.000    20180754.602 7  83816480.660 7      1921.284          43.000
C05  39790403.469 5 207199072.187 5        10.293          35.000    39790402.055 6 160219452.134 6         8.068          40.000
C23  23641221.492 7 123106078.319 7      2404.203          47.000
C25  21733023.320 8 113169607.318 8      -262.039          51.000
E02  26400282.141 5 138734392.752 5      2955.070          35.000    26400274.883 6 106302993.603 6      2264.281          41.000
E03  23447276.727 8 123216276.487 8       581.945          51.000    23447278.195 8  94412477.530 8       445.891          51.000
E05  24803439.320 8 130342943.733 8     -1906.805          50.000    24803443.633 8  99873196.677 8     -1461.076          51.000
E24  23282840.023 7 122352146.807 7     -1866.211          43.000    23282852.922 6  93750409.449 6     -1430.199          41.000
E25  23669109.008 8 124382078.879 8       972.090          51.000    23669108.703 8  95305732.822 8       744.803          51.000
> 2020 05 09 04 14 30.0000000  0 16        .000000000000
G05  21494207.422 8 112952819.009 8     -2393.184          51.000    21494206.820 8  88015181.322 8     -1864.818          51.000
G07  23777779.227 5 124953038.146 5     -2803.328          31.000
G28  20986060.148 8 110282505.575 8       838.590          51.000    20986059.289 7  85934428.260 7       653.447          47.000
G30  21317893.227 5 112026282.963 5     -1952.469          34.000    21317895.781 5  87293253.115 5     -1521.407          34.000
R02  19270218.703 8 102829569.626 8     -1279.152          51.000    19270221.039 8  79978579.834 8      -994.896          50.000
R11  22951466.477 5 122645645.055 5     -3960.293          31.000    22951471.695 4  95391079.314 4     -3080.228          28.000
R12  19491678.016 8 104121074.306 8     -1661.816          49.000    19491680.836 7  80983078.543 7     -1292.524          45.000
R13  20166925.344 6 107690263.816 6      2451.168          36.000    20166929.297 7  83759061.695 7      1906.461          42.000
C05  39790343.555 6 207198760.405 6        10.031          36.000    39790342.211 6 160219211.019 6         7.911          40.000
C23  23627396.641 7 123034086.578 7      2395.098          47.000
C25  21734569.234 8 113177657.065 8      -274.688          51.000
E02  26383425.164 5 138645840.221 5      2949.578          35.000    26383419.539 6 106235124.706 6      2260.195          40.000
E03  23443980.906 8 123198957.448 8       572.359          51.000    23443982.141 8  94399207.085 8       438.549          51.000
E05  24814347.492 8 130400264.990 8     -1914.824          51.000    24814351.383 8  99917118.154 8     -1467.191          51.000
E24  23293521.305 7 122408277.544 7     -1875.781          42.000    23293534.531 6  93793418.649 6     -1437.386          40.000
E25  23663596.703 8 124353109.613 8       958.988          51.000    23663596.156 8  95283535.586 8       734.842          51.000
> 2020 05 09 04 15  0.0000000  0 15        .000000000000
G05  21507914.023 8 113024845.562 8     -2405.414          51.000    21507913.969 8  88071305.901 8     -1874.346          51.000
G28  20981326.914 8 110257632.732 8       822.805          51.000    20981325.992 7  85915046.838 7       641.147          47.000
G30  21329067.453 6 112085003.514 6     -1958.840          36.000    21329069.961 6  87339009.458 6     -1526.369          36.000
R02  19277474.812 8 102868288.058 8     -1298.801          51.000    19277477.055 8  80008694.170 8     -1010.178          50.000
R12  19501066.562 8 104171226.543 8     -1678.203          49.000    19501069.656 7  81022085.853 7     -1305.269          44.000
R13  20153205.953 6 107617007.062 6      2435.609          38.000    20153210.047 7  83702084.194 7      1894.360          42.000
C05  39790286.500 5 207198463.217 5        12.875          35.000    39790285.180 6 160218981.204 6         9.862          40.000
C23  23613625.133 8 122962374.464 8      2388.824          48.000
C24  24697453.031 5 128606114.145 5     -2777.684          31.000
C25  21736189.875 8 113186095.639 8      -284.629          51.000
E02  26366600.484 6 138557434.379 6      2947.129          36.000    26366596.617 6 106167385.114 6      2258.220          40.000
E03  23440741.086 8 123181932.677 8       565.773          51.000    23440742.078 8  94386162.121 8       433.554          51.000
E05  24825303.344 8 130457836.326 8     -1919.922          51.000    24825306.750 8  99961231.222 8     -1471.142          51.000
E24  23304258.992 6 122464705.836 6     -1883.062          39.000    23304272.461 6  93836655.872 6     -1442.672          38.000
E25  23658161.062 8 124324543.325 8       948.621          51.000    23658160.445 8  95261647.138 8       726.845          51.000
> 2020 05 09 04 15 30.0000000  0 16        .000000000000
G05  21521709.664 8 113097340.447 8     -2421.445          51.000    21521709.633 8  88127795.425 8     -1886.841          51.000
G07  23809840.742 5 125121537.161 5     -2806.340          34.000
G28  20976703.508 8 110233336.512 8       802.953          51.000    20976702.062 8  85896114.711 8       625.678          48.000
G30  21340295.680 6 112144008.074 6     -1968.973          37.000    21340298.023 6  87384987.007 6     -1534.261          37.000
R02  19284859.719 8 102907694.465 8     -1322.211          51.000    19284861.859 8  80039343.608 8     -1028.386          49.000
R12  19510565.594 8 104221967.294 8     -1698.332          49.000    19510567.906 7  81061550.855 7     -1320.925          44.000
R13  20139595.633 6 107544325.629 6      2415.965          39.000    20139599.000 7  83645554.205 7      1879.087          42.000
C05  39790233.422 6 207198186.782 6        11.344          36.000    39790232.055 6 160218767.390 6         9.025          40.000
C23  23599908.930 8 122890948.675 8      2378.832          50.000
C24  24713480.547 4 128689580.512 4     -2782.672          28.000
C25  21737886.000 8 113194928.179 8      -298.324          51.000
E02  26349810.656 6 138469204.607 6      2940.922          38.000    26349807.320 6 106099780.486 6      2253.197          40.000
E03  23437558.633 8 123165209.258 8       555.137          51.000    23437559.383 8  94373348.071 8       425.400          51.000
E05  24836307.867 8 130515663.593 8     -1929.098          51.000    24836310.719 8 100005540.383 8     -1478.167          51.000
E24  23315054.102 6 122521436.145 6     -1893.145          37.000    23315067.508 6  93880124.603 6     -1450.549          38.000
E25  23652803.242 8 124296386.273 8       934.559          51.000    23652802.727 8  95240072.259 8       716.042          51.000
> 2020 05 09 04 16  0.0000000  0 15        .000000000000
G05  21535579.578 8 113170227.083 8     -2437.801          51.000    21535579.367 8  88184590.213 8     -1899.585          51.000
G07  23825871.664 5 125205786.231 5     -2810.695          34.000    23825865.070 5  97562928.416 5     -2190.155          34.000
G28  20972175.594 8 110209542.961 8       783.000          49.000    20972174.430 8  85877574.279 8       610.130          48.000
G30  21351563.625 6 112203220.628 6     -1978.684          38.000    21351565.508 6  87431126.634 6     -1541.831          37.000
R02  19292358.859 8 102947712.426 8     -1345.938          51.000    19292361.133 8  80070468.654 8     -1046.840          49.000
R12  19520160.250 8 104273218.397 8     -1718.668          49.000    19520162.258 7  81101412.826 7     -1336.742          43.000
R13  20126079.336 6 107472145.248 6      2395.910          39.000    20126081.758 7  83589413.907 7      1863.486          43.000
C05  39790170.094 5 207197856.266 5        10.289          35.000    39790168.766 6 160218512.587 6         7.974          40.000
C23  23586234.148 8 122819736.199 8      2368.496          51.000
C25  21739643.539 8 113204080.069 8      -312.156          51.000
E02  26333041.492 6 138381077.824 6      2933.980          40.000    26333037.922 6 106032254.745 6      2248.214          39.000
E03  23434419.516 8 123148713.661 8       544.285          51.000    23434420.109 8  94360708.595 8       417.047          51.000
E05  24847346.922 8 130573672.023 8     -1938.332          51.000    24847349.000 8 100049988.393 8     -1485.236          51.000
E24  23325892.484 6 122578392.672 6     -1904.012          40.000    23325904.922 6  93923766.612 6     -1459.074          37.000
E25  23647509.172 8 124268564.201 8       920.074          51.000    23647508.922 8  95218754.037 8       705.010          51.000
> 2020 05 09 04 16 30.0000000  0 16        .000000000000
G05  21549523.578 8 113243503.262 8     -2450.855          51.000    21549523.125 8  88241688.540 8     -1909.758          51.000
G07  23841907.977 5 125290057.417 5     -2810.289          33.000    23841905.750 5  97628594.055 5     -2189.842          31.000
G28  20967743.266 8 110186252.498 8       766.172          50.000    20967742.445 8  85859425.866 8       597.014          48.000
G30  21362870.836 6 112262639.779 6     -1985.902          39.000    21362872.000 6  87477427.237 6     -1547.459          39.000
R02  19299972.492 8 102988341.968 8     -1366.363          51.000    19299974.680 8  80102069.378 8     -1062.727          48.000
R12  19529849.797 8 104324976.595 8     -1735.465          50.000    19529851.648 7  81141669.194 7     -1349.803          43.000
R13  20112656.875 6 107400466.747 6      2379.078          39.000    20112659.273 7  83533663.960 7      1850.394          42.000
C05  39790096.555 6 207197473.631 6        11.887          36.000    39790095.398 6 160218216.676 6         9.243          40.000
C23  23572600.258 8 122748737.634 8      2361.246          51.000
C24  24745565.844 5 128856627.645 5     -2790.398          33.000
C25  21741461.961 8 113213550.249 8      -322.770          51.000
E02  26316292.492 6 138293055.061 6      2930.688          41.000    26316288.523 6 105964808.754 6      2245.448          37.000
E03  23431323.914 8 123132446.717 8       536.547          51.000    23431324.562 8  94348244.299 8       411.159          51.000
E05  24858420.281 8 130631861.290 8     -1944.434          51.000    24858421.953 8 100094574.947 8     -1489.879          51.000
E24  23336773.570 6 122635573.704 6     -1911.652          41.000    23336785.055 6  93967580.602 6     -1464.776          37.000
E25  23642278.547 8 124241077.073 8       908.801          51.000    23642278.961 8  95197692.479 8       696.342          51.000
> 2020 05 09 04 17  0.0000000  0 15        .000000000000
G05  21563572.398 8 113317330.519 8     -2470.441          51.000    21563571.398 8  88299216.249 8     -1925.022          51.000
G28  20963438.281 8 110163630.183 8       742.504          50.000    20963437.406 8  85841798.037 8       578.574          48.000
G30  21374248.578 6 112322428.380 6     -1999.238          40.000    21374248.664 6  87524015.717 6     -1557.848          41.000
R02  19307732.180 8 103029749.574 8     -1393.602          51.000    19307734.352 8  80134275.262 8     -1083.912          48.000
R12  19539664.789 8 104377406.127 8     -1759.199          48.000    19539667.484 7  81182447.737 7     -1368.266          43.000
R13  20099359.984 6 107329458.852 6      2355.477          39.000    20099362.250 6  83478435.597 6      1832.037          41.000
C05  39790044.164 5 207197200.715 5         6.574          35.000    39790043.016 6 160218005.611 6         5.377          40.000
C23  23559038.117 8 122678116.596 8      2347.301          49.000
C24  24761676.219 5 128940467.814 5     -2797.578          32.000
C25  21743372.750 8 113223500.679 8      -340.121          51.000
E02  26299594.531 6 138205302.027 6      2920.227          41.000    26299590.094 5 105897569.389 5      2237.483          35.000
E03  23428303.281 8 123116573.654 8       522.168          51.000    23428304.328 8  94336081.825 8       400.097          51.000
E05  24869559.258 8 130690395.411 8     -1957.301          51.000    24869560.461 8 100139425.745 8     -1499.768          51.000
E24  23347728.375 6 122693141.986 6     -1925.789          41.000    23347739.938 6  94011691.344 6     -1475.721          37.000
E25  23637142.805 8 124214089.307 8       890.859          51.000    23637143.711 8  95177013.548 8       682.660          51.000
> 2020 05 09 04 17 30.0000000  0 16        .000000000000
G05  21577686.906 8 113391504.018 8     -2472.785          50.000    21577685.188 8  88357013.762 8     -1926.846          50.000
G15  22006246.844 5 115643595.534 5      2705.285          32.000
G28  20959221.930 8 110141473.602 8       736.270          50.000    20959221.609 8  85824533.148 8       573.717          49.000
G30  21385657.406 6 112382382.264 6     -1995.645          38.000    21385657.641 6  87570732.945 6     -1555.051          37.000
R02  19315598.992 8 103071729.146 8     -1403.453          51.000    19315601.812 8  80166925.978 8     -1091.575          48.000
R12  19549566.141 8 104430297.644 8     -1765.191          48.000    19549567.875 7  81223585.533 7     -1372.927          42.000
R13  20086149.594 6 107258916.358 6      2349.098          38.000    20086152.000 6  83423569.248 6      1827.079          41.000
C05  39789974.156 6 207196836.502 6        18.969          36.000    39789973.078 6 160217723.968 6        14.810          40.000
C23  23545509.297 8 122607672.659 8      2350.523          50.000
C24  24777784.812 5 129024329.613 5     -2789.672          30.000
C25  21745336.922 8 113233729.311 8      -340.105          51.000
E02  26282909.477 7 138117616.998 7      2927.309          42.000    26282904.922 5 105830382.125 5      2242.967          35.000
E03  23425319.062 8 123100892.510 8       524.957          51.000    23425320.844 8  94324066.397 8       402.249          51.000
E05  24880725.273 8 130749071.197 8     -1952.781          51.000    24880725.930 8 100184385.090 8     -1496.269          51.000
E24  23358718.109 6 122750893.053 6     -1922.523          41.000    23358730.391 6  94055942.146 6     -1473.132          37.000
E25  23632063.602 8 124187398.194 8       890.184          51.000    23632064.750 8  95156561.898 8       682.140          51.000
> 2020 05 09 04 18  0.0000000  0 14        .000000000000
G05  21591895.836 8 113466175.719 8     -2498.488          48.000    21591894.023 8  88415199.479 8     -1946.877          48.000
G28  20955123.898 8 110119937.650 8       706.316          51.000    20955123.586 8  85807751.895 8       550.376          48.000
G30  21397126.891 5 112442654.488 5     -2015.895          35.000    21397128.000 5  87617698.247 5     -1570.827          33.000
R02  19323602.305 8 103114436.447 8     -1437.070          50.000    19323605.125 7  80200142.767 7     -1117.718          47.000
R12  19559582.867 8 104483805.408 8     -1795.070          48.000    19559585.453 7  81265202.671 7     -1396.166          43.000
R13  20073055.648 6 107188997.546 6      2319.184          38.000    20073057.594 6  83369187.981 6      1803.812          41.000
C05  39789916.086 5 207196534.035 5         8.250          35.000    39789915.062 6 160217490.072 6         5.938          40.000
C23  23532044.617 8 122537559.573 8      2330.305          51.000
C25  21747384.016 8 113244388.377 8      -363.742          51.000
E02  26266266.547 7 138030155.711 7      2910.367          42.000    26266263.438 5 105763366.312 5      2229.869          34.000
E03  23422400.914 8 123085558.670 8       504.117          51.000    23422403.344 8  94312317.076 8       386.257          51.000
E05  24891947.516 8 130808042.800 8     -1971.824          51.000    24891947.633 8 100229571.110 8     -1510.908          51.000
E24  23369771.750 7 122808979.906 7     -1942.949          42.000    23369784.547 5  94100450.218 5     -1488.957          35.000
E25  23627070.133 8 124161158.237 8       865.945          51.000    23627071.891 8  95136455.955 8       663.502          51.000
> 2020 05 09 04 18 30.0000000  0 15        .000000000000
G05  21606168.484 8 113541180.684 8     -2505.660          49.000    21606167.086 8  88473644.907 8     -1952.462          49.000
G15  21975538.484 6 115482196.850 6      2685.004          37.000    21975531.344 5  89986133.278 5      2092.208          35.000
G28  20951113.547 8 110098860.870 8       695.047          51.000    20951112.602 7  85791328.410 7       541.595          47.000
G30  21408625.688 5 112503081.376 5     -2016.902          34.000    21408627.125 5  87664784.180 5     -1571.612          34.000
R02  19331711.078 8 103157706.994 8     -1451.516          50.000    19331713.648 8  80233797.657 8     -1128.957          48.000
R12  19569683.414 7 104537761.676 7     -1805.809          47.000    19569686.164 7  81307168.629 7     -1404.518          43.000
R13  20060047.734 6 107119538.886 6      2307.996          38.000    20060050.078 7  83315164.592 7      1795.108          43.000
C05  39789839.094 5 207196132.705 5        15.277          35.000    39789838.008 6 160217179.706 6        11.665          40.000
C23  23518613.398 8 122467617.348 8      2328.738          51.000
C25  21749482.469 8 113255316.221 8      -368.582          51.000
E02  26249635.500 7 137942757.245 7      2912.305          42.000    26249634.125 5 105696397.642 5      2231.746          31.000
E03  23419518.297 8 123070410.884 8       501.934          51.000    23419521.047 8  94300710.321 8       384.586          51.000
E05  24903194.773 8 130867147.831 8     -1972.301          51.000    24903194.977 8 100274859.347 8     -1511.243          51.000
E24  23380858.250 7 122867238.779 7     -1944.719          42.000    23380870.430 5  94145090.100 5     -1490.073          35.000
E25  23622131.523 8 124135207.371 8       860.242          51.000    23622134.016 8  95116571.535 8       659.153          51.000
> 2020 05 09 04 19  0.0000000  0 13        .000000000000
G05  21620540.445 8 113616704.768 8     -2535.883          51.000    21620539.344 8  88532494.836 8     -1976.013          51.000
G28  20947226.117 8 110078430.583 8       660.371          51.000    20947224.844 7  85775408.744 7       514.578          47.000
R02  19339961.391 8 103201730.270 8     -1489.984          51.000    19339963.742 8  80268037.979 8     -1158.880          49.000
R12  19579902.789 7 104592353.407 7     -1840.340          47.000    19579906.148 7  81349628.874 7     -1431.375          42.000
R13  20047162.492 6 107050732.477 6      2272.801          39.000    20047165.117 7  83261648.461 7      1767.734          43.000
C05  39789778.562 5 207195817.973 5         -.473          35.000    39789777.539 6 160216936.312 6         -.423          40.000
C23  23505250.344 8 122398032.123 8      2303.797          50.000
C25  21751668.180 8 113266697.403 8      -396.633          51.000
E02  26233051.578 7 137855609.974 7      2891.055          42.000
E03  23416706.969 8 123055637.207 8       476.367          51.000    23416709.883 8  94289390.224 8       365.060          51.000
E05  24914502.758 8 130926573.089 8     -1996.062          51.000    24914503.117 8 100320392.958 8     -1529.424          51.000
E24  23392012.883 6 122925855.222 6     -1969.531          40.000    23392024.352 5  94190003.993 5     -1509.055          34.000
E25  23617283.547 8 124109732.796 8       831.461          51.000    23617286.406 8  95097052.043 8       637.108          51.000
> 2020 05 09 04 19 30.0000000  0 15        .000000000000
G05  21635001.984 8 113692697.769 8     -2536.090          51.000    21635000.719 8  88591710.144 8     -1976.174          51.000
G28  20943452.898 8 110058600.704 8       655.773          51.000    20943451.336 7  85759956.896 7       510.992          47.000
G30  21431808.570 5 112624913.320 5     -2035.500          30.000    21431808.930 5  87759671.255 5     -1586.101          30.000
R02  19348343.859 8 103246457.605 8     -1497.848          51.000    19348345.414 8  80302825.898 8     -1164.993          49.000
R12  19590231.867 7 104647529.867 7     -1844.047          47.000    19590235.203 7  81392543.872 7     -1434.259          42.000
R13  20034390.805 6 106982530.128 6      2268.328          40.000    20034393.094 7  83208602.164 7      1764.255          43.000
C05  39789725.836 6 207195544.000 6        13.043          36.000    39789724.758 6 160216723.641 6        10.469          40.000
C23  23491946.641 8 122328757.735 8      2308.648          51.000
C24  24842451.773 5 129361160.976 5     -2811.117          31.000
C25  21753931.484 8 113278484.107 8      -394.957          51.000
E02  26216506.297 7 137768667.896 7      2899.445          42.000
E03  23413957.969 8 123041191.314 8       480.883          51.000    23413960.820 8  94278321.284 8       368.457          51.000
E05  24925862.656 8 130986271.015 8     -1989.637          51.000    24925862.969 8 100366135.504 8     -1524.545          51.000
E24  23403225.633 6 122984780.451 6     -1964.562          38.000    23403237.836 5  94235140.476 5     -1505.209          35.000
E25  23612517.242 8 124084687.338 8       832.430          51.000    23612520.297 8  95077861.358 8       637.833          51.000
> 2020 05 09 04 20  0.0000000  0 16        .000000000000
G05  21649527.836 8 113769028.052 8     -2547.879          51.000    21649526.188 8  88651188.263 8     -1985.363          51.000
G15  21929846.836 5 115242104.799 5      2660.117          34.000
G28  20939769.188 8 110039242.098 8       639.477          51.000    20939767.453 8  85744872.288 8       498.293          48.000
G30  21443456.633 5 112686134.447 5     -2040.984          35.000    21443459.164 5  87807376.034 5     -1590.384          35.000
R02  19356833.414 8 103291757.971 8     -1517.480          51.000    19356834.602 8  80338059.510 8     -1180.263          50.000
R12  19600645.477 7 104703156.769 7     -1859.559          47.000    19600648.406 6  81435809.236 6     -1446.323          41.000
R13  20021708.070 6 106914802.961 6      2251.887          39.000    20021709.906 7  83155925.490 7      1751.470          42.000
C05  39789656.188 5 207195181.075 5        15.559          35.000    39789655.078 6 160216443.006 6        12.070          40.000
C23  23478678.578 8 122259667.096 8      2301.969          51.000
C24  24858658.648 5 129445565.724 5     -2810.828          32.000
C25  21756248.211 8 113290547.641 8      -404.664          51.000
E02  26199975.750 7 137681803.305 7      2896.152          43.000    26199977.430 6 105496453.265 6      2219.282          37.000
E03  23411247.016 8 123026945.147 8       473.660          51.000    23411249.445 8  94267405.381 8       362.964          51.000
E05  24937249.875 8 131046112.398 8     -1994.957          51.000    24937250.547 8 100411987.941 8     -1528.597          51.000
E24  23414472.453 6 123043883.968 6     -1970.820          40.000    23414485.961 5  94280427.591 5     -1510.378          35.000
E25  23607808.133 8 124059942.097 8       821.977          51.000    23607811.359 8  95058900.705 8       629.835          51.000
> 2020 05 09 04 20 30.0000000  0 16        .000000000000
G05  21664141.547 8 113845820.686 8     -2564.051          51.000    21664139.656 8  88711026.653 8     -1997.965          51.000
G07  23970772.797 5 125967251.657 5     -2828.199          32.000
G28  20936199.344 8 110020482.276 8       618.723          51.000    20936197.586 8  85730254.253 8       482.122          48.000
G30  21455161.805 6 112747643.131 6     -2051.555          37.000    21455164.719 6  87855304.811 6     -1598.617          36.000
R02  19365454.305 8 103337759.492 8     -1541.629          51.000    19365455.867 8  80373838.450 8     -1199.045          51.000
R12  19611167.406 7 104759360.556 7     -1879.438          46.000    19611169.711 6  81479523.258 6     -1461.788          40.000
R13  20009138.031 6 106847680.642 6      2230.770          39.000    20009139.109 6  83103719.281 6      1735.043          41.000
C05  39789593.789 5 207194856.158 5        13.434          35.000    39789592.758 6 160216191.732 6        10.490          40.000
C23  23465470.180 8 122190886.784 8      2291.027          51.000
C24  24874893.352 5 129530112.533 5     -2817.941          35.000
C25  21758642.039 8 113303013.021 8      -418.840          51.000
E02  26183484.297 7 137595144.449 7      2888.508          42.000    26183485.094 6 105430052.363 6      2213.212          39.000
E03  23408598.398 8 123013026.749 8       461.715          51.000    23408600.578 8  94256740.635 8       353.770          51.000
E05  24948688.688 8 131106224.023 8     -2004.914          51.000    24948690.070 8 100458047.450 8     -1536.236          51.000
E24  23425777.258 6 123103291.408 6     -1981.664          41.000    23425792.094 5  94325947.500 5     -1518.592          35.000
E25  23603180.516 8 124035624.238 8       806.750          51.000    23603183.594 8  95040267.527 8       618.147          51.000
> 2020 05 09 04 21  0.0000000  0 15        .000000000000
G05  21678813.578 8 113922920.460 8     -2595.582          51.000    21678811.625 8  88771104.388 8     -2022.531          51.000
G28  20932714.312 8 110002168.936 8       582.539          51.000    20932712.297 8  85715984.098 8       453.923          48.000
G30  21466892.344 6 112809285.095 6     -2077.508          37.000    21466895.703 6  87903337.506 6     -1618.837          36.000
R02  19374177.500 8 103384306.734 8     -1581.402          51.000    19374179.117 8  80410041.865 8     -1229.980          51.000
R12  19621767.180 7 104815982.914 7     -1914.984          43.000    19621769.445 6  81523562.886 6     -1489.429          40.000
R13  19996651.859 6 106781009.027 6      2194.074          37.000    19996653.484 7  83051863.602 7      1706.502          43.000
C05                                                                  39789508.602 6 160215852.874 6        -2.909          40.000
C23  23452292.070 8 122122266.182 8      2264.410          51.000
C24  24891127.453 5 129614648.354 5     -2838.004          35.000
C25  21761083.578 8 113315727.918 8      -448.254          51.000
E02  26167003.195 7 137508539.897 7      2865.484          43.000    26167003.164 6 105363693.070 6      2195.556          41.000
E03  23405983.242 8 122999284.267 8       434.730          51.000    23405985.492 8  94246210.671 8       333.105          51.000
E05  24960149.867 8 131166452.823 8     -2029.988          51.000    24960152.000 8 100504196.748 8     -1555.455          51.000
E24  23437110.477 6 123162848.454 6     -2008.168          38.000    23437126.188 5  94371582.044 5     -1538.747          34.000
E25  23598605.398 8 124011581.040 8       776.578          51.000    23598607.898 8  95021844.800 8       595.019          51.000
> 2020 05 09 04 21 30.0000000  0 16        .000000000000
G05  21693603.039 8 114000639.920 8     -2592.648          50.000    21693601.344 8  88831664.997 8     -2020.246          50.000
G13  20425936.938 5 107339018.713 5      1102.527          34.000
G28  20929374.180 8 109984617.657 8       580.664          50.000    20929372.266 8  85702307.750 8       452.466          49.000
G30  21478708.477 5 112871373.550 5     -2069.125          33.000    21478711.328 5  87951718.142 5     -1612.305          32.000
R02  19383062.562 8 103431718.427 8     -1586.387          51.000    19383064.461 8  80446917.612 8     -1233.856          50.000
R12  19632504.898 7 104873340.704 7     -1915.738          43.000    19632506.242 6  81568174.458 6     -1490.022          38.000
R13  19984310.648 6 106715109.970 6      2192.207          38.000    19984313.555 7  83000608.774 7      1705.050          44.000
C05  39789463.609 5 207194178.214 5        13.219          35.000    39789462.539 6 160215667.484 6         9.965          40.000
C23  23439204.547 8 122054117.620 8      2271.996          51.000
C24  24907420.539 5 129699483.622 5     -2825.043          31.000
C25  21763633.352 8 113329003.149 8      -443.598          51.000
E02  26150592.594 7 137422305.473 7      2876.496          42.000    26150591.789 7 105297617.346 7      2204.158          42.000
E03  23403461.656 8 122986033.192 8       441.895          51.000    23403463.914 8  94236057.238 8       338.589          51.000
E05  24971693.055 8 131227113.060 8     -2020.805          50.000    24971696.031 8 100550676.646 8     -1548.409          51.000
E24                                                                  23448546.945 5  94417583.995 5     -1532.051          33.000
E25  23594142.594 8 123988127.136 8       780.219          51.000    23594144.469 8  95003873.618 8       597.845          51.000
> 2020 05 09 04 22  0.0000000  0 15        .000000000000
G05  21708448.266 7 114078657.169 7     -2608.113          47.000    21708447.531 7  88892457.653 7     -2032.296          47.000
G13  20419681.961 5 107306150.765 5      1089.105          34.000    20419680.234 4  83615194.265 4       848.638          28.000
G28  20926118.023 8 109967508.678 8       560.328          50.000    20926116.617 8  85688976.066 8       436.616          49.000
G30  21490548.484 5 112933587.763 5     -2078.062          34.000    21490550.430 5  88000196.725 5     -1619.273          34.000
R02  19392048.750 8 103479670.039 8     -1610.031          51.000    19392050.664 8  80484213.274 8     -1252.247          49.000
R12  19643318.297 7 104931105.907 7     -1934.871          46.000    19643320.789 6  81613102.939 6     -1504.903          40.000
R13  19972054.305 6 106649659.210 6      2171.559          39.000    19972057.273 7  82949702.597 7      1688.990          42.000
C05  39789394.836 5 207193820.314 5        11.035          35.000    39789393.859 6 160215390.709 6         8.748          40.000
C23  23426147.594 8 121986125.098 8      2261.238          51.000
C25  21766229.055 8 113342521.030 8      -457.195          51.000
E02  26134191.867 6 137336122.802 6      2869.461          41.000    26134190.148 7 105231581.297 7      2198.471          43.000
E03  23400973.039 8 122972954.881 8       430.555          51.000    23400975.180 8  94226036.187 8       329.885          51.000
E05  24983256.961 7 131287884.833 7     -2030.160          47.000    24983260.633 8 100597242.056 8     -1555.565          51.000
E24  23459980.711 5 123283029.863 5     -2010.129          35.000    23459993.156 5  94463681.395 5     -1539.986          33.000
E25  23589731.148 8 123964942.941 8       765.887          51.000    23589732.562 8  94986109.101 8       586.833          51.000
> 2020 05 09 04 22 30.0000000  0 14        .000000000000
G05  21723374.734 7 114157104.783 7     -2623.246          45.000    21723375.477 7  88953585.707 7     -2044.085          45.000
G13  20413495.727 5 107273643.601 5      1076.555          33.000    20413492.305 4  83589864.071 4       838.880          29.000
G28  20922971.953 8 109950977.917 8       540.109          50.000    20922970.734 8  85676094.914 8       420.861          48.000
R02  19401161.609 8 103528298.159 8     -1633.504          51.000    19401163.406 8  80522035.112 8     -1270.503          48.000
R12  19654234.016 7 104989413.370 7     -1953.773          46.000    19654237.594 6  81658453.198 6     -1519.599          39.000
R13  19959907.688 6 106584795.494 6      2151.266          38.000    19959909.281 6  82899253.018 6      1673.207          41.000
C05  39789329.266 5 207193478.651 5         9.730          35.000    39789328.234 6 160215126.480 6         7.751          40.000
C23  23413146.703 8 121918423.600 8      2250.609          51.000
C25  21768897.094 8 113356414.974 8      -470.582          51.000
E02  26117826.711 6 137250128.719 6      2862.125          39.000    26117824.867 7 105165689.705 7      2193.063          43.000
E03  23398543.266 8 122960185.771 8       419.211          51.000    23398545.297 8  94216252.048 8       321.241          51.000
E05  24994866.859 7 131348903.359 7     -2039.230          45.000    24994872.133 8 100643996.562 8     -1562.572          51.000
E24  23471479.641 6 123343466.417 6     -2020.340          39.000    23471492.211 5  94509975.937 5     -1548.328          34.000
E25  23585396.766 8 123942164.064 8       751.238          51.000    23585397.742 8  94968655.148 8       575.612          51.000
> 2020 05 09 04 23  0.0000000  0 15        .000000000000
G05  21738380.266 7 114235963.551 7     -2634.844          46.000    21738381.734 7  89015034.136 7     -2053.122          45.000
G13  20407375.219 6 107241482.037 6      1067.008          36.000    20407373.109 4  83564803.090 4       831.435          26.000
G28  20919932.805 8 109935009.149 8       523.637          50.000    20919932.023 8  85663651.707 8       408.029          48.000
R02  19410397.703 8 103577585.082 8     -1653.070          51.000    19410399.516 8  80560369.329 8     -1285.721          48.000
R12  19665247.031 7 105048243.155 7     -1968.902          45.000    19665249.477 6  81704209.669 6     -1531.368          37.000
R13  19947867.789 6 106520502.986 6      2134.113          39.000    19947868.695 7  82849247.742 7      1659.866          42.000
C05  39789263.531 5 207193136.564 5        12.176          35.000    39789262.484 6 160214861.982 6         9.264          40.000
C23  23400198.070 8 121850997.185 8      2243.703          50.000
C24  24956343.500 5 129954219.675 5     -2835.457          32.000
C25  21771634.328 8 113370667.435 8      -480.344          51.000
E02  26101494.273 6 137164307.688 6      2858.480          38.000    26101492.688 7 105099930.708 7      2190.408          44.000
E03  23396169.383 8 122947710.035 8       411.777          51.000    23396171.273 8  94206692.716 8       315.512          51.000
E05  25006521.383 8 131410151.634 8     -2044.531          48.000    25006527.570 8 100690927.100 8     -1566.673          51.000
E24  23483027.602 6 123404160.196 6     -2026.625          39.000    23483042.008 5  94556481.459 5     -1552.910          34.000
E25  23581136.234 8 123919773.723 8       740.668          51.000    23581136.711 8  94951498.907 8       567.492          51.000
> 2020 05 09 04 23 30.0000000  0 15        .000000000000
G05  21753461.641 8 114315214.400 8     -2650.844          49.000    21753462.945 8  89076788.060 8     -2065.593          49.000
G13  20401317.352 6 107209650.373 6      1053.062          36.000    20401316.133 5  83539999.114 5       820.565          30.000
G28  20916997.570 8 109919585.643 8       502.465          48.000    20916997.164 8  85651633.384 8       391.528          48.000
R02  19419753.789 8 103627512.862 8     -1677.574          51.000    19419755.805 7  80599202.025 7     -1304.780          47.000
R12  19676353.859 7 105107574.648 7     -1988.625          47.000    19676356.500 6  81750356.398 6     -1546.708          38.000
R13  19935932.117 6 106456765.125 6      2112.715          40.000    19935932.719 7  82799673.874 7      1643.223          43.000
C05                                                                  39789193.531 6 160214584.159 6         7.760          40.000
C23  23387298.688 8 121783829.678 8      2231.910          49.000
C24  24972690.109 5 130039324.973 5     -2841.098          33.000
C25  21774436.273 8 113385260.572 8      -494.684          51.000
E02  26085192.062 6 137078643.887 6      2850.277          36.000    26085190.625 7 105034292.197 7      2183.973          44.000
E03  23393848.258 8 122935511.573 8       399.426          51.000    23393850.016 8  94197345.827 8       306.107          51.000
E05  25018217.727 8 131471612.363 8     -2054.809          50.000    25018223.344 8 100738020.372 8     -1574.440          51.000
E24  23494622.297 6 123465092.607 6     -2037.457          37.000    23494638.719 6  94603169.871 6     -1560.998          36.000
E25  23576946.344 8 123897754.960 8       725.145          51.000    23576946.633 8  94934627.377 8       555.675          51.000
> 2020 05 09 04 24  0.0000000  0 15        .000000000000
G05  21768620.594 8 114394870.646 8     -2661.977          51.000    21768621.203 8  89138857.826 8     -2074.267          51.000
G13  20395325.438 5 107178164.795 5      1043.840          35.000    20395324.961 5  83515464.973 5       813.388          31.000
G28  20914169.117 8 109904723.223 8       485.957          48.000    20914168.570 7  85640052.255 7       378.665          47.000
R02  19429232.406 8 103678096.796 8     -1697.078          51.000    19429235.164 8  80638545.076 8     -1319.950          49.000
R12  19687557.102 7 105167420.993 7     -2003.453          45.000    19687560.688 6  81796903.549 6     -1558.241          38.000
R13  19924103.375 6 106393598.805 6      2095.723          39.000    19924104.109 7  82750544.506 7      1630.007          43.000
C05                                                                  39789124.211 6 160214305.033 6         9.454          40.000
C23  23374452.211 8 121716936.959 8      2225.070          50.000
C24  24989051.820 5 130124522.402 5     -2841.918          31.000
C25  21777306.836 8 113400208.776 8      -504.203          51.000
E02  26068922.664 5 136993153.956 5      2846.922          35.000    26068922.094 7 104968786.950 7      2181.216          44.000
E03  23391582.906 8 122923606.773 8       391.840          51.000    23391584.578 8  94188223.959 8       300.232          51.000
E05  25029957.758 8 131533300.658 8     -2060.066          51.000    25029962.078 8 100785287.991 8     -1578.513          51.000
E24  23506266.891 5 123526266.495 5     -2043.918          32.000    23506283.047 6  94650051.840 6     -1565.954          36.000
E25  23572829.930 8 123876123.184 8       714.586          51.000    23572830.617 8  94918052.394 8       547.540          51.000
> 2020 05 09 04 24 30.0000000  0 16        .000000000000
G05  21783813.812 8 114474706.728 8     -2677.844          51.000    21783813.250 8  89201067.708 8     -2086.635          51.000
G07  24100392.438 5 126648416.486 5     -2848.465          30.000    24100388.133 5  98687036.303 5     -2219.583          30.000
G13  20389357.656 5 107146804.267 5      1029.621          35.000    20389356.938 4  83491028.165 4       802.293          27.000
G28  20911405.180 8 109890199.157 8       464.832          49.000    20911404.586 7  85628734.795 7       362.207          46.000
R02  19438791.516 8 103729109.617 8     -1721.434          51.000    19438795.156 8  80678221.705 8     -1338.893          50.000
R12  19698813.664 8 105227552.482 8     -2023.008          48.000    19698817.062 6  81843672.475 6     -1573.454          37.000
R13  19912338.750 6 106330778.861 6      2074.758          37.000    19912340.797 7  82701684.540 7      1613.701          45.000
C05  39789013.266 5 207191832.872 5         9.703          35.000    39789012.203 6 160213853.823 6         7.536          40.000
C23  23361616.594 8 121650098.903 8      2213.578          50.000
C24  25005388.273 4 130209617.847 4     -2847.109          28.000
C25  21780203.203 8 113415290.272 8      -518.449          51.000
E02  26052643.711 5 136907616.317 5      2838.684          34.000    26052644.875 7 104903245.165 7      2175.014          44.000
E03  23389331.234 8 122911773.675 8       379.691          51.000    23389332.664 8  94179157.038 8       290.920          51.000
E05  25041698.477 8 131594993.368 8     -2070.066          51.000    25041700.836 8 100832558.956 8     -1586.080          49.000
E24  23517915.469 5 123587478.544 5     -2054.574          34.000    23517930.352 5  94696955.420 5     -1574.287          35.000
E25  23568744.602 8 123854655.566 8       699.305          51.000    23568745.570 8  94901603.186 8       535.813          51.000
> 2020 05 09 04 25  0.0000000  0 17        .000000000000
G05  21799139.914 8 114555241.688 8     -2685.770          51.000    21799137.945 8  89263822.169 8     -2092.807          51.000
G07  24116662.789 5 126733917.480 5     -2845.523          31.000    24116659.594 5  98753665.845 5     -2217.303          30.000
G13  20383512.812 5 107116091.094 5      1023.414          33.000    20383512.633 5  83467096.002 5       797.478          30.000
G28  20908805.430 8 109876535.482 8       451.453          50.000    20908804.617 7  85618087.782 7       351.782          46.000
G30  21562520.625 5 113311833.367 5     -2122.777          35.000    21562522.492 5  88294924.876 5     -1654.112          35.000
R02  19448530.359 8 103781080.348 8     -1737.820          51.000    19448534.445 8  80718643.381 8     -1351.638          50.000
R12  19710222.508 7 105288496.156 7     -2034.637          46.000    19710224.859 6  81891073.052 6     -1582.495          37.000
R13  19900738.109 6 106268835.908 6      2060.395          38.000    19900741.695 7  82653506.725 7      1602.532          45.000
C05  39788957.781 5 207191543.805 5        15.129          35.000    39788956.703 6 160213630.281 6        11.614          40.000
C23  23348891.328 8 121583833.044 8      2209.520          51.000
C24  25021797.055 5 130295064.620 5     -2844.703          30.000
C25  21783224.016 8 113431020.926 8      -524.883          51.000
E02  26036455.219 6 136822502.897 6      2837.832          36.000    26036458.570 7 104838067.504 7      2174.404          44.000
E03  23387192.664 8 122900534.830 8       375.145          51.000    23387194.000 8  94170545.453 8       287.412          51.000
E05  25053538.992 8 131657211.720 8     -2072.367          51.000    25053538.719 8 100880232.660 8     -1587.897          49.000
E24  23529668.477 5 123649242.044 5     -2057.281          35.000    23529681.086 5  94744279.112 5     -1576.478          35.000
E25  23564789.703 8 123833873.725 8       691.648          51.000    23564790.398 8  94885679.428 8       529.970          51.000
> 2020 05 09 04 25 30.0000000  0 15        .000000000000
G05  21814525.055 8 114636088.290 8     -2718.152          51.000    21814521.820 8  89326819.461 8     -2118.041          51.000
G28  20906296.312 8 109863347.616 8       413.570          51.000    20906294.758 7  85607811.539 7       322.266          45.000
G30  21574676.133 6 113375705.531 6     -2149.773          36.000    21574675.828 6  88344695.244 6     -1675.148          37.000
R02  19458375.172 8 103833617.260 8     -1779.078          51.000    19458380.055 8  80759505.380 8     -1383.727          50.000
R12  19721709.250 7 105349857.917 7     -2070.660          46.000    19721712.344 6  81938798.876 6     -1610.516          36.000
R13  19889229.000 6 106207379.903 6      2022.188          37.000    19889232.969 7  82605707.633 7      1572.812          44.000
C05  39788885.586 5 207191168.023 5        -4.004          35.000    39788884.531 6 160213339.683 6        -2.960          40.000
C23  23336203.062 8 121517758.780 8      2181.387          51.000
C24  25038207.109 5 130380520.118 5     -2866.223          32.000
C25  21786296.422 8 113447018.602 8      -555.590          51.000
E02  26020284.750 6 136737524.154 6      2812.648          36.000    26020289.680 7 104772960.041 7      2155.185          43.000
E03  23385094.078 8 122889506.422 8       345.977          51.000    23385095.484 8  94162095.099 8       265.084          51.000
E05  25065406.086 8 131719570.663 8     -2099.051          51.000    25065403.719 8 100928014.103 8     -1608.429          49.000
E24  23541452.125 5 123711165.609 5     -2085.305          35.000    23541464.289 6  94791726.960 6     -1597.436          36.000
E25  23560892.047 8 123813392.866 8       659.582          51.000    23560892.805 8  94869986.300 8       505.421          51.000
> 2020 05 09 04 26  0.0000000  0 15        .000000000000
G05  21830019.578 8 114717511.703 8     -2712.859          51.000    21830015.492 8  89390266.210 8     -2113.916          51.000
G28  20903928.656 8 109850902.992 8       413.180          51.000    20903926.203 7  85598114.433 7       321.958          46.000
G30  21586909.758 5 113439992.171 5     -2138.746          34.000    21586909.109 5  88394788.669 5     -1666.555          33.000
R02  19468377.797 8 103886991.678 8     -1782.137          51.000    19468382.688 8  80801018.798 8     -1386.109          50.000
R12  19733324.992 7 105411906.835 7     -2068.844          42.000    19733327.234 5  81987059.105 5     -1609.101          35.000
R13  19877862.820 6 106146684.045 6      2021.770          39.000    19877866.312 7  82558499.770 7      1572.487          44.000
C05  39788847.562 5 207190970.487 5        14.504          35.000    39788846.594 6 160213186.934 6        11.101          40.000
C23  23323602.328 8 121452141.639 8      2190.289          51.000
C24  25054668.688 5 130466242.144 5     -2851.664          30.000
C25  21789470.469 8 113463547.198 8      -549.027          51.000
E02  26004182.227 5 136652905.736 5      2825.398          33.000    26004188.984 7 104708128.629 7      2164.655          42.000
E03  23383086.500 8 122878956.674 8       354.438          51.000    23383088.055 8  94154011.514 8       271.624          51.000
E05  25077350.242 8 131782337.240 8     -2088.219          50.000    25077347.500 8 100976107.920 8     -1600.076          50.000
E24  23553317.883 5 123773519.956 5     -2074.836          34.000    23553330.625 6  94839502.666 6     -1589.657          37.000
E25  23557102.422 8 123793480.335 8       665.043          51.000    23557103.898 8  94854728.668 8       509.548          51.000
> 2020 05 09 04 26 30.0000000  0 15        .000000000000
G05  21845550.250 8 114799126.897 8     -2727.246          51.000    21845546.055 8  89453862.407 8     -2125.130          51.000
G28  20901629.633 8 109838819.700 8       393.059          51.000    20901627.141 8  85588698.911 8       306.282          48.000
G30  21599148.586 5 113504309.169 5     -2148.648          33.000    21599148.984 5  88444905.790 5     -1674.272          31.000
R02  19478464.031 8 103940813.991 8     -1805.230          49.000    19478468.852 8  80842880.600 8     -1404.068          49.000
R12  19744995.664 7 105474250.828 7     -2086.758          45.000    19744998.383 6  82035548.912 6     -1623.034          36.000
R13  19866566.836 6 106086360.093 6      2000.879          39.000    19866569.461 7  82511581.155 7      1556.239          44.000
C05  39788771.086 5 207190571.478 5        12.348          35.000    39788770.172 6 160212879.134 6        10.034          40.000
C23  23311016.250 8 121386603.426 8      2179.672          51.000
C24  25071107.430 5 130551850.303 5     -2855.297          35.000
C25  21792673.672 8 113480226.929 8      -562.086          51.000
E02  25988076.352 6 136568265.515 6      2817.562          36.000    25988084.672 7 104643281.217 7      2159.082          42.000
E03  23381097.430 8 122868504.203 8       343.254          51.000    23381099.109 8  94146002.472 8       262.980          51.000
E05  25089298.211 7 131845128.761 7     -2097.160          47.000    25089297.227 8 101024220.892 8     -1606.825          51.000
E24  23565192.086 5 123835915.288 5     -2084.270          35.000    23565205.984 6  94887312.116 6     -1597.056          38.000
E25  23553348.305 8 123773753.715 8       650.953          51.000    23553350.195 8  94839613.483 8       498.761          51.000
> 2020 05 09 04 27  0.0000000  0 16        .000000000000
G05  21861161.570 8 114881168.236 8     -2741.133          49.000    21861158.867 8  89517790.709 8     -2135.945          49.000
G13  20360773.250 5 106996582.889 5       972.762          33.000
G28  20899444.367 8 109827335.084 8       373.438          51.000    20899441.953 7  85579749.878 7       290.990          47.000
G30  21611438.156 6 113568892.348 6     -2156.297          36.000    21611439.586 6  88495230.314 6     -1680.231          36.000
R02  19488679.227 8 103995323.999 8     -1827.887          50.000    19488684.094 8  80885277.280 8     -1421.690          50.000
R12  19756766.430 7 105537128.080 7     -2104.062          43.000    19756769.305 6  82084453.417 6     -1636.493          37.000
R13  19855385.594 6 106026650.245 6      1980.734          39.000    19855387.742 7  82465140.154 7      1540.571          44.000
C05  39788701.289 5 207190208.770 5        12.262          34.000    39788700.375 6 160212597.912 6         9.403          40.000
C23  23298490.391 8 121321379.697 8      2169.441          50.000
C24  25087570.531 6 130637578.326 6     -2858.984          37.000
C25  21795950.969 8 113497291.741 8      -574.641          51.000
E02  25972013.359 6 136483851.571 6      2810.648          41.000    25972022.656 7 104578600.398 7      2153.730          42.000
E03  23379172.180 8 122858386.979 8       332.160          51.000    23379173.883 8  94138250.296 8       254.515          51.000
E05  25101295.148 7 131908181.922 7     -2105.605          47.000    25101296.891 8 101072534.393 8     -1613.365          51.000
E24  23577119.031 5 123898596.220 5     -2093.133          34.000    23577133.781 6  94935335.748 6     -1604.158          37.000
E25  23549674.828 8 123754450.076 8       636.902          51.000    23549676.391 8  94824822.372 8       488.019          51.000
> 2020 05 09 04 27 30.0000000  0 16        .000000000000
G05  21876844.844 8 114963590.298 8     -2753.684          48.000    21876844.648 8  89582015.725 8     -2145.727          48.000
G13  20355248.969 6 106967555.649 6       961.852          36.000    20355247.234 5  83351323.823 5       749.486          33.000
G28  20897364.531 8 109816405.126 8       355.125          51.000    20897362.070 8  85571233.037 8       276.721          48.000
G30  21623770.211 6 113633696.720 6     -2163.770          38.000    21623772.383 6  88545727.245 6     -1686.054          39.000
R02  19499015.664 8 104050476.570 8     -1849.137          51.000    19499019.906 8  80928173.730 8     -1438.217          51.000
R12  19768627.734 7 105600491.005 7     -2120.168          45.000    19768631.891 6  82133735.720 6     -1649.020          38.000
R13  19844311.094 6 105967510.900 6      1961.703          41.000    19844313.062 7  82419142.861 7      1525.766          45.000
C05  39788629.766 5 207189836.398 5        12.492          35.000    39788628.883 6 160212309.931 6         9.572          40.000
C23  23286017.109 8 121256427.680 8      2160.578          50.000
C24  25104048.617 6 130723381.506 6     -2861.152          37.000
C25  21799293.516 8 113514697.288 8      -585.848          51.000
E02  25955984.445 7 136399612.495 7      2805.078          44.000    25955994.508 6 104514053.598 6      2149.384          41.000
E03  23377302.586 8 122848562.149 8       322.684          51.000    23377304.203 8  94130722.167 8       247.290          51.000
E05  25113334.750 8 131971452.750 8     -2112.605          49.000    25113338.125 8 101121014.645 8     -1618.756          51.000
E24                                                                  23589104.648 6  94983538.924 6     -1609.725          36.000
E25  23546073.656 8 123735525.595 8       624.664          51.000    23546075.078 8  94810321.784 8       478.618          51.000
> 2020 05 09 04 28  0.0000000  0 17        .000000000000
G05  21892584.633 8 115046305.375 8     -2753.453          50.000    21892586.070 8  89646469.060 8     -2145.548          50.000
G07  24214439.500 5 127247744.428 5     -2846.676          32.000
G13  20349775.078 5 106938792.197 5       963.578          34.000    20349773.438 5  83328910.764 5       750.834          33.000
G28  20895374.039 8 109805945.224 8       349.395          51.000    20895372.023 8  85563082.476 8       272.255          49.000
G30  21636127.867 5 113698636.134 5     -2157.789          35.000    21636130.461 5  88596329.441 5     -1681.391          35.000
R02  19509456.195 8 104106185.305 8     -1857.484          51.000    19509459.898 8  80971502.727 8     -1444.710          50.000
R12  19780564.086 7 105664250.560 7     -2123.246          44.000    19780566.898 5  82183326.446 5     -1651.417          35.000
R13  19833327.305 6 105908857.031 6      1955.438          39.000    19833329.266 7  82373523.165 7      1520.896          45.000
C05  39788540.461 5 207189371.141 5        25.383          35.000    39788539.570 6 160211950.125 6        19.745          40.000
C23  23273579.914 8 121191663.902 8      2164.074          50.000
C24  25120525.336 6 130809174.480 6     -2851.062          37.000
C25  21802685.164 8 113532358.521 8      -584.555          51.000
E02  25939973.375 7 136315464.657 7      2811.918          44.000    25939983.562 6 104449576.710 6      2154.458          40.000
E03  23375472.734 8 122838945.747 8       325.625          51.000    23375474.258 8  94123353.750 8       249.490          51.000
E05  25125400.445 8 132034855.999 8     -2107.082          50.000    25125404.023 8 101169596.354 8     -1614.514          51.000
E24                                                                  23601102.969 5  95031855.462 5     -1606.128          35.000
E25  23542528.438 8 123716895.347 8       624.570          51.000    23542530.461 8  94796046.674 8       478.525          51.000
> 2020 05 09 04 28 30.0000000  0 16        .000000000000
G05  21908414.195 8 115129488.191 8     -2792.176          51.000    21908416.008 8  89711286.844 8     -2175.721          51.000
G13  20344385.930 6 106910471.022 6       924.977          39.000    20344383.617 6  83306842.276 6       720.758          36.000
G28  20893506.797 8 109796132.693 8       304.656          51.000    20893505.172 8  85555436.362 8       237.394          48.000
G30  21648544.984 5 113763886.654 5     -2192.074          34.000    21648546.688 5  88647173.987 5     -1708.116          33.000
R02  19520034.133 8 104162628.111 8     -1905.461          51.000    19520037.656 8  81015402.677 8     -1482.025          51.000
R12  19792607.344 7 105728583.346 7     -2165.855          45.000    19792609.586 6  82233363.059 6     -1684.551          37.000
R13  19822467.406 6 105850868.707 6      1910.129          38.000    19822469.883 7  82328421.139 7      1485.656          45.000
C05  39788467.086 5 207188988.722 5         -.484          35.000    39788466.141 6 160211654.372 6          .121          40.000
C23  23261212.031 8 121127264.472 8      2128.969          49.000
C24  25137033.383 6 130895131.493 6     -2879.598          36.000
C25  21806159.477 8 113550449.939 8      -621.684          51.000
E02  25924013.688 7 136231586.393 7      2779.855          46.000    25924023.273 6 104385306.340 6      2130.013          39.000
E03  23373716.383 8 122829715.798 8       289.648          51.000    23373717.938 8  94116281.441 8       221.995          51.000
E05  25137524.688 8 132098568.529 8     -2140.391          51.000    25137528.414 8 101218415.004 8     -1640.043          51.000
E24                                                                  23613163.617 5  95080419.872 5     -1631.683          35.000
E25  23539073.148 8 123698736.344 8       585.957          51.000    23539075.266 8  94782132.641 8       448.977          51.000
> 2020 05 09 04 29  0.0000000  0 16        .000000000000
G05  21924343.156 8 115213191.966 8     -2789.531          51.000    21924344.594 8  89776510.559 8     -2173.661          51.000
G13  20339092.203 6 106882649.158 6       928.207          41.000    20339088.664 5  83285162.951 5       723.281          33.000
G28  20891773.391 8 109787023.964 8       301.176          51.000    20891772.016 8  85548338.645 8       234.682          48.000
G30  21661031.328 6 113829502.798 6     -2183.750          38.000    21661032.977 6  88698303.463 6     -1701.623          37.000
R02  19530759.852 8 104219861.401 8     -1911.480          51.000    19530763.344 8  81059917.427 8     -1486.707          51.000
R12  19804768.266 7 105793543.389 7     -2166.254          45.000    19804770.898 6  82283887.509 6     -1684.867          37.000
R13  19811742.891 6 105793603.925 6      1906.188          39.000    19811745.617 7  82283881.864 7      1482.590          44.000
C05  39788420.133 5 207188744.571 5        15.305          35.000    39788419.297 6 160211465.594 6        11.629          40.000
C23  23248925.102 8 121063285.420 8      2134.789          50.000
C24  25153582.578 6 130981306.624 6     -2866.777          36.000
C25  21809727.016 8 113569026.052 8      -618.141          51.000
E02  25908115.875 7 136148034.875 7      2788.809          46.000    25908124.453 6 104321286.346 6      2136.891          38.000
E03  23372044.289 8 122820929.143 8       294.727          51.000    23372045.922 8  94109548.799 8       225.835          51.000
E05  25149718.320 8 132162645.822 8     -2132.785          51.000    25149722.391 8 101267513.145 8     -1634.224          51.000
E24  23625285.742 5 124151718.998 5     -2122.488          35.000    23625297.188 5  95129273.914 5     -1626.256          35.000
E25  23535718.383 8 123681104.535 8       588.098          51.000    23535719.656 8  94768622.526 8       450.617          51.000
> 2020 05 09 04 29 30.0000000  0 16        .000000000000
G05  21940310.305 8 115297096.665 8     -2804.090          51.000    21940311.125 8  89841890.830 8     -2185.005          51.000
G13  20333833.297 7 106855010.458 7       914.199          42.000    20333829.453 6  83263626.318 6       712.369          36.000
G28  20890113.203 8 109778301.144 8       280.188          50.000    20890112.188 8  85541541.630 8       218.328          49.000
G30  21673526.391 6 113895166.010 6     -2193.590          37.000    21673527.938 6  88749469.571 6     -1709.294          38.000
R02  19541572.758 8 104277561.951 8     -1935.254          51.000    19541576.133 8  81104795.604 8     -1505.201          49.000
R12  19816985.383 7 105858804.827 7     -2184.629          44.000    19816988.625 6  82334646.391 6     -1699.153          39.000
R13  19801093.891 6 105736741.088 6      1884.750          38.000    19801096.828 7  82239655.236 7      1465.917          44.000
C05  39788339.477 5 207188324.283 5        13.219          34.000    39788338.625 6 160211140.601 6        10.052          40.000
C23  23236659.266 8 120999412.786 8      2123.379          50.000
C24  25170112.461 6 131067384.121 6     -2871.703          37.000
C25  21813326.852 8 113587771.261 8      -631.625          51.000
E02  25892219.617 7 136064493.816 7      2780.535          45.000    25892224.180 6 104257274.440 6      2130.633          37.000
E03  23370396.258 8 122812269.219 8       282.570          51.000    23370397.914 8  94102913.260 8       216.527          51.000
E05  25161921.047 8 132226770.046 8     -2142.262          51.000    25161925.156 8 101316647.271 8     -1641.419          51.000
E24  23637429.969 5 124215532.674 5     -2132.223          33.000    23637442.078 5  95178173.126 5     -1633.676          35.000
E25  23532403.266 8 123663682.260 8       573.371          51.000    23532404.344 8  94755272.987 8       439.306          51.000
> 2020 05 09 04 30  0.0000000  0 16        .000000000000
G05  21956356.477 8 115381418.127 8     -2817.266          51.000    21956356.758 8  89907595.840 8     -2195.275          51.000
G13  20328650.867 7 106827774.174 7       901.434          42.000    20328646.906 6  83242403.227 6       702.416          36.000
G28  20888568.102 8 109770182.568 8       260.941          49.000    20888567.461 8  85535215.459 8       203.331          49.000
G30  21686071.898 6 113961092.994 6     -2201.578          39.000    21686073.414 6  88800841.272 6     -1715.515          39.000
R02  19552514.406 8 104335949.942 8     -1957.359          51.000    19552517.539 8  81150208.484 8     -1522.394          49.000
R12  19829300.305 7 105924586.519 7     -2200.949          44.000    19829303.797 6  82385809.919 6     -1711.849          38.000
R13  19790561.852 6 105680502.619 6      1864.684          38.000    19790565.477 7  82195914.210 7      1450.309          45.000
C05  39788266.508 5 207187943.972 5        12.836          35.000    39788265.648 6 160210846.501 6         9.581          40.000
C23  23224455.430 8 120935863.342 8      2113.246          50.000
C24  25186664.344 6 131153578.807 6     -2874.699          36.000
C25  21817000.031 8 113606900.694 8      -643.715          51.000
E02  25876366.867 7 135981182.518 7      2773.465          46.000    25876364.875 6 104193438.562 6      2125.251          41.000
E03  23368814.117 8 122803955.006 8       271.672          51.000    23368815.789 8  94096542.615 8       208.158          51.000
E05  25174174.062 8 132291158.957 8     -2150.293          50.000    25174177.906 8 101365984.226 8     -1647.654          51.000
E24                                                                  23649638.102 5  95227283.511 5     -1639.941          33.000
E25  23529169.445 8 123646687.565 8       559.707          51.000    23529170.930 8  94742251.099 8       428.828          51.000
> 2020 05 09 04 30 30.0000000  0 16        .000000000000
G05  21972475.414 8 115466123.287 8     -2829.188          51.000    21972475.109 8  89973599.812 8     -2204.562          51.000
G13  20323539.031 7 106800911.076 7       889.809          43.000    20323535.477 5  83221470.928 5       693.357          34.000
G28  20887132.266 8 109762637.884 8       242.668          49.000    20887131.773 8  85529336.471 8       189.092          49.000
G30  21698661.586 5 114027252.199 5     -2208.312          35.000    21698662.227 6  88852393.880 6     -1720.766          36.000
R02  19563578.773 8 104394993.284 8     -1978.426          51.000    19563581.836 8  81196131.053 8     -1538.779          48.000
R12  19841705.398 7 105990854.155 7     -2216.172          42.000    19841707.320 6  82437351.416 6     -1723.689          38.000
R13  19780141.305 6 105624857.600 6      1845.742          39.000    19780145.336 7  82152634.743 7      1435.577          45.000
C05                                                                  39788194.438 6 160210560.025 6         9.956          40.000
C23  23212307.266 8 120872607.433 8      2104.344          50.000
C24  25203232.625 5 131239859.148 5     -2876.527          33.000
C25  21820741.312 8 113626383.125 8      -654.559          51.000
E02  25860552.164 7 135898071.666 7      2767.730          45.000    25860546.789 7 104129756.233 7      2120.684          43.000
E03  23367292.234 8 122795956.858 8       261.961          51.000    23367293.820 8  94090414.156 8       200.747          51.000
E05  25186471.578 8 132355781.708 8     -2157.309          51.000    25186475.164 8 101415500.366 8     -1653.000          51.000
E24  23661867.992 6 124343954.741 6     -2148.055          36.000    23661878.859 5  95276580.542 5     -1646.011          31.000
E25  23526011.195 8 123630089.810 8       547.441          51.000    23526012.570 8  94729533.335 8       419.435          51.000
> 2020 05 09 04 31  0.0000000  0 16        .000000000000
G05  21988662.484 8 115551187.429 8     -2841.371          50.000    21988661.633 8  90039883.523 8     -2214.055          50.000
G13  20318494.188 7 106774399.949 7       877.852          43.000    20318491.344 6  83200812.860 6       684.037          37.000
G28  20885801.422 8 109755644.910 8       223.977          50.000    20885800.789 8  85523887.396 8       174.527          49.000
G30  21711290.719 6 114093620.216 6     -2215.598          36.000    21711290.953 6  88904109.174 6     -1726.440          36.000
R02  19574761.914 8 104454668.410 8     -1999.602          51.000    19574764.406 8  81242544.995 8     -1555.246          48.000
R12  19854197.250 7 106057582.343 7     -2231.945          45.000    19854199.438 6  82489251.059 6     -1735.957          39.000
R13  19769828.422 6 105569785.383 6      1826.164          40.000    19769831.945 7  82109800.780 7      1420.350          44.000
C05  39788121.867 5 207187191.220 5        12.938          34.000    39788121.023 6 160210264.366 6        10.161          40.000
C23  23200211.625 8 120809623.644 8      2094.938          50.000
C24  25219813.148 5 131326202.010 5     -2879.395          30.000
C25  21824546.172 8 113646195.645 8      -665.883          51.000
E02  25844771.375 7 135815140.345 7      2761.402          45.000    25844765.117 7 104066211.449 7      2115.916          44.000
E03  23365826.516 8 122788253.571 8       251.988          51.000    23365827.977 8  94084511.628 8       193.139          51.000
E05  25198809.172 8 132420615.832 8     -2164.516          51.000    25198812.617 8 101465178.435 8     -1658.531          51.000
E24  23674154.086 6 124408511.535 6     -2155.391          38.000    23674161.953 5  95326040.049 5     -1652.036          30.000
E25  23522924.047 8 123613866.785 8       534.590          51.000    23522925.219 8  94717102.666 8       409.618          51.000
> 2020 05 09 04 31 30.0000000  0 15        .000000000000
G05  22004916.016 8 115636602.645 8     -2852.543          48.000    22004915.008 8  90106440.804 8     -2222.764          48.000
G13  20313515.516 7 106748237.252 7       866.797          44.000    20313513.227 6  83180426.325 6       675.423          36.000
G28  20884574.586 8 109749198.123 8       206.297          50.000    20884573.992 8  85518863.918 8       160.751          49.000
G30  21723958.484 6 114160190.546 6     -2221.691          37.000    21723958.508 6  88955982.128 6     -1731.188          38.000
R02  19586062.852 8 104514969.264 8     -2019.840          51.000    19586064.164 7  81289445.641 7     -1570.987          47.000
R12  19866774.141 6 106124762.586 6     -2246.355          41.000    19866775.609 6  82541502.296 6     -1747.168          38.000
R13  19759621.664 6 105515280.701 6      1807.680          40.000    19759623.969 7  82067408.247 7      1405.973          43.000
C05  39788045.180 5 207186791.809 5        13.789          35.000    39788044.352 6 160209955.475 6        11.052          40.000
C23  23188167.906 8 120746907.365 8      2086.512          51.000
C25  21828413.023 8 113666331.996 8      -676.074          51.000
E02  25829022.656 7 135732384.506 7      2756.148          43.000    25829017.961 7 104002801.077 7      2111.875          45.000
E03  23364416.094 8 122780840.748 8       242.801          51.000    23364417.367 8  94078831.667 8       186.003          51.000
E05  25211186.062 8 132485655.638 8     -2170.848          51.000    25211188.633 8 101515014.103 8     -1663.368          50.000
E24  23686480.156 6 124473281.505 6     -2161.801          36.000
E25  23519906.750 8 123598013.048 8       522.926          51.000    23519908.773 8  94704954.986 8       400.662          51.000
> 2020 05 09 04 32  0.0000000  0 15        .000000000000
G05  22021240.461 7 115722391.912 7     -2865.449          47.000    22021239.680 8  90173289.584 8     -2232.818          48.000
G13  20308607.820 7 106722449.184 7       853.859          43.000    20308606.125 6  83160331.726 6       665.345          39.000
G28  20883456.594 8 109743323.009 8       186.641          49.000    20883455.977 8  85514285.909 8       145.434          49.000
G30  21736669.250 6 114226987.309 6     -2229.879          37.000    21736670.039 6  89008031.552 6     -1737.571          37.000
R02  19597485.109 8 104575920.469 8     -2042.164          51.000    19597486.195 8  81336852.098 8     -1588.350          48.000
R12  19879438.828 6 106192417.439 6     -2262.641          41.000    19879441.352 6  82594122.790 6     -1759.832          40.000
R13  19749526.000 6 105461369.818 6      1787.586          40.000    19749527.594 7  82025477.577 7      1390.345          44.000
C05  39787969.953 5 207186400.446 5        13.605          35.000    39787969.141 6 160209652.842 6        10.315          40.000
C23  23176180.891 8 120684484.257 8      2076.266          51.000
C25  21832346.992 8 113686816.327 8      -688.191          51.000
E02  25813310.500 7 135649830.629 7      2748.766          43.000    25813309.359 7 103939545.442 7      2106.215          44.000
E03  23363065.898 8 122773744.575 8       231.602          51.000    23363066.992 8  94073394.331 8       177.461          51.000
E05  25223606.398 8 132550926.073 8     -2179.188          50.000    25223608.047 8 101565026.451 8     -1669.704          49.000
E24                                                                  23698861.148 5  95425486.305 5     -1663.018          31.000
E25  23516964.672 8 123582553.791 8       509.055          51.000    23516967.414 8  94693109.561 8       390.127          51.000
> 2020 05 09 04 32 30.0000000  0 15        .000000000000
G05  22037630.891 8 115808527.537 8     -2877.188          48.000    22037630.555 8  90240408.251 8     -2241.964          48.000
G13  20303767.047 7 106697012.585 7       841.664          43.000    20303765.844 6  83140510.998 6       655.842          38.000
G28  20882442.586 8 109737994.449 8       168.125          50.000    20882441.852 8  85510133.765 8       131.003          48.000
G30  21749418.406 6 114293984.459 6     -2237.023          37.000    21749419.094 6  89060237.126 6     -1743.135          36.000
R02  19609023.750 8 104637495.386 8     -2063.148          51.000    19609025.539 8  81384743.670 8     -1604.671          48.000
R12  19892187.539 6 106260518.678 6     -2277.590          41.000    19892190.453 6  82647090.404 6     -1771.459          40.000
R13  19739537.055 6 105408028.252 6      1768.301          40.000    19739538.828 7  81983989.697 7      1375.345          45.000
C05  39787891.609 5 207185992.678 5        13.715          35.000    39787890.898 6 160209337.498 6        10.475          40.000
C23  23164245.836 8 120622330.253 8      2067.059          51.000
C25  21836342.562 8 113707622.961 8      -699.195          51.000
E02  25797632.750 7 135567455.000 7      2742.602          44.000    25797634.336 7 103876426.400 7      2101.549          43.000
E03  23361771.359 8 122766941.059 8       221.645          51.000    23361772.273 8  94068181.236 8       169.855          51.000
E05  25236065.148 8 132616401.921 8     -2186.277          48.000    25236066.289 8 101615196.202 8     -1675.235          49.000
E24                                                                  23711274.117 5  95475472.166 5     -1669.055          31.000
E25  23514093.258 8 123567464.016 8       496.551          51.000    23514095.867 8  94681547.242 8       380.462          51.000
> 2020 05 09 04 33  0.0000000  0 15        .000000000000
G05  22054091.922 8 115895032.936 8     -2890.156          48.000    22054092.086 8  90307815.053 8     -2252.070          49.000
G13  20298998.219 7 106671953.948 7       828.555          42.000    20298997.758 6  83120984.806 6       645.630          39.000
G28  20881537.234 8 109733238.065 8       148.641          48.000    20881536.727 8  85506427.491 8       115.824          48.000
G30  21762210.742 6 114361206.422 6     -2245.188          38.000    21762210.680 6  89112617.807 6     -1749.497          38.000
R02  19620683.156 8 104699718.820 8     -2085.324          48.000    19620685.898 7  81433139.659 7     -1621.916          47.000
R12  19905023.812 7 106329089.299 7     -2294.074          42.000    19905026.438 6  82700423.099 6     -1784.280          40.000
R13  19729659.375 6 105355282.515 6      1747.848          39.000    19729661.734 7  81942965.218 7      1359.437          45.000
C05  39787815.086 5 207185593.788 5        12.688          35.000    39787814.375 6 160209029.038 6         9.959          40.000
C23  23152367.156 8 120560471.128 8      2056.641          51.000
C25  21840404.703 8 113728776.157 8      -711.211          51.000
E02  25781995.156 7 135485284.278 7      2735.203          46.000    25781997.164 6 103813464.403 6      2095.874          40.000
E03  23360537.539 8 122760456.571 8       210.434          51.000    23360538.414 8  94063212.600 8       161.202          51.000
E05  25248567.602 7 132682108.275 7     -2194.445          46.000    25248569.602 8 101665542.613 8     -1681.455          50.000
E24                                                                  23723727.867 5  95525621.662 5     -1674.978          30.000
E25  23511296.852 8 123552769.020 8       482.848          51.000    23511299.305 8  94670287.426 8       369.947          51.000
> 2020 05 09 04 33 30.0000000  0 15        .000000000000
G05  22070623.930 8 115981909.116 8     -2900.969          49.000    22070624.367 8  90375510.778 8     -2260.495          49.000
G13  20294302.266 7 106647278.093 7       817.332          43.000    20294302.070 6  83101756.850 6       636.882          39.000
G28  20880741.344 8 109729057.535 8       130.871          48.000    20880741.008 8  85503169.927 8       101.977          48.000
G30  21775046.383 6 114428655.318 6     -2250.965          38.000    21775045.172 6  89165175.373 6     -1753.999          38.000
R02  19632465.305 8 104762593.086 8     -2105.539          51.000    19632468.008 7  81482041.885 7     -1637.641          46.000
R12  19917948.734 7 106398129.734 7     -2307.879          42.000    19917950.445 6  82754121.162 6     -1795.017          40.000
R13  19719894.055 6 105303137.089 6      1729.254          40.000    19719897.156 7  81902407.659 7      1344.975          45.000
C05  39787741.008 5 207185207.510 5        13.559          35.000    39787740.242 6 160208730.310 6        10.596          40.000
C23  23140544.844 8 120498911.058 8      2048.078          51.000
C25  21844534.430 8 113750278.495 8      -721.469          51.000
E02  25766398.211 8 135403323.232 8      2729.594          48.000    25766397.500 6 103750663.163 6      2091.453          38.000
E03  23359365.250 8 122754295.550 8       201.008          51.000    23359366.273 8  94058491.804 8       154.004          51.000
E05  25261114.820 7 132748048.360 7     -2200.762          46.000    25261118.461 8 101716068.098 8     -1686.349          51.000
E24  23736250.094 6 124734826.501 6     -2192.438          38.000
E25  23508576.289 8 123538472.224 8       471.008          51.000    23508578.625 8  94659332.740 8       360.923          51.000
> 2020 05 09 04 34  0.0000000  0 15        .000000000000
G05  22087219.188 8 116069116.663 8     -2912.469          49.000    22087219.656 8  90443464.715 8     -2269.456          49.000
G13  20289672.664 7 106622949.665 7       805.176          44.000    20289672.078 6  83082799.608 6       627.410          40.000
G28  20880048.445 8 109725416.188 8       112.352          48.000    20880047.938 8  85500332.470 8        87.547          48.000
G30  21787917.891 6 114496293.834 6     -2257.988          37.000    21787916.656 6  89217880.630 6     -1759.471          37.000
R02  19644363.242 8 104826080.116 8     -2126.477          51.000    19644365.609 7  81531420.647 7     -1653.929          47.000
R12  19930953.078 6 106467599.648 6     -2322.781          41.000    19930955.812 6  82808153.373 6     -1806.605          40.000
R13  19710234.781 6 105251555.671 6      1709.805          41.000    19710237.805 7  81862288.794 7      1329.851          45.000
C05  39787662.281 5 207184797.753 5        13.992          35.000    39787661.531 6 160208413.452 6        10.874          40.000
C23  23128771.781 8 120437614.462 8      2038.691          50.000
C25  21848723.609 8 113772092.803 8      -732.500          51.000
E02  25750834.945 8 135321536.616 8      2723.172          48.000    25750830.727 6 103687995.579 6      2086.634          38.000
E03  23358247.766 8 122748422.422 8       190.891          51.000    23358248.594 8  94053991.607 8       146.240          51.000
E05  25273700.102 7 132814185.355 7     -2208.008          47.000    25273704.867 8 101766744.483 8     -1691.808          51.000
E24  23748787.570 6 124800714.123 6     -2199.734          38.000    23748793.633 5  95626551.422 5     -1685.448          32.000
E25  23505924.633 8 123524537.011 8       458.406          51.000    23505926.688 8  94648655.118 8       351.249          51.000
> 2020 05 09 04 34 30.0000000  0 15        .000000000000
G05  22103881.164 8 116156674.022 8     -2923.977          50.000    22103881.344 8  90511691.220 8     -2278.423          50.000
G13  20285113.695 7 106598990.965 7       792.809          46.000    20285112.859 6  83064130.463 6       617.773          41.000
G28  20879462.164 8 109722334.513 8        93.988          49.000    20879461.586 8  85497931.171 8        73.238          48.000
G30  21800829.219 6 114564141.609 6     -2264.477          37.000    21800828.859 6  89270748.957 6     -1764.530          36.000
R02  19656380.086 8 104890199.552 8     -2147.504          51.000    19656382.180 8  81581291.293 8     -1670.281          49.000
R12  19944041.461 7 106537517.651 7     -2337.324          44.000    19944045.227 6  82862534.034 6     -1817.922          39.000
R13  19700685.375 7 105200560.025 7      1690.504          42.000    19700687.773 7  81822625.526 7      1314.836          45.000
C05  39787583.031 5 207184385.497 5        14.066          34.000    39787582.352 6 160208094.628 6        11.043          39.000
C23  23117053.945 8 120376602.695 8      2029.410          51.000
C25  21852976.508 8 113794238.873 8      -743.297          51.000
E02  25735309.227 8 135239946.564 8      2716.883          49.000    25735305.164 6 103625478.600 6      2081.785          41.000
E03  23357189.211 8 122742859.045 8       180.742          51.000    23357189.547 8  94049728.758 8       138.485          51.000
E05  25286327.117 8 132880539.810 8     -2214.980          48.000    25286332.656 8 101817587.483 8     -1697.172          51.000
E24  23761364.781 5 124866814.019 5     -2206.578          33.000    23761373.484 5  95677203.982 5     -1690.731          33.000
E25  23503345.719 8 123510984.226 8       445.777          51.000    23503347.508 8  94638270.518 8       341.597          51.000
> 2020 05 09 04 35  0.0000000  0 15        .000000000000
G05  22120612.195 8 116244593.369 8     -2936.875          50.000    22120611.508 8  90580199.780 8     -2288.474          51.000
G13  20280628.094 7 106575417.946 7       779.145          47.000    20280627.164 6  83045761.883 6       607.126          40.000
G28  20878985.414 8 109719827.445 8        73.891          50.000    20878984.297 8  85495977.604 8        57.577          48.000
G30  21813782.539 5 114632212.172 5     -2272.496          33.000    21813783.875 5  89323790.986 5     -1770.776          33.000
R02  19668517.969 8 104954965.887 8     -2169.723          51.000    19668520.070 8  81631665.095 8     -1687.562          50.000
R12  19957216.289 7 106607895.664 7     -2353.652          42.000    19957220.555 6  82917272.493 6     -1830.615          39.000
R13  19691248.469 6 105150165.600 6      1669.762          41.000    19691250.875 7  81783429.879 7      1298.704          46.000
C05                                                                  39787505.461 6 160207785.238 6        10.264          40.000
C23  23105395.070 8 120315890.851 8      2018.602          51.000
C25  21857295.875 8 113816730.306 8      -755.613          51.000
E02  25719823.938 8 135158569.024 8      2708.770          50.000    25719821.805 7 103563124.427 7      2075.581          45.000
E03  23356192.430 8 122737621.002 8       168.918          51.000    23356192.578 8  94045715.198 8       129.437          51.000
E05  25298998.656 8 132947126.090 8     -2223.645          49.000    25299004.352 8 101868608.118 8     -1703.820          51.000
E24                                                                  23773994.992 5  95728031.983 5     -1697.606          32.000
E25  23500842.156 8 123497828.381 8       431.793          51.000    23500843.891 8  94628190.063 8       330.812          51.000
> 2020 05 09 04 35 30.0000000  0 16        .000000000000
G05  22137392.922 8 116332773.591 8     -2948.926          51.000    22137391.242 8  90648911.609 8     -2297.867          51.000
G13  20276197.203 7 106552132.827 7       766.020          46.000    20276195.938 7  83027617.627 7       596.898          42.000
G15  21484638.945 5 112902538.838 5      2364.277          33.000
G28  20878599.164 8 109717795.630 8        54.586          51.000    20878597.422 8  85494394.373 8        42.534          48.000
G30  21826759.312 5 114700405.454 5     -2280.715          35.000    21826761.461 5  89376928.618 5     -1777.177          35.000
R02  19680757.555 8 105020276.940 8     -2191.398          51.000    19680759.820 8  81682462.587 8     -1704.421          50.000
R12  19970458.078 7 106678629.738 7     -2368.938          42.000    19970462.875 6  82972287.903 6     -1842.507          36.000
R13  19681905.227 7 105100271.910 7      1649.555          42.000    19681907.203 7  81744623.697 7      1282.987          45.000
C05  39787412.867 5 207183499.459 5        12.754          35.000    39787412.109 6 160207409.454 6         9.747          40.000
C23  23093775.828 8 120255381.343 8      2008.500          51.000
C25  21861662.398 8 113839467.931 8      -767.191          51.000
E02  25704360.289 8 135077306.082 8      2701.652          49.000    25704360.398 8 103500858.028 8      2070.055          48.000
E03  23355238.773 8 122732610.112 8       158.117          51.000    23355239.094 8  94041875.676 8       121.134          51.000
E05  25311695.398 8 133013844.754 8     -2231.340          51.000    25311700.719 8 101919730.189 8     -1709.791          51.000
E24                                                                  23786639.430 5  95778962.293 5     -1703.272          35.000
E25  23498395.281 8 123484970.225 8       418.387          51.000    23498397.008 8  94618337.712 8       320.588          51.000
> 2020 05 09 04 36  0.0000000  0 16        .000000000000
G05  22154255.828 8 116421386.262 8     -2958.906          51.000    22154253.586 8  90717960.404 8     -2305.641          51.000
G13  20271854.484 7 106529311.111 7       755.047          46.000    20271852.797 7  83009834.471 7       588.348          43.000
G28  20878336.375 8 109716413.243 8        37.262          51.000    20878334.492 7  85493317.202 7        29.035          47.000
G30  21839791.664 5 114768894.662 5     -2286.469          31.000    21839795.195 5  89430296.786 5     -1781.670          31.000
R02  19693132.219 8 105086308.085 8     -2210.910          51.000    19693134.398 8  81733820.175 8     -1719.597          50.000
R12  19983799.273 7 106749894.125 7     -2382.160          42.000    19983803.727 5  83027715.724 5     -1852.794          35.000
R13  19672689.055 6 105051057.394 6      1631.199          41.000    19672689.977 7  81706345.754 7      1268.711          45.000
C05  39787336.312 5 207183100.567 5        13.730          35.000    39787335.523 6 160207100.950 6        10.886          39.000
C23  23082228.570 8 120195247.536 8      2000.230          51.000
C24  25386309.312 5 132193180.638 5     -2900.305          32.000
C25  21866109.211 8 113862623.506 8      -776.715          51.000
E02  25688951.523 8 134996333.283 8      2696.332          48.000    25688953.789 8 103438813.926 8      2066.051          50.000
E03  23354361.695 8 122728001.556 8       149.137          51.000    23354362.305 8  94038344.433 8       114.295          51.000
E05  25324450.727 8 133080869.722 8     -2237.051          51.000    25324455.180 8 101971086.961 8     -1714.143          51.000
E24                                                                  23799344.047 5  95830125.312 5     -1707.537          33.000
E25  23496038.336 8 123472583.919 8       407.246          51.000    23496040.109 8  94608846.901 8       312.049          51.000
> 2020 05 09 04 36 30.0000000  0 15        .000000000000
G05  22171163.906 8 116510238.299 8     -2983.867          51.000    22171161.852 8  90787195.735 8     -2325.094          51.000
G13  20267563.938 7 106506763.668 7       728.680          46.000    20267561.992 7  82992265.029 7       567.802          42.000
G28  20878160.891 8 109715489.819 8         4.773          51.000    20878158.766 7  85492597.653 7         3.720          47.000
R02  19705605.344 8 105152865.129 8     -2245.918          51.000    19705607.367 8  81785586.752 8     -1746.825          50.000
R12  19997202.656 7 106821492.322 7     -2410.992          43.000    19997207.297 5  83083403.190 5     -1875.219          34.000
R13  19663563.328 6 105002328.898 6      1597.418          40.000    19663564.867 7  81668445.822 7      1242.436          46.000
C05  39787240.227 5 207182600.220 5          .012          35.000    39787239.406 6 160206714.024 6          .157          40.000
C23  23070716.336 8 120135301.323 8      1976.895          51.000
C24  25403007.234 5 132280138.261 5     -2916.160          31.000
C25  21870599.812 8 113886007.432 8      -801.438          51.000
E02  25673561.773 8 134915461.448 8      2675.727          48.000    25673565.742 8 103376847.182 8      2050.199          51.000
E03  23353525.211 8 122723605.922 8       124.609          51.000    23353525.977 8  94034976.341 8        95.480          51.000
E05  25337228.195 8 133148010.305 8     -2258.164          51.000    25337231.508 8 102022532.324 8     -1730.365          51.000
E24  23812034.812 5 125133088.381 5     -2249.562          34.000
E25  23493734.734 8 123460478.968 8       380.418          51.000    23493736.773 8  94599571.674 8       291.489          51.000
> 2020 05 09 04 37  0.0000000  0 14        .000000000000
G05  22188154.586 8 116599527.726 8     -2975.820          49.000    22188153.477 8  90856771.914 8     -2318.821          49.000
G13  20263363.992 7 106484693.269 7       735.445          46.000    20263362.102 7  82975067.331 7       573.074          42.000
G28  20878110.695 8 109715226.305 8         5.605          51.000    20878108.742 7  85492392.341 7         4.368          46.000
R02  19718214.758 8 105220150.659 8     -2247.141          51.000    19718216.914 8  81837919.888 8     -1747.776          50.000
R12  20010705.859 6 106893625.676 6     -2405.562          41.000    20010709.844 5  83139506.857 5     -1870.993          35.000
R13  19654567.109 6 104954291.352 6      1597.578          40.000    19654569.164 7  81631083.272 7      1242.558          44.000
C05  39787162.992 5 207182197.961 5        19.375          35.000    39787162.133 6 160206402.953 6        14.897          40.000
C23  23059278.438 8 120075742.661 8      1986.527          51.000
C24  25419736.094 5 132367237.834 5     -2898.348          30.000
C25  21875172.594 8 113909818.133 8      -793.070          51.000
E02  25658229.961 8 134834893.012 8      2688.293          48.000    25658234.844 8 103315112.896 8      2059.870          51.000
E03  23352767.656 8 122719625.269 8       133.469          51.000    23352768.578 8  94031926.224 8       102.295          51.000
E05  25350065.688 8 133215467.368 8     -2246.137          51.000    25350067.969 8 102074220.178 8     -1721.078          51.000
E25  23491522.898 8 123448856.367 8       387.219          51.000    23491525.086 8  94590666.043 8       296.682          51.000
> 2020 05 09 04 37 30.0000000  0 13        .000000000000
G05  22205239.906 8 116689315.913 8     -2997.660          49.000    22205239.547 8  90926736.758 8     -2335.839          50.000
G13  20259266.992 7 106463164.076 7       712.316          46.000    20259265.305 7  82958291.327 7       555.049          42.000
G28  20878198.078 8 109715685.618 8       -23.621          51.000    20878195.961 7  85492750.251 7       -18.406          45.000
R02  19730972.531 8 105288227.603 8     -2278.621          51.000    19730974.430 8  81890868.580 8     -1772.264          50.000
R12  20024321.055 6 106966355.504 6     -2430.590          41.000    20024325.266 5  83196074.515 5     -1890.459          35.000
R13  19645712.609 6 104907009.601 6      1567.324          39.000    19645714.039 7  81594308.554 7      1219.027          43.000
C05                                                                  39787115.758 6 160206216.104 6         7.071          39.000
C23  23047927.812 8 120016634.504 8      1966.418          51.000
C25  21879839.070 8 113934117.060 8      -814.457          51.000
E02  25642968.516 8 134754692.121 8      2670.934          50.000    25642973.430 8 103253660.228 8      2046.551          51.000
E03  23352101.172 8 122716123.473 8       112.457          51.000    23352102.273 8  94029243.026 8        86.177          51.000
E05  25362974.906 8 133283303.464 8     -2263.895          51.000    25362976.477 8 102126198.451 8     -1734.637          51.000
E25  23489415.016 8 123437778.924 8       363.793          51.000    23489417.227 8  94582178.118 8       278.735          51.000
> 2020 05 09 04 38  0.0000000  0 13        .000000000000
G05  22222351.422 8 116779237.535 8     -3002.535          51.000    22222350.508 8  90996805.550 8     -2339.638          51.000
G13  20255204.133 7 106441814.640 7       705.547          46.000    20255202.562 7  82941655.397 7       549.777          43.000
G28  20878353.914 8 109716504.798 8       -36.258          51.000    20878351.422 7  85493388.583 7       -28.253          45.000
R02  19743809.094 8 105356726.359 8     -2293.301          51.000    19743810.930 8  81944145.355 8     -1783.678          50.000
R12  20037978.141 6 107039309.615 6     -2438.461          41.000    20037982.000 5  83252816.565 5     -1896.584          34.000
R13  19636930.148 6 104860114.808 6      1553.945          38.000    19636931.883 7  81557834.846 7      1208.624          43.000
C05  39787031.977 5 207181516.130 5        15.031          35.000    39787031.234 6 160205875.679 6        11.771          39.000
C23  23036594.531 8 119957617.985 8      1962.809          51.000
C25  21884529.859 8 113958543.705 8      -819.273          51.000
E02  25627708.414 8 134674497.211 8      2670.137          51.000    25627712.781 8 103192212.154 8      2045.895          51.000
E03  23351456.812 8 122712738.670 8       107.867          51.000    23351458.234 8  94026649.467 8        82.648          51.000
E05  25375886.312 8 133351155.456 8     -2264.836          49.000    25375887.977 8 102178188.942 8     -1735.466          51.000
E25  23487341.742 8 123426883.691 8       357.246          51.000    23487344.070 8  94573829.811 8       273.707          51.000
> 2020 05 09 04 38 30.0000000  0 13        .000000000000
G05  22239530.555 8 116869511.734 8     -3014.418          51.000    22239528.375 8  91067149.037 8     -2348.900          51.000
G13  20251218.031 7 106420868.194 7       692.113          46.000    20251216.547 7  82925333.471 7       539.309          45.000
G28  20878620.406 8 109717905.570 8       -55.777          51.000    20878617.766 7  85494480.118 7       -43.463          45.000
R02  19756766.430 8 105425870.815 8     -2315.000          51.000    19756768.531 8  81997924.372 8     -1800.556          50.000
R12  20051718.906 7 107112711.297 7     -2453.586          43.000    20051723.062 6  83309906.737 6     -1908.345          36.000
R13  19628263.109 6 104813833.326 6      1533.023          40.000    19628265.562 7  81521838.140 7      1192.352          44.000
C05  39786951.523 5 207181096.526 5        14.398          35.000    39786950.883 6 160205551.977 6        10.789          40.000
C23  23025320.477 8 119898913.714 8      1952.133          51.000
C25  21889287.570 8 113983317.223 8      -830.973          51.000
E02  25612491.969 8 134594531.567 8      2662.211          51.000    25612495.367 8 103130939.748 8      2039.828          51.000
E03  23350877.109 8 122709693.852 8        96.316          51.000    23350879.023 8  94024316.408 8        73.774          51.000
E05  25388842.164 7 133419245.099 7     -2273.195          46.000    25388844.875 8 102230361.528 8     -1741.760          51.000
E25  23485345.188 8 123416392.559 8       343.426          51.000    23485347.711 8  94565791.149 8       263.138          51.000
> 2020 05 09 04 39  0.0000000  0 14        .000000000000
G05  22256735.352 8 116959920.475 8     -3023.527          51.000    22256732.398 8  91137597.367 8     -2355.998          51.000
G13  20247267.961 7 106400110.879 7       680.992          46.000    20247266.695 7  82909158.923 7       530.643          45.000
G28  20878956.602 8 109719672.437 8       -72.605          51.000    20878953.648 7  85495856.904 7       -56.576          45.000
R02  19769803.031 8 105495440.684 8     -2333.797          51.000    19769805.953 8  82052034.278 8     -1815.175          50.000
R12  20065502.836 7 107186338.530 7     -2465.750          42.000    20065506.719 6  83367172.284 6     -1917.809          36.000
R13  19619670.445 6 104767947.204 6      1515.402          39.000    19619673.125 7  81486148.896 7      1178.643          45.000
C05  39786834.391 5 207180486.580 5        15.398          35.000    39786833.766 6 160205080.249 6        12.418          39.000
C23  23014066.125 8 119840309.045 8      1944.223          51.000
C25  21894070.766 8 114008223.415 8      -840.023          51.000
E02  25597278.328 8 134514581.224 8      2657.129          51.000    25597280.461 8 103069679.080 8      2035.979          51.000
E03  23350321.367 8 122706774.685 8        87.660          51.000    23350323.906 8  94022079.634 8        67.150          51.000
E05  25401802.859 8 133487356.861 8     -2278.430          48.000    25401805.844 8 102282551.046 8     -1745.834          51.000
E24  23876381.570 6 125471219.843 6     -2268.695          36.000    23876392.000 5  96140324.829 5     -1738.417          32.000
E25  23483384.719 8 123406090.149 8       332.684          51.000    23483387.258 8  94557897.079 8       254.937          51.000
> 2020 05 09 04 39 30.0000000  0 15        .000000000000
G05  22274039.656 8 117050852.585 8     -3035.652          51.000    22274036.594 8  91208453.519 8     -2365.446          51.000
G13  20243428.492 7 106379934.165 7       667.156          45.000    20243427.328 7  82893436.791 7       519.862          46.000
G28  20879436.617 8 109722195.570 8       -92.633          50.000    20879434.109 7  85497823.004 7       -72.181          47.000
R02  19782993.883 8 105565832.242 8     -2355.770          51.000    19782997.242 8  82106783.264 8     -1832.265          49.000
R12  20079401.469 6 107260584.907 6     -2480.926          41.000    20079405.102 5  83424919.529 5     -1929.609          35.000
R13  19611225.891 6 104722853.654 6      1494.027          40.000    19611229.070 7  81451076.135 7      1162.021          45.000
C05  39786754.875 5 207180073.269 5        14.492          35.000    39786754.219 6 160204759.892 6        11.436          39.000
C23  23002905.664 8 119782191.417 8      1933.168          51.000
C24  25503521.375 5 132803525.427 5     -2913.258          30.000
C25  21898953.336 8 114033648.191 8      -852.023          51.000
E02  25582141.867 8 134435037.820 8      2648.820          51.000    25582142.695 8 103008730.244 8      2029.631          51.000
E03  23349864.195 8 122704372.554 8        75.562          51.000    23349867.016 8  94020239.018 8        57.925          51.000
E05  25414842.727 8 133555880.889 8     -2286.820          51.000    25414845.617 8 102335056.419 8     -1752.206          51.000
E24  23889365.062 5 125539443.818 5     -2276.344          35.000    23889377.859 5  96192618.337 5     -1744.678          32.000
E25  23481534.516 8 123396366.707 8       318.590          51.000    23481536.984 8  94550446.646 8       244.105          51.000
> 2020 05 09 04 40  0.0000000  0 15        .000000000000
G05  22291400.672 8 117142083.929 8     -3047.090          51.000    22291397.820 8  91279542.854 8     -2374.356          51.000
G13  20239657.750 7 106360118.558 7       653.238          47.000    20239656.781 7  82877996.042 7       509.017          46.000
G28  20880018.414 8 109725253.603 8      -111.898          50.000    20880016.359 7  85500205.906 7       -87.194          47.000
R02  19796296.367 8 105636818.174 8     -2377.234          51.000    19796299.766 7  82161994.520 7     -1848.963          47.000
R12  20093374.156 7 107335223.471 7     -2495.637          43.000    20093377.266 6  83482971.677 6     -1941.054          36.000
R13  19602888.062 6 104678328.120 6      1473.465          40.000    19602891.195 7  81416445.155 7      1146.028          45.000
C05  39786670.984 5 207179635.737 5        14.469          35.000    39786670.336 6 160204421.558 6        10.675          40.000
C23  22991796.539 8 119724342.393 8      1922.805          51.000
C24  25520308.828 5 132890931.933 5     -2915.203          31.000
C25  21903893.406 8 114059371.635 8      -863.617          51.000
E02  25567040.477 8 134355681.578 8      2640.949          49.000    25567040.492 8 102947924.820 8      2023.570          50.000
E03  23349463.586 8 122702267.296 8        64.008          51.000    23349466.391 8  94018625.889 8        49.045          51.000
E05  25427919.305 8 133624595.730 8     -2294.816          51.000    25427921.703 8 102387708.009 8     -1758.342          51.000
E24                                                                  23902397.070 5  96245047.688 5     -1750.072          30.000
E25  23479752.391 8 123387001.020 8       305.117          51.000    23479754.875 8  94543270.334 8       233.767          51.000
> 2020 05 09 04 40 30.0000000  0 14        .000000000000
G05  22308849.180 8 117233776.392 8     -3045.934          51.000    22308846.859 8  91350991.514 8     -2373.455          50.000
G13  20235987.344 8 106340829.532 8       652.352          48.000    20235986.523 7  82862965.616 7       508.326          47.000
G28  20880733.320 8 109729010.748 8      -118.711          50.000    20880731.156 7  85503133.522 7       -92.502          47.000
R02  19809741.547 8 105708564.907 8     -2385.691          51.000    19809743.961 7  82217797.494 7     -1855.541          44.000
R12  20107451.031 6 107410417.707 6     -2497.121          39.000    20107453.461 6  83541456.070 6     -1942.205          36.000
R13  19594687.508 6 104634538.019 6      1465.652          38.000    19594690.664 7  81382386.194 7      1139.955          45.000
C05  39786613.805 5 207179337.995 5        25.496          35.000    39786613.180 6 160204191.260 6        19.981          39.000
C23  22980769.891 8 119666925.187 8      1924.637          51.000
C24  25537132.688 5 132978528.423 5     -2904.938          33.000
C25  21908921.766 8 114085555.383 8      -862.484          51.000
E02  25552005.133 7 134276677.796 7      2645.934          47.000    25552005.656 8 102887389.440 8      2027.314          50.000
E03  23349150.828 8 122700623.940 8        65.406          51.000    23349153.484 8  94017366.687 8        50.078          51.000
E05  25441063.406 8 133693665.168 8     -2290.070          51.000    25441065.078 8 102440631.300 8     -1754.702          51.000
E25  23478069.461 8 123378156.962 8       304.297          51.000    23478072.180 8  94536493.722 8       233.169          51.000
> 2020 05 09 04 41  0.0000000  0 14        .000000000000
G05  22326306.117 8 117325514.871 8     -3068.199          49.000    22326304.695 8  91422476.031 8     -2390.805          49.000
G13  20232338.938 8 106321655.837 8       627.680          48.000    20232338.086 7  82848025.069 7       489.101          47.000
G28  20881502.703 8 109733054.031 8      -149.090          50.000    20881500.914 8  85506284.146 8      -116.174          49.000
R02  19823250.695 8 105780651.451 8     -2418.152          51.000    19823251.945 7  82273864.707 7     -1880.788          44.000
R12  20121552.141 6 107485745.370 6     -2522.891          39.000    20121553.492 5  83600044.322 5     -1962.248          35.000
R13  19586546.094 6 104591065.054 6      1434.246          38.000    19586549.758 7  81348573.914 7      1115.525          45.000
C05  39786505.023 5 207178771.573 5        14.090          35.000    39786504.477 6 160203753.261 6        10.877          40.000
C23  22969747.609 8 119609531.837 8      1903.246          51.000
C24  25553912.625 5 133065905.292 5     -2918.637          32.000
C25  21913959.758 8 114111789.983 8      -884.789          51.000
E02  25536958.750 7 134197615.441 7      2626.848          47.000    25536960.289 8 102826809.155 8      2012.788          50.000
E03  23348847.758 8 122699031.121 8        42.703          51.000    23348850.117 8  94016146.201 8        32.721          51.000
E05  25454196.141 8 133762676.534 8     -2308.965          51.000    25454197.719 8 102493510.080 8     -1769.144          51.000
E25  23476407.398 8 123369422.107 8       279.801          51.000    23476410.125 8  94529800.782 8       214.384          51.000
> 2020 05 09 04 41 30.0000000  0 14        .000000000000
G05  22343859.688 8 117417762.143 8     -3073.246          49.000    22343859.344 8  91494356.994 8     -2394.737          49.000
G13  20228801.227 8 106303064.656 8       620.184          49.000    20228800.125 7  82833538.430 7       483.260          47.000
G28  20882415.297 8 109737848.930 8      -162.137          51.000    20882413.398 8  85510020.415 8      -126.343          49.000
R02  19836911.992 8 105853549.678 8     -2433.086          50.000    19836913.422 7  82330563.288 7     -1892.400          47.000
R12  20135767.062 6 107561677.285 6     -2530.672          41.000    20135768.406 6  83659102.433 6     -1968.300          38.000
R13  19578552.461 6 104548382.322 6      1420.047          38.000    19578556.328 7  81315376.222 7      1104.478          44.000
C05                                                                  39786432.789 6 160203464.521 6        14.885          40.000
C23  22958819.016 8 119552624.262 8      1898.871          51.000
C24  25570737.930 4 133153541.899 4     -2913.930          29.000
C25  21919095.891 8 114138535.853 8      -889.898          51.000
E02  25521991.492 8 134118961.249 8      2625.258          50.000    25521993.102 8 102766541.655 8      2011.453          50.000
E03  23348643.102 8 122697955.309 8        37.559          51.000    23348645.227 8  94015321.873 8        28.779          51.000
E05  25467405.930 8 133832095.093 8     -2310.441          51.000    25467407.406 8 102546700.882 8     -1770.395          51.000
E25  23474854.633 8 123361261.859 8       272.625          51.000    23474857.211 8  94523548.110 8       208.927          51.000
> 2020 05 09 04 42  0.0000000  0 16        .000000000000
G05  22361458.305 8 117510246.102 8     -3097.359          49.000    22361458.633 8  91566422.399 8     -2413.530          49.000
G13  20225323.117 8 106284787.250 8       593.387          49.000    20225321.633 7  82819296.303 7       462.379          46.000
G28  20883419.430 8 109743125.063 8      -194.605          51.000    20883417.469 8  85514131.675 8      -151.641          50.000
G30  21999144.141 5 115606282.683 5     -2373.977          35.000
R02  19850673.469 8 105926983.536 8     -2467.543          51.000    19850675.562 8  82387678.526 8     -1919.197          49.000
R12  20150042.906 6 107637935.602 6     -2558.289          41.000    20150046.141 6  83718414.500 6     -1989.777          40.000
R13  19570655.953 6 104506216.167 6      1385.992          38.000    19570659.406 7  81282580.352 7      1077.994          44.000
R14  23254387.609 6 123958969.846 6      3791.449          38.000    23254392.281 6  96412547.585 6      2948.905          37.000
C05  39786347.469 5 207177951.312 5         5.598          35.000    39786346.742 6 160203118.185 6         4.331          39.000
C23  22947932.570 8 119495935.369 8      1875.477          51.000
C24  25587557.414 4 133241125.777 4     -2930.664          28.000
C25  21924278.812 8 114165524.446 8      -914.230          51.000
E02  25507051.391 8 134040446.370 8      2604.020          51.000    25507052.516 8 102706380.929 8      1995.348          49.000
E03  23348485.633 8 122697127.392 8        12.711          51.000    23348487.750 8  94014687.479 8         9.728          51.000
E05  25480641.352 8 133901650.437 8     -2331.637          51.000    25480643.125 8 102599996.500 8     -1786.546          51.000
E25  23473359.570 8 123353405.911 8       246.043          51.000    23473362.406 8  94517528.630 8       188.496          51.000
> 2020 05 09 04 42 30.0000000  0 15        .000000000000
G05  22379148.922 8 117603212.088 8     -3095.879          51.000    22379149.062 8  91638863.373 8     -2412.373          50.000
G13  20221952.156 8 106267073.182 8       591.918          48.000    20221950.531 8  82805493.130 8       461.235          48.000
G28  20884562.180 8 109749130.213 8      -201.375          51.000    20884560.633 8  85518811.009 8      -156.916          50.000
G30  22012669.766 6 115677351.031 6     -2368.957          38.000    22012671.336 6  90138208.145 6     -1845.941          37.000
R02  19864582.281 8 106001203.630 8     -2476.016          51.000    19864585.078 8  82445405.304 8     -1925.787          50.000
R12  20164426.750 6 107714769.868 6     -2559.691          40.000    20164429.930 6  83778174.505 6     -1990.871          38.000
R13  19562903.586 6 104464819.065 6      1378.215          38.000    19562906.992 7  81250382.612 7      1071.945          45.000
R14  23233048.672 6 123845224.867 6      3795.961          39.000    23233051.492 6  96324079.246 6      2952.411          36.000
C05                                                                  39786293.773 6 160202904.709 6        13.478          39.000
C23  22937135.477 8 119439711.802 8      1877.172          51.000
C25  21929555.422 8 114193000.848 8      -913.121          51.000
E02  25492185.273 8 133962320.314 8      2608.660          51.000    25492185.672 8 102646518.141 8      1998.841          50.000
E03  23348422.727 8 122696796.504 8        13.754          51.000    23348424.859 8  94014433.930 8        10.506          51.000
E05  25493950.023 8 133971590.436 8     -2326.828          50.000    25493952.055 8 102653586.879 8     -1782.846          51.000
E25  23471969.875 8 123346102.310 8       245.254          51.000    23471972.602 8  94511932.366 8       187.895          51.000
> 2020 05 09 04 43  0.0000000  0 14        .000000000000
G05  22396861.641 8 117696292.509 8     -3108.898          51.000    22396861.094 8  91711393.502 8     -2422.518          51.000
G13  20218619.164 8 106249558.321 8       576.141          50.000    20218617.484 7  82791845.178 7       448.941          47.000
G28  20885774.086 8 109755498.877 8      -222.641          51.000    20885772.664 8  85523773.591 8      -173.486          50.000
R02  19878568.602 8 106075837.502 8     -2499.129          51.000    19878571.844 8  82503453.915 8     -1943.767          51.000
R12  20178848.383 7 107791806.105 7     -2575.672          42.000    20178849.594 6  83838091.497 6     -2003.303          39.000
R13  19555225.984 6 104423820.168 6      1355.785          39.000    19555229.266 7  81218494.561 7      1054.500          45.000
R14  23211715.922 7 123731507.338 7      3785.770          42.000    23211716.805 6  96235632.246 6      2944.490          37.000
C05                                                                  39786204.367 6 160202544.591 6        11.173          40.000
C23  22926358.234 8 119383592.367 8      1864.672          51.000
C25  21934855.953 8 114220602.350 8      -926.438          51.000
E02  25477323.523 8 133884219.249 8      2598.707          51.000    25477323.477 8 102586674.481 8      1991.211          51.000
E03  23348385.156 8 122696598.465 8          .125          51.000    23348387.117 8  94014282.173 8          .147          51.000
E05  25507262.352 8 134041549.681 8     -2336.375          50.000    25507264.812 8 102707192.005 8     -1790.275          51.000
E25  23470615.703 8 123338985.814 8       229.793          51.000    23470618.016 8  94506479.453 8       176.108          51.000
> 2020 05 09 04 43 30.0000000  0 15        .000000000000
G05  22414634.227 8 117789687.214 8     -3118.871          50.000    22414633.211 8  91784168.530 8     -2430.289          51.000
G13  20215362.688 8 106232445.767 8       563.258          49.000    20215360.875 8  82778510.730 8       438.902          48.000
G28  20887093.383 8 109762432.255 8      -240.961          51.000    20887091.906 8  85529176.209 8      -187.762          50.000
G30  22039807.375 5 115819959.320 5     -2383.988          34.000    22039810.266 5  90249335.444 5     -1857.653          34.000
R02  19892670.539 8 106151088.977 8     -2519.184          51.000    19892674.164 8  82561982.799 8     -1959.365          49.000
R12  20193345.258 6 107869246.146 6     -2588.453          40.000    20193347.320 6  83898322.628 6     -2013.238          40.000
R13  19547661.602 6 104383424.924 6      1336.180          38.000    19547663.898 7  81187075.993 7      1039.251          45.000
R14  23190427.445 7 123618023.744 7      3778.340          42.000    23190427.695 6  96147367.219 6      2938.709          38.000
C05                                                                  39786116.891 6 160202192.417 6        11.267          39.000
C23  22915639.484 8 119327777.338 8      1854.926          51.000
C25  21940218.688 8 114248527.756 8      -936.746          51.000
E02  25462504.648 8 133806345.879 8      2591.418          51.000    25462504.883 8 102527005.287 8      1985.689          51.000
E03  23348411.375 8 122696735.715 8       -10.641          51.000    23348413.102 8  94014387.340 8        -8.213          51.000
E05  25520616.539 8 134111729.394 8     -2343.531          48.000    25520619.633 8 102760966.041 8     -1795.660          51.000
E25  23469335.375 8 123332257.655 8       217.348          51.000    23469337.602 8  94501324.116 8       166.536          51.000
> 2020 05 09 04 44  0.0000000  0 15        .000000000000
G05  22432464.992 8 117883389.123 8     -3127.930          48.000    22432464.273 8  91857182.963 8     -2437.351          48.000
G13  20212182.211 8 106215732.927 8       550.965          49.000    20212180.477 8  82765487.724 8       429.323          48.000
G28  20888519.531 8 109769926.154 8      -258.523          51.000    20888518.047 8  85535015.592 8      -201.447          50.000
G30  22053432.688 5 115891569.709 5     -2389.098          35.000    22053433.258 6  90305121.107 6     -1861.641          36.000
R02  19906887.453 8 106226951.880 8     -2538.262          51.000    19906890.211 7  82620987.235 7     -1974.204          46.000
R12  20207916.383 6 107947083.106 6     -2600.598          41.000    20207918.656 6  83958862.490 6     -2022.690          39.000
R13  19540209.406 6 104343629.694 6      1317.078          39.000    19540211.406 7  81156124.168 7      1024.394          45.000
R14  23169182.531 7 123504772.311 7      3771.855          43.000    23169182.789 6  96059282.793 6      2933.665          39.000
C05  39786031.336 5 207176305.380 5        15.152          34.000    39786030.734 6 160201845.367 6        11.856          39.000
C23  22904978.852 8 119272263.359 8      1846.043          51.000
C25  21945642.836 8 114276772.238 8      -946.188          51.000
E02  25447728.391 8 133728697.513 8      2585.188          51.000    25447729.336 8 102467508.497 8      1980.831          51.000
E03  23348500.711 8 122697205.245 8       -20.512          51.000    23348502.352 8  94014747.104 8       -15.753          51.000
E05  25534011.109 7 134182125.259 7     -2349.629          45.000    25534015.547 8 102814905.738 8     -1800.248          51.000
E25  23468128.320 8 123325913.770 8       205.633          51.000    23468130.547 8  94496463.215 8       157.587          51.000
> 2020 05 09 04 44 30.0000000  0 14        .000000000000
G05  22450354.172 7 117977401.625 7     -3138.438          44.000    22450354.602 7  91930439.450 7     -2445.536          45.000
G13  20209079.258 8 106199427.204 8       536.973          50.000    20209077.766 8  82752781.958 8       418.420          49.000
G28  20890053.359 8 109777986.375 8      -277.797          51.000    20890051.961 8  85541296.284 8      -216.465          50.000
R02  19921220.203 8 106303430.918 8     -2559.152          51.000    19921221.883 7  82680470.874 7     -1990.455          47.000
R12  20222562.289 6 108025320.562 6     -2614.074          41.000    20222564.375 6  84019713.816 6     -2033.169          39.000
R13  19532870.578 6 104304439.835 6      1296.449          39.000    19532872.328 7  81125643.146 7      1008.349          45.000
R14  23147982.789 7 123391761.260 7      3763.383          43.000    23147983.305 6  95971385.299 6      2927.072          40.000
C05  39785947.547 5 207175869.490 5        14.703          34.000    39785947.070 6 160201508.314 6        11.218          40.000
C23  22894377.219 8 119217057.089 8      1835.375          51.000
C25  21951129.219 8 114305340.955 8      -957.387          51.000
E02  25432996.312 8 133651281.495 8      2576.961          51.000    25432997.883 8 102408189.719 8      1974.572          51.000
E03  23348654.547 8 122698014.071 8       -32.340          51.000    23348656.141 8  94015366.848 8       -24.789          51.000
E05  25547448.266 7 134252743.044 7     -2357.348          45.000    25547454.516 8 102869015.499 8     -1806.240          51.000
E25  23466995.406 8 123319960.002 8       192.410          51.000    23466997.609 8  94491901.237 8       147.392          51.000
> 2020 05 09 04 45  0.0000000  0 14        .000000000000
G05  22468295.039 7 118071687.941 7     -3148.652          44.000    22468296.891 7  92003909.356 7     -2453.495          44.000
G13  20206047.570 8 106183495.422 8       523.449          50.000    20206046.227 8  82740367.573 8       407.883          49.000
G28  20891688.289 8 109786577.930 8      -296.473          51.000    20891686.844 8  85547991.006 8      -231.018          49.000
R02  19935661.703 8 106380489.384 8     -2579.582          51.000    19935662.922 8  82740405.190 8     -2006.345          49.000
R12  20237276.445 7 108103920.433 7     -2627.312          42.000    20237278.750 6  84080847.035 6     -2043.465          38.000
R13  19525638.477 6 104265821.828 6      1276.938          39.000    19525640.719 7  81095606.892 7       993.174          45.000
R14  23126822.102 6 123278957.891 6      3755.430          41.000    23126822.805 6  95883649.311 6      2920.890          40.000
C05  39785859.859 5 207175412.848 5        14.344          35.000    39785859.336 6 160201155.172 6        11.004          39.000
C23  22883828.117 8 119162124.991 8      1825.242          51.000
C25  21956670.867 8 114334198.901 8      -968.020          51.000
E02  25418302.086 8 133574064.625 8      2569.223          51.000    25418303.961 8 102349023.536 8      1968.646          51.000
E03  23348866.625 8 122699128.688 8       -43.551          51.000    23348868.172 8  94016220.893 8       -33.319          51.000
E05  25560922.750 8 134323548.081 8     -2364.570          49.000    25560929.258 8 102923268.699 8     -1811.805          51.000
E25  23465930.156 8 123314361.760 8       179.316          51.000    23465932.320 8  94487611.675 8       137.362          51.000
> 2020 05 09 04 45 30.0000000  0 15        .000000000000
G05  22486293.859 7 118166274.077 7     -3157.641          45.000    22486296.039 7  92077612.852 7     -2460.499          46.000
G13  20203092.797 8 106167967.570 8       511.008          50.000    20203091.453 8  82728267.937 8       398.188          49.000
G28  20893429.633 8 109795728.958 8      -314.098          51.000    20893428.312 8  85555121.671 8      -244.751          49.000
G30  22094520.344 5 116107501.403 5     -2408.141          34.000
R02  19950216.586 8 106458154.990 8     -2598.766          51.000    19950217.898 8  82800811.744 8     -2021.265          50.000
R12  20252063.164 6 108182908.848 6     -2639.191          39.000    20252065.203 6  84142282.464 6     -2052.704          36.000
R13  19518519.008 6 104227804.859 6      1257.215          40.000    19518521.719 7  81066038.151 7       977.834          45.000
R14  23105706.086 6 123166393.353 6      3748.352          41.000    23105707.023 6  95796099.064 6      2915.378          39.000
C05  39785773.570 5 207174962.964 5        14.863          35.000    39785773.109 6 160200808.042 6        11.587          39.000
C23  22873337.125 8 119107495.998 8      1816.105          51.000
C25  21962273.484 8 114363373.532 8      -977.543          51.000
E02  25403651.594 8 133497076.762 8      2562.566          51.000    25403653.234 8 102290032.833 8      1963.522          51.000
E03  23349142.555 8 122700578.652 8       -53.711          51.000    23349143.898 8  94017331.902 8       -41.176          51.000
E05  25574438.836 8 134394568.654 8     -2370.828          50.000    25574444.500 8 102977687.036 8     -1816.579          51.000
E25  23464937.984 8 123309147.402 8       167.727          51.000    23464939.992 8  94483616.256 8       128.458          51.000
> 2020 05 09 04 46  0.0000000  0 15        .000000000000
G05  22504347.594 8 118261144.533 8     -3166.660          48.000    22504348.953 8  92151537.883 8     -2467.527          48.000
G13  20200212.539 8 106152831.518 8       498.328          51.000    20200211.258 8  82716473.597 8       388.308          50.000
G28  20895274.750 8 109805425.633 8      -332.059          51.000    20895273.391 8  85562677.518 8      -258.747          48.000
G30  22108286.188 5 116179827.644 5     -2414.387          31.000
R02  19964881.789 8 106536412.244 8     -2618.098          51.000    19964883.781 8  82861678.493 8     -2036.298          51.000
R12  20266919.359 7 108262269.554 7     -2651.094          43.000    20266921.234 6  84204007.391 6     -2061.965          37.000
R13  19511509.656 6 104190375.571 6      1238.266          39.000    19511512.508 7  81036926.486 7       963.095          44.000
R14  23084631.914 6 123054056.250 6      3741.125          39.000    23084633.188 6  95708725.737 6      2909.761          37.000
C05  39785686.336 5 207174508.838 5        15.875          35.000    39785685.992 6 160200456.897 6        11.934          39.000
C23  22862901.602 8 119053157.414 8      1806.797          51.000
C25  21967934.281 8 114392850.724 8      -987.340          51.000
E02  25389042.641 8 133420305.705 8      2555.828          51.000    25389043.570 8 102231208.263 8      1958.347          51.000
E03  23349479.867 8 122702351.487 8       -64.199          51.000    23349480.898 8  94018690.293 8       -49.123          51.000
E05  25587992.969 8 134465791.042 8     -2377.148          51.000    25587998.188 8 103032259.973 8     -1821.418          51.000
E25  23464016.312 8 123304303.358 8       155.629          51.000    23464017.969 8  94479904.582 8       119.215          51.000
> 2020 05 09 04 46 30.0000000  0 14        .000000000000
G05  22522452.586 8 118356282.229 8     -3177.238          49.000    22522452.367 8  92225671.129 8     -2475.773          49.000
G13  20197404.500 8 106138074.781 8       483.930          51.000    20197403.180 8  82704974.837 8       377.088          50.000
G28  20897221.008 8 109815653.576 8      -351.348          51.000    20897219.375 8  85570647.340 8      -273.777          48.000
R02  19979654.484 8 106615245.488 8     -2638.984          51.000    19979657.414 8  82922993.251 8     -2052.543          50.000
R12  20281842.773 6 108341985.359 6     -2664.602          39.000    20281846.141 6  84266008.536 6     -2072.465          39.000
R13  19504607.469 6 104153519.707 6      1217.234          40.000    19504610.898 7  81008260.824 7       946.738          45.000
R14  23063596.555 6 122941934.424 6      3732.328          39.000    23063598.227 5  95621519.806 5      2902.919          35.000
C05                                                                  39785595.156 6 160200091.245 6        11.001          39.000
C23  22852519.094 8 118999096.022 8      1795.785          51.000
C25  21973650.141 8 114422615.697 8      -998.551          51.000
E02  25374472.773 8 133343738.774 8      2547.141          51.000    25374472.828 8 102172540.097 8      1951.735          51.000
E03  23349876.016 8 122704434.113 8       -76.277          51.000    23349877.141 8  94020286.057 8       -58.452          51.000
E05  25601582.805 8 134537200.880 8     -2385.047          51.000    25601587.391 8 103086976.568 8     -1827.509          51.000
E25  23463162.281 8 123299815.398 8       142.039          51.000    23463163.914 8  94476465.761 8       108.856          51.000
> 2020 05 09 04 47  0.0000000  0 14        .000000000000
G05  22540618.312 8 118451739.004 8     -3185.125          50.000    22540616.234 8  92300052.975 8     -2481.916          51.000
G13  20194679.133 8 106123752.556 8       472.215          51.000    20194677.711 8  82693814.660 8       367.960          51.000
G28  20899278.523 8 109826466.525 8      -368.121          51.000    20899276.953 8  85579073.034 8      -286.848          48.000
R02  19994545.430 8 106694708.018 8     -2657.238          51.000    19994548.633 8  82984797.469 8     -2066.738          50.000
R12  20296841.562 6 108422108.348 6     -2675.570          40.000    20296846.383 6  84328326.445 6     -2080.999          39.000
R13  19497823.219 6 104117292.341 6      1199.023          40.000    19497826.961 7  80980083.998 7       932.574          45.000
R14  23042612.297 6 122830084.864 6      3725.602          40.000    23042613.164 5  95534525.661 5      2897.690          35.000
C05  39785511.461 5 207173598.307 5        16.199          34.000    39785511.164 6 160199752.766 6        12.378          39.000
C23  22842200.820 8 118945365.902 8      1787.484          51.000
C25  21979431.477 8 114452721.170 8     -1007.238          51.000
E02  25359952.078 8 133267431.222 8      2541.223          50.000    25359951.945 8 102114070.668 8      1947.207          51.000
E03  23350341.562 8 122706881.520 8       -85.656          51.000    23350342.852 8  94022161.334 8       -65.633          51.000
E05  25615218.625 8 134608851.924 8     -2390.398          51.000    25615222.664 8 103141878.001 8     -1831.652          51.000
E25  23462386.109 8 123295737.368 8       131.098          51.000    23462387.812 8  94473341.044 8       100.416          51.000
> 2020 05 09 04 47 30.0000000  0 14        .000000000000
G05  22558831.164 8 118547443.679 8     -3194.641          51.000    22558827.438 8  92374627.987 8     -2489.330          51.000
G13  20192023.516 8 106109796.970 8       458.613          51.000    20192022.094 8  82682940.175 8       357.361          51.000
G28  20901434.195 8 109837794.229 8      -386.570          51.000    20901432.539 8  85587899.821 8      -301.224          48.000
R02  20009540.969 8 106774727.710 8     -2677.047          51.000    20009544.305 8  83047035.011 8     -2082.148          49.000
R12  20311903.672 6 108502565.541 6     -2687.785          39.000    20311907.742 6  84390904.227 6     -2090.497          41.000
R13  19491143.586 6 104081623.655 6      1179.453          40.000    19491147.352 7  80952341.701 7       917.352          45.000
R14  23021668.000 7 122718439.442 7      3717.648          42.000    23021667.961 6  95447690.380 6      2891.507          37.000
C05                                                                  39785420.750 6 160199388.771 6        12.191          39.000
C23  22831933.289 8 118891899.132 8      1777.418          51.000
C25  21985265.164 8 114483097.720 8     -1017.438          51.000
E02  25345467.344 8 133191315.164 8      2533.691          50.000    25345468.117 8 102055747.955 8      1941.346          51.000
E03  23350863.625 8 122709625.506 8       -96.855          51.000    23350864.820 8  94024263.856 8       -74.184          51.000
E05  25628886.922 8 134680674.664 8     -2397.348          51.000    25628890.359 8 103196910.969 8     -1836.929          50.000
E25  23461674.945 8 123291999.909 8       118.574          51.000    23461676.273 8  94470477.273 8        90.841          51.000
> 2020 05 09 04 48  0.0000000  0 14        .000000000000
G05  22577097.250 8 118643429.083 8     -3203.758          51.000    22577092.953 8  92449421.752 8     -2496.438          51.000
G13  20189444.719 8 106096245.488 8       445.418          51.000    20189443.359 8  82672380.569 8       347.076          51.000
G28  20903694.719 8 109849673.224 8      -404.742          51.000    20903692.875 8  85597156.184 8      -315.384          48.000
R02  20024647.070 8 106855339.361 8     -2696.477          51.000    20024650.852 8  83109732.909 8     -2097.260          49.000
R12  20327033.891 6 108583390.342 6     -2700.070          38.000    20327038.352 6  84453768.004 6     -2100.055          41.000
R13  19484575.680 6 104046550.108 6      1159.742          41.000    19484578.891 7  80925062.294 7       902.022          44.000
R14  23000769.539 7 122607036.582 7      3709.852          42.000    23000770.312 6  95361043.707 6      2885.440          40.000
C05                                                                  39785330.820 6 160199026.887 6        12.155          39.000
C23  22821722.969 8 118838731.808 8      1767.566          51.000
C25  21991157.453 8 114513780.003 8     -1027.496          51.000
E02  25331026.227 8 133115427.651 8      2526.047          50.000    25331028.117 8 101997600.356 8      1935.566          51.000
E03  23351449.148 8 122712702.745 8      -107.762          51.000    23351450.172 8  94026621.742 8       -82.616          51.000
E05  25642594.070 8 134752704.614 8     -2404.012          51.000    25642596.383 8 103252102.716 8     -1842.053          48.000
E25  23461035.242 8 123288638.597 8       106.055          51.000    23461036.516 8  94467901.715 8        81.293          51.000
> 2020 05 09 04 48 30.0000000  0 15        .000000000000
G05  22595389.484 8 118739554.469 8     -3200.688          50.000    22595386.086 8  92524324.614 8     -2494.042          50.000
G13  20186916.727 8 106082960.787 8       444.117          51.000    20186915.297 8  82662028.838 8       346.065          51.000
G28  20906033.594 8 109861963.759 8      -410.691          51.000    20906031.539 8  85606733.218 8      -320.016          49.000
R02  20039837.492 8 106936401.315 8     -2703.645          51.000    20039841.805 8  83172781.036 8     -2102.838          49.000
R12  20342206.297 6 108664439.568 6     -2699.594          38.000    20342210.023 6  84516806.317 6     -2099.684          40.000
R13  19478093.281 7 104011931.628 7      1152.242          42.000    19478095.828 7  80898136.799 7       896.188          45.000
R14  22979890.055 6 122495738.173 6      3714.070          41.000    22979892.523 6  95274478.275 6      2888.718          41.000
C05                                                                  39785215.289 6 160198561.368 6        21.591          40.000
C23  22811543.828 8 118785727.420 8      1769.789          50.000
C25  21997081.758 8 114544630.051 8     -1025.363          51.000
E02  25316602.938 8 133039631.524 8      2530.691          51.000    25316605.336 8 101939522.790 8      1939.122          51.000
E03  23352071.852 8 122715975.854 8      -106.637          51.000    23352072.898 8  94029129.706 8       -81.709          51.000
E05  25656313.438 8 134824803.113 8     -2398.715          51.000    25656314.750 8 103307346.951 8     -1837.919          48.000
E24  24129268.227 6 126800114.580 6     -2376.660          37.000
E25  23460440.703 8 123285514.859 8       105.871          51.000    23460442.195 8  94465508.205 8        81.164          51.000
> 2020 05 09 04 49  0.0000000  0 16        .000000000000
G05  22613752.812 8 118836056.690 8     -3223.691          48.000    22613750.953 8  92599521.123 8     -2511.970          48.000
G13  20184485.352 8 106070183.666 8       416.578          51.000    20184483.805 8  82652072.640 8       324.606          51.000
G28  20908496.039 8 109874904.707 8      -442.930          51.000    20908494.031 8  85616817.088 8      -345.140          48.000
G30  22191581.727 5 116617531.102 5     -2450.617          32.000
R02  20055157.703 8 107018153.860 8     -2737.340          50.000    20055162.289 8  83236366.337 8     -2129.042          49.000
R12  20357465.578 6 108745953.652 6     -2725.590          37.000    20357468.734 6  84580206.128 6     -2119.903          39.000
R13  19471741.188 7 103978011.033 7      1118.219          42.000    19471743.867 7  80871754.122 7       869.726          45.000
R14  22959075.750 6 122384789.019 6      3691.672          41.000    22959079.664 6  95188184.528 6      2871.300          40.000
C05  39785119.953 5 207171559.087 5        14.328          35.000    39785119.578 6 160198175.884 6        10.841          39.000
C23  22801441.844 8 118733123.711 8      1746.027          51.000
C25  22003083.734 8 114575884.169 8     -1049.297          51.000
E02  25302243.039 8 132964167.367 8      2509.008          51.000    25302245.320 8 101881699.597 8      1922.507          51.000
E03  23352777.492 8 122719685.096 8      -131.832          51.000    23352778.852 8  94031971.830 8      -100.987          51.000
E05  25670090.867 8 134897209.209 8     -2419.555          49.000    25670092.102 8 103362826.842 8     -1853.885          49.000
E24  24142918.344 6 126871845.750 6     -2396.492          38.000
E25  23459937.039 8 123282867.773 8        79.480          51.000    23459938.516 8  94463479.917 8        60.928          51.000
> 2020 05 09 04 49 30.0000000  0 15        .000000000000
G05  22632175.438 7 118932873.026 7     -3230.598          47.000    22632175.242 7  92674962.413 7     -2517.346          47.000
G13  20182139.422 8 106057855.694 8       405.199          51.000    20182137.812 8  82642466.410 8       315.740          51.000
G28  20911070.898 8 109888436.036 8      -459.078          51.000    20911068.758 8  85627360.955 8      -357.726          48.000
R02  20070595.258 8 107100534.700 8     -2754.656          48.000    20070600.602 8  83300440.326 8     -2142.510          48.000
R12  20372799.906 5 108827869.079 5     -2735.465          35.000    20372803.320 6  84643918.127 6     -2127.587          38.000
R13  19465508.336 7 103944727.617 7      1100.684          42.000    19465510.609 7  80845866.988 7       856.087          44.000
R14  22938316.500 7 122274130.535 7      3685.465          42.000    22938320.805 6  95102116.868 6      2866.479          40.000
C05                                                                  39785032.383 6 160197824.904 6        12.584          39.000
C23  22791405.820 8 118680862.008 8      1738.078          51.000
C25  22009151.773 8 114607482.285 8     -1057.164          51.000
E02  25287935.156 8 132888976.692 8      2503.555          51.000    25287936.641 8 101824085.976 8      1918.305          51.000
E03  23353554.930 8 122723771.581 8      -140.707          51.000    23353556.734 8  94035103.020 8      -107.853          51.000
E05  25683915.688 8 134969862.761 8     -2424.129          49.000    25683917.633 8 103418496.404 8     -1857.494          50.000
E24  24156610.578 6 126943795.373 6     -2400.395          38.000
E25  23459512.523 8 123280637.375 8        69.172          51.000    23459514.117 8  94461770.908 8        52.999          51.000
> 2020 05 09 04 50  0.0000000  0 16        .000000000000
G05  22650644.266 7 119029932.867 7     -3239.348          45.000    22650645.312 7  92750593.472 7     -2524.167          46.000
G13  20179866.141 8 106045909.246 8       391.766          51.000    20179864.414 8  82633157.485 8       305.272          51.000
G28  20913744.906 8 109902487.988 8      -477.113          51.000    20913742.727 8  85638310.514 8      -371.777          49.000
G30  22219620.281 5 116764876.713 5     -2461.129          33.000
R02  20086137.141 8 107183472.606 8     -2773.945          49.000    20086143.125 8  83364947.591 8     -2157.513          48.000
R12  20388196.320 6 108910112.728 6     -2746.820          37.000    20388199.773 6  84707885.385 6     -2136.416          38.000
R13  19459381.547 6 103912012.376 6      1080.820          41.000    19459383.477 7  80820421.781 7       840.638          44.000
R14  22917599.531 6 122163694.933 6      3677.371          41.000    22917603.969 6  95016222.557 6      2860.181          39.000
C05  39784941.133 5 207170627.951 5        16.125          35.000    39784940.672 6 160197455.837 6        12.445          39.000
C23  22781422.430 8 118628874.579 8      1728.281          51.000
C25  22015272.516 8 114639355.227 8     -1067.098          51.000
E02  25273666.297 8 132813991.765 8      2495.953          51.000    25273666.789 8 101766630.020 8      1912.463          50.000
E03  23354391.273 8 122728167.331 8      -151.668          51.000    23354393.281 8  94038471.174 8      -116.240          51.000
E05  25697774.523 8 135042694.535 8     -2430.887          48.000    25697777.727 8 103474302.561 8     -1862.559          51.000
E24  24170330.688 6 127015893.226 6     -2405.758          37.000
E25  23459154.055 8 123278754.445 8        56.875          51.000    23459155.852 8  94460328.140 8        43.621          51.000
> 2020 05 09 04 50 30.0000000  0 16        .000000000000
G05  22669167.133 7 119127273.831 7     -3251.441          46.000    22669168.492 7  92826443.592 7     -2533.591          46.000
G13  20177673.398 8 106034386.303 8       374.859          51.000    20177671.625 8  82624178.558 8       292.098          51.000
G28  20916525.609 8 109917100.407 8      -498.562          51.000    20916523.578 8  85649696.804 8      -388.490          49.000
G30  22233688.977 6 116838818.639 6     -2469.145          36.000
R02  20101791.734 8 107267006.356 8     -2796.555          51.000    20101797.234 8  83429918.260 8     -2175.098          48.000
R12  20403661.367 6 108992723.249 6     -2762.020          38.000    20403666.031 6  84772138.045 6     -2148.234          37.000
R13  19453369.125 7 103879906.305 7      1057.812          42.000    19453371.086 7  80795450.399 7       822.743          45.000
R14  22896931.836 6 122053525.463 6      3665.602          41.000    22896937.445 6  94930535.196 6      2851.023          39.000
C05  39784852.742 5 207170167.876 5        12.984          35.000    39784852.266 6 160197100.076 6         9.992          39.000
C23  22771499.391 8 118577202.190 8      1714.961          51.000
C25  22021453.555 8 114671542.323 8     -1080.230          51.000
E02  25259444.500 8 132739254.332 8      2485.016          51.000    25259444.086 8 101709363.713 8      1904.100          49.000
E03  23355294.484 8 122732913.806 8      -166.176          51.000    23355296.500 8  94042108.067 8      -127.368          51.000
E05  25711674.930 8 135115744.770 8     -2440.738          49.000    25711679.750 8 103530276.094 8     -1870.125          51.000
E24  24184085.227 5 127088225.743 5     -2414.668          33.000
E25  23458869.367 8 123277259.321 8        41.285          51.000    23458871.367 8  94459182.525 8        31.601          51.000
> 2020 05 09 04 51  0.0000000  0 15        .000000000000
G05  22687772.492 7 119225044.595 7     -3259.664          47.000    22687773.406 7  92902628.595 7     -2539.998          47.000
G13  20175590.367 8 106023439.512 8       361.789          51.000    20175588.516 8  82615648.584 8       281.914          51.000
G24  24057686.109 6 126424006.280 6      3155.129          37.000
G28  20919441.680 8 109932424.034 8      -516.207          51.000    20919439.523 8  85661637.285 8      -402.239          49.000
R02  20117587.047 8 107351288.310 8     -2815.238          51.000    20117591.672 7  83495470.857 7     -2189.630          47.000
R12  20419223.469 6 109075851.779 6     -2773.113          36.000    20419227.195 5  84836793.503 5     -2156.869          33.000
R13  19447499.562 7 103848562.361 7      1038.543          42.000    19447501.695 7  80771071.775 7       807.756          45.000
R14  22876342.125 6 121943777.870 6      3657.703          41.000    22876350.539 6  94845175.906 6      2844.877          40.000
C05  39784796.711 5 207169876.211 5        13.301          35.000    39784796.055 6 160196873.765 6        10.348          39.000
C23  22761665.992 8 118525995.311 8      1705.617          51.000
C25  22027723.625 8 114704192.575 8     -1089.586          51.000
E02  25245299.008 8 132664916.939 8      2477.684          51.000    25245297.906 8 101652403.931 8      1898.509          49.000
E03  23356293.414 8 122738163.130 8      -176.930          51.000    23356295.469 8  94046130.259 8      -135.570          51.000
E05  25725646.133 8 135189164.361 8     -2447.027          49.000    25725651.703 8 103586532.672 8     -1874.941          51.000
E25  23458687.258 8 123276302.984 8        29.418          51.000    23458689.555 8  94458449.736 8        22.559          51.000
> 2020 05 09 04 51 30.0000000  0 14        .000000000000
G05  22706357.609 8 119322707.433 8     -3257.918          48.000    22706357.727 8  92978729.479 8     -2538.640          48.000
G13  20173515.273 8 106012534.393 8       358.473          51.000    20173513.359 8  82607151.090 8       279.332          51.000
G24  24039636.359 5 126329161.026 5      3161.531          34.000
G28  20922391.117 8 109947923.194 8      -523.824          51.000    20922388.992 8  85673714.544 8      -408.175          50.000
R02  20133420.203 8 107435771.988 8     -2823.871          51.000    20133423.750 7  83561180.378 7     -2196.344          47.000
R13  19441670.742 7 103817436.705 7      1029.484          42.000    19441673.062 7  80746862.921 7       800.710          45.000
R14  22855730.336 7 121833910.461 7      3660.051          42.000    22855740.852 7  94759723.385 7      2846.703          42.000
C05  39784670.844 5 207169220.403 5        23.230          35.000    39784670.133 6 160196366.624 6        18.664          39.000
C23  22751819.625 8 118474723.580 8      1705.785          50.000
C25  22033980.672 8 114736774.294 8     -1089.160          51.000
E02  25231127.953 8 132590444.986 8      2480.410          51.000    25231126.508 8 101595341.053 8      1900.511          49.000
E03  23357286.281 8 122743380.438 8      -177.578          51.000    23357288.398 8  94050127.933 8      -136.096          51.000
E05  25739585.461 8 135262417.270 8     -2443.258          49.000    25739591.492 8 103642661.502 8     -1872.080          51.000
E25  23458505.609 8 123275349.408 8        27.410          51.000    23458508.242 8  94457719.066 8        20.991          51.000
> 2020 05 09 04 52  0.0000000  0 17        .000000000000
G05  22725024.672 8 119420801.332 8     -3277.730          48.000    22725023.719 8  93055166.242 8     -2554.079          48.000
G13  20171551.367 8 106002213.718 8       333.434          51.000    20171549.336 8  82599109.006 8       259.818          51.000
G24  24021645.195 5 126234605.590 5      3146.211          33.000
G28  20925476.836 8 109964138.686 8      -553.281          51.000    20925474.875 8  85686349.991 8      -431.128          50.000
G30  22276052.766 5 117061459.769 5     -2487.289          35.000
R02  20149393.406 8 107521006.520 8     -2854.410          51.000    20149396.398 7  83627473.901 7     -2220.097          47.000
R12  20450464.484 6 109242692.107 6     -2796.766          38.000    20450438.586 6  84966468.809 6     -2175.265          36.000
R13  19435985.781 7 103787080.243 7       998.125          42.000    19435988.570 7  80723252.340 7       776.319          45.000
R14  22835201.336 7 121724474.894 7      3639.816          45.000    22835211.508 7  94674606.802 7      2830.968          43.000
C05  39784578.391 5 207168739.789 5        12.164          34.000    39784577.688 6 160195994.219 6         9.466          39.000
C23  22742063.562 8 118423924.488 8      1684.566          50.000
C25  22040327.328 8 114769823.550 8     -1110.285          51.000
E02  25217034.516 8 132516381.630 8      2461.133          51.000    25217033.023 8 101538591.217 8      1885.818          50.000
E03  23358376.336 8 122749108.560 8      -200.320          51.000    23358378.656 8  94054516.994 8      -153.450          51.000
E05  25753596.320 8 135336044.984 8     -2461.277          49.000    25753601.938 8 103699077.515 8     -1885.965          51.000
E24  24225530.648 5 127306021.150 5     -2432.117          34.000
E25  23458427.477 8 123274940.177 8         3.840          51.000    23458430.305 8  94457405.488 8         2.951          51.000
> 2020 05 09 04 52 30.0000000  0 16        .000000000000
G05  22743744.352 7 119519173.074 7     -3283.484          47.000    22743741.938 7  93131819.492 7     -2558.559          47.000
G13  20169670.352 8 105992329.058 8       322.359          51.000    20169668.289 8  82591406.664 8       251.189          51.000
G28  20928670.164 8 109980919.402 8      -568.645          51.000    20928668.094 8  85699425.856 8      -443.100          50.000
G30  22290254.391 5 117136077.493 5     -2490.160          34.000    22290249.656 5  91274838.085 5     -1940.388          32.000
R02  20165477.266 8 107606837.211 8     -2870.949          49.000    20165480.516 7  83694231.085 7     -2232.961          46.000
R12  20466184.812 6 109326673.019 6     -2805.422          37.000    20466157.984 5  85031787.178 5     -2181.998          35.000
R13  19430416.453 7 103757339.984 7       981.062          42.000    19430419.078 7  80700121.038 7       763.049          44.000
R14  22814725.664 7 121615321.167 7      3633.918          46.000    22814734.180 7  94589709.491 7      2826.384          44.000
C05  39784490.898 5 207168283.782 5        15.016          35.000    39784490.094 6 160195641.618 6        11.508          39.000
C23  22732370.711 8 118373449.781 8      1677.285          51.000
C25  22046735.070 8 114803190.643 8     -1117.453          51.000
E02  25202989.930 8 132442577.867 8      2455.852          50.000    25202989.180 8 101482040.274 8      1881.762          51.000
E03  23359535.281 8 122755198.115 8      -208.961          51.000    23359537.867 8  94059182.994 8      -160.113          51.000
E05  25767649.875 8 135409896.989 8     -2465.473          48.000    25767654.227 8 103755665.376 8     -1888.988          48.000
E24  24239414.492 5 127378976.405 5     -2434.547          33.000
E25  23458424.633 8 123274924.846 8        -6.066          51.000    23458427.516 8  94457393.731 8        -4.570          51.000
> 2020 05 09 04 53  0.0000000  0 16        .000000000000
G05  22762515.383 7 119617814.118 7     -3292.953          47.000    22762511.242 8  93208682.597 8     -2565.938          48.000
G13  20167871.250 8 105982874.703 8       307.543          51.000    20167869.336 8  82584039.619 8       239.644          51.000
G28  20931969.617 8 109998258.128 8      -587.645          51.000    20931967.805 8  85712936.555 8      -457.905          50.000
G30  22304487.859 5 117210882.458 5     -2497.148          34.000    22304484.961 5  91333127.678 5     -1945.827          34.000
R02  20181671.289 8 107693255.143 8     -2890.711          51.000    20181674.914 7  83761444.998 7     -2248.334          44.000
R12  20481941.766 6 109410892.263 6     -2817.676          36.000    20481943.992 5  85097353.549 5     -2191.526          34.000
R13  19424961.383 7 103728209.178 7       960.410          43.000    19424963.852 7  80677463.752 7       746.986          45.000
R14  22794301.484 7 121506444.074 7      3624.117          44.000    22794308.312 7  94505027.354 7      2818.758          44.000
C05  39784407.047 5 207167847.059 5        14.305          35.000    39784406.148 6 160195303.916 6        10.654          39.000
C23  22722739.156 8 118323293.244 8      1666.188          51.000
C25  22053202.523 8 114836867.946 8     -1128.168          51.000
E02  25188992.211 7 132369028.077 7      2447.004          47.000    25188993.898 8 101425683.888 8      1874.992          51.000
E03  23360762.047 8 122761643.165 8      -221.188          51.000    23360764.539 8  94064121.397 8      -169.481          51.000
E05  25781744.695 7 135483966.083 7     -2473.062          47.000    25781747.117 7 103812419.569 7     -1894.872          46.000
E24  24253331.742 5 127452117.713 5     -2441.301          31.000
E25  23458495.508 8 123275296.252 8       -19.094          51.000    23458498.406 8  94457678.318 8       -14.663          51.000
> 2020 05 09 04 53 30.0000000  0 15        .000000000000
G05  22781336.039 8 119716714.404 8     -3298.078          48.000    22781331.250 8  93285747.729 8     -2569.931          48.000
G13  20166153.016 8 105973844.900 8       296.805          51.000    20166151.148 8  82577003.401 8       231.276          51.000
G17  24591275.430 6 129228024.241 6      2824.012          39.000    24591271.539 6 100697149.234 6      2200.529          38.000
G28  20935373.812 8 110016146.946 8      -602.500          51.000    20935372.250 8  85726875.882 8      -469.481          50.000
R02  20197974.766 8 107780250.835 8     -2906.402          51.000    20197977.133 7  83829108.257 7     -2260.538          43.000
R12  20497795.625 6 109495570.095 6     -2825.434          41.000    20497798.031 5  85163214.003 5     -2197.562          35.000
R13  19419618.977 7 103699680.969 7       943.855          42.000    19419621.766 7  80655275.131 7       734.110          46.000
R14  22773926.492 6 121397838.653 6      3618.703          41.000    22773933.039 7  94420556.449 7      2814.547          43.000
C05  39784325.656 5 207167422.840 5        16.676          35.000    39784324.750 6 160194975.859 6        12.946          39.000
C23  22713166.484 8 118273448.298 8      1659.164          49.000
C25  22059727.914 8 114870847.495 8     -1134.820          51.000
E02  25175041.594 8 132295726.252 8      2442.129          48.000    25175045.727 8 101369517.482 8      1871.296          51.000
E03  23362055.242 8 122768437.405 8      -229.336          51.000    23362057.359 8  94069327.365 8      -175.728          51.000
E05  25795879.273 7 135558244.675 7     -2476.465          45.000    25795879.406 7 103869334.250 7     -1897.608          44.000
E25  23458638.391 8 123276046.947 8       -28.465          51.000    23458641.031 8  94458253.524 8       -21.805          51.000
> 2020 05 09 04 54  0.0000000  0 16        .000000000000
G05  22800184.062 8 119815757.915 8     -3304.883          48.000    22800179.633 7  93362924.447 7     -2575.233          47.000
G13  20164494.297 8 105965127.219 8       284.191          51.000    20164492.250 8  82570210.403 8       221.448          51.000
G17  24575159.156 6 129143329.245 6      2822.160          37.000    24575154.594 6 100631153.121 6      2199.089          37.000
G28  20938860.875 8 110034471.516 8      -619.293          51.000    20938859.320 8  85741154.762 8      -482.566          49.000
G30  22333038.195 5 117360910.080 5     -2503.805          33.000    22333037.578 5  91450051.807 5     -1951.023          33.000
R02  20214364.969 8 107867707.240 8     -2924.094          51.000    20214366.219 7  83897129.820 7     -2274.298          44.000
R12  20513689.812 6 109580473.431 6     -2834.777          38.000    20513693.141 5  85229249.911 5     -2204.827          34.000
R13  19414367.320 7 103671638.873 7       925.480          42.000    19414370.320 7  80633464.606 7       719.818          46.000
R14  22753580.211 7 121289391.538 7      3611.016          43.000    22753587.766 7  94336208.620 7      2808.565          43.000
C05  39784225.055 5 207166899.780 5        18.449          35.000    39784224.172 6 160194570.654 6        13.638          39.000
C23  22703632.156 8 118223802.815 8      1650.363          50.000
C25  22066289.617 8 114905015.845 8     -1143.219          51.000
E02  25161118.336 8 132222559.893 8      2435.562          50.000    25161123.141 8 101313454.910 8      1866.120          51.000
E03  23363393.266 8 122775468.054 8      -239.477          51.000    23363395.234 8  94074714.483 8      -183.477          51.000
E05  25810031.820 7 135632618.799 7     -2481.883          45.000    25810031.156 7 103926322.145 7     -1901.720          44.000
E25  23458831.844 8 123277062.958 8       -39.379          51.000    23458833.977 8  94459032.014 8       -30.147          51.000
> 2020 05 09 04 54 30.0000000  0 17        .000000000000
G05  22819083.453 7 119915071.932 7     -3314.750          47.000    22819079.633 7  93440311.947 7     -2582.925          47.000
G13  20162919.836 8 105956852.445 8       268.641          51.000    20162917.664 8  82563762.525 8       209.330          51.000
G17  24559064.992 5 129058755.459 5      2817.699          35.000    24559059.141 5 100565251.419 5      2195.604          34.000
G28  20942455.391 8 110053360.667 8      -638.812          51.000    20942453.773 8  85755873.564 8      -497.776          49.000
G30  22347357.859 6 117436153.007 6     -2510.969          39.000    22347356.117 6  91508682.651 6     -1956.599          38.000
R02  20230865.781 8 107955753.863 8     -2944.391          51.000    20230866.352 7  83965610.472 7     -2290.082          46.000
R03  19420983.992 6 103962040.259 6      1154.406          38.000    19420980.922 5  80859354.855 5       897.875          33.000
R12  20529649.562 5 109665730.621 5     -2847.750          33.000    20529652.500 5  85295561.012 5     -2214.914          32.000
R13  19409231.555 7 103644215.263 7       904.180          42.000    19409234.625 7  80612135.117 7       703.248          45.000
R14  22733290.406 7 121181236.263 7      3600.473          46.000    22733297.547 7  94252087.830 7      2800.368          42.000
C05  39784129.859 5 207166403.732 5        15.949          34.000    39784129.086 6 160194187.777 6        12.689          40.000
C23  22694161.797 8 118174485.695 8      1638.637          51.000
C25  22072912.219 8 114939500.480 8     -1154.531          51.000
E02  25147246.500 8 132149659.744 8      2425.746          51.000    25147251.133 8 101257596.323 8      1858.635          51.000
E03  23364801.039 8 122782865.500 8      -252.449          51.000    23364803.148 8  94080382.655 8      -193.438          51.000
E05  25824228.102 8 135707217.664 8     -2490.199          48.000    25824227.516 7 103983482.304 7     -1907.967          47.000
E25  23459100.281 8 123278473.514 8       -53.445          51.000    23459102.305 8  94460112.840 8       -40.952          51.000
> 2020 05 09 04 55  0.0000000  0 17        .000000000000
G05  22838028.453 7 120014626.437 7     -3322.781          46.000    22838025.117 7  93517886.857 7     -2589.180          46.000
G13  20161424.547 8 105948994.273 8       254.641          51.000    20161422.367 8  82557639.276 8       198.421          51.000
G17  24542988.773 5 128974279.029 5      2812.895          32.000    24542985.297 5 100499425.736 5      2191.875          31.000
G28  20946151.875 8 110072786.280 8      -656.824          51.000    20946150.195 8  85771010.394 8      -511.811          48.000
G30  22361707.664 6 117511561.570 6     -2516.555          39.000    22361703.828 6  91567442.582 6     -1960.952          37.000
R02  20247470.930 8 108044360.907 8     -2963.254          51.000    20247471.594 8  84034527.044 8     -2304.753          48.000
R03  19414577.383 6 103927750.653 6      1130.875          37.000    19414574.945 5  80832685.201 5       879.572          33.000
R12  20545669.547 5 109751311.507 5     -2858.523          35.000    20545671.109 5  85362123.889 5     -2223.302          33.000
R13  19404206.312 7 103617381.598 7       884.301          42.000    19404209.383 7  80591264.487 7       687.789          45.000
R14  22713051.656 8 121073347.058 8      3591.641          48.000    22713057.359 7  94168174.033 7      2793.498          43.000
C05  39784035.172 5 207165910.847 5        15.773          35.000    39784034.375 6 160193806.651 6        12.553          39.000
C23  22684749.531 8 118125470.359 8      1628.402          51.000
C25  22079590.125 8 114974273.447 8     -1164.188          51.000
E02  25133420.539 8 132076999.611 8      2417.750          51.000    25133424.453 8 101201921.657 8      1852.604          51.000
E03  23366273.562 8 122790603.249 8      -263.797          51.000    23366275.836 8  94086311.576 8      -202.115          51.000
E05  25838462.320 8 135782013.541 8     -2496.672          49.000    25838462.602 8 104040793.440 8     -1913.100          49.000
E25  23459438.352 8 123280250.937 8       -65.562          51.000    23459440.344 8  94461474.771 8       -50.233          51.000
> 2020 05 09 04 55 30.0000000  0 17        .000000000000
G05  22857019.281 7 120114424.644 7     -3330.020          42.000    22857016.641 7  93595651.672 7     -2594.820          42.000
G13  20160009.883 8 105941560.250 8       241.137          51.000    20160007.766 8  82551846.524 8       187.899          51.000
G17  24526932.414 5 128889897.164 5      2810.672          35.000    24526940.164 5 100433673.811 5      2190.146          31.000
G28  20949951.430 8 110092753.383 8      -674.137          51.000    20949949.656 7  85786569.165 7      -525.301          47.000
G30  22376089.492 6 117587140.819 6     -2521.699          37.000    22376086.805 6  91626335.556 6     -1964.957          36.000
R02  20264180.922 8 108133531.999 8     -2981.359          50.000    20264182.805 8  84103882.346 8     -2318.835          49.000
R03  19408301.922 6 103894173.091 6      1107.820          37.000    19408303.062 5  80806569.333 5       861.641          34.000
R12  20561751.359 5 109837219.210 5     -2868.695          34.000    20561754.609 5  85428940.967 5     -2231.207          35.000
R13  19399292.672 7 103591143.806 7       865.000          43.000    19399296.117 7  80570857.313 7       672.778          45.000
R14  22692864.578 8 120965731.735 8      3583.148          49.000    22692868.398 7  94084473.264 7      2786.896          43.000
C05  39783942.133 5 207165426.223 5        16.652          35.000    39783941.273 6 160193431.901 6        12.925          39.000
C23  22675395.789 8 118076763.043 8      1618.855          51.000
C25  22086324.188 8 115009339.594 8     -1173.309          51.000
E02  25119641.484 8 132004586.474 8      2410.090          51.000    25119644.070 8 101146436.279 8      1846.701          50.000
E03  23367812.023 8 122798687.944 8      -274.859          51.000    23367814.344 8  94092506.339 8      -210.627          51.000
E05  25852735.047 8 135857011.844 8     -2502.875          49.000    25852736.703 8 104098259.677 8     -1917.808          51.000
E25  23459847.461 8 123282400.724 8       -77.496          51.000    23459849.008 8  94463122.001 8       -59.326          51.000
> 2020 05 09 04 56  0.0000000  0 17        .000000000000
G05  22876051.914 6 120214444.675 6     -3337.676          40.000    22876049.898 6  93673589.363 6     -2600.786          39.000
G13  20158672.438 8 105934532.097 8       227.578          51.000    20158670.352 8  82546370.031 8       177.334          51.000
G17  24510895.523 5 128805618.170 5      2808.043          33.000    24510901.438 5 100368001.856 5      2188.067          31.000
G28  20953850.164 8 110113241.791 8      -691.531          50.000    20953848.453 7  85802534.154 7      -538.856          47.000
G30  22390499.359 5 117662870.843 5     -2526.188          30.000    22390500.148 5  91685345.930 5     -1968.464          32.000
R02  20280991.938 7 108223246.257 7     -2999.238          47.000    20280995.953 8  84173660.126 8     -2332.741          50.000
R03  19402157.281 6 103861291.010 6      1084.516          39.000    19402161.297 5  80780994.347 5       843.509          35.000
R12  20577891.758 4 109923431.558 4     -2878.539          29.000    20577896.219 5  85495995.019 5     -2238.867          35.000
R13  19394487.258 7 103565482.589 7       845.934          42.000    19394490.734 7  80550898.579 7       657.948          45.000
R14  22672725.086 8 120858372.822 8      3574.457          48.000    22672727.570 7  94000971.914 7      2780.133          42.000
C05  39783847.031 5 207164931.190 5        16.766          35.000    39783846.219 6 160193049.096 6        12.940          39.000
C23  22666097.250 8 118028345.202 8      1609.281          51.000
C25  22093110.906 8 115044679.014 8     -1182.461          51.000
E02  25105905.828 8 131932402.229 8      2402.434          51.000    25105906.086 8 101091126.289 8      1840.874          48.000
E03  23369412.992 8 122807101.146 8      -285.754          51.000    23369415.180 8  94098952.814 8      -218.933          51.000
E05  25867041.945 8 135932192.922 8     -2508.867          48.000    25867045.008 8 104155865.977 8     -1922.409          51.000
E25  23460323.641 8 123284903.214 8       -89.129          51.000    23460324.992 8  94465039.501 8       -68.291          51.000
> 2020 05 09 04 56 30.0000000  0 16        .000000000000
G05  22895131.789 6 120314713.847 6     -3345.371          39.000    22895130.695 6  93751721.106 6     -2606.783          39.000
G13  20157418.156 8 105927940.741 8       213.406          51.000    20157416.039 8  82541233.898 8       166.291          51.000
G17  24494878.953 5 128721462.593 5      2804.418          33.000
G28  20957853.586 8 110134281.005 8      -709.434          51.000    20957852.094 7  85818928.366 7      -552.805          46.000
G30  22404942.734 5 117738780.754 5     -2532.621          31.000    22404946.711 5  91744496.378 5     -1973.477          31.000
R02  20297910.117 8 108313531.042 8     -3017.957          48.000    20297915.781 8  84243881.658 8     -2347.300          49.000
R03  19396150.391 6 103829136.956 6      1060.809          38.000    19396156.609 5  80755985.609 5       825.073          34.000
R13  19389795.445 7 103540427.401 7       826.160          42.000    19389798.930 7  80531411.219 7       642.569          45.000
R14  22652639.062 7 120751302.564 7      3565.238          47.000    22652640.984 6  93917695.034 6      2772.963          41.000
C05  39783755.625 5 207164455.504 5        17.184          35.000    39783754.938 6 160192681.291 6        12.798          39.000
C23  22656860.492 8 117980246.800 8      1599.027          51.000
C25  22099955.750 8 115080320.327 8     -1192.039          51.000
E02  25092219.406 8 131860477.847 8      2394.160          51.000    25092216.984 8 101036015.430 8      1834.489          48.000
E03  23371082.359 8 122815873.481 8      -297.309          51.000    23371084.375 8  94105674.471 8      -227.844          51.000
E05  25881388.297 8 136007586.215 8     -2515.512          48.000    25881393.336 8 104213634.846 8     -1927.512          51.000
E25  23460872.555 8 123287787.859 8      -101.527          51.000    23460873.875 8  94467249.819 8       -77.806          51.000
> 2020 05 09 04 57  0.0000000  0 15        .000000000000
G05  22914240.414 6 120415130.428 6     -3349.719          38.000    22914240.078 6  93829967.731 6     -2610.173          39.000
G13  20156228.328 8 105921688.234 8       202.801          51.000    20156226.117 8  82536361.809 8       158.027          51.000
G28  20961942.906 8 110155770.606 8      -723.801          51.000    20961941.523 7  85835673.495 7      -564.001          46.000
R02  20314917.562 8 108404284.004 8     -3032.762          51.000    20314923.039 8  84314467.299 8     -2358.815          49.000
R03  19390261.406 6 103797612.932 6      1040.324          39.000    19390267.180 5  80731466.936 5       809.144          34.000
R12  20610348.945 6 110096719.258 6     -2896.027          36.000    20610337.578 5  85630784.686 5     -2252.475          31.000
R13  19385198.281 6 103515878.309 6       809.996          41.000    19385201.633 7  80512317.462 7       629.997          45.000
R14  22632588.586 8 120644422.208 8      3559.605          48.000    22632590.578 6  93834565.868 6      2768.582          41.000
C05  39783649.305 5 207163901.345 5        19.895          34.000    39783648.492 6 160192252.749 6        15.230          39.000
C23  22647666.492 8 117932370.047 8      1592.227          51.000
C25  22106839.375 8 115116164.389 8     -1198.055          51.000
E02  25078563.266 8 131788715.244 8      2389.473          51.000    25078560.062 8 100981028.536 8      1830.960          49.000
E03  23372801.227 8 122824906.543 8      -305.445          51.000    23372803.219 8  94112595.900 8      -234.040          51.000
E05  25895756.164 8 136083092.079 8     -2518.621          49.000    25895762.727 8 104271489.947 8     -1929.859          51.000
E25  23461475.312 8 123290955.121 8      -110.148          51.000    23461476.719 8  94469676.686 8       -84.423          51.000
> 2020 05 09 04 57 30.0000000  0 15        .000000000000
G05  22933407.375 5 120515856.428 5     -3361.602          33.000    22933408.469 5  93908455.492 5     -2619.427          33.000
G13  20155134.578 8 105915940.585 8       183.879          50.000    20155132.242 8  82531883.124 8       143.282          50.000
G17  24462894.594 4 128553347.668 4      2795.059          29.000    24462905.898 4 100171490.069 4      2177.968          29.000
G28  20966149.203 8 110177874.224 8      -746.301          50.000    20966147.898 7  85852897.109 7      -581.533          47.000
R02  20332044.172 8 108495670.285 8     -3056.051          51.000    20332049.078 8  84385545.487 8     -2376.931          49.000
R03  19384521.602 6 103766888.988 6      1011.484          38.000    19384527.992 6  80707570.489 6       786.707          36.000
R13  19380726.859 7 103492000.863 7       785.375          42.000    19380730.070 7  80493746.105 7       610.847          45.000
R14  22612605.586 8 120537900.610 8      3545.355          48.000    22612607.742 7  93751715.761 7      2757.502          42.000
C05  39783559.141 5 207163431.984 5        15.258          35.000    39783558.406 6 160191889.800 6        11.433          39.000
C23  22638546.133 8 117884878.507 8      1577.289          51.000
C25  22113792.961 8 115152373.413 8     -1212.332          51.000
E02  25064969.164 8 131717280.135 8      2376.309          51.000    25064967.422 8 100926292.558 8      1820.826          50.000
E03  23374601.062 8 122834365.707 8      -321.695          51.000    23374603.164 8  94119843.819 8      -246.521          51.000
E05  25910177.273 8 136158874.715 8     -2530.031          50.000    25910183.945 8 104329557.114 8     -1938.619          51.000
E25  23462163.125 8 123294569.177 8      -127.180          51.000    23462164.703 8  94472445.888 8       -97.464          51.000
> 2020 05 09 04 58  0.0000000  0 15        .000000000000
G13  20154094.633 8 105910476.118 8       172.273          50.000    20154092.352 8  82527625.089 8       134.239          50.000
G17  24446916.547 4 128469430.668 4      2794.066          29.000    24446927.852 4 100106069.712 4      2177.195          29.000
G28  20970429.742 8 110200368.275 8      -761.301          51.000    20970428.430 7  85870424.953 7      -593.221          47.000
R02  20349246.305 8 108587461.259 8     -3071.477          51.000    20349250.953 8  84456938.421 8     -2388.929          49.000
R03  19378890.070 6 103736740.749 6       990.109          38.000    19378895.312 5  80684121.867 5       770.082          35.000
R12  20643033.453 5 110271407.725 5     -2918.566          33.000    20643009.578 5  85766541.332 5     -2270.014          30.000
R13  19376339.109 7 103468569.193 7       768.648          42.000    19376342.078 7  80475521.469 7       597.838          45.000
R14  22592647.344 7 120431513.723 7      3538.938          47.000    22592650.602 7  93668970.420 7      2752.507          44.000
C05  39783442.945 5 207162826.950 5        17.766          35.000    39783442.266 6 160191421.939 6        13.405          39.000
C23  22629457.391 8 117837551.733 8      1569.820          51.000
C25  22120774.055 8 115188725.597 8     -1219.051          51.000
E02  25051395.094 8 131645950.693 8      2370.859          50.000    25051395.789 8 100871637.539 8      1816.588          51.000
E03  23376439.773 8 122844028.827 8      -330.539          51.000    23376441.961 8  94127248.016 8      -253.303          51.000
E05  25924609.109 8 136234710.732 8     -2533.742          51.000    25924614.086 8 104387665.170 8     -1941.457          51.000
E25  23462893.305 8 123298406.713 8      -136.773          51.000    23462894.992 8  94475386.322 8      -104.791          51.000
> 2020 05 09 04 58 30.0000000  0 16        .000000000000
G05  22971833.336 5 120717805.091 5     -3374.895          31.000    22971838.047 5  94065819.160 5     -2629.788          31.000
G13  20153155.844 8 105905544.041 8       157.805          49.000    20153153.938 8  82523781.897 8       122.962          49.000
G17  24430981.906 4 128385675.792 4      2789.625          29.000
G28  20974831.664 8 110223499.868 8      -779.480          51.000    20974830.227 7  85888449.574 7      -607.387          47.000
R02  20366570.789 8 108679906.514 8     -3090.203          51.000    20366575.312 8  84528840.230 8     -2403.491          48.000
R03  19373413.898 6 103707423.730 6       965.652          39.000    19373418.242 5  80661319.698 5       751.060          35.000
R12  20659455.516 6 110359151.895 6     -2929.574          38.000    20659432.203 4  85834786.580 4     -2278.564          29.000
R13  19372081.625 6 103445835.014 6       748.551          41.000    19372084.531 7  80457839.323 7       582.209          44.000
R14  22572760.672 7 120325515.054 7      3529.051          44.000    22572766.555 7  93586527.017 7      2744.820          45.000
C05  39783348.016 5 207162332.522 5        16.680          35.000    39783347.336 6 160191039.571 6        12.952          39.000
C23  22620448.047 8 117790636.106 8      1559.168          51.000
C25  22127829.656 8 115225466.029 8     -1229.016          51.000
E02  25037888.766 8 131574976.255 8      2362.156          50.000    25037891.477 8 100817254.517 8      1809.901          51.000
E03  23378364.805 8 122854144.893 8      -342.637          51.000    23378367.055 8  94134999.278 8      -262.513          51.000
E05  25939098.562 8 136310847.882 8     -2540.758          51.000    25939100.250 8 104446003.986 8     -1946.755          49.000
E25  23463713.359 8 123302715.511 8      -149.195          51.000    23463715.047 8  94478687.853 8      -114.360          51.000
> 2020 05 09 04 59  0.0000000  0 17        .000000000000
G05  22991129.586 5 120819187.232 5     -3380.395          32.000    22991128.578 5  94144818.060 5     -2634.077          32.000
G13  20152302.570 8 105901061.216 8       145.449          49.000    20152301.016 8  82520288.761 8       113.337          49.000
G17  24415082.180 5 128302116.518 5      2786.738          32.000    24415092.484 5  99975675.033 5      2171.484          32.000
G28  20979338.664 8 110247184.095 8      -795.113          51.000    20979337.266 8  85906904.825 8      -619.569          48.000
G30  22477579.289 5 118120479.968 5     -2555.410          33.000
R02  20384001.070 8 108772918.288 8     -3106.121          51.000    20384005.281 7  84601182.679 7     -2415.875          47.000
R03  19368077.953 6 103678854.409 6       943.367          41.000    19368080.672 6  80639099.121 6       733.730          36.000
R12  20675939.586 5 110447221.433 5     -2937.176          35.000    20675915.688 4  85903284.828 4     -2284.482          29.000
R13  19367938.641 7 103423712.462 7       730.848          42.000    19367941.625 7  80440632.898 7       568.437          44.000
R14  22552931.633 7 120219821.245 7      3521.652          44.000    22552939.602 7  93504320.725 7      2739.066          45.000
C05  39783258.344 5 207161865.384 5        18.000          35.000    39783257.641 6 160190678.308 6        14.671          39.000
C23  22611501.805 8 117744048.494 8      1551.035          51.000
C25  22134943.555 8 115262510.215 8     -1236.246          51.000
E02  25024434.602 8 131504273.553 8      2355.844          51.000    25024438.188 8 100763079.700 8      1805.091          51.000
E03  23380359.977 8 122864630.323 8      -352.176          51.000    23380362.500 8  94143033.543 8      -269.843          51.000
E05  25953628.586 8 136387201.418 8     -2545.242          50.000    25953627.125 8 104504508.612 8     -1950.221          48.000
E25  23464607.148 8 123307410.844 8      -159.500          51.000    23464608.992 8  94482285.554 8      -122.205          51.000
> 2020 05 09 04 59 30.0000000  0 16        .000000000000
G05  23010463.555 6 120920791.941 6     -3388.984          36.000    23010464.047 5  94223990.467 5     -2640.773          35.000
G13  20151531.688 8 105897010.708 8       129.156          50.000    20151530.281 8  82517132.492 8       100.641          49.000
G17  24399203.836 5 128218667.188 5      2780.555          35.000    24399203.547 5  99910649.835 5      2166.675          32.000
G28  20983947.148 8 110271401.154 8      -814.734          51.000    20983945.602 8  85925775.263 8      -634.858          48.000
G30  22492206.531 6 118197347.191 6     -2563.305          36.000    22492239.383 5  92101969.736 5     -1997.377          34.000
R02  20401533.664 8 108866476.245 8     -3126.281          51.000    20401537.406 7  84673949.948 7     -2431.555          47.000
R03  19362878.648 7 103651016.794 7       917.125          43.000    19362880.211 6  80617447.636 6       713.319          38.000
R13  19363906.734 6 103402182.775 6       709.191          40.000    19363910.047 7  80423887.592 7       551.593          44.000
R14  22533157.820 7 120114415.486 7      3510.098          46.000    22533166.172 7  93422338.475 7      2730.076          45.000
C05  39783170.477 5 207161407.770 5        16.355          35.000    39783169.719 6 160190324.458 6        12.650          39.000
C23  22602614.609 8 117697771.232 8      1538.828          50.000
C25  22142112.211 8 115299839.169 8     -1247.648          51.000
E02  25011029.039 8 131433825.436 8      2345.359          51.000    25011032.641 8 100709099.928 8      1797.171          51.000
E03  23382422.180 8 122875467.569 8      -365.660          51.000    23382424.750 8  94151337.383 8      -280.181          51.000
E05  25968195.430 8 136463752.602 8     -2553.504          50.000    25968191.867 7 104563164.693 7     -1956.647          46.000
E25  23465570.758 8 123312473.950 8      -173.469          51.000    23465572.719 8  94486165.075 8      -132.918          51.000
