     3.04           OBSERVATION DATA    M (MIXED)           RINEX VERSION / TYPE
Convert 2.6.2       NovAtel             20200515 161042 UTC PGM / RUN BY / DATE 
Rinex Version 3.04 Observation File                         COMMENT             
                                                            MARKER NAME         
                                                            MARKER NUMBER       
                                                            MARKER TYPE         
                                                            OBSERVER / AGENCY   
                    NovAtel GPSCard                         REC # / TYPE / VERS 
                                                            ANT # / TYPE        
        0.0000        0.0000        0.0000                  APPROX POSITION XYZ 
        0.0000        0.0000        0.0000                  ANTENNA: DELTA H/E/N
G    8 C1C L1C D1C S1C C2W L2W D2W S2W                      SYS / # / OBS TYPES 
R    8 C1C L1C D1C S1C C2P L2P D2P S2P                      SYS / # / OBS TYPES 
E    8 C1C L1C D1C S1C C7Q L7Q D7Q S7Q                      SYS / # / OBS TYPES 
C    8 C2I L2I D2I S2I C7I L7I D7I S7I                      SYS / # / OBS TYPES 
DBHZ                                                        SIGNAL STRENGTH UNIT
    30.000                                                  INTERVAL            
  2020    05    13    04    00    0.0000000     GPS         TIME OF FIRST OBS   
  2020    05    13    04    59   30.0000000     GPS         TIME OF LAST OBS    
G L1C  0.00000  08 G30 G28 G05 G15 G07 G13 G24 G17          SYS / PHASE SHIFT   
G L2W  0.00000  07 G30 G28 G05 G07 G15 G13 G17              SYS / PHASE SHIFT   
R L1C  0.00000  07 R16 R05 R06 R09 R15 R10 R07              SYS / PHASE SHIFT   
R L2P  0.25000  04 R16 R05 R09 R07                          SYS / PHASE SHIFT   
E L1C  0.50000  06 E24 E04 E31 E09 E01 E25                  SYS / PHASE SHIFT   
E L7Q -0.25000  06 E24 E04 E31 E09 E01 E25                  SYS / PHASE SHIFT   
C L2I  0.00000  03 C05 C19 C22                              SYS / PHASE SHIFT   
C L7I  0.00000  01 C05                                      SYS / PHASE SHIFT   
  7 R16 -1 R05  1 R06 -4 R09 -2 R15  0 R10 -7 R07  5        GLONASS SLOT / FRQ #
 C1C  -71.950 C2C  -71.950 C2P  -71.950                     GLONASS COD/PHS/BIS 
     0     0     0     0GPS                                 LEAP SECONDS        
                                                            END OF HEADER       
> 2020 05 13 04 00  0.0000000  0 15      -0.000000000000
G30  21363353.727 7 112265181.863 7     -1986.402          42.000    21363354.164 7  87479366.430 7     -1547.846          42.000  
G28  20969125.219 8 110193523.945 8       770.672          49.000    20969124.180 8  85865113.195 8       600.524          48.000  
G05  21547249.180 8 113231543.504 8     -2450.277          51.000    21547248.695 8  88232368.808 8     -1909.305          51.000  
R16  19431978.180 7 103801769.534 7     -1610.559          44.000    19431980.352 7  80734694.361 7     -1252.654          42.000  
R05  23200696.180 6 124020622.219 6     -4069.262          38.000    23200698.375 5  96460479.126 5     -3164.982          35.000  
R06  19267590.867 7 102815174.805 7     -1191.457          46.000                                                                  
R09  20825242.922 8 111205327.089 8      3011.207          51.000    20825242.375 8  86492957.530 8      2342.050          48.000  
R15  23265041.797 5 124320905.107 5     -4038.234          30.000                                                                  
E24  23129021.805 8 121543817.028 8      2370.484          51.000    23129033.992 8  93131070.626 8      1816.313          51.000  
E04  26543249.922 8 139485826.585 8     -2503.129          50.000    26543251.594 8 106878739.635 8     -1918.016          50.000  
E31  23668182.180 8 124377172.718 8      -276.215          51.000    23668182.430 8  95302018.295 8      -211.675          51.000  
E09  21514615.672 8 113060051.886 8      -520.867          51.000    21514617.898 8  86630457.301 8      -399.169          51.000  
E01  26822283.953 5 140952052.283 5     -2587.207          34.000                                                                  
C05  39798098.797 6 207239143.688 6        10.297          37.000    39798096.633 6 160250433.509 6         7.914          40.000  
C19  22282923.344 8 116033041.693 8     -1988.645          51.000                                                                  
> 2020 05 13 04 00 30.0000000  0 14      -0.000000000000
G30  21374728.883 7 112324958.256 7     -1996.988          42.000    21374729.102 7  87525945.405 7     -1556.095          42.000  
G28  20964787.961 8 110170733.208 8       749.961          50.000    20964787.086 7  85847354.143 7       584.382          47.000  
G05  21561288.320 8 113305320.535 8     -2466.938          50.000    21561287.727 8  88289857.398 8     -1922.290          51.000  
R16  19441086.055 7 103850422.950 7     -1632.000          43.000    19441088.062 7  80772535.899 7     -1269.334          42.000  
R05  23223564.469 5 124142861.791 5     -4078.000          35.000    23223567.500 6  96555554.391 6     -3171.775          38.000  
R06  19274362.398 7 102851311.750 7     -1216.145          45.000                                                                  
R09  20808377.797 8 111115269.446 8      2994.043          49.000    20808378.273 8  86422912.701 8      2328.700          49.000  
R15  23287726.633 5 124442127.644 5     -4042.254          30.000                                                                  
E24  23115524.039 8 121472887.251 8      2359.441          51.000    23115537.141 8  93076721.824 8      1807.891          51.000  
E04  26557563.766 8 139561043.712 8     -2510.156          50.000    26557565.375 8 106936373.502 8     -1923.404          50.000  
E31  23669805.172 8 124385701.921 8      -291.156          51.000    23669805.852 8  95308553.658 8      -223.094          51.000  
E09  21517627.344 8 113075877.802 8      -532.875          51.000    21517629.930 8  86642583.633 8      -408.322          51.000  
C05  39798049.555 6 207238887.195 6         8.332          36.000    39798047.398 6 160250235.167 6         6.370          40.000  
C19  22294427.062 8 116092943.708 8     -2003.555          51.000                                                                  
> 2020 05 13 04 01  0.0000000  0 13      -0.000000000000
G15  22008725.789 5 115656633.66225      2692.203          31.000                                                                  
G30  21386161.469 6 112385036.906 6     -2009.797          41.000    21386162.227 6  87572759.900 6     -1566.076          41.000  
G28  20960565.625 8 110148545.009 8       727.359          50.000    20960565.156 8  85830064.603 8       566.774          49.000  
G05  21575419.281 8 113379580.848 8     -2485.480          50.000    21575418.648 8  88347722.581 8     -1936.739          50.000  
R16  19450310.594 7 103899697.702 7     -1654.910          43.000    19450312.750 7  80810860.680 7     -1287.153          42.000  
R06  19281270.742 7 102888177.405 7     -1243.234          45.000                                                                  
R09  20791607.273 8 111025716.694 8      2974.461          50.000    20791608.461 8  86353260.570 8      2313.470          49.000  
E24  23102086.328 8 121402275.901 8      2346.160          50.000    23102100.781 8  93022617.000 8      1797.732          51.000  
E04  26571915.734 8 139636461.687 8     -2519.379          50.000    26571917.219 8 106994161.234 8     -1930.479          50.000  
E31  23671511.188 8 124394667.291 8      -308.238          51.000    23671511.805 8  95315423.231 8      -236.210          51.000  
E09  21520705.250 8 113092051.765 8      -547.059          51.000    21520707.859 8  86654976.670 8      -419.232          51.000  
C05  39798008.734 6 207238674.035 6         4.281          36.000    39798006.602 6 160250071.083 6         3.301          40.000  
C19  22306014.102 8 116153278.518 8     -2020.477          51.000                                                                  
> 2020 05 13 04 01 30.0000000  0 14      -0.000000000000
G15  21993343.055 5 115575786.67625      2699.812          35.000                                                                  
G30  21397617.734 6 112445239.691 6     -2002.812          41.000    21397618.586 6  87619671.156 6     -1560.630          41.000  
G28  20956424.547 8 110126782.963 8       724.320          51.000    20956424.438 8  85813107.187 8       564.406          48.000  
G05  21589607.914 8 113454145.726 8     -2484.336          49.000    21589607.328 8  88405825.078 8     -1935.847          48.000  
R16  19459617.031 7 103949411.592 7     -1658.297          43.000    19459619.258 6  80849527.053 6     -1289.787          40.000  
R05  23269420.297 6 124387954.200 6     -4080.941          37.000    23269417.820 6  96746216.087 6     -3174.072          40.000  
R06  19288282.031 7 102925592.850 7     -1250.070          45.000                                                                  
R09  20774897.945 7 110936490.948 7      2974.762          47.000    20774899.758 8  86283862.754 8      2313.701          49.000  
E24  23088675.805 8 121331807.284 8      2352.617          50.000    23088691.445 8  92968621.541 8      1802.686          51.000  
E04  26586271.961 8 139711903.304 8     -2509.027          49.000    26586273.359 8 107051967.071 8     -1922.550          49.000  
E31  23673266.375 8 124403891.469 8      -305.676          51.000    23673266.789 8  95322491.104 8      -234.228          51.000  
E09  21523815.875 8 113108397.540 8      -541.625          51.000    21523818.281 8  86667501.352 8      -415.039          51.000  
C05  39797942.828 6 207238331.063 6        19.711          36.000    39797940.773 6 160249805.867 6        15.323          40.000  
C19  22317650.492 8 116213869.993 8     -2017.938          51.000                                                                  
> 2020 05 13 04 02  0.0000000  0 15      -0.000000000000
G15  21977995.453 6 115495156.06026      2682.551          36.000                                                                  
G30  21409112.570 6 112505645.433 6     -2020.387          41.000    21409112.758 6  87666740.574 6     -1574.331          41.000  
G28  20952380.281 8 110105528.238 8       696.527          51.000    20952379.719 7  85796545.054 7       542.749          47.000  
G05  21603869.547 8 113529092.798 8     -2508.105          49.000    21603868.836 8  88464225.389 8     -1954.369          49.000  
R16  19469020.711 7 103999643.054 7     -1686.438          44.000    19469022.273 6  80888595.937 6     -1311.674          40.000  
R05  23292381.438 6 124510690.355 6     -4097.500          41.000    23292378.258 6  96841677.431 6     -3186.948          39.000  
R06  19295411.648 7 102963638.229 7     -1282.234          47.000                                                                  
R09  20758264.086 7 110847675.364 7      2950.281          47.000    20758267.133 8  86214783.915 8      2294.664          48.000  
R15  23355807.883 5 124805976.429 5     -4044.211          32.000                                                                  
E24  23075308.555 8 121261562.625 8      2334.211          51.000    23075324.539 8  92914797.687 8      1788.600          51.000  
E04  26600647.812 8 139787448.196 8     -2523.336          49.000    26600649.062 8 107109852.043 8     -1933.511          49.000  
E31  23675085.859 8 124413453.886 8      -327.875          51.000    23675086.703 8  95329818.155 8      -251.229          51.000  
E09  21526974.578 8 113124995.718 8      -560.961          51.000    21526976.664 8  86680219.445 8      -429.815          51.000  
C05  39797867.141 6 207237936.887 6        10.473          36.000    39797865.117 6 160249501.044 6         8.207          40.000  
C19  22329350.922 8 116274796.494 8     -2039.895          51.000                                                                  
> 2020 05 13 04 02 30.0000000  0 14      -0.000000000000
G30  21420675.922 6 112566411.951 6     -2030.266          36.000    21420676.031 6  87714091.063 6     -1582.029          37.000  
G28  20948462.883 8 110084940.122 8       676.281          51.000    20948461.617 7  85780502.390 7       526.973          47.000  
G05  21618234.211 8 113604578.594 8     -2524.055          50.000    21618233.102 8  88523045.484 8     -1966.797          51.000  
R16  19478550.672 7 104050550.938 7     -1707.004          42.000    19478552.117 6  80928190.956 6     -1327.670          40.000  
R05  23315400.195 7 124633743.271 7     -4105.801          42.000    23315398.516 6  96937385.188 6     -3193.404          40.000  
R06  19302690.070 8 103002475.354 8     -1306.633          48.000                                                                  
R09  20741739.531 8 110759433.226 8      2932.891          51.000    20741741.758 8  86146151.152 8      2281.138          48.000  
R15  23378525.109 5 124927369.440 5     -4047.004          31.000                                                                  
E24  23062014.922 8 121191701.922 8      2323.270          51.000    23062030.148 8  92861268.046 8      1780.196          51.000  
E04  26615073.102 8 139863254.833 8     -2530.324          48.000    26615074.500 8 107167937.610 8     -1938.737          49.000  
E31  23676999.961 8 124423512.814 8      -342.523          51.000    23677001.242 8  95337525.651 8      -262.438          51.000  
E09  21530211.523 8 113142005.760 8      -572.797          51.000    21530213.477 8  86693253.109 8      -438.915          51.000  
C05  39797811.883 6 207237648.975 6         9.273          36.000    39797809.828 6 160249278.446 6         6.836          40.000  
C19  22341145.078 8 116336214.504 8     -2054.363          50.000                                                                  
> 2020 05 13 04 03  0.0000000  0 13      -0.000000000000
G30  21432304.273 6 112627520.149 6     -2042.137          38.000    21432304.711 6  87761707.835 6     -1591.273          37.000  
G28  20944668.961 8 110065001.512 8       654.184          51.000    20944667.266 7  85764965.841 7       509.754          47.000  
G05  21632697.820 8 113680583.334 8     -2541.688          50.000    21632696.492 8  88582269.949 8     -1980.536          51.000  
R16  19488203.211 7 104102114.219 7     -1729.043          43.000    19488204.797 6  80968295.720 6     -1344.812          40.000  
R05  23338474.094 7 124757092.743 7     -4116.008          42.000    23338474.742 6  97033323.660 6     -3201.340          39.000  
R06  19310113.383 8 103042086.058 8     -1332.770          48.000                                                                  
R09  20725319.992 8 110671748.537 8      2913.953          51.000    20725321.164 8  86077951.975 8      2266.408          48.000  
E24  23048791.352 8 121122208.612 8      2310.785          51.000    23048804.961 8  92808019.939 8      1770.558          51.000  
E04  26629544.055 7 139939305.083 7     -2538.559          47.000    26629546.383 8 107226209.840 8     -1945.160          49.000  
E31  23679005.102 8 124434049.902 8      -358.711          51.000    23679006.414 8  95345599.519 8      -274.863          51.000  
E09  21533523.414 8 113159410.501 8      -586.254          51.000    21533525.148 8  86706589.206 8      -449.193          51.000  
C05  39797773.602 6 207237450.07726         5.613          36.000    39797771.641 6 160249124.606 6         4.313          40.000  
C19  22353029.328 8 116398105.599 8     -2070.434          50.000                                                                  
> 2020 05 13 04 03 30.0000000  0 14      -0.000000000000
G15  21932283.086 6 115254926.421 6      2665.656          36.000                                                                  
G30  21443945.109 6 112688695.010 6     -2037.016          41.000    21443946.188 6  87809376.592 6     -1587.285          40.000  
G28  20940946.516 8 110045439.191 8       648.988          51.000    20940944.516 8  85749722.492 8       505.705          48.000  
G05  21647207.641 8 113756831.027 8     -2542.410          50.000    21647206.289 8  88641683.708 8     -1981.102          50.000  
R16  19497926.000 7 104154052.229 7     -1734.156          42.000    19497927.938 6  81008691.960 6     -1348.788          38.000  
R05  23361551.039 7 124880458.012 7     -4109.039          43.000    23361552.539 6  97129274.391 6     -3195.923          37.000  
R06  19317629.477 8 103082191.843 8     -1341.859          48.000                                                                  
R09  20708952.625 8 110584344.912 8      2912.012          51.000    20708953.852 8  86009971.386 8      2264.902          48.000  
E24  23035585.633 8 121052810.031 8      2314.922          51.000    23035597.102 8  92754844.421 8      1773.739          50.000  
E04  26644008.703 7 140015324.760 7     -2530.289          46.000    26644012.172 8 107284458.646 8     -1938.671          49.000  
E31  23681049.031 8 124444790.743 8      -358.195          51.000    23681050.508 8  95353829.506 8      -274.479          51.000  
E09  21536858.383 8 113176936.694 8      -583.047          51.000    21536859.906 8  86720018.357 8      -446.727          51.000  
C05  39797700.414 6 207237068.922 6        19.199          36.000    39797698.469 6 160248829.871 6        14.758          40.000  
C19  22364952.883 8 116460197.451 8     -2069.887          51.000                                                                  
> 2020 05 13 04 04  0.0000000  0 14      -0.000000000000
G30  21455655.250 6 112750232.604 6     -2048.340          41.000    21455657.266 7  87857327.946 7     -1596.109          42.000  
G07  23968063.641 5 125952985.41425     -2824.613          33.000    23968061.906 5  98145200.45325     -2200.998          31.000  
G28  20937352.148 8 110026550.841 8       627.129          51.000    20937350.266 8  85735004.317 8       488.672          48.000  
G05  21661819.695 8 113833616.387 8     -2559.602          50.000    21661818.508 8  88701516.445 8     -1994.495          50.000  
R16  19507775.039 7 104206663.868 7     -1756.113          43.000    19507776.828 6  81049612.104 6     -1365.869          39.000  
R05  23384686.602 6 125004139.106 6     -4119.090          41.000    23384688.398 5  97225470.767 5     -3203.740          33.000  
R06  19325294.719 7 103123094.085 7     -1367.727          47.000                                                                  
R09  20692693.742 8 110497526.174 8      2893.031          50.000    20692695.461 7  85942445.691 7      2250.136          46.000  
E24  23022454.312 8 120983804.531 8      2302.500          50.000    23022464.188 8  92701970.094 8      1764.236          50.000  
E04  26658524.672 7 140091610.703 7     -2538.422          47.000    26658528.414 8 107342911.500 8     -1944.972          48.000  
E31  23683188.188 8 124456031.887 8      -374.191          51.000    23683190.148 8  95362442.851 8      -286.724          51.000  
E09  21540273.203 8 113194882.073 8      -596.328          51.000    21540274.523 8  86733768.704 8      -456.918          51.000  
C05  39797648.859 6 207236800.245 6        16.027          36.000    39797646.844 6 160248622.077 6        12.360          40.000  
C19  22376972.078 8 116522783.678 8     -2085.766          51.000                                                                  
> 2020 05 13 04 04 30.0000000  0 13      -0.000000000000
G30  21467405.070 6 112811976.864 6     -2061.965          40.000    21467407.695 6  87905440.340 6     -1606.726          41.000  
G28  20933856.688 8 110008182.439 8       603.227          51.000    20933854.656 8  85720691.268 8       470.047          48.000  
G05  21676504.180 8 113910782.575 8     -2578.883          50.000    21676503.219 8  88761645.926 8     -2009.520          50.000  
R16  19517720.352 7 104259788.978 7     -1779.594          42.000    19517722.812 6  81090931.661 6     -1384.129          38.000  
R05  23407851.523 6 125127976.308 6     -4130.961          39.000                                                                  
R06  19333079.406 7 103164636.100 7     -1395.770          47.000                                                                  
R09  20676514.875 8 110411136.797 8      2872.172          48.000    20676516.555 7  85875253.961 7      2233.915          45.000  
E24  23009367.672 8 120915038.437 8      2287.914          48.000    23009377.781 8  92649279.188 8      1753.117          50.000  
E04  26673062.344 7 140168007.675 7     -2548.855          47.000    26673065.836 8 107401449.424 8     -1952.880          49.000  
E31  23685392.984 8 124467617.883 8      -392.234          51.000    23685395.414 8  95371320.434 8      -300.546          51.000  
E09  21543738.445 8 113213092.372 8      -611.703          51.000    21543739.648 8  86747722.040 8      -468.696          51.000  
C05  39797589.438 6 207236490.730 6        10.695          36.000    39797587.492 6 160248382.729 6         8.340          40.000  
C19  22389056.508 8 116585709.831 8     -2103.512          51.000                                                                  
> 2020 05 13 04 05  0.0000000  0 14      -0.000000000000
G30  21479200.602 6 112873960.597 6     -2069.848          40.000    21479203.594 6  87953739.375 6     -1612.869          40.000  
G13  20426178.039 5 107340287.817 5      1101.215          34.000                                                                  
G28  20930466.547 8 109990368.228 8       585.055          51.000    20930464.445 8  85706810.049 8       455.884          49.000  
G05  21691266.766 8 113988361.139 8     -2592.414          49.000    21691266.211 8  88822096.754 8     -2020.063          49.000  
R16  19527767.750 7 104313459.474 7     -1797.469          42.000    19527769.109 6  81132675.367 6     -1398.031          37.000  
R05  23431051.844 6 125252001.713 6     -4137.316          38.000                                                                  
R06  19340990.578 7 103206850.943 7     -1417.836          47.000                                                                  
R09  20660423.625 8 110325213.215 8      2856.730          50.000    20660424.461 7  85808424.525 7      2221.902          45.000  
E24  22996332.258 7 120846546.904 7      2278.949          45.000    22996344.680 8  92596798.633 8      1746.188          51.000  
E04  26687627.906 8 140244549.232 8     -2553.273          48.000    26687631.539 8 107460098.124 8     -1956.423          50.000  
E31  23687669.773 8 124479582.087 8      -404.660          51.000    23687672.367 8  95380487.812 8      -310.055          51.000  
E09  21547260.531 8 113231602.157 8      -621.496          51.000    21547261.766 8  86761904.837 8      -476.236          51.000  
C05  39797528.570 6 207236174.326 6        11.262          36.000    39797526.672 6 160248138.065 6         8.536          40.000  
C19  22401212.672 8 116649008.612 8     -2115.676          51.000                                                                  
> 2020 05 13 04 05 30.0000000  0 14      -0.000000000000
G30  21491039.031 6 112936169.279 6     -2078.043          41.000    21491042.086 6  88002213.645 6     -1619.258          41.000  
G13  20419922.555 5 107307412.913 5      1089.805          34.000                                                                  
G28  20927179.195 8 109973095.578 8       566.086          50.000    20927177.578 8  85693350.837 8       441.106          49.000  
G05  21706104.461 8 114066336.680 8     -2606.484          48.000    21706104.523 8  88882856.921 8     -2031.027          48.000  
R16  19537914.031 7 104367659.163 7     -1815.895          42.000    19537915.648 6  81174830.682 6     -1412.363          38.000  
R05  23454285.312 6 125376199.707 6     -4143.117          40.000                                                                  
R06  19349025.391 7 103249725.620 7     -1440.770          47.000                                                                  
R09  20644418.141 8 110239743.387 8      2840.770          51.000    20644418.711 7  85741948.017 7      2209.488          46.000  
E24  22983347.664 7 120778317.687 7      2269.262          46.000    22983361.961 8  92544519.055 8      1738.825          51.000  
E04  26702218.609 7 140321221.657 7     -2558.426          47.000    26702222.320 8 107518847.105 8     -1960.389          50.000  
E31  23690015.859 8 124491910.544 8      -417.594          51.000    23690018.250 8  95389934.290 8      -319.987          51.000  
E09  21550837.141 8 113250398.628 8      -631.953          51.000    21550838.508 8  86776307.303 8      -484.212          51.000  
C05  39797464.016 6 207235837.961 6        10.871          36.000    39797462.094 6 160247877.945 6         8.581          40.000  
C19  22413437.875 8 116712665.826 8     -2128.438          51.000                                                                  
> 2020 05 13 04 06  0.0000000  0 15      -0.000000000000
G15  21857039.297 5 114859503.944 5      2620.316          35.000    21857031.039 5  89500900.510 5      2041.806          33.000  
G30  21502915.266 6 112998578.509 6     -2079.559          38.000    21502917.711 6  88050844.197 6     -1620.439          37.000  
G13  20413723.602 5 107274839.345 5      1083.777          31.000    20413718.812 4  83590766.084 4       844.502          29.000  
G28  20923990.672 8 109956341.953 8       553.406          50.000    20923989.242 8  85680296.028 8       431.223          49.000  
G05  21721012.586 7 114144683.903 7     -2614.066          47.000    21721013.430 7  88943906.738 7     -2036.935          47.000  
R16  19548154.453 7 104422361.192 7     -1828.074          42.000    19548155.977 6  81217376.695 6     -1421.836          37.000  
R05  23477547.555 6 125500544.231 6     -4143.742          39.000                                                                  
R06  19357179.320 8 103293235.910 8     -1457.324          48.000                                                                  
R09  20628494.156 8 110154705.865 8      2831.051          51.000    20628494.352 8  85675807.726 8      2201.929          48.000  
E24  22970410.133 8 120710328.687 8      2265.859          49.000    22970424.891 8  92492423.580 8      1736.206          51.000  
E04  26716829.562 7 140398001.372 7     -2557.492          47.000    26716833.523 8 107577678.303 8     -1959.620          50.000  
E31  23692426.656 8 124504579.419 8      -424.391          51.000    23692429.227 8  95399641.605 8      -325.165          51.000  
E09  21554464.031 8 113269459.155 8      -636.172          51.000    21554465.703 8  86790912.100 8      -487.439          51.000  
C05  39797391.305 6 207235458.90226        16.832          36.000    39797389.297 6 160247584.814 6        13.073          40.000  
C19  22425727.164 8 116776657.541 8     -2135.016          51.000                                                                  
> 2020 05 13 04 06 30.0000000  0 15      -0.000000000000
G15  21842134.844 5 114781160.410 5      2606.211          34.000    21842121.930 5  89439853.568 5      2030.790          33.000  
G30  21514838.750 5 113061239.359 5     -2092.871          35.000    21514840.203 5  88099670.760 5     -1630.809          35.000  
G13  20407592.125 5 107242620.781 5      1067.223          35.000    20407589.273 5  83565660.606 5       831.593          34.000  
G28  20920910.898 8 109940159.515 8       529.234          49.000    20920909.867 8  85667686.321 8       412.394          49.000  
G05  21736001.008 7 114223452.346 7     -2633.137          46.000    21736002.266 7  89005284.779 7     -2051.795          46.000  
R16  19558498.312 6 104477616.284 6     -1851.707          41.000    19558499.977 6  81260352.853 6     -1440.217          38.000  
R05  23500848.234 5 125625086.062 5     -4155.027          34.000                                                                  
R06  19365462.305 8 103337434.371 8     -1485.199          48.000                                                                  
R09  20612661.156 8 110070155.233 8      2809.656          51.000    20612661.375 8  85610046.166 8      2185.289          49.000  
E24  22957528.984 8 120642633.161 8      2251.012          51.000    22957543.453 8  92440552.998 8      1724.814          51.000  
E04  26731470.492 7 140474940.110 7     -2567.809          46.000    26731474.727 8 107636631.364 8     -1967.525          49.000  
E31  23694912.070 8 124517640.171 8      -442.465          51.000    23694914.961 8  95409649.202 8      -339.017          51.000  
E09  21558151.156 8 113288836.370 8      -651.711          51.000    21558153.352 8  86805759.543 8      -499.369          51.000  
C05  39797320.242 6 207235088.88326        11.738          36.000    39797318.242 6 160247298.697 6         8.959          40.000  
C19  22438089.969 8 116841034.362 8     -2152.855          51.000                                                                  
> 2020 05 13 04 07  0.0000000  0 14      -0.000000000000
G30  21526833.969 5 113124276.681 5     -2105.520          33.000    21526834.438 5  88148790.765 5     -1640.662          33.000  
G13  20401552.703 5 107210884.490 5      1051.148          34.000    20401549.742 4  83540933.954 4       819.080          27.000  
G28  20917964.070 8 109924675.166 8       506.230          49.000    20917963.477 8  85655620.598 8       394.465          48.000  
G05  21751093.891 8 114302765.924 8     -2651.164          48.000    21751094.914 8  89067087.603 8     -2065.843          48.000  
R16  19568969.234 7 104533549.433 7     -1874.020          42.000    19568971.359 6  81303856.409 6     -1457.571          37.000  
R05  23524208.555 6 125749951.526 6     -4165.754          36.000    23524207.719 4  97805545.28824     -3240.031          26.000  
R06  19373898.367 8 103382448.803 8     -1512.375          48.000                                                                  
R09  20596943.008 8 109986221.536 8      2789.191          50.000    20596943.711 8  85544764.403 8      2169.372          49.000  
E24  22944728.023 8 120575358.384 8      2237.145          51.000    22944741.812 8  92389004.810 8      1714.228          51.000  
E04  26746165.508 7 140552163.549 7     -2577.168          46.000    26746170.102 8 107695802.571 8     -1974.666          48.000  
E31  23697495.836 8 124531218.258 8      -459.531          51.000    23697498.492 8  95420053.193 8      -352.118          51.000  
E09  21561922.773 8 113308656.965 8      -666.348          51.000    21561925.367 8  86820946.735 8      -510.614          51.000  
C05                                                                  39797273.039 6 160247116.409 6         5.706          40.000  
C19  22450549.734 8 116905920.335 8     -2169.789          48.000                                                                  
> 2020 05 13 04 07 30.0000000  0 14      -0.000000000000
G15  21812490.648 5 114625409.91125      2594.883          35.000                                                                  
G13  20395550.195 5 107179342.228 5      1050.922          35.000    20395548.836 5  83516355.663 5       818.900          34.000  
G28  20915095.133 8 109909600.060 8       498.457          48.000    20915094.375 7  85643873.740 7       388.408          46.000  
G05  21766235.438 8 114382332.870 8     -2653.707          50.000    21766235.844 8  89129087.819 8     -2067.824          50.000  
R16  19579511.523 6 104589863.554 6     -1880.551          40.000    19579513.570 6  81347656.277 6     -1462.651          37.000  
R05  23547572.586 6 125874843.280 6     -4160.520          38.000    23547568.164 4  97902670.17024     -3235.963          27.000  
R06  19382431.766 7 103427984.394 7     -1523.680          47.000                                                                  
R09  20581285.648 8 109902612.207 8      2784.398          50.000    20581286.883 8  85479734.921 8      2165.644          50.000  
E24  22931952.172 8 120508215.997 8      2238.668          51.000    22931964.859 8  92337558.062 8      1715.341          51.000  
E04  26760859.789 7 140629381.884 7     -2571.098          45.000    26760864.484 7 107754969.873 7     -1970.051          47.000  
E31  23700122.828 8 124545023.578 8      -461.172          51.000    23700125.352 8  95430631.279 8      -353.336          51.000  
E09  21565723.664 8 113328631.976 8      -665.602          51.000    21565726.805 8  86836252.258 8      -510.034          51.000  
C05  39797200.508 6 207234465.126 6        18.016          36.000    39797198.508 6 160246816.334 6        14.160          40.000  
C19  22463051.141 7 116971027.545 7     -2171.098          47.000                                                                  
> 2020 05 13 04 08  0.0000000  0 13      -0.000000000000
G13  20389610.023 5 107148126.183 5      1017.410          34.000    20389608.711 5  83492031.513 5       792.787          34.000  
G28  20912329.055 8 109895065.032 8       457.980          48.000    20912328.148 7  85632547.720 7       356.868          46.000  
G05  21781449.906 8 114462281.956 8     -2688.789          51.000    21781448.953 8  89191385.766 8     -2095.161          51.000  
R16  19590149.641 6 104646688.636 6     -1920.391          41.000    19590151.172 5  81391853.543 5     -1493.637          35.000  
R05  23570965.336 6 125999892.061 6     -4188.559          38.000    23570962.641 4  97999932.761 4     -3257.771          29.000  
R06  19391087.422 7 103474173.617 7     -1568.270          45.000                                                                  
R09  20565714.148 8 109819461.503 8      2746.215          50.000    20565715.711 8  85415062.170 8      2135.945          49.000  
E24  22919226.180 8 120441337.598 8      2207.324          51.000    22919237.688 8  92286313.584 8      1691.399          49.000  
E04  26775577.953 7 140706725.139 7     -2597.680          46.000    26775582.344 7 107814232.859 7     -1990.431          44.000  
E31  23702817.820 8 124559185.896 8      -495.535          51.000    23702820.703 8  95441482.928 8      -379.726          51.000  
E09  21569578.766 8 113348892.424 8      -697.586          50.000    21569582.711 8  86851776.500 8      -534.532          51.000  
C05  39797121.531 6 207234055.242 6        -3.258          36.000    39797119.594 6 160246498.578 6        -2.368          39.000  
C19  22475620.609 8 117036484.248 8     -2205.020          48.000                                                                  
> 2020 05 13 04 08 30.0000000  0 15      -0.000000000000
G15  21783058.766 5 114470746.10725      2572.289          32.000                                                                  
G30  21563036.445 5 113314512.680 5     -2123.379          31.000    21563037.672 5  88297019.949 5     -1654.581          31.000  
G13  20383775.555 5 107117467.593 5      1022.680          33.000    20383774.281 5  83468141.746 5       796.906          30.000  
G28  20909709.969 8 109881300.118 8       456.062          49.000    20909709.008 7  85621821.826 7       355.373          46.000  
G05  21796780.492 8 114542840.554 8     -2685.344          51.000    21796777.758 8  89254158.647 8     -2092.476          51.000  
R16  19600926.242 6 104704255.591 6     -1920.562          38.000    19600927.477 6  81436627.845 6     -1493.768          36.000  
R05  23594430.266 6 126125329.541 6     -4177.812          36.000    23594432.641 5  98097495.192 5     -3249.413          30.000  
R06  19399908.586 7 103521249.176 7     -1573.844          44.000                                                                  
R09  20550272.188 8 109737005.091 8      2747.105          49.000    20550273.930 8  85350929.409 8      2136.638          48.000  
E24  22906593.797 8 120374954.322 8      2214.629          51.000    22906604.312 8  92235448.506 8      1696.868          48.000  
E04  26790364.039 8 140784422.920 8     -2585.852          48.000    26790365.789 7 107873767.469 7     -1981.368          43.000  
E31  23705624.344 8 124573934.605 8      -491.297          51.000    23705627.336 8  95452783.886 8      -376.478          51.000  
E09  21573532.281 8 113369668.904 8      -691.066          51.000    21573536.797 8  86867696.153 8      -529.549          51.000  
C05  39797082.047 6 207233848.609 6        13.348          36.000    39797080.141 6 160246339.573 6        10.297          40.000  
C19  22488302.078 8 117102517.441 8     -2200.723          51.000                                                                  
> 2020 05 13 04 09  0.0000000  0 12      -0.000000000000
G30  21575188.148 5 113378366.198 5     -2134.023          32.000    21575187.133 5  88346775.877 5     -1662.882          34.000  
G28  20907166.844 8 109867933.823 8       435.043          50.000    20907165.477 7  85611406.552 7       338.998          46.000  
G05  21812155.711 8 114623633.794 8     -2700.848          51.000    21812151.609 8  89317114.367 8     -2104.557          51.000  
R16  19611770.664 6 104762183.500 6     -1940.727          38.000    19611771.250 5  81481682.856 5     -1509.457          35.000  
R06  19408824.945 7 103568832.968 7     -1598.375          45.000                                                                  
R09  20534889.609 8 109654866.466 8      2728.707          49.000    20534891.477 8  85287043.793 8      2122.328          48.000  
E24  22893984.586 8 120308695.171 8      2202.734          51.000    22893994.336 8  92184678.525 8      1687.810          48.000  
E04  26805147.078 8 140862102.754 8     -2593.012          50.000    26805144.961 7 107933288.277 7     -1986.815          44.000  
E31  23708471.508 8 124588896.932 8      -506.102          51.000    23708474.148 8  95464248.511 8      -387.795          51.000  
E09  21577513.641 8 113390589.827 8      -703.625          51.000    21577518.406 8  86883726.481 8      -539.159          51.000  
C05  39797011.133 6 207233479.720 6        11.672          36.000    39797009.281 6 160246054.334 6         8.479          40.000  
C19  22501024.055 8 117168757.376 8     -2215.211          51.000                                                                  
> 2020 05 13 04 09 30.0000000  0 14      -0.000000000000
G30  21587391.555 5 113442507.663 5     -2143.590          32.000    21587389.617 5  88396744.538 5     -1670.330          32.000  
G13  20372254.406 4 107056918.61024       993.586          29.000                                                                  
G28  20904738.328 8 109855169.857 8       413.961          51.000    20904736.188 7  85601460.613 7       322.567          46.000  
G05  21827613.742 8 114704863.266 8     -2716.328          51.000    21827609.125 8  89380409.999 8     -2116.623          51.000  
R16  19622720.133 6 104820675.976 6     -1960.773          38.000    19622721.930 6  81527177.007 6     -1525.046          36.000  
R06  19417875.594 7 103617130.656 7     -1623.344          45.000                                                                  
R09  20519606.320 8 109573253.999 8      2710.156          51.000    20519607.625 7  85223567.430 7      2107.897          47.000  
E24  22881437.992 8 120242764.580 8      2190.617          51.000    22881447.578 8  92134160.282 8      1678.559          49.000  
E04  26819965.406 8 140939967.549 8     -2600.090          51.000    26819960.609 7 107992950.856 7     -1992.418          45.000  
E31  23711397.883 8 124604275.504 8      -521.062          51.000    23711400.477 8  95476032.090 8      -399.259          51.000  
E09  21581561.430 8 113411859.057 8      -716.348          51.000    21581566.258 8  86900023.684 8      -548.866          51.000  
C22  22453683.188 5 116922226.178 5       899.047          35.000                                                                  
C05  39796947.766 6 207233149.384 6         8.953          36.000    39796945.781 6 160245798.843 6         6.932          40.000  
C19  22513824.352 8 117235404.441 8     -2229.770          51.000                                                                  
> 2020 05 13 04 10  0.0000000  0 14      -0.000000000000
G30  21599639.164 5 113506870.270 5     -2148.820          31.000    21599638.867 5  88446897.970 5     -1674.409          32.000  
G13  20366600.352 5 107027201.033 5       985.488          35.000    20366596.938 5  83397815.719 5       767.913          33.000  
G28  20902417.781 8 109842973.816 8       397.879          51.000    20902415.516 7  85591957.234 7       310.036          47.000  
G05  21843147.297 8 114786491.369 8     -2726.750          51.000    21843142.812 8  89444016.274 8     -2124.741          51.000  
R16  19633768.859 6 104879694.853 6     -1975.059          38.000    19633771.422 5  81573080.598 5     -1536.154          35.000  
R06  19427053.336 7 103666106.741 7     -1642.895          46.000                                                                  
R09  20504415.602 8 109492134.122 8      2696.680          50.000    20504416.078 8  85160474.186 8      2097.418          48.000  
E24  22868948.094 8 120177128.759 8      2183.727          51.000    22868957.953 8  92083867.911 8      1673.267          49.000  
E04  26834811.938 8 141017982.083 8     -2602.199          51.000    26834806.781 7 108052728.168 7     -1993.786          47.000  
E31  23714396.727 8 124620034.778 8      -530.836          51.000    23714399.602 8  95488107.376 8      -406.739          51.000  
E09  21585669.031 8 113433442.278 8      -723.887          51.000    21585673.594 8  86916561.459 8      -554.661          51.000  
C22  22448530.977 5 116895413.574 5       887.621          33.000                                                                  
C05  39796885.102 6 207232823.178 6        10.996          36.000    39796883.227 6 160245546.583 6         8.953          40.000  
C19  22526695.688 8 117302423.032 8     -2239.332          51.000                                                                  
> 2020 05 13 04 10 30.0000000  0 14      -0.000000000000
G30  21611926.570 6 113571442.655 6     -2156.172          36.000    21611927.508 6  88497214.152 6     -1680.131          36.000  
G13  20361007.039 6 106997810.587 6       973.672          38.000    20361001.391 5  83374914.075 5       758.709          35.000  
G28  20900200.016 8 109831318.842 8       379.246          51.000    20900197.820 7  85582875.467 7       295.517          47.000  
G05  21858750.734 8 114868489.190 8     -2739.602          50.000    21858747.188 8  89507910.657 8     -2134.755          50.000  
R16  19644909.938 6 104939209.864 6     -1992.137          38.000    19644911.766 5  81619370.023 5     -1549.440          34.000  
R06  19436353.594 8 103715732.544 8     -1665.273          48.000                                                                  
R09  20489311.617 8 109411480.418 8      2680.301          50.000    20489312.422 8  85097743.566 8      2084.679          50.000  
E24  22856509.711 8 120111761.701 8      2174.156          51.000    22856520.078 8  92033781.470 8      1665.943          51.000  
E04  26849681.297 8 141096118.816 8     -2606.770          51.000    26849676.891 8 108112599.143 8     -1997.459          48.000  
E31  23717462.719 8 124636146.973 8      -543.223          51.000    23717465.531 8  95500453.092 8      -416.197          51.000  
E09  21589831.398 8 113455312.886 8      -734.039          51.000    21589835.414 8  86933319.444 8      -562.422          51.000  
C22  22443462.289 5 116869032.080 5       871.883          33.000                                                                  
C05  39796818.141 5 207232474.505 5        11.762          35.000    39796816.211 6 160245276.953 6         9.092          40.000  
C19  22539632.086 8 117369785.302 8     -2251.441          51.000                                                                  
> 2020 05 13 04 11  0.0000000  0 14      -0.000000000000
G30  21624259.375 6 113636252.596 6     -2163.168          36.000    21624261.508 5  88547715.440 5     -1685.583          35.000  
G13  20355482.805 6 106968783.906 6       962.035          39.000    20355476.977 6  83352295.884 6       749.641          37.000  
G28  20898090.867 8 109820235.054 8       360.531          51.000    20898088.555 7  85574238.766 7       280.934          47.000  
G05  21874429.070 8 114950883.735 8     -2752.500          49.000    21874427.469 8  89572114.223 8     -2144.803          49.000  
R16  19656149.047 6 104999248.043 6     -2009.445          41.000    19656151.625 5  81666066.409 5     -1562.902          34.000  
R06  19445781.430 8 103766038.196 8     -1687.637          48.000                                                                  
R09  20474301.531 8 109331325.259 8      2664.090          51.000    20474302.281 8  85035400.662 8      2072.070          50.000  
E24  22844128.445 8 120046694.257 8      2164.543          51.000    22844139.297 8  91983924.613 8      1658.508          51.000  
E04  26864579.148 8 141174407.113 8     -2611.562          50.000    26864575.812 8 108172586.243 8     -2000.973          49.000  
E31  23720601.500 8 124652641.144 8      -555.535          51.000    23720603.727 8  95513091.471 8      -425.667          51.000  
E09  21594054.227 8 113477501.175 8      -744.297          51.000    21594057.477 8  86950320.844 8      -570.315          51.000  
C22  22438485.516 5 116843112.537 5       857.273          33.000                                                                  
C05  39796752.516 6 207232133.007 6        12.266          36.000    39796750.586 6 160245012.870 6         9.231          40.000  
C19  22552638.969 8 117437519.620 8     -2263.457          50.000                                                                  
> 2020 05 13 04 11 30.0000000  0 14      -0.000000000000
G30  21636632.102 5 113701272.183 5     -2171.039          31.000    21636634.383 5  88598380.077 5     -1691.722          33.000  
G13  20350023.055 6 106940095.117 6       950.879          38.000    20350020.273 5  83329940.992 5       740.948          34.000  
G28  20896085.391 8 109809695.952 8       342.266          51.000    20896083.414 7  85566026.499 7       266.701          47.000  
G05  21890177.180 8 115033645.869 8     -2764.887          50.000    21890177.773 8  89636604.235 8     -2154.458          50.000  
R16  19667480.852 6 105059779.693 6     -2025.879          39.000    19667483.859 5  81713146.557 5     -1575.684          34.000  
R06  19455331.328 8 103816995.394 8     -1709.301          48.000                                                                  
R09  20459380.219 8 109251642.692 8      2648.184          51.000    20459380.273 8  84973425.335 8      2059.699          49.000  
E24  22831799.141 8 119981900.688 8      2155.102          51.000    22831810.180 8  91934277.599 8      1651.301          51.000  
E04  26879500.461 8 141252819.719 8     -2615.984          49.000    26879498.367 8 108232668.596 8     -2004.352          49.000  
E31  23723807.656 8 124669489.737 8      -567.625          51.000    23723809.742 8  95526001.447 8      -434.955          51.000  
E09  21598332.375 8 113499980.813 8      -754.305          51.000    21598334.742 8  86967545.480 8      -578.001          51.000  
C22  22433592.469 6 116817629.820 6       842.266          37.000                                                                  
C05  39796683.305 6 207231772.468 6        12.605          36.000    39796681.367 6 160244734.072 6         9.457          40.000  
C19  22565711.805 8 117505598.311 8     -2274.895          48.000                                                                  
> 2020 05 13 04 12  0.0000000  0 14      -0.000000000000
G30  21649047.109 5 113766504.439 5     -2179.461          32.000    21649047.648 5  88649227.677 5     -1698.282          32.000  
G13  20344630.398 6 106911758.023 6       938.109          40.000    20344627.203 5  83307860.148 5       730.995          31.000  
G28  20894185.891 8 109799713.796 8       322.926          51.000    20894184.352 8  85558248.228 8       251.631          48.000  
G05  21905997.906 8 115116785.282 8     -2778.105          51.000    21905999.578 8  89701388.218 8     -2164.758          51.000  
R16  19678906.367 6 105120813.715 6     -2043.344          40.000    19678909.297 5  81760617.487 5     -1589.268          34.000  
R06  19465005.531 8 103868615.794 8     -1732.148          49.000                                                                  
R09  20444549.648 8 109172446.762 8      2631.164          51.000    20444549.102 8  84911828.480 8      2046.461          48.000  
E24  22819524.242 8 119917394.194 8      2144.926          51.000    22819535.273 8  91884850.556 8      1643.557          51.000  
E04  26894447.406 8 141331368.394 8     -2621.027          49.000    26894446.594 8 108292855.204 8     -2008.288          50.000  
E31  23727083.484 8 124686704.207 8      -580.305          51.000    23727085.758 8  95539191.767 8      -444.730          51.000  
E09  21602668.055 8 113522764.458 8      -765.035          51.000    21602670.117 8  86985003.041 8      -586.121          51.000  
C22  22428786.555 6 116792597.281 6       826.371          38.000                                                                  
C05  39796612.836 5 207231405.063 5        11.949          35.000    39796610.820 6 160244449.932 6         9.170          40.000  
C19  22578853.086 8 117574032.360 8     -2287.496          48.000                                                                  
> 2020 05 13 04 12 30.0000000  0 14      -0.000000000000
G30  21661506.648 6 113831971.281 6     -2186.047          38.000    21661505.859 6  88700240.801 6     -1703.414          39.000  
G13  20339306.203 6 106883780.733 6       926.496          39.000    20339302.758 5  83286059.674 5       721.948          33.000  
G28  20892393.766 8 109790295.957 8       304.391          51.000    20892392.492 8  85550909.654 8       237.188          48.000  
G05  21921891.992 8 115200307.446 8     -2790.648          51.000    21921893.680 8  89766470.437 8     -2174.532          51.000  
R16  19690427.312 6 105182354.990 6     -2060.312          40.000    19690429.039 5  81808482.852 5     -1602.469          34.000  
R06  19474805.078 8 103920905.691 8     -1754.312          49.000                                                                  
R09  20429811.031 8 109093746.166 8      2614.812          51.000    20429810.797 7  84850616.871 7      2033.740          47.000  
E24  22807305.273 8 119853182.913 8      2135.184          51.000    22807316.219 8  91835649.721 8      1636.096          51.000  
E04  26909421.516 8 141410059.715 8     -2625.551          50.000    26909421.898 8 108353151.122 8     -2011.868          50.000  
E31  23730430.125 8 124704290.881 8      -592.559          51.000    23730432.391 8  95552667.267 8      -454.054          51.000  
E09  21607062.820 8 113545859.657 8      -775.199          51.000    21607064.891 8  87002699.328 8      -594.002          51.000  
C22  22424068.805 6 116768023.330 6       811.379          36.000                                                                  
C05  39796542.422 6 207231038.978 6        12.297          36.000    39796540.430 6 160244166.086 6         9.161          40.000  
C19  22592064.594 8 117642827.680 8     -2299.305          49.000                                                                  
> 2020 05 13 04 13  0.0000000  0 14      -0.000000000000
G30  21674008.742 6 113897672.862 6     -2194.027          38.000    21674008.727 6  88751436.836 6     -1709.632          38.000  
G13  20334052.844 7 106856173.735 7       913.773          43.000    20334049.688 6  83264547.705 6       712.034          36.000  
G28  20890710.688 8 109781451.938 8       285.023          51.000    20890709.406 8  85544018.204 8       222.096          48.000  
G05  21937860.336 8 115284218.854 8     -2803.656          51.000    21937861.438 8  89831855.948 8     -2184.668          51.000  
R16  19702043.805 6 105244409.622 6     -2077.188          39.000    19702046.734 5  81856747.581 5     -1615.591          34.000  
R06  19484731.516 8 103973874.065 8     -1777.012          50.000                                                                  
R09  20415167.711 8 109015552.158 8      2597.734          51.000    20415167.477 7  84789799.277 7      2020.460          46.000  
E24  22795144.188 8 119789277.055 8      2124.910          51.000    22795155.438 8  91786682.904 8      1628.203          51.000  
E04  26924424.656 8 141488902.447 8     -2630.793          50.000    26924425.453 8 108413563.067 8     -2015.824          50.000  
E31  23733849.164 8 124722258.206 8      -605.434          51.000    23733851.219 8  95566434.428 8      -463.892          51.000  
E09  21611518.672 8 113569276.090 8      -786.070          51.000    21611520.648 8  87020641.753 8      -602.323          51.000  
C22  22419439.719 5 116743918.587 5       795.504          33.000                                                                  
C05  39796473.711 5 207230681.574 5        11.426          35.000    39796471.805 6 160243889.675 6         9.004          40.000  
C19  22605347.586 8 117711992.264 8     -2311.879          51.000                                                                  
> 2020 05 13 04 13 30.0000000  0 15      -0.000000000000
G30  21686531.375 6 113963484.179 6     -2200.070          37.000    21686532.203 6  88802718.357 6     -1714.341          37.000  
G13  20328846.750 7 106828814.812 7       903.402          42.000    20328844.109 5  83243229.066 5       703.950          35.000  
G28  20889113.242 8 109773058.024 8       267.738          50.000    20889112.273 8  85537477.491 8       208.627          49.000  
G05  21953878.555 8 115368392.909 8     -2814.656          51.000    21953878.875 8  89897446.101 8     -2193.239          51.000  
R16  19713732.609 6 105306848.824 6     -2092.289          37.000    19713735.734 5  81905311.376 5     -1627.336          34.000  
R06  19494761.273 8 104027394.233 8     -1797.871          48.000                                                                  
R09  20400596.172 8 108937740.024 8      2582.770          51.000    20400595.883 7  84729278.773 7      2008.821          47.000  
E24  22783017.617 8 119725553.803 8      2116.547          51.000    22783029.727 8  91737855.994 8      1621.798          51.000  
E04  26939432.922 8 141567772.280 8     -2634.004          49.000    26939434.219 8 108473995.741 8     -2018.249          50.000  
E31  23737317.109 8 124740481.538 8      -616.164          51.000    23737319.047 8  95580397.743 8      -472.165          51.000  
E09  21616012.258 8 113592890.287 8      -794.922          51.000    21616013.922 8  87038735.740 8      -609.141          51.000  
E01  27231134.555 5 143100577.319 5     -2709.984          34.000    27231135.758 5 109648499.443 5     -2076.552          34.000  
C22  22414875.750 5 116720161.426 5       782.184          32.000                                                                  
C05  39796383.406 6 207230210.29926        13.113          36.000    39796381.539 6 160243526.000 6        10.179          40.000  
C19  22618677.828 8 117781402.249 8     -2322.266          51.000                                                                  
> 2020 05 13 04 14  0.0000000  0 15      -0.000000000000
G30  21699121.867 5 114029648.752 5     -2208.434          34.000    21699122.094 5  88854275.174 5     -1720.858          33.000  
G13  20323734.680 7 106801949.880 7       890.395          43.000    20323732.031 6  83222295.353 6       693.814          38.000  
G28  20887648.125 8 109765358.912 8       248.066          50.000    20887647.453 8  85531478.183 8       193.299          49.000  
G05  21969992.812 8 115453072.057 8     -2828.020          51.000    21969992.102 8  89963429.805 8     -2203.655          51.000  
R16  19725539.125 6 105369918.439 6     -2109.957          38.000    19725541.891 5  81954365.553 5     -1641.078          33.000  
R06  19504940.539 7 104081714.081 7     -1820.828          47.000                                                                  
R09  20386142.719 8 108860560.058 8      2565.195          51.000    20386142.750 8  84669249.961 8      1995.155          48.000  
E24  22770972.414 8 119662258.773 8      2105.781          51.000    22770985.625 8  91689357.208 8      1613.531          51.000  
E04  26954493.016 8 141646913.370 8     -2639.461          48.000    26954494.406 8 108534636.301 8     -2022.436          50.000  
E31  23740879.930 8 124759204.755 8      -629.336          51.000    23740882.219 8  95594744.100 8      -482.204          51.000  
E09  21620590.031 8 113616947.411 8      -806.184          51.000    21620591.406 8  87057169.113 8      -617.701          51.000  
E01  27246628.000 5 143181995.608 5     -2715.031          33.000    27246630.195 5 109710887.179 5     -2080.670          35.000  
C22  22410425.734 5 116696995.709 5       765.176          31.000                                                                  
C05  39796317.969 5 207229869.775 5        12.324          35.000    39796316.172 6 160243262.676 6         9.527          40.000  
C19  22632101.109 8 117851298.888 8     -2334.934          51.000                                                                  
> 2020 05 13 04 14 30.0000000  0 15      -0.000000000000
G30  21711748.578 5 114096004.372 5     -2215.934          34.000    21711749.078 5  88905980.834 5     -1726.702          35.000  
G13  20318686.211 7 106775419.287 7       877.938          44.000    20318683.648 6  83201622.143 6       684.107          37.000  
G28  20886284.469 8 109758193.592 8       229.262          50.000    20886283.789 8  85525894.820 8       178.646          48.000  
G05  21986171.945 8 115538092.732 8     -2840.434          51.000    21986170.328 8  90029679.643 8     -2213.329          51.000  
R16  19737432.945 6 105433451.619 6     -2126.172          39.000    19737434.812 5  82003780.226 5     -1653.693          34.000  
R06  19515238.867 7 104136668.421 7     -1843.031          47.000                                                                  
R09  20371776.836 8 108783849.901 8      2548.340          51.000    20371778.352 8  84609586.534 8      1982.042          49.000  
E24  22758978.273 8 119599231.885 8      2095.711          51.000    22758992.297 8  91641063.871 8      1605.796          51.000  
E04  26969573.383 7 141726164.211 7     -2644.305          45.000    26969575.672 8 108595360.919 8     -2026.100          51.000  
E31  23744507.062 8 124778265.949 8      -641.781          51.000    23744509.422 8  95609349.418 8      -491.710          51.000  
E09  21625221.414 8 113641286.751 8      -816.758          51.000    21625222.695 8  87075818.740 8      -625.825          51.000  
E01                                                                  27262141.727 6 109773341.864 6     -2083.403          36.000  
C22  22406059.461 5 116674232.944 5       750.547          30.000                                                                  
C05  39796246.914 5 207229500.616 5        11.953          35.000    39796245.078 6 160242976.411 6         9.261          40.000  
C19  22645586.781 8 117921521.349 8     -2346.902          51.000                                                                  
> 2020 05 13 04 15  0.0000000  0 15      -0.000000000000
G30  21724416.586 6 114162576.291 6     -2222.527          36.000    21724417.781 5  88957855.050 5     -1731.843          35.000  
G13  20313706.227 7 106749250.452 7       866.461          43.000    20313704.312 6  83181230.843 6       675.165          38.000  
G28  20885027.664 8 109751588.659 8       211.090          51.000    20885026.688 8  85520748.117 8       164.489          49.000  
G05  22002420.328 8 115623478.809 8     -2852.047          48.000    22002418.414 8  90096214.219 8     -2222.375          49.000  
R16  19749417.320 6 105497472.362 6     -2142.035          38.000    19749420.570 5  82053574.182 5     -1666.028          35.000  
R06  19525661.336 7 104192283.140 7     -1864.602          47.000                                                                  
R09  20357504.656 8 108707638.029 8      2532.207          51.000    20357507.125 8  84550310.624 8      1969.492          49.000  
E24  22747040.531 8 119536500.489 8      2086.262          51.000    22747054.977 8  91592996.944 8      1598.577          51.000  
E04  26984679.227 6 141805550.631 6     -2648.285          41.000    26984682.641 8 108656189.431 8     -2029.201          50.000  
E31  23748203.492 8 124797690.697 8      -653.344          51.000    23748205.508 8  95624233.318 8      -500.641          51.000  
E09  21629911.867 8 113665935.123 8      -826.555          51.000    21629913.180 8  87094705.154 8      -633.355          51.000  
E01                                                                  27277674.531 6 109835882.735 6     -2085.980          36.000  
C22  22401781.867 5 116651955.836 5       734.906          32.000                                                                  
C05  39796175.078 6 207229126.042 6        12.438          36.000    39796173.375 6 160242687.533 6         9.744          40.000  
C19  22659139.750 8 117992094.558 8     -2358.125          51.000                                                                  
> 2020 05 13 04 15 30.0000000  0 15      -0.000000000000
G30  21737151.656 6 114229500.063 6     -2229.266          38.000    21737153.078 6  89010003.474 6     -1737.094          38.000  
G13  20308821.305 7 106723581.787 7       854.672          43.000    20308820.055 6  83161229.265 6       665.978          39.000  
G28  20883903.453 8 109745680.826 8       192.863          51.000    20883902.398 8  85516144.619 8       150.283          48.000  
G05  22018763.117 7 115709364.358 7     -2863.844          46.000    22018761.867 7  90163138.027 7     -2231.567          46.000  
R16  19761518.977 6 105562116.883 6     -2157.789          38.000    19761521.336 5  82103853.236 5     -1678.281          31.000  
R06  19536233.133 7 104248696.443 7     -1885.902          46.000                                                                  
R09  20343352.297 8 108632064.631 8      2516.121          51.000    20343354.945 8  84491531.307 8      1956.984          48.000  
E24  22735185.422 8 119474202.256 8      2076.898          51.000    22735200.164 8  91545261.909 8      1591.438          51.000  
E04  26999836.250 6 141885208.989 6     -2652.219          38.000    26999840.711 8 108717226.246 8     -2032.239          49.000  
E31  23751994.930 8 124817614.923 8      -664.934          51.000    23751996.844 8  95639499.923 8      -509.447          51.000  
E09  21634687.422 8 113691029.678 8      -836.332          51.000    21634688.727 8  87113933.453 8      -640.865          51.000  
E01                                                                  27293254.250 6 109898613.488 6     -2088.455          36.000  
C22  22397620.320 5 116630280.870 5       719.668          33.000                                                                  
C05  39796128.781 5 207228884.746 5        13.328          35.000    39796127.078 6 160242500.923 6        10.197          40.000  
C19  22672785.734 8 118063152.807 8     -2369.258          51.000                                                                  
> 2020 05 13 04 16  0.0000000  0 15      -0.000000000000
G30  21749875.086 6 114296361.696 6     -2238.973          38.000    21749876.461 6  89062103.458 6     -1744.651          39.000  
G13  20303953.289 7 106698001.293 7       840.117          43.000    20303952.633 6  83141296.426 6       654.637          39.000  
G28  20882833.297 8 109740057.012 8       171.672          50.000    20882832.070 8  85511762.426 8       133.770          48.000  
G05  22035121.336 7 115795334.301 7     -2877.992          46.000    22035121.547 7  90230127.617 7     -2242.589          46.000  
R16  19773657.766 6 105626962.024 6     -2176.008          38.000    19773659.195 5  82154288.323 5     -1692.448          33.000  
R06  19546875.656 8 104305487.905 8     -1910.668          48.000                                                                  
R09  20329240.844 8 108556711.541 8      2496.852          51.000    20329243.234 7  84432923.379 7      1941.996          47.000  
E24  22723334.656 8 119411925.157 8      2064.531          51.000    22723349.586 8  91497543.093 8      1581.864          51.000  
E04  27014964.578 5 141964725.412 5     -2659.195          35.000    27014972.094 8 108778154.514 8     -2037.611          48.000  
E31  23755802.773 8 124837624.807 8      -679.469          51.000    23755804.867 8  95654832.156 8      -520.620          51.000  
E09  21639469.305 8 113716157.823 8      -849.211          51.000    21639470.586 8  87133187.485 8      -650.694          51.000  
E01                                                                  27308802.102 6 109961216.661 6     -2093.008          37.000  
C22  22393495.781 5 116608795.070 5       702.105          35.000                                                                  
C05  39796029.352 5 207228366.712 5        10.656          35.000    39796027.523 6 160242100.312 6         8.449          40.000  
C19  22686445.555 8 118134285.624 8     -2383.172          50.000                                                                  
> 2020 05 13 04 16 30.0000000  0 15      -0.000000000000
G30  21762673.359 6 114363615.180 6     -2244.469          37.000    21762675.148 6  89114508.716 6     -1748.937          37.000  
G13  20299189.000 7 106672965.619 7       829.438          42.000    20299188.891 6  83121788.107 6       646.312          40.000  
G28  20881903.680 8 109735172.498 8       154.578          49.000    20881902.531 8  85507956.315 8       120.454          49.000  
G05  22051582.031 7 115881840.937 7     -2888.465          47.000    22051583.344 7  90297535.417 7     -2250.752          47.000  
R16  19785920.586 6 105692467.457 6     -2190.195          39.000    19785922.617 5  82205237.020 5     -1703.486          33.000  
R06  19557675.492 7 104363119.454 7     -1930.984          46.000                                                                  
R09  20315257.766 8 108482042.616 8      2481.605          51.000    20315259.688 7  84374847.593 7      1930.138          47.000  
E24  22711574.938 8 119350125.285 8      2056.059          51.000    22711589.781 8  91450189.946 8      1575.417          51.000  
E04  27030154.797 6 142044554.961 6     -2662.379          41.000    27030162.133 7 108839322.630 7     -2039.826          46.000  
E31  23759713.336 8 124858174.621 8      -689.961          51.000    23759715.516 8  95670578.133 8      -528.690          51.000  
E09  21644344.203 8 113741775.102 8      -858.066          51.000    21644345.398 8  87152816.305 8      -657.498          51.000  
E01                                                                  27324404.375 6 110024039.947 6     -2094.819          37.000  
C22  22389493.789 6 116587950.795 6       688.070          37.000                                                                  
C05                                                                  39795961.523 6 160241834.581 6         9.765          39.000  
C19  22700205.812 8 118205942.838 8     -2393.375          49.000                                                                  
> 2020 05 13 04 17  0.0000000  0 15      -0.000000000000
G30  21775505.586 6 114431045.294 6     -2251.020          38.000    21775506.922 6  89167051.634 6     -1754.042          38.000  
G13  20294487.836 7 106648261.844 7       817.629          42.000    20294487.656 6  83102538.412 6       637.114          41.000  
G28  20881073.844 8 109730813.205 8       136.094          49.000    20881073.133 8  85504559.469 8       106.047          48.000  
G05  22068104.625 8 115968668.071 8     -2900.004          48.000    22068106.070 8  90365192.933 8     -2259.744          48.000  
R16  19798265.680 6 105758412.784 6     -2206.270          36.000    19798267.383 5  82256527.767 5     -1715.988          33.000  
R06  19568591.477 7 104421371.745 7     -1952.422          47.000                                                                  
R09  20301362.562 8 108407841.706 8      2465.117          51.000    20301364.328 8  84317135.780 8      1917.314          48.000  
E24  22699865.547 8 119288589.485 8      2046.352          51.000    22699880.008 8  91403039.160 8      1567.985          51.000  
E04  27045366.133 7 142124482.903 7     -2666.352          46.000    27045371.375 7 108900566.142 7     -2043.011          47.000  
E31  23763685.797 8 124879049.485 8      -701.574          51.000    23763687.633 8  95686573.151 8      -537.603          51.000  
E09  21649271.508 8 113767667.806 8      -868.043          51.000    21649272.719 8  87172656.171 8      -665.151          51.000  
E01                                                                  27340019.969 6 110086918.269 6     -2097.264          36.000  
C22  22385574.508 6 116567537.083 6       672.773          38.000                                                                  
C05  39795890.211 5 207227641.931 5        13.332          35.000    39795888.305 6 160241539.847 6        10.080          39.000  
C19  22714026.109 8 118277911.095 8     -2404.523          50.000                                                                  
> 2020 05 13 04 17 30.0000000  0 15      -0.000000000000
G30  21788377.492 5 114498685.881 5     -2257.992          35.000    21788378.500 6  89219758.525 6     -1759.475          36.000  
G13  20289856.875 7 106623926.316 7       804.820          44.000    20289856.328 6  83083575.653 6       627.136          40.000  
G28  20880350.750 8 109727013.965 8       117.211          48.000    20880350.125 8  85501598.987 8        91.333          48.000  
G05  22084694.875 8 116055848.199 8     -2911.953          49.000    22084695.828 8  90433125.502 8     -2269.055          49.000  
R16  19810699.211 6 105824830.550 6     -2222.160          38.000    19810702.086 5  82308186.041 5     -1728.350          34.000  
R06  19579630.680 8 104480279.733 8     -1974.688          48.000                                                                  
R09  20287561.570 8 108334145.636 8      2448.098          50.000    20287563.547 8  84259816.607 8      1904.076          49.000  
E24  22688213.086 8 119227353.606 8      2036.266          51.000    22688227.148 8  91356118.183 8      1560.203          51.000  
E04  27060603.141 7 142204543.697 7     -2670.887          47.000    27060606.148 7 108961911.337 7     -2046.471          47.000  
E31  23767726.430 8 124900283.415 8      -713.777          51.000    23767728.273 8  95702843.296 8      -546.951          51.000  
E09  21654257.961 8 113793871.179 8      -878.621          51.000    21654259.266 8  87192734.080 8      -673.224          51.000  
E01                                                                  27355655.297 5 110149877.315 5     -2099.874          35.000  
C22  22381745.242 6 116547589.701 6       657.027          39.000                                                                  
C05  39795816.602 5 207227258.997 5        12.836          35.000    39795814.570 6 160241242.950 6         9.974          40.000  
C19  22727913.086 8 118350223.703 8     -2416.219          51.000                                                                  
> 2020 05 13 04 18  0.0000000  0 15      -0.000000000000
G30  21801290.719 6 114566544.728 6     -2265.531          36.000    21801292.852 6  89272635.525 6     -1765.353          36.000  
G13  20285298.195 7 106599969.135 7       792.438          46.000    20285297.336 6  83064907.698 6       617.484          40.000  
G28  20879735.945 8 109723783.666 8        98.426          48.000    20879735.492 8  85499081.859 8        76.695          48.000  
G05  22101353.594 8 116143387.532 8     -2923.691          50.000    22101353.844 8  90501337.957 8     -2278.202          50.000  
R16  19823222.805 6 105891726.810 6     -2237.516          36.000    19823224.805 5  82360216.437 5     -1740.293          34.000  
R06  19590794.297 8 104539850.908 8     -1996.562          49.000                                                                  
R09  20273856.828 8 108260964.913 8      2431.000          49.000    20273859.227 8  84202898.261 8      1890.778          49.000  
E24  22676619.344 8 119166427.476 8      2025.996          51.000    22676633.070 8  91309434.537 8      1552.283          51.000  
E04  27075866.812 8 142284745.617 8     -2675.598          48.000    27075867.570 7 109023364.743 7     -2050.156          47.000  
E31  23771836.914 8 124921884.474 8      -725.945          51.000    23771839.156 8  95719394.765 8      -556.232          51.000  
E09  21659305.031 8 113820394.536 8      -889.250          51.000    21659306.547 8  87213057.164 8      -681.371          51.000  
E01                                                                  27371311.664 5 110212922.930 5     -2102.514          34.000  
C22  22378006.703 6 116528118.674 6       641.277          39.000                                                                  
C05  39795744.086 6 207226881.292 6        12.137          36.000    39795742.047 6 160240950.855 6         9.768          39.000  
C19  22741867.844 8 118422888.232 8     -2427.793          51.000                                                                  
> 2020 05 13 04 18 30.0000000  0 15      -0.000000000000
G30  21814244.812 6 114634619.089 6     -2271.949          36.000    21814247.609 6  89325680.529 6     -1770.344          37.000  
G13  20280811.461 7 106576389.958 7       780.438          46.000    20280810.312 6  83046534.325 6       608.133          40.000  
G28  20879229.375 8 109721120.854 8        80.098          50.000    20879228.711 8  85497006.920 8        62.414          48.000  
G05  22118079.930 8 116231282.059 8     -2935.051          51.000    22118079.273 8  90569827.177 8     -2287.053          51.000  
R16  19835834.734 6 105959097.007 6     -2252.926          39.000    19835836.555 5  82412615.490 5     -1752.276          35.000  
R06  19602082.102 8 104600082.506 8     -2018.047          50.000                                                                  
R09  20260248.859 8 108188299.044 8      2414.328          50.000    20260251.188 8  84146380.386 8      1877.814          48.000  
E24  22665084.047 8 119105810.463 8      2016.098          51.000    22665097.477 8  91262987.743 8      1544.776          51.000  
E04  27091156.141 8 142365086.668 8     -2679.676          48.000    27091156.227 7 109084924.694 7     -2053.280          47.000  
E31  23776016.906 8 124943850.264 8      -737.602          51.000    23776019.180 8  95736225.684 8      -565.158          51.000  
E09  21664412.680 8 113847236.734 8      -899.391          51.000    21664414.344 8  87233624.541 8      -689.126          51.000  
E01                                                                  27386988.375 5 110276053.947 5     -2105.187          33.000  
C22  22374359.180 6 116509123.595 6       625.977          41.000                                                                  
C05  39795672.500 5 207226508.406 5        12.828          35.000    39795670.391 6 160240662.498 6        10.203          39.000  
C19  22755889.602 8 118495901.911 8     -2438.871          50.000                                                                  
> 2020 05 13 04 19  0.0000000  0 15      -0.000000000000
G30  21827236.078 5 114702890.868 5     -2278.754          35.000    21827239.484 6  89378879.272 6     -1775.656          36.000  
G13  20276393.516 7 106553172.983 7       767.992          46.000    20276392.055 7  83028443.185 7       598.439          42.000  
G28  20878827.656 8 109719007.945 8        61.277          50.000    20878826.406 8  85495360.479 8        47.749          48.000  
G05  22134870.117 8 116319512.109 8     -2946.336          51.000    22134868.594 8  90638577.849 8     -2295.847          51.000  
R16  19848531.945 6 106026920.608 6     -2268.141          38.000    19848532.734 5  82465367.126 5     -1764.113          35.000  
R06  19613490.133 8 104660955.899 8     -2039.531          50.000                                                                  
R09  20246734.602 8 108116131.911 8      2397.512          50.000    20246736.453 8  84090250.421 8      1864.732          48.000  
E24  22653604.195 8 119045486.222 8      2006.141          51.000    22653617.336 8  91216765.273 8      1537.114          51.000  
E04  27106467.938 7 142445548.997 7     -2683.938          46.000    27106467.797 7 109146577.630 7     -2056.501          46.000  
E31  23780262.641 8 124966162.654 8      -749.367          51.000    23780264.781 8  95753322.189 8      -574.149          51.000  
E09  21669578.070 8 113874380.844 8      -909.652          51.000    21669579.484 8  87254423.253 8      -697.007          51.000  
E01  27402687.828 5 144002094.375 5     -2751.008          33.000    27402682.219 5 110339251.063 5     -2107.868          32.000  
C22  22370799.484 6 116490588.624 6       610.371          41.000                                                                  
C05  39795598.609 6 207226124.528 6        12.805          36.000    39795596.469 6 160240364.875 6        10.191          39.000  
C19  22769974.852 8 118569246.334 8     -2450.125          50.000                                                                  
> 2020 05 13 04 19 30.0000000  0 15      -0.000000000000
G30  21840267.727 5 114771375.498 5     -2284.809          33.000    21840271.898 5  89432243.901 5     -1780.374          31.000  
G13  20272047.867 7 106530336.110 7       756.844          46.000    20272046.062 7  83010648.215 7       589.749          42.000  
G28  20878533.531 8 109717461.363 8        43.984          50.000    20878532.164 8  85494155.363 8        34.271          48.000  
G05  22151726.773 8 116408091.679 8     -2956.496          51.000    22151724.711 8  90707600.865 8     -2303.764          51.000  
R16  19861315.453 5 106095211.398 5     -2282.223          35.000    19861317.227 6  82518482.242 6     -1775.059          37.000  
R06  19625021.266 8 104722487.201 8     -2059.934          48.000                                                                  
R09  20233316.914 8 108044481.898 8      2381.789          50.000    20233318.359 8  84034522.613 8      1852.503          49.000  
E24  22642183.320 8 118985472.308 8      1997.258          51.000    22642196.312 8  91170780.570 8      1530.340          51.000  
E04  27121804.922 7 142526148.771 7     -2686.965          45.000    27121805.609 7 109208335.859 7     -2058.800          47.000  
E31  23784577.305 8 124988837.419 8      -759.875          51.000    23784579.531 8  95770696.357 8      -582.278          51.000  
E09  21674804.156 8 113901843.878 8      -918.797          51.000    21674805.102 8  87275466.341 8      -704.023          51.000  
E01  27418402.867 5 144084682.661 5     -2752.695          34.000    27418396.898 5 110402523.015 5     -2109.177          32.000  
C22  22367331.125 6 116472531.394 6       595.676          40.000                                                                  
C05  39795525.547 5 207225743.213 5        14.570          35.000    39795523.359 6 160240070.798 6        11.285          40.000  
C19  22784126.500 8 118642936.743 8     -2460.141          49.000                                                                  
> 2020 05 13 04 20  0.0000000  0 14      -0.000000000000
G13  20267767.922 7 106507844.910 7       743.082          45.000    20267765.961 7  82993122.599 7       579.025          43.000  
G28  20878340.477 8 109716445.548 8        24.066          51.000    20878338.820 7  85493363.813 7        18.753          47.000  
G05  22168642.359 8 116496982.182 8     -2968.953          51.000    22168640.266 8  90776866.176 8     -2313.474          51.000  
R16  19874179.883 6 106163930.338 6     -2298.340          37.000    19874182.492 6  82571930.294 6     -1787.601          37.000  
R06  19636668.500 7 104784638.667 7     -2082.934          47.000                                                                  
R09  20219989.523 8 107973313.946 8      2363.309          51.000    20219990.953 8  83979169.737 8      1838.129          50.000  
E24  22630815.062 8 118925734.025 8      1985.852          51.000    22630828.016 8  91125007.048 8      1521.645          51.000  
E04  27137161.852 7 142606849.806 7     -2692.547          46.000    27137163.023 7 109270171.682 7     -2063.106          47.000  
E31  23788954.133 8 125011838.026 8      -772.879          51.000    23788956.539 8  95788320.200 8      -592.173          51.000  
E09  21680084.109 8 113929590.578 8      -930.387          51.000    21680084.562 8  87296726.776 8      -712.891          51.000  
E01  27434132.328 5 144167336.836 5     -2757.422          35.000                                                                  
C22  22363947.680 6 116454917.707 6       578.930          40.000                                                                  
C05  39795446.703 5 207225333.492 5        12.965          35.000    39795444.422 6 160239753.186 6        10.267          39.000  
C19  22798337.539 8 118716936.580 8     -2472.684          49.000                                                                  
> 2020 05 13 04 20 30.0000000  0 14      -0.000000000000
G13  20263563.828 7 106485752.661 7       729.277          46.000    20263562.062 7  82975907.870 7       568.268          43.000  
G28  20878258.008 8 109716011.864 8         4.152          51.000    20878256.227 7  85493025.897 7         3.236          47.000  
G05  22185626.102 8 116586233.327 8     -2981.508          50.000    22185624.656 8  90846412.519 8     -2323.254          50.000  
R16  19887133.438 6 106233126.919 6     -2315.098          36.000    19887135.555 6  82625749.864 6     -1800.632          37.000  
R06  19648441.469 7 104847462.007 7     -2105.809          47.000                                                                  
R09  20206762.938 8 107902681.622 8      2344.926          51.000    20206764.148 8  83924233.477 8      1823.832          50.000  
E24  22619509.617 8 118866323.922 8      1974.359          51.000    22619522.430 8  91079485.013 8      1512.828          51.000  
E04  27152548.156 7 142687703.410 7     -2698.168          47.000    27152548.508 7 109332124.396 7     -2067.399          45.000  
E31  23793402.656 8 125035215.349 8      -785.953          51.000    23793405.047 8  95806232.688 8      -602.224          51.000  
E09  21685427.891 8 113957672.987 8      -942.188          51.000    21685428.227 8  87318244.443 8      -721.891          51.000  
E01  27449884.688 5 144250116.310 5     -2761.957          35.000    27449878.828 5 110529286.133 5     -2116.330          32.000  
C22  22360659.727 6 116437799.940 6       562.039          40.000                                                                  
C05  39795371.820 5 207224943.651 5        12.211          35.000    39795369.523 6 160239451.735 6         9.463          39.000  
C19  22812617.320 8 118791295.725 8     -2485.148          50.000                                                                  
> 2020 05 13 04 21  0.0000000  0 13      -0.000000000000
G13  20259454.938 7 106464161.529 7       718.570          46.000    20259453.641 7  82959083.599 7       559.925          43.000  
G28  20878305.570 8 109716261.301 8       -12.695          51.000    20878303.297 7  85493220.263 7        -9.892          46.000  
G05  22202696.773 8 116675943.675 8     -2990.855          50.000    22202695.984 8  90916316.700 8     -2330.537          50.000  
R16  19900195.750 6 106302900.905 6     -2328.227          38.000    19900197.312 6  82680018.487 6     -1810.843          38.000  
R06  19660359.234 8 104911057.960 8     -2125.668          48.000                                                                  
R09  20193656.016 8 107832689.130 8      2329.586          51.000    20193656.750 8  83869794.874 8      1811.901          49.000  
E24  22608286.398 8 118807343.770 8      1965.945          51.000    22608298.516 8  91034292.427 8      1506.306          51.000  
E04  27167982.875 8 142768809.825 8     -2700.660          49.000    27167982.703 7 109394270.824 7     -2069.305          45.000  
E31  23797941.914 8 125059069.326 8      -795.988          51.000    23797944.023 8  95824510.400 8      -609.949          51.000  
E09  21690854.742 8 113986192.280 8      -950.844          51.000    21690855.367 8  87340096.870 8      -728.548          51.000  
C22  22357486.484 6 116421279.208 6       547.793          39.000                                                                  
C05                                                                  39795317.914 6 160239243.935 6        10.919          39.000  
C19  22826984.828 8 118866112.883 8     -2494.488          51.000                                                                  
> 2020 05 13 04 21 30.0000000  0 13      -0.000000000000
G13  20255385.977 7 106442780.014 7       702.070          46.000    20255384.859 7  82942422.670 7       547.068          44.000  
G28  20878427.219 8 109716900.822 8       -34.926          50.000    20878424.680 7  85493718.597 7       -27.215          47.000  
G05  22219799.000 8 116765818.001 8     -3005.652          51.000    22219797.906 8  90986348.642 8     -2342.067          51.000  
R16  19913309.406 5 106372951.588 5     -2346.949          33.000    19913311.195 6  82734502.325 6     -1825.402          37.000  
R06  19672365.477 8 104975127.763 8     -2150.688          48.000                                                                  
R09  20180612.641 8 107763040.055 8      2308.727          50.000    20180613.305 8  83815623.386 8      1795.677          49.000  
E24  22597089.711 8 118748501.808 8      1951.957          51.000    22597100.906 8  90989205.733 8      1495.677          51.000  
E04  27183409.297 7 142849875.929 7     -2708.586          47.000    27183408.906 7 109456386.316 7     -2075.330          43.000  
E31  23802516.086 8 125083106.456 8      -811.328          51.000    23802518.102 8  95842928.453 8      -621.694          51.000  
E09  21696309.172 8 114014856.215 8      -965.020          51.000    21696310.078 8  87362060.125 8      -739.398          51.000  
C22  22354372.016 6 116405066.623 6       528.328          39.000                                                                  
C05                                                                  39795233.930 6 160238905.688 6         8.092          39.000  
C19  22841384.586 8 118941096.771 8     -2509.234          51.000                                                                  
> 2020 05 13 04 22  0.0000000  0 13      -0.000000000000
G13  20251403.367 7 106421851.415 7       691.984          46.000    20251402.188 7  82926114.654 7       539.209          45.000  
G28  20878669.062 8 109718172.335 8       -50.996          49.000    20878666.680 7  85494709.411 7       -39.737          46.000  
G05  22236978.578 8 116856095.895 8     -3014.035          51.000    22236975.938 8  91056695.015 8     -2348.600          51.000  
R16  19926519.633 5 106443522.254 5     -2359.000          35.000    19926522.992 6  82789390.702 6     -1834.775          37.000  
R06  19684506.484 7 105039916.646 7     -2169.723          47.000                                                                  
R09  20167679.469 8 107693981.600 8      2294.141          51.000    20167680.938 8  83761911.278 8      1784.332          49.000  
E24  22585965.406 8 118690040.850 8      1944.277          51.000    22585976.289 8  90944410.993 8      1489.763          51.000  
E04  27198873.586 7 142931143.116 7     -2710.230          47.000    27198871.438 6 109518655.943 6     -2076.725          41.000  
E31  23807170.914 8 125107567.781 8      -820.484          51.000    23807173.289 8  95861671.543 8      -628.677          51.000  
E09  21701837.258 8 114043907.031 8      -972.867          51.000    21701838.398 8  87384319.844 8      -745.453          51.000  
C22  22351363.195 6 116389403.058 6       514.699          38.000                                                                  
C05  39795165.719 6 207223870.29226        13.316          36.000    39795163.609 6 160238622.500 6        10.309          39.000  
C19  22855862.727 8 119016485.830 8     -2517.789          51.000                                                                  
> 2020 05 13 04 22 30.0000000  0 13      -0.000000000000
G13  20247487.125 7 106401271.426 7       679.762          46.000    20247486.000 7  82910078.281 7       529.685          45.000  
G28  20879011.047 8 109719969.716 8       -69.062          49.000    20879008.430 7  85496109.970 7       -53.815          46.000  
G05  22254214.414 8 116946668.695 8     -3024.438          51.000    22254210.430 8  91127271.178 8     -2356.705          51.000  
R16  19939807.266 6 106514502.132 6     -2373.438          38.000    19939810.977 6  82844597.288 6     -1846.007          36.000  
R06  19696762.055 7 105105315.817 7     -2190.695          47.000                                                                  
R09  20154837.594 8 107625407.496 8      2277.359          51.000    20154839.164 8  83708575.850 8      1771.280          50.000  
E24  22574893.391 8 118631856.204 8      1934.445          51.000    22574904.727 8  90899827.978 8      1482.262          51.000  
E04  27214355.562 7 143012505.270 7     -2714.012          45.000    27214353.570 7 109580998.275 7     -2079.602          42.000  
E31  23811886.219 8 125132346.836 8      -831.664          51.000    23811888.789 8  95880658.091 8      -637.246          51.000  
E09  21707418.898 8 114073239.541 8      -982.914          51.000    21707420.125 8  87406795.403 8      -753.115          51.000  
C22  22348440.172 6 116374184.971 6       499.199          38.000                                                                  
C05  39795088.977 5 207223469.95325        13.754          35.000    39795086.977 6 160238313.713 6        10.376          39.000  
C19  22870398.445 8 119092174.155 8     -2528.344          51.000                                                                  
> 2020 05 13 04 23  0.0000000  0 13      -0.000000000000
G13  20243641.891 7 106381064.182 7       667.730          47.000    20243640.859 7  82894332.371 7       520.307          45.000  
G28  20879457.352 8 109722316.030 8       -86.984          48.000    20879454.906 7  85497938.273 7       -67.777          47.000  
G05  22271510.227 8 117037557.019 8     -3034.496          51.000    22271506.164 8  91198093.218 8     -2364.543          51.000  
R16  19953175.438 6 106585911.734 6     -2386.664          38.000    19953179.031 5  82900138.063 5     -1856.295          34.000  
R06  19709136.281 7 105171347.303 7     -2211.125          45.000                                                                  
R09  20142091.430 8 107557342.429 8      2260.684          51.000    20142092.406 8  83655636.355 8      1758.313          50.000  
E24  22563878.297 8 118573971.794 8      1924.789          51.000    22563890.594 8  90855475.010 8      1474.860          51.000  
E04  27229860.016 7 143093984.867 7     -2717.641          44.000    27229859.562 7 109643430.595 7     -2082.352          43.000  
E31  23816666.203 8 125157465.754 8      -842.605          51.000    23816668.664 8  95899905.043 8      -645.621          51.000  
E09  21713058.602 8 114102877.079 8      -992.664          51.000    21713059.969 8  87429504.685 8      -760.643          51.000  
C22  22345608.352 6 116359436.176 6       484.090          39.000                                                                  
C05  39795010.344 5 207223060.517 5        14.031          35.000    39795008.383 6 160237997.089 6        10.907          39.000  
C19  22884995.883 8 119168183.184 8     -2538.602          51.000                                                                  
> 2020 05 13 04 23 30.0000000  0 13      -0.000000000000
G13  20239870.602 8 106361245.470 8       654.191          48.000    20239869.555 7  82878889.221 7       509.760          45.000  
G28  20880010.695 8 109725225.370 8      -106.242          49.000    20880008.617 7  85500205.316 7       -82.786          47.000  
G05  22288868.109 8 117128772.611 8     -3045.891          51.000    22288864.734 8  91269170.292 8     -2373.422          51.000  
R16  19966626.297 6 106657763.052 6     -2402.242          38.000    19966630.273 5  82956022.403 5     -1868.414          32.000  
R06  19721631.781 7 105238024.391 7     -2233.113          46.000                                                                  
R09  20129443.766 8 107489802.061 8      2242.672          51.000    20129443.719 8  83603104.968 8      1744.301          49.000  
E24  22552923.133 8 118516402.749 8      1913.875          51.000    22552936.539 8  90811363.672 8      1466.464          51.000  
E04  27245388.578 6 143175595.675 6     -2722.270          41.000    27245390.461 7 109705963.566 7     -2086.070          43.000  
E31  23821513.375 8 125182937.894 8      -854.766          51.000    23821515.922 8  95919422.662 8      -654.969          51.000  
E09  21718759.305 8 114132834.248 8     -1003.762          51.000    21718760.711 8  87452458.878 8      -769.108          51.000  
C22  22342868.352 6 116345171.999 6       467.492          36.000                                                                  
C05  39794932.516 5 207222655.238 5        13.703          35.000    39794930.555 6 160237683.686 6        10.678          39.000  
C19  22899656.898 8 119244525.772 8     -2550.258          50.000                                                                  
> 2020 05 13 04 24  0.0000000  0 13      -0.000000000000
G13  20236171.141 8 106341803.740 8       641.637          48.000    20236170.016 7  82863739.813 7       499.977          46.000  
G28  20880668.805 8 109728684.233 8      -124.578          50.000    20880666.633 7  85502900.502 7       -97.074          46.000  
G05  22306285.078 8 117220299.749 8     -3056.270          50.000    22306282.844 8  91340490.148 8     -2381.510          50.000  
R16  19980156.414 6 106730039.584 6     -2416.496          38.000    19980160.484 5  83012237.453 5     -1879.497          31.000  
R06  19734245.297 7 105305331.878 7     -2254.188          47.000                                                                  
R09  20116891.797 8 107422774.307 8      2225.520          51.000    20116891.289 8  83550972.273 8      1730.960          49.000  
E24  22542025.797 8 118459136.916 8      1903.664          51.000    22542039.906 8  90767484.655 8      1458.635          51.000  
E04  27260940.227 7 143257324.188 7     -2726.379          44.000    27260944.602 7 109768586.675 7     -2088.931          47.000  
E31  23826425.211 8 125208749.391 8      -866.207          51.000    23826427.750 8  95939200.301 8      -663.735          51.000  
E09  21724518.633 8 114163098.372 8     -1014.070          51.000    21724520.367 8  87475648.265 8      -777.018          51.000  
C22  22340219.328 6 116331380.542 6       451.727          40.000                                                                  
C05  39794853.102 5 207222241.560 5        13.730          35.000    39794851.086 6 160237363.795 6        10.762          39.000  
C19  22914378.758 8 119321187.664 8     -2560.863          49.000                                                                  
> 2020 05 13 04 24 30.0000000  0 13      -0.000000000000
G13  20232543.945 8 106322742.238 8       629.734          48.000    20232542.828 7  82848886.689 7       490.705          47.000  
G28  20881431.812 8 109732694.343 8      -141.949          49.000    20881429.852 8  85506025.262 8      -110.610          48.000  
G05  22323761.234 8 117312138.681 8     -3065.652          50.000    22323760.180 8  91412052.956 8     -2388.821          50.000  
R16  19993766.164 6 106802740.613 6     -2430.180          37.000    19993769.047 5  83068782.621 5     -1890.143          31.000  
R06  19746977.172 8 105373271.298 8     -2274.387          48.000                                                                  
R09  20104435.734 8 107356262.635 8      2209.156          51.000    20104436.039 8  83499240.968 8      1718.230          50.000  
E24  22531187.031 8 118402177.399 8      1894.211          51.000    22531201.055 8  90723840.340 8      1451.409          51.000  
E04  27276515.781 7 143339172.148 7     -2729.488          46.000    27276521.844 8 109831301.308 8     -2091.469          48.000  
E31  23831401.883 8 125234901.565 8      -876.691          51.000    23831404.172 8  95959238.976 8      -671.733          51.000  
E09  21730336.680 8 114193672.035 8     -1023.551          51.000    21730339.016 8  87499074.815 8      -784.319          51.000  
C22  22337662.961 6 116318065.089 6       436.805          39.000                                                                  
C05  39794772.523 5 207221822.874 5        14.438          35.000    39794770.477 6 160237039.222 6        11.614          39.000  
C19  22929161.758 8 119398169.831 8     -2570.730          48.000                                                                  
> 2020 05 13 04 25  0.0000000  0 13      -0.000000000000
G13  20228990.680 8 106304069.291 8       616.387          49.000    20228989.352 7  82834336.340 7       480.301          46.000  
G28  20882301.281 8 109737262.652 8      -161.188          51.000    20882299.375 8  85509584.987 8      -125.601          48.000  
G05  22341297.539 8 117404293.741 8     -3076.609          50.000    22341297.289 8  91483862.072 8     -2397.359          50.000  
R16  20007456.258 6 106875870.373 6     -2444.590          37.000    20007460.211 5  83125661.324 5     -1901.348          33.000  
R06  19759828.516 8 105441847.952 8     -2295.891          48.000                                                                  
R09  20092078.211 8 107290275.041 8      2191.262          51.000    20092079.461 8  83447917.267 8      1704.315          50.000  
E24  22520408.273 8 118345531.899 8      1883.484          51.000    22520421.602 8  90680436.641 8      1443.223          51.000  
E04  27292115.828 8 143421145.891 8     -2734.055          49.000    27292122.195 7 109894112.340 7     -2094.899          47.000  
E31  23836444.539 8 125261400.349 8      -888.469          51.000    23836446.758 8  95979543.240 8      -680.784          51.000  
E09  21736214.859 8 114224562.416 8     -1034.434          51.000    21736217.492 8  87522744.044 8      -792.576          51.000  
C22  22335199.398 6 116305233.606 6       419.875          41.000                                                                  
C05  39794692.047 5 207221403.181 5        14.320          35.000    39794690.102 6 160236715.483 6        11.354          39.000  
C19  22944007.555 8 119475477.705 8     -2581.934          50.000                                                                  
> 2020 05 13 04 25 30.0000000  0 15      -0.000000000000
G30  21999645.258 6 115608929.97926     -2364.742          36.000                                                                  
G13  20225509.492 8 106285775.543 8       602.809          49.000    20225507.781 7  82820081.477 7       469.724          46.000  
G28  20883275.094 8 109742378.640 8      -180.168          51.000    20883272.992 8  85513571.459 8      -140.391          49.000  
G05  22358891.555 8 117496751.443 8     -3087.570          50.000    22358891.320 8  91555906.996 8     -2405.903          50.000  
R16  20021224.500 6 106949415.369 6     -2458.945          38.000    20021229.172 5  83182862.997 5     -1912.513          33.000  
R10  23123868.117 5 123262840.694 5      3794.422          32.000                                                                  
R06  19772797.125 7 105511049.694 7     -2317.660          47.000                                                                  
R09  20079817.352 8 107224802.196 8      2173.301          51.000    20079819.008 8  83396993.966 8      1690.345          51.000  
E24  22509687.531 8 118289190.837 8      1872.434          51.000    22509699.875 8  90637266.211 8      1434.726          51.000  
E04  27307737.945 8 143503234.374 8     -2738.742          50.000    27307744.016 8 109957011.295 8     -2098.506          48.000  
E31  23841550.945 8 125288234.433 8      -900.594          51.000    23841553.445 8  96000104.416 8      -689.976          51.000  
E09  21742151.477 8 114255759.363 8     -1045.539          51.000    21742154.078 8  87546648.188 8      -801.122          51.000  
C22  22332827.398 6 116292876.571 6       403.453          41.000                                                                  
C05  39794609.914 5 207220975.468 5        13.219          35.000    39794608.070 6 160236384.711 6        10.805          39.000  
C19  22958914.008 8 119553099.592 8     -2593.191          51.000                                                                  
> 2020 05 13 04 26  0.0000000  0 14      -0.000000000000
G13  20222106.219 8 106267891.805 8       589.633          48.000    20222104.375 7  82806146.097 7       459.454          47.000  
G28  20884358.539 8 109748071.149 8      -198.898          51.000    20884356.617 8  85518007.182 8      -154.986          50.000  
G05  22376548.555 8 117589538.804 8     -3097.863          51.000    22376547.320 8  91628208.768 8     -2413.923          51.000  
R16  20035074.664 6 107023402.118 6     -2473.062          37.000    20035079.195 5  83240408.254 5     -1923.490          33.000  
R10  23102537.820 5 123149135.717 5      3786.715          32.000                                                                  
R06  19785888.180 8 105580904.926 8     -2339.070          48.000                                                                  
R09  20067658.438 8 107159874.923 8      2155.664          51.000    20067659.969 8  83346495.014 8      1676.628          50.000  
E24  22499030.336 8 118233184.363 8      1861.656          51.000    22499041.852 8  90594352.138 8      1426.519          51.000  
E04  27323387.000 8 143585466.416 8     -2742.969          49.000    27323392.289 7 110020020.208 7     -2101.703          47.000  
E31  23846726.555 8 125315432.138 8      -912.125          51.000    23846729.195 8  96020944.222 8      -698.892          51.000  
E09  21748152.133 8 114287292.490 8     -1056.211          51.000    21748154.602 8  87570809.926 8      -809.317          51.000  
C22  22330552.000 7 116281024.212 7       386.957          43.000                                                                  
C05  39794531.672 5 207220567.850 5        13.578          35.000    39794529.773 6 160236069.523 6        10.509          39.000  
C19  22973886.352 8 119631063.165 8     -2604.008          51.000                                                                  
> 2020 05 13 04 26 30.0000000  0 13      -0.000000000000
G13  20218775.289 8 106250388.159 8       577.414          50.000    20218773.398 7  82792506.879 7       449.933          47.000  
G28  20885545.602 8 109754308.389 8      -216.723          51.000    20885543.820 8  85522867.361 8      -168.875          50.000  
G05  22394261.922 8 117682622.035 8     -3107.488          51.000    22394259.336 8  91700741.072 8     -2421.423          51.000  
R16  20049001.555 6 107097796.262 6     -2486.180          38.000    20049005.375 5  83298270.334 5     -1933.699          33.000  
R06  19799095.578 8 105651380.452 8     -2359.227          49.000                                                                  
R09  20055595.742 8 107095462.727 8      2138.707          51.000    20055597.414 8  83296396.629 8      1663.439          50.000  
E24  22488430.680 8 118177482.205 8      1851.867          51.000    22488442.000 8  90551671.260 8      1418.973          51.000  
E04  27339056.836 8 143667810.363 8     -2746.414          50.000    27339060.336 7 110083114.938 7     -2104.364          46.000  
E31  23851965.219 8 125342961.501 8      -922.961          51.000    23851967.711 8  96042038.147 8      -707.204          51.000  
E09  21754210.836 8 114319131.034 8     -1066.191          51.000    21754213.594 8  87595205.675 8      -816.946          51.000  
C22  22328367.938 7 116269646.549 7       371.461          44.000                                                                  
C05  39794451.414 5 207220150.806 5        14.633          35.000    39794449.469 6 160235746.259 6        11.137          39.000  
C19  22988918.008 8 119709336.270 8     -2614.016          51.000                                                                  
> 2020 05 13 04 27  0.0000000  0 13      -0.000000000000
G13  20215519.352 8 106233278.439 8       563.770          50.000    20215517.336 7  82779174.637 7       439.301          47.000  
G28  20886838.453 8 109761102.185 8      -235.828          51.000    20886836.742 8  85528161.224 8      -183.762          50.000  
G05  22412033.445 8 117776011.646 8     -3118.090          51.000    22412030.312 8  91773512.126 8     -2429.684          50.000  
R16  20063006.844 6 107172607.201 6     -2500.785          36.000    20063009.062 5  83356456.563 5     -1945.059          32.000  
R06  19812421.398 8 105722487.475 8     -2380.719          49.000                                                                  
R09  20043632.688 8 107031579.170 8      2120.586          51.000    20043634.164 8  83246709.396 8      1649.345          50.000  
E24  22477891.117 8 118122097.703 8      1840.758          51.000    22477902.602 8  90509233.794 8      1410.422          51.000  
E04  27354749.734 7 143750278.248 7     -2751.051          47.000    27354752.148 7 110146304.605 7     -2108.048          47.000  
E31  23857269.102 8 125370834.078 8      -934.926          51.000    23857271.516 8  96063395.055 8      -716.357          51.000  
E09  21760329.969 8 114351287.781 8     -1077.273          51.000    21760333.289 8  87619845.231 8      -825.459          51.000  
C22  22326277.453 7 116258757.083 7       354.719          44.000                                                                  
C05  39794371.602 5 207219735.006 5        13.758          35.000    39794369.648 6 160235424.746 6        10.312          39.000  
C19  23004011.211 8 119787929.970 8     -2625.195          51.000                                                                  
> 2020 05 13 04 27 30.0000000  0 15      -0.000000000000
G30  22053911.625 5 115894084.53925     -2389.688          33.000                                                                  
G13  20212339.227 8 106216566.941 8       551.035          50.000    20212337.289 8  82766152.681 8       429.375          48.000  
G28  20888237.828 8 109768455.439 8      -253.727          51.000    20888236.211 8  85533891.019 8      -197.709          50.000  
G05  22429862.875 8 117869707.394 8     -3127.535          48.000    22429860.484 8  91846521.751 8     -2437.041          48.000  
R16  20077089.773 5 107247835.498 5     -2513.566          35.000    20077091.539 5  83414967.469 5     -1954.996          32.000  
R10  23038811.469 6 122809451.959 6      3762.887          38.000                                                                  
R06  19825865.523 8 105794227.336 8     -2401.113          49.000                                                                  
R09  20031769.602 8 106968228.322 8      2103.496          51.000    20031770.703 8  83197436.537 8      1636.053          51.000  
E24  22467412.383 8 118067034.510 8      1830.836          51.000    22467424.250 8  90467042.532 8      1402.861          51.000  
E04  27370466.234 7 143832872.357 7     -2754.461          47.000    27370468.523 7 110209590.938 7     -2110.601          47.000  
E31  23862638.875 8 125399051.854 8      -945.543          51.000    23862641.328 8  96085016.465 8      -724.558          51.000  
E09  21766510.312 8 114383765.848 8     -1087.242          51.000    21766513.836 8  87644731.025 8      -833.067          51.000  
C22  22324280.875 7 116248359.616 7       339.043          44.000                                                                  
C05  39794292.742 5 207219324.49125        14.402          35.000    39794290.852 6 160235107.265 6        11.209          39.000  
C19  23019166.344 8 119866845.699 8     -2635.145          51.000                                                                  
> 2020 05 13 04 28  0.0000000  0 14      -0.000000000000
G13  20209231.898 8 106200237.852 8       537.719          51.000    20209230.094 8  82753428.706 8       419.002          48.000  
G28  20889740.297 8 109776350.761 8      -272.352          51.000    20889738.742 8  85540043.213 8      -212.222          51.000  
G05  22447745.750 7 117963689.614 7     -3137.496          43.000    22447745.469 7  91919754.655 7     -2444.800          43.000  
R16  20091246.992 5 107323460.687 5     -2527.852          35.000    20091249.141 5  83473787.058 5     -1966.110          33.000  
R10  23017660.273 6 122696697.499 6      3754.637          41.000                                                                  
R06  19839424.258 8 105866581.037 8     -2422.055          48.000                                                                  
R09  20020002.469 8 106905394.148 8      2085.590          51.000    20020003.992 8  83148565.520 8      1622.126          51.000  
E24  22456991.547 8 118012276.571 8      1820.113          51.000    22457003.891 8  90425085.166 8      1394.630          51.000  
E04  27386203.641 7 143915575.281 7     -2758.652          47.000    27386205.781 7 110272960.678 7     -2113.774          47.000  
E31  23868070.805 8 125427597.006 8      -957.027          51.000    23868073.453 8  96106888.719 8      -733.286          51.000  
E09  21772748.664 8 114416548.694 8     -1097.988          51.000    21772752.258 8  87669850.344 8      -841.274          51.000  
C22  22322375.664 7 116238438.302 7       322.574          45.000                                                                  
C05  39794211.789 5 207218902.833 5        14.125          35.000    39794209.883 6 160234781.174 6        11.122          39.000  
C19  23034380.062 8 119946065.351 8     -2645.832          51.000                                                                  
> 2020 05 13 04 28 30.0000000  0 14      -0.000000000000
G13  20206200.273 8 106184306.240 8       524.801          50.000    20206198.445 8  82741014.462 8       408.936          49.000  
G28  20891348.328 8 109784801.099 8      -290.418          51.000    20891346.797 8  85546627.894 8      -226.300          50.000  
G05  22465684.664 7 118057970.051 7     -3146.996          42.000    22465687.031 6  91993220.025 6     -2452.202          41.000  
R16  20105480.328 5 107399493.656 5     -2540.398          31.000    20105483.414 5  83532923.854 5     -1975.863          34.000  
R10  22996554.578 7 122584191.030 7      3746.488          42.000                                                                  
R06  19853100.141 7 105939561.214 7     -2442.609          47.000                                                                  
R09  20008334.961 8 106843091.381 8      2068.426          51.000    20008336.711 8  83100107.805 8      1608.776          51.000  
E24  22446631.469 8 117957838.265 8      1809.801          51.000    22446644.352 8  90383372.696 8      1386.737          51.000  
E04  27401964.641 8 143998399.998 8     -2762.215          48.000    27401967.188 8 110336423.722 8     -2116.587          49.000  
E31  23873567.398 8 125456482.071 8      -968.039          51.000    23873569.828 8  96129021.437 8      -741.730          51.000  
E09  21779047.680 8 114449650.090 8     -1108.242          51.000    21779051.141 8  87695213.754 8      -849.161          51.000  
C22  22320564.633 7 116229007.527 7       306.641          45.000                                                                  
C05  39794131.219 5 207218482.524 5        14.523          35.000    39794129.406 6 160234456.950 6        11.064          40.000  
C19  23049654.375 8 120025600.965 8     -2655.945          51.000                                                                  
> 2020 05 13 04 29  0.0000000  0 14      -0.000000000000
G13  20203241.406 8 106168757.029 8       512.047          51.000    20203239.633 8  82728898.184 8       398.998          49.000  
G28  20893058.828 8 109793790.089 8      -308.512          51.000    20893057.438 8  85553632.298 8      -240.399          50.000  
G05  22483678.664 7 118152529.667 7     -3156.688          46.000    22483681.492 7  92066902.891 7     -2459.754          46.000  
R16  20119786.508 5 107475915.334 5     -2553.320          35.000    20119788.570 5  83592362.943 5     -1985.919          33.000  
R10  22975491.672 6 122471918.679 6      3738.848          39.000                                                                  
R06  19866890.148 7 106013149.634 7     -2462.836          47.000                                                                  
R09  19996764.852 8 106781304.741 8      2051.066          51.000    19996765.844 8  83052051.547 8      1595.274          50.000  
E24  22436329.617 8 117903704.392 8      1799.426          51.000    22436342.914 8  90341893.483 8      1378.802          51.000  
E04  27417746.336 8 144081330.008 8     -2766.012          50.000    27417749.164 8 110399967.417 8     -2119.365          49.000  
E31  23879125.695 8 125485690.233 8      -978.918          51.000    23879127.562 8  96151401.705 8      -750.098          51.000  
E09  21785404.406 8 114483054.383 8     -1118.469          51.000    21785407.422 8  87720809.247 8      -857.009          51.000  
C22  22318844.953 7 116220052.414 7       290.605          46.000                                                                  
C05  39794048.172 5 207218050.139 5        14.395          35.000    39794046.352 6 160234122.574 6        11.372          39.000  
C19  23064985.867 8 120105435.318 8     -2666.062          51.000                                                                  
> 2020 05 13 04 29 30.0000000  0 15      -0.000000000000
G30  22108766.727 5 116182342.627 5     -2413.266          32.000    22108769.250 5  90531716.528 5     -1880.467          30.000  
G13  20200355.828 8 106153592.995 8       499.191          51.000    20200354.148 8  82717082.050 8       388.980          49.000  
G28  20894871.930 8 109803318.661 8      -326.430          51.000    20894870.539 8  85561057.166 8      -254.364          49.000  
G05  22501726.539 8 118247367.056 8     -3165.586          49.000    22501728.312 8  92140802.153 8     -2466.691          49.000  
R16  20134165.586 5 107552724.135 5     -2566.016          33.000    20134167.266 5  83652103.071 5     -1995.790          34.000  
R10  22954472.562 6 122359883.911 6      3730.555          38.000                                                                  
R06  19880794.242 7 106087345.965 7     -2483.020          46.000                                                                  
R09  19985291.586 8 106720036.135 8      2033.902          51.000    19985291.750 8  83004398.225 8      1581.924          49.000  
E24  22426086.602 8 117849876.918 8      1789.324          51.000    22426099.961 8  90300649.052 8      1370.994          51.000  
E04  27433548.438 8 144164366.014 8     -2769.480          49.000    27433550.883 8 110463592.344 8     -2122.071          49.000  
E31  23884745.289 8 125515221.692 8      -989.570          51.000    23884747.398 8  96174029.707 8      -758.264          51.000  
E09  21791819.023 8 114516763.046 8     -1128.527          51.000    21791821.742 8  87746637.957 8      -864.719          51.000  
C22  22317217.008 7 116211575.032 7       274.953          45.000                                                                  
C05  39793962.828 5 207217606.049 5        15.465          35.000    39793961.094 6 160233779.154 6        11.798          39.000  
C19  23080374.547 8 120185568.227 8     -2675.766          51.000                                                                  
> 2020 05 13 04 30  0.0000000  0 14      -0.000000000000
G13  20197547.102 8 106138833.050 8       484.793          51.000    20197545.547 8  82705580.786 8       377.761          50.000  
G28  20896790.906 8 109813403.698 8      -345.891          51.000    20896789.375 8  85568915.628 8      -269.525          48.000  
G05  22519830.422 8 118342497.703 8     -3176.363          51.000    22519830.461 8  92214929.898 8     -2475.089          51.000  
R16  20148619.680 5 107629934.701 5     -2580.574          34.000    20148622.750 5  83712155.791 5     -2007.111          35.000  
R10  22933502.094 6 122248106.354 6      3721.188          39.000                                                                  
R06  19894815.398 7 106162166.482 7     -2504.980          47.000                                                                  
R09  19973917.984 8 106659304.686 8      2014.883          51.000    19973918.664 8  82957162.693 8      1567.131          49.000  
E24  22415905.773 8 117796374.180 8      1777.602          51.000    22415918.703 8  90259653.448 8      1362.044          51.000  
E04  27449374.180 8 144247524.982 8     -2774.520          50.000    27449375.664 8 110527311.476 8     -2125.875          49.000  
E31  23890429.539 8 125545093.028 8     -1001.750          51.000    23890432.047 8  96196918.152 8      -767.575          51.000  
E09  21798294.914 8 114550793.853 8     -1140.145          51.000    21798297.297 8  87772713.506 8      -873.636          51.000  
C22  22315684.039 7 116203593.740 7       257.266          46.000                                                                  
C05  39793878.688 5 207217167.86925        13.656          35.000    39793876.930 6 160233440.323 6        10.756          39.000  
C19  23095823.438 8 120266015.623 8     -2687.266          51.000                                                                  
> 2020 05 13 04 30 30.0000000  0 14      -0.000000000000
G13  20194813.555 8 106124467.864 8       472.230          51.000    20194812.023 8  82694387.129 8       367.972          50.000  
G28  20898813.578 8 109824034.024 8      -363.375          51.000    20898812.094 8  85577199.023 8      -283.149          48.000  
G05  22537987.484 8 118437908.125 8     -3184.992          51.000    22537985.664 8  92289275.635 8     -2481.813          51.000  
R16  20163146.031 5 107707533.499 5     -2592.855          31.000    20163148.914 5  83772510.373 5     -2016.666          33.000  
R10  22912579.695 6 122136577.268 6      3713.484          41.000                                                                  
R06  19908951.430 8 106237598.925 8     -2524.516          48.000                                                                  
R09  19962642.977 8 106599100.520 8      1997.941          51.000    19962644.555 8  82910337.200 8      1553.955          50.000  
E24  22405785.039 8 117743186.532 8      1767.586          51.000    22405797.047 8  90218899.278 8      1354.385          51.000  
E04  27465220.953 8 144330795.850 8     -2777.414          48.000    27465222.039 8 110591116.361 8     -2128.320          50.000  
E31  23896176.562 8 125575292.885 8     -1012.152          51.000    23896178.578 8  96220058.297 8      -775.564          51.000  
E09  21804830.297 8 114585136.613 8     -1149.988          51.000    21804832.219 8  87799028.089 8      -881.190          51.000  
C22  22314244.711 7 116196099.037 7       241.691          46.000                                                                  
C05  39793793.773 5 207216725.521 5        15.012          35.000    39793792.086 6 160233098.246 6        11.397          39.000  
C19  23111330.625 8 120346765.740 8     -2696.711          51.000                                                                  
> 2020 05 13 04 31  0.0000000  0 14      -0.000000000000
G13  20192157.414 8 106110509.566 8       458.805          51.000    20192155.797 8  82683510.533 8       357.510          50.000  
G28  20900942.328 8 109835220.627 8      -381.742          51.000    20900940.695 7  85585915.860 7      -297.462          47.000  
G05  22556199.312 8 118533607.219 8     -3194.402          51.000    22556195.844 8  92363846.310 8     -2489.146          51.000  
R16  20177746.375 5 107785529.055 5     -2606.250          33.000    20177748.703 5  83833173.528 5     -2027.087          34.000  
R10  22891706.727 7 122025310.210 7      3704.770          42.000                                                                  
R06  19923204.602 8 106313652.824 8     -2545.168          49.000                                                                  
R09  19951469.789 8 106539435.949 8      1980.148          51.000    19951471.156 8  82863931.412 8      1540.116          48.000  
E24  22395726.438 8 117690325.748 8      1757.039          51.000    22395737.164 8  90178395.561 8      1346.268          51.000  
E04  27481090.531 7 144414189.122 7     -2781.230          46.000    27481091.352 8 110655015.023 8     -2131.179          48.000  
E31  23901987.828 8 125605831.295 8     -1023.141          51.000    23901989.469 8  96243457.854 8      -783.998          51.000  
E09  21811427.195 8 114619802.607 8     -1160.484          51.000    21811428.531 8  87825590.344 8      -889.227          51.000  
C22  22312901.352 8 116189102.702 8       225.250          48.000                                                                  
C05  39793710.180 5 207216291.144 5        15.504          35.000    39793708.516 6 160232761.586 6        11.542          39.000  
C19  23126897.852 8 120427828.168 8     -2707.004          51.000                                                                  
> 2020 05 13 04 31 30.0000000  0 14      -0.000000000000
G13  20189574.781 8 106096937.829 8       445.387          51.000    20189573.148 8  82672935.145 8       347.055          50.000  
G28  20903172.695 8 109846941.136 8      -400.129          51.000    20903171.000 7  85595048.735 7      -311.789          47.000  
G05  22574461.094 8 118629570.561 8     -3203.758          51.000    22574456.852 8  92438622.904 8     -2496.435          51.000  
R16  20192416.258 5 107863896.340 5     -2619.223          34.000    20192420.461 5  83894125.926 5     -2037.174          35.000  
R10  22870878.547 6 121914285.830 6      3696.023          38.000                                                                  
R06  19937569.625 8 106390304.343 8     -2565.562          48.000                                                                  
R09  19940393.516 8 106480290.096 8      1962.242          50.000    19940394.312 7  82817929.072 7      1526.189          47.000  
E24  22385725.633 8 117637771.265 8      1746.121          51.000    22385735.391 8  90138126.549 8      1337.890          50.000  
E04  27496977.859 7 144497682.870 7     -2785.336          42.000    27496979.641 8 110718990.776 8     -2134.261          48.000  
E31  23907859.164 8 125636685.979 8     -1034.301          51.000    23907861.164 8  96267099.764 8      -792.493          51.000  
E09  21818081.398 8 114654770.780 8     -1171.211          51.000    21818082.039 8  87852384.135 8      -897.419          51.000  
C22  22311650.266 8 116182584.447 8       208.773          49.000                                                                  
C05                                                                  39793622.242 6 160232414.171 6        11.282          39.000  
C19  23142520.820 8 120509180.300 8     -2717.012          51.000                                                                  
> 2020 05 13 04 32  0.0000000  0 14      -0.000000000000
G13  20187068.625 8 106083767.920 8       432.336          51.000    20187066.977 8  82662672.866 8       336.885          51.000  
G28  20905507.180 8 109859208.519 8      -417.973          51.000    20905505.391 8  85604607.742 8      -325.690          48.000  
G05  22592774.695 8 118725808.458 8     -3212.309          50.000    22592770.906 8  92513613.443 8     -2503.098          50.000  
R16  20207158.438 5 107942646.175 5     -2631.070          35.000    20207162.539 5  83955375.755 5     -2046.391          32.000  
R10  22850096.891 6 121803519.365 6      3688.133          37.000                                                                  
R06  19952048.273 7 106467565.480 7     -2585.379          47.000                                                                  
R09  19929417.180 8 106421677.354 8      1944.859          51.000    19929417.305 8  82772341.363 8      1512.669          48.000  
E24  22375785.234 8 117585536.972 8      1735.930          51.000    22375795.055 8  90098102.885 8      1330.117          49.000  
E04  27512884.578 6 144581289.679 6     -2788.492          40.000    27512889.961 8 110783053.198 8     -2136.851          49.000  
E31  23913793.297 8 125667869.141 8     -1044.801          51.000    23913795.359 8  96290993.360 8      -800.592          51.000  
E09  21824795.539 8 114690054.476 8     -1181.258          51.000    21824795.469 8  87879419.692 8      -905.123          51.000  
C22  22310493.656 8 116176558.188 8       192.719          48.000                                                                  
C05                                                                  39793535.875 6 160232066.263 6        11.608          39.000  
C19  23158201.406 8 120590833.760 8     -2726.754          51.000                                                                  
> 2020 05 13 04 32 30.0000000  0 14      -0.000000000000
G13  20184638.992 8 106070999.939 8       417.812          51.000    20184637.234 8  82652723.788 8       325.571          51.000  
G28  20907945.250 8 109872021.134 8      -437.234          51.000    20907943.539 8  85614591.618 8      -340.699          48.000  
G05  22611139.539 8 118822318.704 8     -3222.527          49.000    22611137.047 8  92588816.206 8     -2511.061          49.000  
R16  20221971.211 5 108021775.008 5     -2644.914          32.000    20221973.906 5  84016920.385 5     -2057.156          32.000  
R10  22829366.016 7 121693011.477 7      3678.199          43.000                                                                  
R06  19966639.945 7 106545433.431 7     -2606.887          45.000                                                                  
R09  19918540.992 8 106363597.476 8      1926.066          51.000    19918541.031 8  82727168.160 8      1498.055          49.000  
E24  22365905.789 8 117533623.033 8      1724.184          51.000    22365916.062 8  90058324.683 8      1321.075          49.000  
E04  27528814.281 7 144665008.562 7     -2793.512          44.000    27528821.695 8 110847201.398 8     -2140.436          48.000  
E31  23919789.508 8 125699379.196 8     -1056.777          51.000    23919791.359 8  96315137.424 8      -809.709          51.000  
E09  21831569.898 8 114725653.349 8     -1192.852          51.000    21831569.633 8  87906696.751 8      -913.995          51.000  
C22  22309431.281 8 116171024.164 8       175.254          49.000                                                                  
C05  39793450.953 5 207214940.167 5        14.207          35.000    39793449.242 6 160231717.617 6        10.850          39.000  
C19  23173939.453 8 120672786.493 8     -2737.832          50.000                                                                  
> 2020 05 13 04 33  0.0000000  0 14      -0.000000000000
G13  20182286.633 8 106058638.212 8       405.766          51.000    20182284.797 8  82643091.262 8       316.181          51.000  
G28  20910487.641 8 109885381.800 8      -453.949          51.000    20910485.859 8  85625002.521 8      -353.727          49.000  
G05  22629555.977 8 118919101.267 8     -3230.227          48.000    22629554.797 8  92664231.180 8     -2517.057          48.000  
R16  20236855.703 6 108101283.137 6     -2656.000          36.000    20236858.023 5  84078760.000 5     -2065.781          33.000  
R10  22808685.828 7 121582768.108 7      3670.957          45.000                                                                  
R06  19981345.680 7 106623909.628 7     -2625.336          44.000                                                                  
R09  19907764.578 8 106306054.762 8      1909.535          50.000    19907765.719 8  82682412.758 8      1485.197          50.000  
E24  22356088.305 8 117482033.239 8      1714.566          51.000    22356099.070 8  90018794.852 8      1313.786          50.000  
E04  27544767.781 7 144748841.843 7     -2795.934          47.000    27544774.867 7 110911437.314 7     -2142.373          47.000  
E31  23925848.102 8 125731218.214 8     -1066.453          51.000    23925850.109 8  96339533.569 8      -817.156          51.000  
E09  21838404.648 8 114761570.665 8     -1202.203          51.000    21838404.945 8  87934217.791 8      -921.172          51.000  
C22  22308463.664 8 116165986.164 8       160.195          48.000                                                                  
C05  39793364.789 5 207214491.582 5        15.105          35.000    39793363.078 6 160231370.731 6        11.765          39.000  
C19  23189735.148 8 120755040.082 8     -2746.246          51.000                                                                  
> 2020 05 13 04 33 30.0000000  0 14      -0.000000000000
G13  20180012.430 8 106046687.040 8       391.773          51.000    20180010.531 8  82633778.658 8       305.278          51.000  
G28  20913134.773 8 109899292.747 8      -472.523          51.000    20913132.914 8  85635842.215 8      -368.200          48.000  
G05  22648024.141 7 119016156.565 7     -3239.328          47.000    22648023.945 7  92739858.686 7     -2524.153          47.000  
R16  20251810.594 5 108181170.503 5     -2668.734          32.000    20251812.734 5  84140894.567 5     -2075.686          33.000  
R10  22788056.383 7 121472794.227 7      3661.660          43.000                                                                  
R06  19996166.562 7 106702995.586 7     -2646.031          47.000                                                                  
R09  19897089.492 8 106249053.094 8      1891.344          50.000    19897091.719 8  82638078.130 8      1471.045          50.000  
E24  22346333.508 8 117430771.366 8      1703.566          51.000    22346344.555 8  89979516.292 8      1305.337          50.000  
E04  27560743.922 8 144832792.097 8     -2799.848          48.000    27560750.398 7 110975762.843 7     -2145.453          47.000  
E31  23931969.867 8 125763388.343 8     -1077.500          51.000    23931972.125 8  96364183.404 8      -825.614          51.000  
E09  21845300.484 8 114797809.731 8     -1212.969          51.000    21845301.391 8  87961985.361 8      -929.460          51.000  
C22  22307591.938 8 116161448.044 8       143.309          49.000                                                                  
C05  39793279.688 5 207214048.652 5        14.500          35.000    39793277.930 6 160231028.190 6        11.545          39.000  
C19  23205589.109 8 120837596.158 8     -2756.535          51.000                                                                  
> 2020 05 13 04 34  0.0000000  0 15      -0.000000000000
G30  22234199.164 6 116841465.312 6     -2467.180          36.000    22234207.117 4  91045365.838 4     -1922.478          28.000  
G13  20177814.977 8 106035139.502 8       378.164          51.000    20177813.000 8  82624780.567 8       294.673          51.000  
G28  20915884.945 8 109913744.997 8      -490.824          51.000    20915883.211 8  85647103.711 8      -382.457          49.000  
G05  22666542.422 7 119113474.005 7     -3248.258          47.000    22666542.734 7  92815690.465 7     -2531.108          47.000  
R16  20266834.656 6 108261426.276 6     -2680.891          36.000    20266837.320 5  84203315.752 5     -2085.137          34.000  
R10  22767475.250 6 121363083.367 6      3652.816          40.000                                                                  
R06  20011100.453 8 106782680.719 8     -2666.156          50.000                                                                  
R09  19886514.766 8 106192584.858 8      1873.371          50.000    19886517.797 8  82594158.415 8      1457.067          51.000  
E24  22336640.000 8 117379829.917 8      1692.633          51.000    22336651.031 8  89940483.241 8      1296.947          51.000  
E04  27576740.469 8 144916850.567 8     -2803.781          48.000    27576746.289 7 111040171.230 7     -2148.416          47.000  
E31  23938152.820 8 125795880.343 8     -1088.512          51.000    23938155.211 8  96389079.861 8      -834.043          51.000  
E09  21852256.133 8 114834362.505 8     -1223.695          51.000    21852257.406 8  87989993.324 8      -937.643          51.000  
C22  22306814.547 8 116157402.403 8       126.625          48.000                                                                  
C05  39793194.047 5 207213603.314 5        15.422          35.000    39793192.461 6 160230683.846 6        11.502          39.000  
C19  23221499.156 8 120920445.081 8     -2766.520          51.000                                                                  
> 2020 05 13 04 34 30.0000000  0 15      -0.000000000000
G30  22248302.094 5 116915563.657 5     -2472.797          33.000    22248302.258 5  91103104.583 5     -1926.870          34.000  
G13  20175694.977 8 106023998.535 8       364.504          51.000    20175692.914 8  82616099.287 8       284.029          51.000  
G28  20918738.414 8 109928739.615 8      -508.871          51.000    20918736.555 8  85658787.831 8      -396.523          49.000  
G05  22685110.938 7 119211052.832 7     -3257.016          46.000    22685111.383 7  92891725.924 7     -2537.935          46.000  
R16  20281927.906 5 108342049.105 5     -2693.996          34.000    20281931.305 5  84266022.358 5     -2095.331          35.000  
R10  22746942.617 6 121253639.418 6      3643.629          41.000                                                                  
R06  20026146.453 8 106862965.366 8     -2686.191          50.000                                                                  
R09  19876040.602 8 106136652.755 8      1855.426          50.000    19876044.016 8  82550655.655 8      1443.109          51.000  
E24  22327008.141 8 117329211.424 8      1681.852          51.000    22327019.109 8  89901697.651 8      1288.692          51.000  
E04  27592757.719 7 145001018.373 7     -2807.426          47.000    27592761.828 7 111104663.422 7     -2151.164          44.000  
E31  23944397.055 8 125828695.019 8     -1099.227          51.000    23944399.625 8  96414223.588 8      -842.271          51.000  
E09  21859271.711 8 114871230.980 8     -1234.254          51.000    21859273.852 8  88018243.190 8      -945.743          51.000  
C22  22306132.117 8 116153851.867 8       110.121          48.000                                                                  
C05  39793108.547 5 207213157.834 5        15.199          35.000    39793106.859 6 160230339.335 6        11.496          39.000  
C19  23237465.492 8 121003587.154 8     -2776.242          50.000                                                                  
> 2020 05 13 04 35  0.0000000  0 15      -0.000000000000
G24  24040133.633 6 126331799.308 6      3158.645          36.000                                                                  
G13  20173639.086 8 106013194.223 8       355.727          51.000    20173636.992 8  82607680.339 8       277.190          51.000  
G28  20921681.445 8 109944204.992 8      -522.156          51.000    20921679.547 8  85670838.776 8      -406.875          50.000  
G05  22703715.586 8 119308819.164 8     -3260.875          48.000    22703715.633 8  92967907.478 8     -2540.942          48.000  
R16  20297074.984 5 108422963.799 5     -2700.984          33.000    20297079.133 5  84328956.032 5     -2100.763          35.000  
R10  22726448.211 7 121144392.435 7      3639.660          44.000                                                                  
R06  20041290.602 8 106943775.036 8     -2701.238          51.000                                                                  
R09  19865653.516 8 106081185.365 8      1842.379          51.000    19865656.672 8  82507514.311 8      1432.962          50.000  
E24  22317424.195 8 117278845.563 8      1675.836          51.000    22317435.336 8  89863105.635 8      1284.077          51.000  
E04  27608782.047 7 145085224.007 7     -2806.359          46.000    27608784.273 7 111169184.575 7     -2150.212          45.000  
E31  23950689.148 8 125861760.375 8     -1105.168          51.000    23950691.828 8  96439559.376 8      -846.838          51.000  
E09  21866333.711 8 114908344.326 8     -1240.004          51.000    21866336.969 8  88046680.673 8      -950.145          51.000  
C22  22305531.281 8 116150726.759 8        98.168          48.000                                                                  
C05  39793009.523 6 207212641.952 6        19.461          36.000    39793007.852 6 160229940.401 6        14.885          39.000  
C19  23253474.000 8 121086950.543 8     -2781.211          50.000                                                                  
> 2020 05 13 04 35 30.0000000  0 15      -0.000000000000
G24  24022135.281 5 126237218.559 5      3149.703          35.000                                                                  
G13  20171670.906 8 106002850.627 8       336.949          51.000    20171668.672 8  82599620.400 8       262.558          51.000  
G28  20924737.289 8 109960263.300 8      -545.281          51.000    20924735.422 8  85683351.745 8      -424.895          50.000  
G05  22722378.625 7 119406892.675 7     -3274.309          47.000    22722377.906 7  93044328.383 7     -2551.413          47.000  
R16  20312300.023 6 108504292.395 6     -2717.746          36.000    20312303.406 5  84392211.613 5     -2113.803          34.000  
R10  22706015.312 7 121035468.044 7      3625.332          46.000                                                                  
R06  20056555.992 8 107025232.707 8     -2726.035          50.000                                                                  
R09  19855377.258 8 106026308.137 8      1819.262          51.000    19855379.492 8  82464832.023 8      1414.982          48.000  
E24  22307911.617 8 117228855.660 8      1659.883          51.000    22307922.805 8  89824801.682 8      1271.865          51.000  
E04  27624836.695 7 145169589.545 7     -2815.027          46.000    27624837.492 7 111233828.220 7     -2156.958          45.000  
E31  23957052.109 8 125895198.024 8     -1120.891          51.000    23957054.844 8  96465180.424 8      -858.913          51.000  
E09  21873465.867 8 114945825.364 8     -1255.668          51.000    21873469.766 8  88075399.894 8      -962.124          51.000  
C22  22305035.867 8 116148149.368 8        76.617          48.000                                                                  
C05  39792920.453 5 207212178.447 5        14.301          35.000    39792918.711 6 160229581.199 6        10.950          39.000  
C19  23269548.398 8 121170655.291 8     -2795.953          49.000                                                                  
> 2020 05 13 04 36  0.0000000  0 14      -0.000000000000
G13  20169796.266 8 105992999.024 8       319.520          51.000    20169793.922 8  82591943.824 8       248.976          51.000  
G28  20927911.570 8 109976943.994 8      -567.133          51.000    20927909.531 8  85696349.681 8      -441.925          49.000  
G05  22741105.297 7 119505301.494 7     -3286.555          47.000    22741103.234 7  93121010.542 7     -2560.956          47.000  
R16  20327608.289 5 108586062.853 5     -2734.277          32.000    20327610.695 5  84455810.831 5     -2126.661          34.000  
R10  22685649.312 7 120926899.815 7      3612.297          47.000                                                                  
R06  20071947.555 7 107107367.011 7     -2749.746          47.000                                                                  
R09  19845217.383 8 105972052.328 8      1797.449          51.000    19845218.227 8  82422633.058 8      1398.016          48.000  
E24  22298476.203 8 117179272.648 8      1645.297          51.000    22298487.445 8  89786809.504 8      1260.698          51.000  
E04  27640927.242 7 145254144.541 7     -2822.398          46.000    27640926.758 7 111298617.022 7     -2162.564          45.000  
E31  23963491.391 8 125929037.235 8     -1135.336          51.000    23963494.141 8  96491109.174 8      -869.936          51.000  
E09  21880674.141 8 114983704.529 8     -1269.969          51.000    21880678.062 8  88104424.184 8      -973.085          51.000  
C22  22304651.781 8 116146150.358 8        56.277          49.000                                                                  
C05                                                                  39792845.242 6 160229285.066 6         8.491          39.000  
C19  23285694.039 8 121254729.929 8     -2809.223          50.000                                                                  
> 2020 05 13 04 36 30.0000000  0 14      -0.000000000000
G13  20167985.078 8 105983481.098 8       311.051          51.000    20167982.867 8  82584527.260 8       242.377          51.000  
G28  20931173.719 8 109994086.615 8      -579.742          51.000    20931171.812 8  85709707.563 8      -451.747          50.000  
G05  22759864.898 7 119603883.537 7     -3289.566          47.000    22759861.484 7  93197827.691 7     -2563.299          47.000  
R16  20342966.922 5 108668109.608 5     -2739.637          32.000    20342970.414 5  84519625.055 5     -2130.823          34.000  
R10  22665319.016 7 120818527.393 7      3608.484          46.000                                                                  
R06  20087434.484 7 107190013.879 7     -2763.879          45.000                                                                  
R09  19835143.438 8 105918256.272 8      1784.906          51.000    19835144.086 8  82380791.680 8      1388.261          50.000  
E24  22289087.750 8 117129937.531 8      1639.738          51.000    22289099.172 8  89749007.277 8      1256.391          51.000  
E04  27657023.094 7 145338728.781 7     -2820.664          45.000    27657021.578 7 111363428.243 7     -2161.277          43.000  
E31  23969976.648 8 125963117.330 8     -1140.637          51.000    23969979.250 8  96517222.490 8      -873.992          51.000  
E09  21887927.969 8 115021822.299 8     -1275.172          51.000    21887931.719 8  88133631.290 8      -977.119          51.000  
C22  22304348.727 8 116144572.156 8        45.027          50.000                                                                  
C05  39792758.734 5 207211336.231 5        16.461          35.000    39792757.094 6 160228929.908 6        12.463          39.000  
C19  23301880.180 8 121339014.684 8     -2813.547          50.000                                                                  
> 2020 05 13 04 37  0.0000000  0 14      -0.000000000000
G13  20166250.273 8 105974364.650 8       296.055          51.000    20166248.156 8  82577423.527 8       230.692          51.000  
G28  20934536.320 8 110011756.769 8      -598.914          51.000    20934534.461 8  85723476.511 8      -466.686          50.000  
G05  22778669.898 7 119702702.737 7     -3298.828          47.000    22778666.227 7  93274829.643 7     -2570.516          47.000  
R16  20358390.820 5 108750497.808 5     -2752.809          34.000    20358394.008 5  84583704.743 5     -2141.074          32.000  
R10  22645037.516 7 120710420.168 7      3598.098          46.000                                                                  
R06  20103030.219 7 107273238.580 7     -2784.887          46.000                                                                  
R09  19825168.398 8 105864988.449 8      1765.645          51.000    19825169.273 8  82339361.142 8      1373.279          51.000  
E24  22279759.227 8 117080917.567 8      1627.586          51.000    22279770.992 8  89711446.531 8      1247.154          51.000  
E04  27673136.492 7 145423408.271 7     -2825.410          44.000    27673134.461 7 111428312.462 7     -2164.869          42.000  
E31  23976520.258 8 125997503.901 8     -1152.453          51.000    23976522.797 8  96543570.624 8      -883.025          51.000  
E09  21895239.961 8 115060245.478 8     -1286.992          51.000    21895243.523 8  88163072.391 8      -986.134          51.000  
C22  22304139.281 8 116143481.504 8        27.109          50.000                                                                  
C05  39792668.633 5 207210866.809 5        14.707          35.000    39792666.930 6 160228566.881 6        11.575          39.000  
C19  23318118.906 8 121423574.101 8     -2824.176          50.000                                                                  
> 2020 05 13 04 37 30.0000000  0 16      -0.000000000000
G17  24579968.492 5 129168628.956 5      2822.797          35.000    24579965.625 5 100650856.089 5      2199.583          34.000  
G30  22333534.273 5 117363513.752 5     -2504.562          31.000    22333535.766 5  91452082.708 5     -1951.620          31.000  
G13  20164593.602 8 105965658.509 8       283.676          51.000    20164591.422 8  82570639.519 8       221.046          51.000  
G28  20938000.547 8 110029961.354 8      -615.355          51.000    20937998.766 8  85737661.901 8      -479.498          50.000  
G05  22797521.211 7 119801764.374 7     -3305.707          47.000    22797517.930 7  93352020.497 7     -2575.876          47.000  
R16  20373878.836 5 108833219.135 5     -2763.551          32.000    20373879.922 4  84648053.685 4     -2149.429          28.000  
R10  22624808.039 7 120602588.148 7      3590.277          46.000                                                                  
R06  20118736.094 7 107357047.545 7     -2802.953          47.000                                                                  
R09  19815293.609 8 105812257.720 8      1749.094          51.000    19815294.555 8  82298348.374 8      1360.406          49.000  
E24  22270492.156 8 117032221.101 8      1618.184          51.000    22270504.523 8  89674133.670 8      1239.979          51.000  
E04  27689269.266 7 145508190.057 7     -2827.254          45.000    27689267.500 7 111493275.106 7     -2166.357          43.000  
E31  23983123.367 8 126032203.617 8     -1161.500          51.000    23983126.062 8  96570158.710 8      -889.894          51.000  
E09  21902611.609 8 115098981.892 8     -1296.039          51.000    21902614.883 8  88192753.490 8      -993.040          51.000  
C22  22304024.711 8 116142886.699 8        11.867          50.000                                                                  
C05  39792578.047 5 207210395.158 5        16.105          35.000    39792576.430 6 160228202.156 6        12.563          39.000  
C19  23334411.469 8 121508414.268 8     -2832.316          49.000                                                                  
> 2020 05 13 04 38  0.0000000  0 15      -0.000000000000
G30  22347851.570 5 117438746.680 5     -2510.773          34.000    22347850.992 5  91510705.744 5     -1956.450          33.000  
G13  20163012.891 8 105957351.316 8       270.172          51.000    20163010.562 8  82564166.384 8       210.524          51.000  
G28  20941563.914 8 110048687.262 8      -632.992          51.000    20941562.203 8  85752253.520 8      -493.241          48.000  
G05  22816415.547 7 119901052.350 7     -3313.383          46.000    22816412.727 7  93429387.730 7     -2581.857          46.000  
R16  20389428.969 6 108916283.998 6     -2774.758          36.000    20389429.281 4  84712665.607 4     -2158.148          29.000  
R10  22604628.742 7 120495020.320 7      3581.133          47.000                                                                  
R06  20134548.742 8 107441425.405 8     -2822.109          49.000                                                                  
R09  19805516.625 8 105760051.724 8      1731.383          51.000    19805517.883 8  82257743.718 8      1346.631          49.000  
E24  22261284.492 8 116983836.219 8      1607.551          51.000    22261297.391 8  89637059.550 8      1231.769          51.000  
E04  27705419.516 7 145593061.030 7     -2830.691          46.000    27705418.781 7 111558306.027 7     -2168.790          44.000  
E31  23989783.656 8 126067202.858 8     -1171.703          51.000    23989786.438 8  96596976.303 8      -897.811          51.000  
E09  21910040.555 8 115138019.059 8     -1306.328          51.000    21910043.055 8  88222665.061 8     -1000.971          51.000  
C22  22304003.211 8 116142775.841 8        -4.438          50.000                                                                  
C05  39792484.828 5 207209909.036 5        16.109          35.000    39792483.039 6 160227826.213 6        12.789          39.000  
C19  23350754.953 8 121593521.191 8     -2841.469          49.000                                                                  
> 2020 05 13 04 38 30.0000000  0 15      -0.000000000000
G30  22362200.742 6 117514147.643 6     -2515.820          36.000    22362196.906 5  91569459.713 5     -1960.383          34.000  
G13  20161511.867 8 105949463.041 8       256.309          51.000    20161509.398 8  82558019.672 8       199.721          51.000  
G28  20945229.844 8 110067952.284 8      -650.789          51.000    20945228.016 7  85767265.207 7      -507.109          47.000  
G05  22835356.070 7 120000583.712 7     -3321.707          44.000    22835353.781 7  93506944.618 7     -2588.344          44.000  
R16  20405044.555 5 108999695.863 5     -2785.246          33.000    20405045.859 5  84777541.494 5     -2166.300          30.000  
R10  22584502.641 7 120387737.870 7      3571.656          46.000                                                                  
R06  20150471.438 8 107526389.457 8     -2841.559          49.000                                                                  
R09  19795841.875 8 105708389.962 8      1713.336          51.000    19795843.414 8  82217562.362 8      1332.595          50.000  
E24  22252140.102 8 116935782.419 8      1596.730          51.000    22252153.203 8  89600239.096 8      1223.532          51.000  
E04  27721590.625 7 145678039.396 7     -2833.859          47.000    27721591.133 7 111623419.259 7     -2171.457          44.000  
E31  23996504.359 8 126102519.450 8     -1182.043          51.000    23996507.125 8  96624037.072 8      -905.671          51.000  
E09  21917530.188 8 115177376.021 8     -1316.785          51.000    21917531.969 8  88252821.677 8     -1008.966          51.000  
C22  22304078.266 8 116143168.316 8       -21.148          50.000                                                                  
C05  39792392.422 5 207209428.422 5        15.789          35.000    39792390.602 6 160227453.758 6        12.810          39.000  
C19  23367152.930 8 121678912.023 8     -2850.777          48.000                                                                  
> 2020 05 13 04 39  0.0000000  0 15      -0.000000000000
G30  22376583.023 5 117589737.04625     -2522.461          33.000                                                                  
G13  20160093.492 8 105942009.222 8       240.242          51.000    20160090.969 8  82552211.497 8       187.199          51.000  
G28  20949000.891 8 110087769.733 8      -670.664          50.000    20948999.062 7  85782707.372 7      -522.596          47.000  
G05  22854344.750 6 120100370.049 6     -3331.246          40.000    22854342.992 6  93584700.193 6     -2595.780          40.000  
R16  20420726.344 5 109083466.657 5     -2798.652          33.000    20420726.492 4  84842699.48524     -2176.736          29.000  
R10  22564431.992 7 120280756.834 7      3560.086          43.000                                                                  
R06  20166506.445 8 107611952.144 8     -2862.953          48.000                                                                  
R09  19786272.094 8 105657287.710 8      1693.207          51.000    19786273.312 8  82177816.186 8      1316.939          49.000  
E24  22243061.734 8 116888074.641 8      1583.609          51.000    22243074.883 8  89563683.780 8      1213.386          51.000  
E04  27737785.148 8 145763138.911 8     -2839.523          49.000    27737786.016 7 111688625.352 7     -2175.764          42.000  
E31  24003287.789 8 126138166.729 8     -1194.590          51.000    24003290.445 8  96651351.217 8      -915.351          51.000  
E09  21925083.266 8 115217067.217 8     -1329.496          51.000    21925084.531 8  88283234.407 8     -1018.732          51.000  
C22  22304252.781 8 116144078.944 8       -39.996          50.000                                                                  
C05  39792303.602 5 207208965.657 5        14.238          35.000    39792301.734 6 160227095.956 6        10.995          39.000  
C19  23383608.102 8 121764599.461 8     -2862.016          49.000                                                                  
> 2020 05 13 04 39 30.0000000  0 14      -0.000000000000
G13  20158754.539 8 105934972.843 8       228.172          51.000    20158752.055 8  82546728.598 8       177.796          50.000  
G28  20952873.625 8 110108121.002 8      -686.746          50.000    20952871.664 7  85798565.494 7      -535.127          46.000  
G05  22873377.500 6 120200390.401 6     -3337.301          40.000    22873376.055 6  93662638.134 6     -2600.495          40.000  
R16  20436471.602 5 109167575.113 5     -2808.934          30.000    20436470.680 4  84908113.134 4     -2184.727          29.000  
R10  22544414.992 7 120174061.470 7      3552.340          43.000                                                                  
R06  20182648.992 7 107698092.548 7     -2880.273          46.000                                                                  
R09  19776803.578 8 105606727.345 8      1676.930          51.000    19776804.391 8  82138491.485 8      1304.282          48.000  
E24  22234046.062 8 116840695.357 8      1574.469          51.000    22234059.031 8  89527380.170 8      1206.421          51.000  
E04  27753999.164 8 145848340.805 8     -2841.004          49.000    27753999.617 7 111753909.940 7     -2176.964          42.000  
E31  24010130.531 8 126174125.525 8     -1203.102          51.000    24010132.945 8  96678904.053 8      -921.837          51.000  
E09  21932696.461 8 115257074.610 8     -1338.277          51.000    21932697.570 8  88313889.423 8     -1025.386          51.000  
C22  22304523.867 8 116145490.279 8       -54.812          51.000                                                                  
C05  39792214.961 5 207208504.128 5        15.113          35.000    39792212.984 6 160226739.015 6        12.430          39.000  
C19  23400117.234 8 121850563.968 8     -2869.516          50.000                                                                  
> 2020 05 13 04 40  0.0000000  0 15      -0.000000000000
G13  20157491.555 8 105928335.584 8       214.613          51.000    20157489.039 8  82541556.706 8       167.231          51.000  
G28  20956843.805 8 110128985.567 8      -703.949          49.000    20956842.023 7  85814823.630 7      -548.529          46.000  
G05  22892450.797 6 120300622.931 6     -3344.516          38.000    22892449.375 6  93740741.312 6     -2606.120          38.000  
R16  20452275.570 5 109251999.122 5     -2819.641          33.000    20452275.727 5  84973775.603 5     -2193.051          31.000  
R10  22524449.375 7 120067633.526 7      3543.219          45.000                                                                  
R06  20198895.500 7 107784789.598 7     -2898.973          46.000                                                                  
R09  19767432.727 8 105556689.427 8      1659.273          51.000    19767433.414 8  82099573.110 8      1290.546          48.000  
R07  19460247.320 6 104171835.988 6      1205.926          36.000    19460244.555 5  81022532.057 5       937.939          32.000  
E24  22225089.398 8 116793625.768 8      1563.973          51.000    22225102.148 8  89491313.841 8      1198.351          51.000  
E04  27770228.648 8 145933625.046 8     -2844.031          48.000    27770229.094 7 111819257.543 7     -2179.125          43.000  
E31  24017028.758 8 126210375.332 8     -1213.047          51.000    24017031.180 8  96706679.869 8      -929.469          51.000  
E09  21940366.047 8 115297378.861 8     -1348.301          51.000    21940367.289 8  88344771.901 8     -1033.099          51.000  
C22  22304887.953 8 116147383.689 8       -71.035          51.000                                                                  
C05  39792122.852 6 207208024.722 6        16.301          36.000    39792120.891 6 160226368.324 6        12.602          39.000  
C19  23416675.453 8 121936784.797 8     -2878.070          50.000                                                                  
> 2020 05 13 04 40 30.0000000  0 15      -0.000000000000
G13  20156307.859 8 105922114.741 8       201.152          51.000    20156305.258 8  82536709.282 8       156.742          51.000  
G28  20960914.711 8 110150378.698 8      -721.219          50.000    20960913.016 7  85831493.592 7      -561.992          45.000  
G05  22911567.578 6 120401080.932 6     -3351.484          36.000    22911566.414 6  93819020.200 6     -2611.550          36.000  
R16  20468141.586 5 109336750.618 5     -2829.504          35.000    20468142.078 4  85039693.379 4     -2200.729          29.000  
R10  22504538.203 7 119961490.555 7      3533.984          45.000                                                                  
R06  20215249.359 7 107872056.967 7     -2917.785          47.000                                                                  
R09  19758163.055 8 105507190.918 8      1641.570          51.000    19758164.062 8  82061074.235 8      1276.777          49.000  
R07  19453558.102 5 104136032.650 5      1182.684          35.000    19453553.711 5  80994685.045 5       919.865          30.000  
E24  22216194.812 8 116746882.633 8      1553.340          51.000    22216207.461 8  89455497.656 8      1190.240          51.000  
E04  27786476.453 7 146019007.117 7     -2847.082          47.000    27786476.680 7 111884680.099 7     -2181.481          43.000  
E31  24023985.039 8 126246931.294 8     -1222.949          50.000    24023987.727 8  96734690.273 8      -937.057          51.000  
E09  21948095.234 8 115337996.272 8     -1358.414          51.000    21948096.711 8  88375894.329 8     -1040.893          51.000  
C22  22305348.023 8 116149775.717 8       -87.320          51.000                                                                  
C05  39792030.391 5 207207543.83125        16.242          35.000    39792028.570 6 160225996.439 6        12.964          39.000  
C19  23433285.781 8 122023276.370 8     -2886.898          50.000                                                                  
> 2020 05 13 04 41  0.0000000  0 14      -0.000000000000
G13  20155207.555 8 105916332.526 8       185.371          51.000    20155205.000 8  82532203.662 8       144.445          50.000  
G28  20965090.109 8 110172320.318 8      -740.484          49.000    20965088.422 7  85848590.967 7      -577.001          46.000  
R16  20484071.812 5 109421848.784 5     -2842.621          34.000    20484067.367 4  85105867.81924     -2210.928          28.000  
R10  22484685.031 7 119855656.865 7      3522.637          45.000                                                                  
R06  20231714.109 8 107959913.649 8     -2938.391          49.000                                                                  
R09  19748998.391 8 105458253.518 8      1621.934          51.000    19749000.078 8  82023011.833 8      1261.507          49.000  
R07  19447004.820 6 104100951.863 6      1157.523          39.000    19446999.438 5  80967400.040 5       900.296          31.000  
E24  22207366.211 8 116700487.424 8      1540.762          51.000    22207378.906 8  89419948.072 8      1180.587          51.000  
E04  27802746.258 7 146104507.309 7     -2851.934          46.000    27802746.391 7 111950193.174 7     -2185.348          42.000  
E31  24031003.320 8 126283813.242 8     -1234.805          50.000    24031005.852 8  96762950.463 8      -946.075          51.000  
E09  21955888.188 8 115378947.838 8     -1370.574          51.000    21955889.383 8  88407272.793 8     -1050.181          51.000  
C22  22305907.742 8 116152687.665 8      -105.715          51.000                                                                  
C05  39791941.680 6 207207081.279 6        14.918          36.000    39791940.070 6 160225639.527 6        11.756          39.000  
C19  23449951.539 8 122110057.827 8     -2897.559          50.000                                                                  
> 2020 05 13 04 41 30.0000000  0 14      -0.000000000000
G13  20154182.570 8 105910946.472 8       172.832          51.000    20154180.078 8  82528006.729 8       134.677          50.000  
G28  20969361.398 8 110194765.912 8      -756.598          51.000    20969359.898 7  85866081.063 7      -589.557          46.000  
R16  20500058.156 5 109507247.076 5     -2851.469          31.000    20500054.578 4  85172282.696 4     -2217.806          28.000  
R10  22464881.016 7 119750089.315 7      3514.480          44.000                                                                  
R06  20248280.523 8 108048313.132 8     -2955.734          49.000                                                                  
R09  19739931.148 8 105409833.689 8      1605.301          51.000    19739932.500 8  81985351.976 8      1248.568          48.000  
R07  19440578.172 6 104066551.597 6      1135.551          36.000    19440576.797 5  80940644.273 5       883.203          34.000  
E24  22198595.430 8 116654397.096 8      1531.230          51.000    22198608.203 8  89384632.107 8      1173.269          51.000  
E04  27819029.758 7 146190081.402 7     -2853.738          43.000    27819030.594 7 112015762.882 7     -2186.467          42.000  
E31  24038075.336 8 126320976.542 8     -1243.480          51.000    24038077.516 8  96791426.221 8      -952.830          51.000  
E09  21963736.547 8 115420190.021 8     -1379.707          51.000    21963737.297 8  88438873.935 8     -1057.161          51.000  
C22  22306558.828 8 116156076.791 8      -120.988          51.000                                                                  
C05  39791848.555 6 207206596.180 6        16.215          36.000    39791846.875 6 160225264.402 6        12.750          39.000  
C19  23466664.227 8 122197084.383 8     -2905.090          50.000                                                                  
> 2020 05 13 04 42  0.0000000  0 14      -0.000000000000
G13  20153230.281 8 105905943.196 8       159.293          50.000    20153228.109 8  82524108.070 8       124.124          50.000  
G28  20973725.828 8 110217700.503 8      -773.648          51.000    20973724.305 7  85883952.170 7      -602.843          46.000  
G05  22969168.359 6 120703785.344 6     -3373.582          38.000    22969168.547 6  94054903.129 6     -2628.766          38.000  
R10  22445124.812 7 119644775.626 7      3505.168          45.000                                                                  
R06  20264945.164 7 108137238.897 7     -2974.008          47.000                                                                  
R09  19730958.117 8 105361917.162 8      1587.734          51.000    19730958.938 8  81948083.569 8      1234.905          49.000  
R07  19434276.375 6 104032820.279 6      1112.117          38.000    19434275.945 5  80914408.725 5       864.980          34.000  
E24  22189879.992 8 116608598.125 8      1520.637          51.000    22189892.836 8  89349539.397 8      1165.131          51.000  
E04  27835324.375 7 146275714.650 7     -2856.352          43.000    27835327.008 7 112081377.961 7     -2188.775          44.000  
E31  24045197.891 8 126358406.010 8     -1253.070          50.000    24045200.297 8  96820105.929 8      -960.205          51.000  
E09  21971637.367 8 115461708.770 8     -1389.609          51.000    21971637.953 8  88470686.971 8     -1064.787          51.000  
C22  22307298.664 8 116159929.634 8      -137.230          51.000                                                                  
C05  39791748.359 5 207206074.70925        17.473          35.000    39791746.539 6 160224860.409 6        13.173          39.000  
C19  23483421.047 8 122284340.503 8     -2913.480          50.000                                                                  
> 2020 05 13 04 42 30.0000000  0 15      -0.000000000000
G15  20923160.414 5 109951949.66225      1811.570          33.000                                                                  
G13  20152364.461 8 105901394.788 8       145.691          50.000    20152362.688 8  82520563.840 8       113.523          50.000  
G28  20978196.430 8 110241193.439 8      -790.785          51.000    20978194.898 7  85902258.366 7      -616.196          47.000  
G05  22988449.516 6 120805115.175 6     -3380.621          38.000    22988447.672 6  94133861.377 6     -2634.251          38.000  
R10  22425430.539 7 119539789.306 7      3495.633          46.000                                                                  
R06  20281720.891 7 108226760.646 7     -2992.145          45.000                                                                  
R09  19722093.156 8 105314576.771 8      1570.148          51.000    19722094.102 8  81911263.270 8      1221.227          51.000  
R07  19428114.148 6 103999832.397 6      1088.820          38.000    19428114.344 5  80888751.497 5       846.863          34.000  
E24  22181233.695 8 116563161.867 8      1510.117          51.000    22181246.539 8  89314724.611 8      1157.097          51.000  
E04  27851643.578 7 146361477.127 7     -2859.031          43.000    27851648.641 7 112147092.062 7     -2190.816          47.000  
E31  24052384.188 8 126396171.366 8     -1262.824          50.000    24052387.070 8  96849043.008 8      -967.586          51.000  
E09  21979604.188 8 115503574.960 8     -1399.691          51.000    21979604.867 8  88502766.223 8     -1072.485          51.000  
C22  22308140.930 8 116164316.814 8      -153.547          51.000                                                                  
C05  39791654.477 5 207205586.398 5        16.969          35.000    39791652.586 6 160224481.994 6        13.224          39.000  
C19  23500234.984 8 122371894.737 8     -2921.637          50.000                                                                  
> 2020 05 13 04 43  0.0000000  0 15      -0.000000000000
G13  20151577.445 8 105897260.029 8       129.105          50.000    20151575.992 8  82517341.931 8       100.602          50.000  
G28  20982765.188 8 110265201.821 8      -810.691          51.000    20982763.586 8  85920966.191 8      -631.708          48.000  
G05  23007769.625 6 120906648.811 6     -3389.812          39.000    23007763.445 6  94212978.426 6     -2641.416          38.000  
R16  20548364.016 5 109765291.371 5     -2884.207          32.000                                                                  
R10  22405789.961 7 119435089.243 7      3483.434          47.000                                                                  
R06  20298599.289 7 108316833.077 7     -3013.273          43.000                                                                  
R09  19713328.117 8 105267769.581 8      1549.617          51.000    19713329.156 8  81874857.690 8      1205.258          51.000  
R07  19422082.820 6 103967547.749 6      1062.551          38.000    19422081.727 5  80863641.219 5       826.426          32.000  
E24  22172648.516 8 116518046.415 8      1496.719          51.000    22172661.562 8  89280155.646 8      1146.819          51.000  
E04  27867979.953 7 146447325.798 7     -2865.027          44.000    27867986.430 7 112212872.207 7     -2195.126          47.000  
E31  24059626.445 8 126434229.097 8     -1275.238          51.000    24059629.164 8  96878204.112 8      -977.113          51.000  
E09  21987629.094 8 115545746.150 8     -1412.625          51.000    21987629.953 8  88535079.187 8     -1082.381          51.000  
C22  22309077.781 8 116169196.736 8      -172.629          51.000                                                                  
C05  39791558.766 5 207205087.198 5        15.141          35.000    39791556.906 6 160224096.747 6        11.717          39.000  
C19  23517097.445 8 122459703.481 8     -2932.918          49.000                                                                  
> 2020 05 13 04 43 30.0000000  0 17      -0.000000000000
G17  24388016.594 5 128159899.521 5      2780.012          35.000    24388018.914 5  99864858.321 5      2166.240          35.000  
G30  22507351.969 5 118276932.91525     -2567.484          33.000                                                                  
G13  20150874.188 8 105893564.382 8       117.180          51.000    20150872.711 8  82514462.197 8        91.309          50.000  
G28  20987436.406 8 110289748.925 8      -825.789          51.000    20987434.781 8  85940093.821 8      -643.472          48.000  
G05  23027133.352 6 121008408.437 6     -3394.395          39.000    23027129.672 6  94292271.581 6     -2644.984          38.000  
R16  20564591.055 5 109851960.802 5     -2892.957          33.000    20564590.984 4  85440407.412 4     -2250.078          27.000  
R10  22386207.531 7 119330702.366 7      3475.738          47.000                                                                  
R06  20315584.766 7 108407478.703 7     -3029.652          43.000                                                                  
R09  19704667.648 8 105221520.950 8      1533.711          51.000    19704668.297 8  81838886.525 8      1192.883          50.000  
R07  19416188.102 6 103935993.768 6      1041.000          39.000    19416185.945 5  80839099.271 5       809.670          34.000  
E24  22164128.984 8 116473276.871 8      1487.938          51.000    22164142.609 8  89245851.724 8      1140.118          51.000  
E04  27884338.172 7 146533284.602 7     -2865.836          45.000    27884344.625 8 112278736.729 8     -2195.907          48.000  
E31  24066928.805 8 126472602.706 8     -1283.082          50.000    24066931.227 8  96907607.256 8      -983.162          51.000  
E09  21995716.531 8 115588246.976 8     -1420.875          51.000    21995717.680 8  88567644.741 8     -1088.696          51.000  
C22  22310113.938 8 116174594.218 8      -187.129          51.000                                                                  
C05  39791466.195 5 207204605.941 5        16.949          35.000    39791464.352 6 160223723.828 6        13.281          39.000  
C19  23534012.789 8 122547789.411 8     -2939.398          48.000                                                                  
> 2020 05 13 04 44  0.0000000  0 16      -0.000000000000
G17  24372158.391 5 128076562.772 5      2773.816          32.000    24372158.109 5  99799920.579 5      2161.419          31.000  
G30  22522019.602 5 118354032.299 5     -2574.500          32.000                                                                  
G13  20150245.555 8 105890260.830 8       101.414          50.000    20150243.977 8  82511888.007 8        79.024          49.000  
G28  20992200.797 8 110314785.426 8      -844.844          51.000    20992199.117 8  85959602.764 8      -658.323          48.000  
G05  23046530.727 6 121110342.718 6     -3402.910          41.000    23046532.734 6  94371700.853 6     -2651.622          40.000  
R10  22366674.445 7 119226581.050 7      3464.027          47.000                                                                  
R06  20332669.094 7 108498646.463 7     -3049.574          45.000                                                                  
R09  19696102.336 8 105175782.237 8      1513.938          51.000    19696102.500 8  81803311.984 8      1177.510          49.000  
R07  19410420.594 6 103905123.373 6      1015.547          40.000    19410420.109 6  80815088.957 6       789.870          36.000  
E24  22155666.180 8 116428805.415 8      1475.297          51.000    22155680.180 8  89211776.195 8      1130.447          51.000  
E04  27900708.320 7 146619304.488 7     -2870.484          46.000    27900713.875 8 112344648.027 8     -2199.376          48.000  
E31  24074281.609 8 126511242.686 8     -1294.520          50.000    24074284.180 8  96937214.518 8      -991.887          51.000  
E09  22003857.094 8 115631029.092 8     -1432.859          51.000    22003858.836 8  88600425.845 8     -1097.891          51.000  
C22  22311240.648 8 116180461.763 8      -205.469          51.000                                                                  
C05                                                                  39791365.586 6 160223326.226 6        12.091          39.000  
C19  23550971.844 8 122636103.035 8     -2949.562          48.000                                                                  
> 2020 05 13 04 44 30.0000000  0 15      -0.000000000000
G30  22536724.148 5 118431306.656 5     -2577.133          35.000                                                                  
G13  20149701.484 8 105887401.976 8        88.914          50.000    20149699.789 8  82509660.320 8        69.284          49.000  
G28  20997067.867 8 110340361.840 8      -860.512          50.000    20997066.156 8  85979532.444 8      -670.529          49.000  
G05  23065971.039 7 121212500.767 7     -3407.965          43.000    23065975.945 6  94451304.523 6     -2655.555          40.000  
R10  22347201.180 8 119122779.699 8      3455.719          48.000                                                                  
R06  20349861.789 8 108590385.642 8     -3066.453          48.000                                                                  
R09  19687642.078 8 105130606.163 8      1497.535          51.000    19687641.930 8  81768175.040 8      1164.750          49.000  
R07  19404790.906 6 103874991.857 6       992.895          39.000    19404791.562 6  80791653.330 6       772.251          36.000  
E24  22147270.180 8 116384684.209 8      1465.910          51.000    22147284.188 8  89177969.035 8      1123.260          51.000  
E04  27917099.766 7 146705436.413 7     -2871.848          46.000    27917103.852 7 112410645.173 7     -2200.460          47.000  
E31  24081694.906 8 126550199.683 8     -1302.820          51.000    24081697.500 8  96967064.683 8      -998.292          51.000  
E09  22012060.984 8 115674144.177 8     -1441.633          51.000    22012063.602 8  88633462.082 8     -1104.613          51.000  
C22  22312467.664 8 116186850.909 8      -220.648          51.000                                                                  
C05  39791272.414 5 207203596.166 5        16.637          35.000    39791270.586 6 160222943.766 6        13.303          39.000  
C19  23567984.492 8 122724693.924 8     -2956.637          49.000                                                                  
> 2020 05 13 04 45  0.0000000  0 14      -0.000000000000
G13  20149241.523 8 105884985.308 8        73.457          50.000    20149239.734 8  82507777.185 8        57.236          49.000  
G28  21002036.711 8 110366473.467 8      -879.039          51.000    21002035.109 7  85999879.176 7      -684.966          47.000  
G05  23085453.070 6 121314876.283 6     -3415.812          41.000    23085458.844 6  94531077.665 6     -2661.673          39.000  
R10  22327787.648 7 119019296.600 7      3444.438          47.000                                                                  
R06  20367160.906 8 108682690.897 8     -3085.996          49.000                                                                  
R09  19679286.547 8 105085989.594 8      1478.195          51.000    19679286.609 8  81733473.268 8      1149.708          49.000  
R07  19399298.859 6 103845598.308 6       967.797          40.000    19399300.484 6  80768791.644 6       752.731          36.000  
E24  22138940.336 8 116340910.226 8      1453.617          51.000    22138953.984 8  89144427.925 8      1113.802          51.000  
E04  27933511.117 7 146791676.297 7     -2876.230          45.000    27933513.609 7 112476724.994 7     -2203.863          47.000  
E31  24089167.789 8 126589469.093 8     -1313.949          50.000    24089170.055 8  96997154.217 8     -1006.757          51.000  
E09  22020328.102 8 115717588.743 8     -1453.414          51.000    22020331.039 8  88666750.786 8     -1113.647          51.000  
C22  22313794.367 8 116193758.615 8      -238.648          51.000                                                                  
C05  39791180.578 6 207203117.897 6        15.535          36.000    39791178.742 6 160222573.912 6        12.327          39.000  
C19  23585050.180 8 122813556.950 8     -2966.359          51.000                                                                  
> 2020 05 13 04 45 30.0000000  0 17      -0.000000000000
G24  23667294.820 5 124372498.83125      3063.934          34.000                                                                  
G17  24324747.234 5 127827409.22925      2762.828          32.000                                                                  
G13  20148858.992 8 105882975.114 8        60.445          51.000    20148857.023 8  82506210.785 8        47.100          48.000  
G28  21007100.297 8 110393082.614 8      -894.992          50.000    21007098.641 7  86020613.564 7      -697.397          47.000  
G05  23104969.312 6 121417430.651 6     -3420.781          38.000    23104973.992 6  94610990.161 6     -2665.551          36.000  
R16  20630048.516 4 110201622.51224     -2933.852          29.000                                                                  
R10  22308426.688 7 118916096.229 7      3435.570          45.000                                                                  
R06  20384558.438 7 108775522.509 7     -3102.879          47.000                                                                  
R09  19671028.672 8 105041895.318 8      1461.348          51.000    19671028.945 8  81699177.736 8      1136.604          49.000  
R07  19393939.219 7 103816907.434 7       944.719          42.000    19393940.625 6  80746476.540 6       734.781          37.000  
E24  22130669.695 8 116297447.193 8      1443.863          51.000    22130682.898 8  89111125.079 8      1106.325          51.000  
E04  27949935.039 7 146877986.601 7     -2877.879          45.000    27949936.070 7 112542858.777 7     -2205.210          46.000  
E31  24096692.641 8 126629012.960 8     -1322.465          51.000    24096694.867 8  97027454.069 8     -1013.294          51.000  
E09  22028651.258 8 115761326.029 8     -1462.586          51.000    22028654.164 8  88700263.755 8     -1120.632          51.000  
C22  22315213.711 8 116201148.778 8      -254.238          51.000                                                                  
C05  39791084.961 6 207202620.67426        17.160          36.000    39791083.086 6 160222188.639 6        13.490          39.000  
C19  23602161.188 8 122902654.057 8     -2973.621          51.000                                                                  
> 2020 05 13 04 46  0.0000000  0 15      -0.000000000000
G17  24308993.391 5 127744627.446 5      2757.977          33.000    24308990.617 5  99541227.211 5      2149.070          31.000  
G13  20148558.016 8 105881393.653 8        45.766          51.000    20148555.984 8  82504978.469 8        35.662          48.000  
G28  21012262.336 8 110420209.653 8      -912.695          49.000    21012260.844 7  86041751.519 7      -711.191          47.000  
G05  23124524.500 5 121520182.359 5     -3428.117          34.000    23124525.641 4  94691056.266 4     -2671.270          29.000  
R10  22289122.906 7 118813201.804 7      3424.887          46.000                                                                  
R06  20402057.477 7 108868899.343 7     -3121.410          46.000                                                                  
R09  19662873.133 8 104998345.515 8      1442.730          51.000    19662873.359 8  81665305.669 8      1122.124          49.000  
R07  19388714.773 7 103788943.758 7       920.203          43.000    19388716.289 6  80724727.029 6       715.714          38.000  
E24  22122462.352 8 116254316.984 8      1432.344          51.000    22122475.305 8  89078077.263 8      1097.529          51.000  
E04  27966375.758 7 146964388.011 7     -2881.320          45.000    27966376.008 7 112609062.407 7     -2207.826          45.000  
E31  24104273.664 8 126668851.682 8     -1332.695          51.000    24104276.156 8  97057979.829 8     -1021.136          51.000  
E09  22037034.281 8 115805377.431 8     -1473.406          51.000    22037036.836 8  88734017.403 8     -1128.971          51.000  
C22  22316729.789 8 116209042.982 8      -271.305          51.000                                                                  
C05  39790989.711 6 207202123.983 6        16.836          36.000    39790987.766 6 160221804.584 6        12.765          39.000  
C19  23619320.719 8 122992004.824 8     -2982.426          51.000                                                                  
> 2020 05 13 04 46 30.0000000  0 15      -0.000000000000
G17  24293261.242 5 127661956.639 5      2753.285          34.000    24293260.602 5  99476808.391 5      2145.424          34.000  
G13  20148332.547 8 105880208.856 8        32.891          51.000    20148330.516 8  82504055.230 8        25.629          49.000  
G28  21017516.375 7 110447820.002 7      -928.336          47.000    21017514.992 7  86063266.079 7      -723.379          47.000  
G05  23144115.773 5 121623147.395 5     -3432.137          31.000    23144114.250 4  94771262.956 4     -2674.399          29.000  
R10  22269871.117 7 118710581.535 7      3416.168          46.000                                                                  
R06  20419651.398 7 108962785.666 7     -3137.902          45.000                                                                  
R09  19654813.406 8 104955306.699 8      1426.145          51.000    19654814.180 8  81631831.057 8      1109.227          51.000  
R07  19383620.867 7 103761675.912 7       897.363          43.000    19383622.758 6  80703518.651 6       697.949          39.000  
E24  22114312.031 8 116211486.924 8      1422.809          51.000    22114324.914 8  89045259.427 8      1090.211          51.000  
E04  27982827.750 7 147050846.743 7     -2882.668          46.000    27982827.828 7 112675309.952 7     -2208.772          46.000  
E31  24111904.359 8 126708950.925 8     -1340.801          51.000    24111907.078 8  97088705.213 8     -1027.344          51.000  
E09  22045470.930 8 115849709.731 8     -1482.277          51.000    22045472.641 8  88767986.283 8     -1135.751          51.000  
C22  22318336.367 8 116217408.683 8      -286.629          51.000                                                                  
C05  39790888.273 6 207201596.148 6        18.824          36.000    39790886.391 6 160221396.426 6        14.127          39.000  
C19  23636522.016 8 123081574.696 8     -2989.250          50.000                                                                  
> 2020 05 13 04 47  0.0000000  0 14      -0.000000000000
G17  24277557.625 5 127579433.728 5      2746.809          35.000    24277557.602 5  99412504.833 5      2140.368          35.000  
G13  20148189.352 8 105879456.208 8        16.344          51.000    20148187.289 8  82503468.737 8        12.735          49.000  
G28  21022868.641 7 110475946.925 7      -947.535          46.000    21022867.125 7  86085183.156 7      -738.339          46.000  
G05  23163734.383 6 121726253.064 6     -3441.613          37.000    23163737.516 6  94851604.968 6     -2681.777          36.000  
R10  22250677.742 7 118608271.766 7      3403.719          45.000                                                                  
R06  20437347.070 7 109057214.082 7     -3158.137          46.000                                                                  
R09  19646855.773 8 104912814.181 8      1405.824          51.000    19646857.359 8  81598781.331 8      1093.419          51.000  
R07  19378664.273 7 103735140.792 7       870.879          45.000    19378665.453 6  80682880.232 6       677.350          39.000  
E24  22106225.305 8 116168991.812 8      1409.387          51.000    22106238.281 8  89012698.241 8      1079.896          51.000  
E31  24119590.875 8 126749343.971 8     -1352.863          51.000    24119593.586 8  97119655.731 8     -1036.640          51.000  
E09  22053967.555 8 115894357.290 8     -1495.043          51.000    22053968.766 8  88802196.723 8     -1145.574          51.000  
C22  22320040.070 8 116226280.226 8      -305.629          51.000                                                                  
C05  39790787.578 6 207201071.524 6        15.570          36.000    39790785.641 6 160220990.705 6        12.294          39.000  
C19  23653770.992 7 123171396.113 7     -2999.754          47.000                                                                  
> 2020 05 13 04 47 30.0000000  0 15      -0.000000000000
G24  23597554.195 4 124005983.35724      3044.039          28.000                                                                  
G17  24261885.336 6 127497076.093 6      2742.598          36.000    24261885.250 6  99348330.044 6      2137.084          36.000  
G13  20148131.180 8 105879150.341 8         2.965          51.000    20148129.219 8  82503230.393 8         2.310          49.000  
G28  21028321.453 7 110504603.001 7      -963.535          45.000    21028320.133 7  86107512.545 7      -750.807          45.000  
G05  23183392.820 5 121829562.712 5     -3447.203          35.000    23183393.484 5  94932105.988 5     -2686.136          35.000  
R10  22231546.039 7 118506288.164 7      3394.230          45.000                                                                  
R06  20455146.984 8 109152195.854 8     -3175.012          48.000                                                                  
R09  19639003.219 8 104870882.089 8      1388.660          51.000    19639004.773 8  81566167.449 8      1080.066          51.000  
R07  19373847.539 7 103709354.823 7       847.336          46.000    19373848.203 6  80662824.499 6       659.042          40.000  
E24  22098205.070 8 116126845.776 8      1399.309          51.000    22098218.070 8  88980404.531 8      1072.198          51.000  
E31  24127335.719 8 126790043.346 8     -1361.383          51.000    24127338.289 8  97150840.960 8     -1043.183          51.000  
E09  22062526.555 8 115939333.699 8     -1504.414          51.000    22062527.602 8  88836659.141 8     -1152.745          51.000  
C22  22321843.664 8 116235671.471 8      -321.465          51.000                                                                  
C05  39790690.062 6 207200563.773 6        16.918          36.000    39790688.203 6 160220598.101 6        12.988          39.000  
C19  23671069.508 7 123261480.899 7     -3006.820          45.000                                                                  
> 2020 05 13 04 48  0.0000000  0 14      -0.000000000000
G17  24246240.820 6 127414861.579 6      2738.152          36.000    24246237.273 5  99284266.738 5      2133.623          35.000  
G13  20148153.258 8 105879266.898 8       -10.875          51.000    20148151.711 8  82503321.207 8        -8.477          50.000  
G28  21033869.789 7 110533761.694 7      -980.246          44.000    21033868.711 7  86130233.575 7      -763.828          44.000  
G05  23203084.195 5 121933048.475 5     -3452.465          35.000    23203085.711 5  95012744.280 5     -2690.230          35.000  
R10  22212471.281 7 118404606.907 7      3384.336          45.000                                                                  
R06  20473045.234 7 109247702.342 7     -3192.316          47.000                                                                  
R09  19631250.852 8 104829484.665 8      1371.043          51.000    19631252.430 8  81533969.477 8      1066.370          51.000  
R07  19369165.570 7 103684294.504 7       823.426          45.000    19369166.914 6  80643333.105 6       640.442          41.000  
E24  22090246.578 8 116085023.925 8      1388.746          51.000    22090259.453 8  88948359.217 8      1064.093          51.000  
E31  24135133.906 8 126831022.638 8     -1370.559          51.000    24135136.383 8  97182240.656 8     -1050.184          51.000  
E09  22071143.062 8 115984613.597 8     -1514.348          51.000    22071144.211 8  88871354.100 8     -1160.294          51.000  
C22  22323742.180 8 116245557.578 8      -337.719          51.000                                                                  
C05  39790590.961 6 207200048.060 6        17.465          36.000    39790589.070 6 160220199.302 6        13.429          39.000  
C19  23688413.984 7 123351802.343 7     -3014.652          46.000                                                                  
> 2020 05 13 04 48 30.0000000  0 13      -0.000000000000
G17  24230627.328 5 127332808.542 5      2726.914          33.000    24230617.750 5  99220329.386 5      2124.866          31.000  
G13  20148258.906 8 105879822.292 8       -30.539          51.000    20148257.594 8  82503753.956 8       -23.797          50.000  
G28  21039516.492 7 110563437.102 7     -1002.215          44.000    21039515.609 7  86153357.240 7      -780.947          44.000  
R10  22193456.188 7 118303245.465 7      3368.629          45.000                                                                  
R06  20491044.164 8 109343746.941 8     -3215.105          48.000                                                                  
R09  19623601.758 8 104788637.765 8      1347.633          51.000    19623603.180 8  81502199.668 8      1048.159          51.000  
R07  19364622.977 7 103659977.673 7       793.449          46.000    19364624.266 6  80624420.010 6       617.127          41.000  
E24  22082352.773 8 116043541.974 8      1372.375          51.000    22082365.539 8  88916574.357 8      1051.573          51.000  
E31  24142987.922 8 126872296.003 8     -1385.242          51.000    24142990.328 8  97213865.699 8     -1061.471          51.000  
E09  22079819.812 8 116030212.240 8     -1529.871          51.000    22079821.352 8  88906293.314 8     -1172.296          51.000  
C22  22325738.562 8 116255953.966 8      -359.629          51.000                                                                  
C05  39790493.258 5 207199539.783 5        12.012          35.000    39790491.422 6 160219806.257 6         9.460          38.000  
C19  23705807.672 8 123442373.931 8     -3027.855          48.000                                                                  
> 2020 05 13 04 49  0.0000000  0 14      -0.000000000000
G17  24215047.289 5 127250932.996 5      2728.020          35.000    24215037.062 5  99156530.377 5      2125.724          34.000  
G30  22670302.672 5 119133244.14925     -2620.020          34.000                                                                  
G13  20148450.812 8 105880830.679 8       -39.098          51.000    20148449.438 8  82504539.708 8       -30.466          50.000  
G28  21045264.086 7 110593641.068 7     -1013.590          45.000    21045263.305 7  86176892.769 7      -789.814          44.000  
R10  22174503.359 7 118202217.910 7      3364.078          44.000                                                                  
R06  20509146.055 8 109440340.414 8     -3226.832          49.000                                                                  
R09  19616058.047 8 104748354.976 8      1335.383          51.000    19616059.297 8  81470868.579 8      1038.631          51.000  
R07  19360221.953 7 103636419.912 7       774.652          45.000    19360223.773 7  80606097.285 7       602.504          42.000  
E24  22074526.445 8 116002413.433 8      1367.074          51.000    22074539.430 8  88885060.284 8      1047.493          51.000  
E31  24150900.078 8 126913875.380 8     -1389.047          51.000    24150902.289 8  97245725.211 8     -1064.353          50.000  
E09  22088559.203 8 116076142.595 8     -1534.605          51.000    22088561.336 8  88941486.698 8     -1175.825          51.000  
C22  22327835.641 8 116266873.799 8      -370.707          51.000                                                                  
C05  39790399.641 6 207199051.109 6        18.395          36.000    39790397.773 6 160219429.176 6        13.852          39.000  
C19  23723252.055 8 123533206.978 8     -3030.004          50.000                                                                  
> 2020 05 13 04 49 30.0000000  0 15      -0.000000000000
G17  24199475.469 6 127169102.520 6      2722.273          39.000    24199469.508 6  99092766.400 6      2121.253          38.000  
G30  22685269.086 6 119211891.084 6     -2625.109          39.000    22685286.219 5  92892437.116 5     -2045.550          33.000  
G13  20148703.266 8 105882156.875 8       -53.938          51.000    20148701.695 8  82505573.101 8       -42.029          50.000  
G28  21051086.398 7 110624236.362 7     -1030.996          45.000    21051085.219 7  86200733.252 7      -803.377          43.000  
G05  23262359.930 4 122244525.71824     -3469.934          29.000                                                                  
R10  22155588.570 7 118101388.854 7      3353.129          47.000                                                                  
R06  20527324.328 8 109537341.997 8     -3244.656          49.000                                                                  
R09  19608594.328 8 104708498.182 8      1316.961          51.000    19608595.148 8  81439868.861 8      1024.303          51.000  
R07  19355937.547 7 103613484.850 7       749.590          46.000    19355939.523 7  80588258.913 7       583.014          43.000  
E24  22066741.641 8 115961502.749 8      1355.574          51.000    22066755.023 8  88853713.136 8      1038.687          51.000  
E31  24158844.484 8 126955623.648 8     -1398.891          51.000    24158846.328 8  97277714.123 8     -1071.806          50.000  
E09  22097335.906 8 116122268.620 8     -1545.297          51.000    22097338.570 8  88976830.030 8     -1184.000          51.000  
C22  22330007.281 8 116278182.569 8      -387.797          51.000                                                                  
C05  39790284.172 5 207198450.519 5        17.086          35.000    39790282.203 6 160218963.966 6        13.399          39.000  
C19  23740720.641 8 123624165.015 8     -3038.379          51.000                                                                  
> 2020 05 13 04 50  0.0000000  0 15      -0.000000000000
G17  24183965.703 6 127087595.224 6      2715.070          38.000    24183960.219 6  99029254.125 6      2115.640          38.000  
G30  22700299.820 5 119290845.860 5     -2632.660          32.000    22700305.203 5  92953937.614 5     -2051.421          33.000  
G13  20149068.703 8 105884076.739 8       -70.645          51.000    20149067.047 8  82507069.105 8       -55.048          50.000  
G28  21057035.227 7 110655496.392 7     -1049.840          47.000    21057033.688 7  86225091.721 7      -818.057          43.000  
G05  23282199.898 5 122348785.16725     -3477.578          30.000    23282198.430 5  95336707.87725     -2709.805          30.000  
R10  22136764.391 7 118001038.184 7      3340.387          47.000                                                                  
R06  20545630.914 8 109635028.994 8     -3264.184          48.000                                                                  
R09  19601262.781 8 104669346.655 8      1296.656          51.000    19601263.297 8  81409417.692 8      1008.511          50.000  
R07  19351821.805 7 103591454.381 7       722.398          46.000    19351824.594 7  80571124.097 7       561.866          44.000  
E24  22059050.469 8 115921085.170 8      1342.332          51.000    22059064.078 8  88822743.825 8      1028.526          51.000  
E31  24166873.086 8 126997814.583 8     -1410.453          51.000    24166874.852 8  97310042.240 8     -1080.764          49.000  
E09  22106202.672 8 116168865.140 8     -1557.715          51.000    22106205.281 8  89012533.857 8     -1193.604          51.000  
C22  22332305.969 8 116290152.845 8      -406.805          51.000                                                                  
C05  39790199.180 5 207198007.528 5        15.453          35.000    39790197.117 6 160218621.417 6        12.170          39.000  
C19  23758265.047 8 123715518.715 8     -3048.379          51.000                                                                  
> 2020 05 13 04 50 30.0000000  0 15      -0.000000000000
G17  24168465.625 6 127006140.219 6      2712.359          37.000    24168460.578 6  98965782.707 6      2113.531          36.000  
G30  22715320.656 5 119369784.075 5     -2633.332          34.000    22715326.195 5  93015447.735 5     -2051.948          31.000  
G13  20149495.109 8 105886317.083 8       -82.047          51.000    20149493.391 8  82508814.823 8       -63.933          50.000  
G28  21063058.227 7 110687146.157 7     -1063.602          47.000    21063056.297 7  86249753.852 7      -828.781          42.000  
G05  23302052.383 6 122453107.231 6     -3480.148          36.000    23302050.039 5  95417997.585 5     -2711.808          35.000  
R10  22117977.945 7 117900890.252 7      3332.883          44.000                                                                  
R06  20564013.000 7 109733119.361 7     -3278.535          46.000                                                                  
R09  19594010.789 8 104630622.465 8      1281.555          51.000    19594011.289 8  81379298.875 8       996.765          50.000  
R07  19347823.578 7 103570051.847 7       700.785          47.000    19347826.516 7  80554477.662 7       545.055          44.000  
E24  22051400.977 8 115880887.179 8      1334.258          51.000    22051414.320 8  88791942.757 8      1022.387          51.000  
E31  24174933.453 8 127040173.086 8     -1416.773          51.000    24174935.648 8  97342498.760 8     -1085.559          49.000  
E09  22115107.148 8 116215658.144 8     -1565.172          51.000    22115109.398 8  89048388.200 8     -1199.189          51.000  
C22  22334679.789 8 116302513.381 8      -420.555          51.000                                                                  
C05  39790092.539 5 207197452.011 5        18.508          35.000    39790090.453 6 160218191.852 6        14.408          38.000  
C19  23775832.555 8 123806994.940 8     -3053.262          51.000                                                                  
> 2020 05 13 04 51  0.0000000  0 14      -0.000000000000
G17  24153002.555 6 126924883.132 6      2705.691          36.000    24152997.703 6  98902465.522 6      2108.332          37.000  
G13  20150009.812 8 105889021.838 8       -97.789          50.000    20150008.180 8  82510922.426 8       -76.199          50.000  
G28  21069182.172 8 110719326.798 8     -1081.277          48.000    21069179.859 6  86274829.692 6      -842.554          41.000  
G05  23321942.008 6 122557625.478 6     -3487.188          38.000    23321939.039 5  95499440.179 5     -2717.296          33.000  
R10  22099253.727 6 117801090.640 6      3320.652          38.000                                                                  
R06  20582496.562 7 109831755.770 7     -3296.766          43.000                                                                  
R09  19586865.812 8 104592470.104 8      1262.320          51.000    19586866.688 8  81349624.825 8       981.805          50.000  
R07  19343970.367 7 103549424.350 7       674.848          46.000    19343972.938 7  80538434.042 7       524.882          44.000  
E24  22043820.406 8 115841051.532 8      1321.969          51.000    22043833.453 8  88761419.329 8      1012.986          51.000  
E31  24183052.820 8 127082840.420 8     -1427.246          51.000    24183055.219 8  97375191.904 8     -1093.536          49.000  
E09  22124076.039 8 116262789.905 8     -1576.543          51.000    22124078.359 8  89084502.103 8     -1207.947          51.000  
C22  22337155.703 8 116315405.462 8      -438.418          51.000                                                                  
C05  39789991.406 6 207196926.253 6        17.172          36.000    39789989.320 6 160217784.546 6        13.197          39.000  
C19  23793449.703 8 123898733.083 8     -3062.098          49.000                                                                  
> 2020 05 13 04 51 30.0000000  0 14      -0.000000000000
G17  24137572.086 6 126843799.715 6      2699.859          37.000    24137566.711 6  98839283.597 6      2103.784          36.000  
G13  20150607.547 8 105892163.220 8      -111.797          50.000    20150606.016 8  82513370.255 8       -87.114          50.000  
G28  21075401.578 8 110752009.139 8     -1097.566          48.000    21075399.312 6  86300296.425 6      -855.247          41.000  
G05  23341862.836 6 122662308.935 6     -3491.840          41.000    23341862.039 6  95581011.542 6     -2720.918          40.000  
R10  22080590.266 7 117701612.605 7      3310.781          42.000                                                                  
R06  20601075.844 7 109930907.164 7     -3313.480          43.000                                                                  
R09  19579822.969 8 104554861.803 8      1244.781          51.000    19579824.141 8  81320373.944 8       968.163          50.000  
R07  19340257.289 7 103529545.581 7       650.355          47.000    19340259.406 7  80522972.767 7       505.832          45.000  
E24  22036303.508 8 115801550.805 8      1311.285          51.000    22036316.555 8  88731152.554 8      1004.746          51.000  
E31  24191225.578 8 127125787.680 8     -1436.000          51.000    24191227.453 8  97408099.545 8     -1100.363          48.000  
E09  22133104.156 8 116310232.522 8     -1586.387          51.000    22133106.695 8  89120854.211 8     -1215.550          51.000  
C22  22339728.570 8 116328801.683 8      -454.766          51.000                                                                  
C05  39789890.578 6 207196400.930 6        17.363          36.000    39789888.500 6 160217378.295 6        13.710          38.000  
C19  23811110.609 7 123990703.884 7     -3069.352          47.000                                                                  
> 2020 05 13 04 52  0.0000000  0 14      -0.000000000000
G17  24122173.242 6 126762881.378 6      2693.957          36.000    24122168.500 6  98776230.363 6      2099.191          37.000  
G13  20151286.438 8 105895731.171 8      -126.414          49.000    20151284.906 8  82516150.492 8       -98.504          49.000  
G28  21081713.891 8 110785180.344 8     -1113.969          48.000    21081711.781 6  86326144.134 6      -868.028          40.000  
G05  23361812.102 6 122767143.688 6     -3496.953          41.000    23361811.719 6  95662700.896 6     -2724.902          40.000  
R10  22061988.156 7 117602446.707 7      3300.035          45.000                                                                  
R06  20619750.141 7 110030559.737 7     -3330.438          44.000                                                                  
R09  19572879.430 8 104517785.718 8      1226.738          51.000    19572880.656 8  81291537.007 8       954.130          49.000  
R07  19336682.328 8 103510406.066 8       625.398          48.000    19336684.039 7  80508086.481 7       486.421          45.000  
E24  22028848.250 8 115762373.949 8      1300.301          51.000    22028861.094 8  88701133.944 8       996.353          51.000  
E31  24199449.031 8 127169002.297 8     -1445.148          51.000    24199450.383 8  97441212.036 8     -1107.334          48.000  
E09  22142189.336 8 116357974.429 8     -1596.578          51.000    22142192.359 8  89157435.664 8     -1223.356          51.000  
C22  22342396.008 8 116342690.830 8      -471.391          51.000                                                                  
C05  39789787.898 6 207195865.917 6        17.617          36.000    39789785.734 6 160216964.601 6        13.837          39.000  
C19  23828813.383 7 124082894.358 7     -3076.848          47.000                                                                  
> 2020 05 13 04 52 30.0000000  0 14      -0.000000000000
G17  24106809.078 6 126682142.646 6      2688.766          39.000    24106806.023 6  98713317.140 6      2095.146          40.000  
G13  20152048.781 8 105899737.884 8      -140.422          49.000    20152047.344 8  82519272.606 8      -109.420          49.000  
G28  21088121.188 8 110818850.568 8     -1130.270          48.000    21088119.359 6  86352380.659 6      -880.730          40.000  
G05  23381791.656 7 122872138.199 7     -3501.992          43.000    23381790.883 6  95744514.770 6     -2728.826          39.000  
R10  22043447.562 7 117503605.651 7      3289.789          46.000                                                                  
R06  20638520.367 7 110130721.604 7     -3346.781          44.000                                                                  
R09  19566038.336 8 104481253.350 8      1209.090          51.000    19566039.086 8  81263122.945 8       940.403          49.000  
R07  19333247.719 8 103492018.947 8       600.672          49.000    19333248.859 7  80493785.391 7       467.189          45.000  
E24  22021456.914 8 115723532.519 8      1289.422          51.000    22021469.258 8  88671372.327 8       988.026          51.000  
E31  24207725.180 8 127212494.282 8     -1453.977          51.000    24207726.797 8  97474537.057 8     -1114.155          49.000  
E09  22151333.703 8 116406026.689 8     -1606.582          51.000    22151336.812 8  89194254.928 8     -1231.048          51.000  
C22  22345159.734 8 116357084.085 8      -487.777          51.000                                                                  
C05  39789685.391 6 207195332.495 6        17.395          36.000    39789683.344 6 160216552.143 6        14.012          39.000  
C19  23846560.789 7 124175313.838 7     -3084.074          47.000                                                                  
> 2020 05 13 04 53  0.0000000  0 14      -0.000000000000
G17  24091479.164 6 126601582.516 6      2682.703          41.000    24091477.773 6  98650543.043 6      2090.419          41.000  
G13  20152893.938 8 105904179.556 8      -155.230          49.000    20152892.594 8  82522733.662 8      -120.956          49.000  
G28  21094622.188 8 110853013.594 8     -1146.621          48.000    21094620.789 6  86379001.202 6      -893.471          40.000  
G05  23401800.367 7 122977285.151 7     -3507.277          43.000    23401798.367 6  95826447.440 6     -2732.944          38.000  
R10  22024966.953 7 117405086.699 7      3278.801          45.000                                                                  
R06  20657385.000 7 110231385.872 7     -3363.629          44.000                                                                  
R09  19559298.258 8 104445259.969 8      1190.918          51.000    19559298.789 8  81235128.102 8       926.270          50.000  
R07  19329952.953 8 103474381.710 8       575.613          48.000    19329954.047 7  80480067.544 7       447.699          45.000  
E24  22014128.312 8 115685022.298 8      1278.328          51.000    22014140.672 8  88641864.499 8       979.520          51.000  
E31  24216053.125 8 127256257.963 8     -1463.109          51.000    24216055.180 8  97508070.256 8     -1121.078          49.000  
E09  22160536.289 8 116454384.657 8     -1616.863          51.000    22160539.148 8  89231308.434 8     -1238.881          51.000  
C22  22348019.352 8 116371977.069 8      -504.605          51.000                                                                  
C05  39789582.477 6 207194796.404 6        18.371          36.000    39789580.375 6 160216137.627 6        13.970          39.000  
C19  23864351.688 8 124267956.147 8     -3091.617          48.000                                                                  
> 2020 05 13 04 53 30.0000000  0 14      -0.000000000000
G17  24076185.250 7 126521210.695 7      2676.062          42.000    24076185.062 6  98587915.682 6      2085.244          41.000  
G13  20153823.438 8 105909064.268 8      -169.953          50.000    20153822.219 8  82526539.935 8      -132.431          50.000  
G28  21101218.047 8 110887675.195 8     -1163.477          48.000    21101216.695 6  86406010.237 6      -906.605          39.000  
G05  23421839.172 7 123082589.057 7     -3512.535          44.000    23421832.562 6  95908502.318 6     -2737.047          39.000  
R10  22006546.539 7 117306898.527 7      3267.395          44.000                                                                  
R06  20676345.023 7 110332556.782 7     -3380.660          45.000                                                                  
R09  19552660.195 8 104409812.919 8      1172.672          51.000    19552660.969 8  81207558.182 8       912.078          50.000  
R07  19326800.086 8 103457503.490 8       550.098          49.000    19326801.141 7  80466940.028 7       427.854          46.000  
E24  22006863.984 8 115646850.677 8      1266.855          51.000    22006877.070 8  88612616.142 8       970.732          51.000  
E31  24224433.789 8 127300299.263 8     -1472.492          50.000    24224435.938 8  97541816.181 8     -1128.328          49.000  
E09  22169798.328 8 116503055.251 8     -1627.449          51.000    22169800.844 8  89268601.481 8     -1246.989          51.000  
C22  22350976.383 8 116387376.841 8      -521.633          51.000                                                                  
C05  39789480.438 5 207194264.900 5        17.484          35.000    39789478.312 6 160215726.601 6        13.834          39.000  
C19  23882187.016 8 124360826.549 8     -3099.320          49.000                                                                  
> 2020 05 13 04 54  0.0000000  0 14      -0.000000000000
G17  24060925.773 6 126441020.750 6      2669.785          41.000    24060925.484 6  98525430.018 6      2080.356          41.000  
G13  20154835.578 8 105914383.462 8      -184.848          50.000    20154834.539 8  82530684.753 8      -144.037          50.000  
G28  21107906.586 7 110922824.100 7     -1179.758          47.000    21107904.711 6  86433398.994 6      -919.292          38.000  
G05  23441905.703 7 123188037.215 7     -3517.562          44.000    23441895.547 6  95990669.636 6     -2740.959          39.000  
R10  21988186.359 7 117209032.173 7      3256.590          45.000                                                                  
R06  20695397.828 7 110434221.902 7     -3397.223          47.000                                                                  
R09  19546122.695 8 104374902.153 8      1154.535          51.000    19546123.328 8  81180405.361 8       897.969          50.000  
R07  19323787.234 8 103441376.033 8       524.797          49.000    19323788.258 7  80454396.447 7       408.175          46.000  
E24  21999663.070 8 115609008.238 8      1255.785          51.000    21999676.328 8  88583619.991 8       962.217          51.000  
E31  24232865.250 8 127344607.211 8     -1481.520          50.000    24232867.391 8  97575766.415 8     -1135.179          50.000  
E09  22179118.047 8 116552028.528 8     -1637.637          51.000    22179120.039 8  89306126.441 8     -1254.780          51.000  
C22  22354029.188 8 116403273.754 8      -538.371          51.000                                                                  
C05  39789377.398 6 207193728.427 6        17.926          36.000    39789375.281 6 160215311.778 6        13.819          39.000  
C19  23900064.102 8 124453913.601 8     -3106.699          49.000                                                                  
> 2020 05 13 04 54 30.0000000  0 15      -0.000000000000
G17  24045701.477 6 126361018.842 6      2663.793          39.000    24045701.609 6  98463090.887 6      2075.687          40.000  
G30  22836442.633 5 120006315.71925     -2669.473          31.000                                                                  
G13  20155931.062 8 105920140.195 8      -198.926          50.000    20155930.070 8  82535170.505 8      -155.010          50.000  
G28  21114688.141 8 110958461.914 8     -1195.707          48.000    21114686.453 6  86461168.741 6      -931.717          38.000  
G05  23461999.859 7 123293630.399 7     -3522.000          44.000    23461988.453 6  96072949.965 6     -2744.419          39.000  
R10  21969887.938 7 117111492.376 7      3246.121          45.000                                                                  
R06  20714543.117 8 110536381.214 8     -3413.203          48.000                                                                  
R09  19539685.891 8 104340530.632 8      1137.000          51.000    19539686.492 8  81153671.962 8       884.337          49.000  
R07  19320915.633 8 103426004.135 8       500.031          49.000    19320916.609 7  80442440.525 7       388.913          46.000  
E24  21992525.594 8 115571498.062 8      1245.086          51.000    21992538.641 8  88554878.398 8       954.039          51.000  
E31  24241347.914 8 127389183.447 8     -1490.023          50.000    24241350.391 8  97609922.218 8     -1141.683          50.000  
E09  22188495.703 8 116601307.112 8     -1647.430          51.000    22188497.273 8  89343885.317 8     -1262.275          51.000  
C22  22357178.211 8 116419670.579 8      -554.648          51.000                                                                  
C05  39789273.992 6 207193189.966 6        18.551          36.000    39789271.766 6 160214895.435 6        14.188          39.000  
C19  23917982.812 8 124547218.318 8     -3113.504          49.000                                                                  
> 2020 05 13 04 55  0.0000000  0 16      -0.000000000000
G24  23339875.727 5 122651873.85925      2972.500          32.000                                                                  
G17  24030513.016 6 126281206.254 6      2657.000          38.000    24030513.953 6  98400899.286 6      2070.390          38.000  
G30  22851717.180 5 120086582.203 5     -2674.355          32.000                                                                  
G13  20157109.859 8 105926333.860 8      -213.832          51.000    20157108.602 8  82539996.727 8      -166.622          51.000  
G28  21121562.305 8 110994585.317 8     -1212.070          48.000    21121561.242 6  86489316.850 6      -944.471          36.000  
G05  23482120.492 7 123399363.765 7     -3526.883          44.000    23482109.266 6  96155339.579 6     -2748.224          41.000  
R10  21951650.648 7 117014279.419 7      3234.809          44.000                                                                  
R06  20733779.688 7 110639030.494 7     -3429.871          47.000                                                                  
R09  19533349.594 8 104306696.195 8      1118.883          51.000    19533350.406 8  81127356.300 8       870.242          50.000  
R07  19318185.250 8 103411387.696 8       474.531          50.000    19318186.438 7  80431072.169 7       369.080          46.000  
E24  21985450.633 8 115534318.565 8      1233.773          51.000    21985463.648 8  88526390.200 8       945.395          51.000  
E31  24249881.102 8 127434024.972 8     -1499.199          51.000    24249883.945 8  97644281.293 8     -1148.627          51.000  
E09  22197930.922 8 116650888.980 8     -1657.801          51.000    22197932.430 8  89381876.574 8     -1270.273          51.000  
C22  22360422.781 8 116436565.537 8      -571.480          51.000                                                                  
C05  39789169.898 6 207192647.968 6        17.707          36.000    39789167.672 6 160214476.289 6        13.982          39.000  
C19  23935942.133 7 124640737.092 7     -3120.871          47.000                                                                  
> 2020 05 13 04 55 30.0000000  0 15      -0.000000000000
G24  23322930.117 5 122562824.02225      2969.484          32.000                                                                  
G17  24015361.289 5 126201587.881 5      2653.344          35.000    24015363.359 5  98338859.055 5      2067.544          34.000  
G13  20158372.195 8 105932966.656 8      -226.090          51.000    20158370.586 8  82545165.128 8      -176.177          50.000  
G28  21128528.898 7 111031194.417 7     -1226.043          47.000    21128527.656 6  86517843.453 6      -955.358          37.000  
G05  23502267.297 7 123505235.926 7     -3529.043          43.000    23502257.938 7  96237837.330 7     -2749.907          42.000  
R10  21933474.367 7 116917396.108 7      3226.266          44.000                                                                  
R06  20753107.023 7 110742168.088 7     -3443.691          44.000                                                                  
R09  19527114.359 8 104273400.738 8      1103.277          51.000    19527115.430 8  81101459.829 8       858.105          50.000  
R07  19315596.523 8 103397530.534 8       451.590          50.000    19315597.727 7  80420294.360 7       351.234          46.000  
E24  21978438.961 8 115497471.860 8      1225.102          51.000    21978452.023 8  88498157.021 8       938.757          51.000  
E31  24258464.898 8 127479132.436 8     -1505.625          51.000    24258467.750 8  97678844.152 8     -1153.587          51.000  
E09  22207424.211 8 116700775.753 8     -1665.562          51.000    22207425.570 8  89420101.452 8     -1276.214          51.000  
C22  22363763.188 8 116453960.402 8      -585.789          51.000                                                                  
C05  39789065.578 5 207192104.318 5        20.148          35.000    39789063.188 6 160214055.902 6        15.858          39.000  
C19  23953941.711 7 124734469.979 7     -3125.578          45.000                                                                  
> 2020 05 13 04 56  0.0000000  0 15      -0.000000000000
G15  20672816.844 4 108636384.78224      1428.996          28.000                                                                  
G17  24000247.195 5 126122166.072 5      2643.629          34.000    24000250.430 5  98276971.927 5      2059.974          34.000  
G13  20159718.062 8 105940038.330 8      -243.160          51.000    20159715.969 8  82550675.511 8      -189.476          50.000  
G28  21135587.547 7 111068287.031 7     -1244.551          47.000    21135585.875 5  86546746.808 5      -969.777          35.000  
G05  23522439.430 6 123611243.465 6     -3535.707          41.000    23522432.156 6  96320440.546 6     -2755.100          41.000  
R10  21915360.523 7 116820842.191 7      3212.785          47.000                                                                  
R06  20772524.289 7 110845790.256 7     -3462.223          42.000                                                                  
R09  19520979.570 8 104240642.777 8      1082.883          51.000    19520980.781 8  81075981.423 8       842.242          50.000  
R07  19313150.141 8 103384432.636 8       423.812          51.000    19313150.781 7  80410107.106 7       329.632          47.000  
E24  21971490.953 8 115460956.997 8      1211.504          51.000    21971503.703 8  88470178.086 8       928.290          51.000  
E31  24267098.859 8 127524503.340 8     -1516.781          50.000    24267101.609 8  97713608.860 8     -1162.252          51.000  
E09  22216975.336 8 116750965.947 8     -1678.176          51.000    22216976.438 8  89458558.839 8     -1285.879          51.000  
C22  22367199.172 8 116471853.862 8      -604.816          51.000                                                                  
C05  39788960.641 6 207191559.002 6        18.188          36.000    39788958.273 6 160213633.474 6        13.922          39.000  
C19  23971981.547 7 124828413.957 7     -3134.961          45.000                                                                  
> 2020 05 13 04 56 30.0000000  0 15      -0.000000000000
G17  23985172.062 5 126042946.500 5      2636.848          34.000    23985175.852 5  98215242.408 5      2054.684          33.000  
G30  22897599.023 5 120327694.77525     -2686.816          32.000                                                                  
G13  20161148.188 8 105947553.085 8      -258.410          51.000    20161145.945 8  82556531.142 8      -201.359          50.000  
G28  21142738.336 7 111105864.052 7     -1260.883          45.000    21142736.734 6  86576027.614 6      -982.503          37.000  
G05  23542636.758 6 123717387.399 6     -3541.258          38.000    23542632.055 6  96403150.046 6     -2759.426          38.000  
R10  21897310.570 8 116724623.010 8      3201.195          48.000                                                                  
R06  20792033.352 7 110949897.567 7     -3478.883          44.000                                                                  
R09  19514946.438 8 104208425.601 8      1064.320          51.000    19514947.453 8  81050923.607 8       827.805          51.000  
R07  19310846.195 8 103372099.272 8       397.867          50.000    19310846.805 7  80400514.500 7       309.452          47.000  
E24  21964606.781 8 115424777.474 8      1199.938          51.000    21964619.125 8  88442456.104 8       919.421          51.000  
E31  24275783.359 8 127570139.844 8     -1526.109          51.000    24275786.125 8  97748577.075 8     -1169.348          51.000  
E09  22226584.781 8 116801462.602 8     -1688.742          51.000    22226585.719 8  89497251.061 8     -1293.978          51.000  
C22  22370731.547 8 116490249.125 8      -622.004          51.000                                                                  
C05  39788855.930 6 207191013.460 6        17.855          36.000    39788853.594 6 160213211.640 6        13.490          39.000  
C19  23990062.992 7 124922570.547 7     -3142.668          45.000                                                                  
> 2020 05 13 04 57  0.0000000  0 14      -0.000000000000
G17  23970138.938 5 125963944.085 5      2630.137          35.000    23970141.742 5  98153682.077 5      2049.458          35.000  
G13  20162664.734 8 105955522.482 8      -273.234          51.000    20162662.570 8  82562741.048 8      -212.910          49.000  
G28  21149983.008 7 111143935.632 7     -1277.438          45.000    21149981.680 6  86605693.832 6      -995.403          38.000  
G05  23562860.508 5 123823675.271 5     -3545.785          33.000    23562858.594 5  96485971.717 5     -2762.956          33.000  
R10  21879325.844 8 116628750.973 8      3189.898          48.000                                                                  
R06  20811636.062 7 111054498.030 7     -3494.809          46.000                                                                  
R09  19509016.383 8 104176759.815 8      1046.289          51.000    19509017.383 8  81026294.683 8       813.784          50.000  
R07  19308687.305 8 103360543.053 8       372.258          50.000    19308688.219 8  80391526.327 8       289.534          48.000  
E24  21957787.953 8 115388944.219 8      1188.699          51.000    21957800.141 8  88414999.463 8       910.828          51.000  
E31  24284520.102 8 127616051.395 8     -1534.930          51.000    24284522.859 8  97783756.050 8     -1176.110          51.000  
E09  22236253.992 8 116852276.229 8     -1699.039          51.000    22236255.227 8  89536186.168 8     -1301.868          51.000  
C22  22374362.484 8 116509156.697 8      -638.750          51.000                                                                  
C05  39788753.305 6 207190478.482 6        17.684          36.000    39788751.055 6 160212798.722 6        13.602          39.000  
C19  24008187.375 7 125016948.540 7     -3149.531          45.000                                                                  
> 2020 05 13 04 57 30.0000000  0 15      -0.000000000000
G17  23955144.508 6 125885146.239 6      2623.215          36.000    23955145.852 6  98092281.198 6      2044.064          37.000  
G30  22928329.320 5 120489186.59525     -2695.387          33.000                                                                  
G13  20164265.117 8 105963932.769 8      -287.703          51.000    20164263.055 8  82569294.492 8      -224.187          49.000  
G28  21157318.648 7 111182484.835 7     -1292.344          44.000    21157316.516 6  86635732.151 6     -1007.021          38.000  
G05  23583107.906 5 123930088.877 5     -3549.695          32.000    23583109.539 5  96568891.429 5     -2766.003          31.000  
R10  21861403.086 7 116533212.008 7      3179.246          47.000                                                                  
R06  20831328.008 7 111159573.391 7     -3510.137          47.000                                                                  
R09  19503186.672 8 104145629.961 8      1028.820          51.000    19503187.539 8  81002082.576 8       800.194          49.000  
R07  19306671.109 8 103349750.073 8       347.145          51.000    19306672.180 8  80383131.786 8       270.001          48.000  
E24  21951031.953 8 115353442.428 8      1178.027          51.000    21951044.062 8  88387796.802 8       902.678          51.000  
E31  24293306.172 8 127662221.801 8     -1543.145          51.000    24293308.758 8  97819133.352 8     -1182.428          51.000  
E09  22245979.656 8 116903391.494 8     -1708.723          49.000    22245981.914 8  89575352.420 8     -1309.294          51.000  
C22  22378089.148 8 116528561.586 8      -654.957          51.000                                                                  
C05  39788650.180 6 207189941.344 6        18.141          36.000    39788647.898 6 160212383.380 6        13.762          39.000  
C19  24026350.781 7 125111531.225 7     -3156.156          44.000                                                                  
> 2020 05 13 04 58  0.0000000  0 15      -0.000000000000
G17  23940187.312 5 125806543.900 5      2616.789          32.000    23940186.945 5  98031032.706 5      2039.060          32.000  
G13  20165946.984 8 105972771.328 8      -301.660          51.000    20165945.023 8  82576181.665 8      -235.060          48.000  
G28  21164742.477 7 111221497.882 7     -1307.754          44.000    21164739.773 6  86666131.938 6     -1019.029          39.000  
G05  23603377.719 5 124036614.120 5     -3552.301          31.000    23603382.211 5  96651898.115 5     -2768.027          31.000  
R10  21843540.711 8 116437995.053 8      3168.668          48.000                                                                  
R06  20851106.039 7 111265108.545 7     -3525.332          47.000                                                                  
R09  19497454.781 8 104115023.375 8      1011.578          50.000    19497455.898 8  80978277.435 8       786.783          49.000  
R07  19304795.312 8 103339709.551 8       322.145          50.000    19304796.555 8  80375322.497 8       250.557          48.000  
E24  21944336.875 8 115318260.004 8      1167.523          51.000    21944349.023 8  88360838.841 8       894.572          51.000  
E25  27393171.211 6 143952087.014 6      2838.254          40.000    27393169.516 6 110300943.097 6      2174.707          36.000  
E31  24302138.945 8 127708637.486 8     -1551.238          51.000    24302141.406 8  97854698.596 8     -1188.546          51.000  
E09  22255760.141 8 116954795.800 8     -1718.184          49.000    22255763.680 8  89614740.174 8     -1316.540          51.000  
C22  22381909.156 8 116548451.434 8      -671.035          51.000                                                                  
C05  39788544.180 6 207189389.989 6        18.871          36.000    39788541.844 6 160211956.244 6        14.450          38.000  
C19  24044550.719 7 125206304.505 7     -3162.316          43.000                                                                  
> 2020 05 13 04 58 30.0000000  0 14      -0.000000000000
G13  20167717.070 8 105982073.402 8      -316.969          51.000    20167714.969 8  82583430.015 8      -246.992          49.000  
G28  21172260.922 7 111261007.423 7     -1324.410          43.000    21172258.508 6  86696918.558 6     -1032.008          39.000  
G05  23623675.484 5 124143251.74025     -3557.203          30.000    23623681.477 5  96735024.56525     -2771.854          31.000  
R10  21825746.000 8 116343136.585 8      3156.914          49.000                                                                  
R06  20870975.938 7 111371134.868 7     -3541.539          47.000                                                                  
R09  19491827.633 8 104084974.562 8       993.188          51.000    19491828.719 8  80954906.136 8       772.479          49.000  
R07  19303066.781 8 103330457.751 8       296.094          50.000    19303068.227 8  80368126.643 8       230.295          48.000  
E24  21937708.953 8 115283431.356 8      1155.879          51.000    21937721.555 8  88334151.957 8       885.698          51.000  
E25  27376984.641 6 143867031.165 6      2833.691          41.000    27376981.453 6 110235770.499 6      2171.355          37.000  
E31  24311024.586 8 127755331.479 8     -1560.207          51.000    24311026.836 8  97890477.096 8     -1195.481          51.000  
E09  22265602.938 8 117006523.146 8     -1728.742          50.000    22265607.234 8  89654375.443 8     -1324.621          51.000  
C22  22385828.562 8 116568860.035 8      -688.023          51.000                                                                  
C05  39788441.773 6 207188856.471 6        18.742          36.000    39788439.391 6 160211543.704 6        14.100          38.000  
C19  24062793.156 6 125301300.547 6     -3169.316          41.000                                                                  
> 2020 05 13 04 59  0.0000000  0 14      -0.000000000000
G13  20169567.664 8 105991798.477 8      -331.195          51.000    20169565.305 8  82591007.989 8      -258.074          48.000  
G28  21179865.602 6 111300970.074 6     -1339.785          40.000    21179863.320 6  86728058.300 6     -1043.989          39.000  
G05  23643992.852 5 124250017.528 5     -3560.555          31.000    23643998.703 4  96818218.538 4     -2774.459          29.000  
R10  21808010.609 8 116248595.375 8      3145.949          48.000                                                                  
R06  20890929.516 8 111477607.837 8     -3556.680          48.000                                                                  
R09  19486297.305 8 104055441.015 8       975.875          51.000    19486298.203 8  80931935.602 8       759.014          49.000  
R07  19301477.977 8 103321953.655 8       270.863          51.000    19301479.977 8  80361512.337 8       210.671          49.000  
E24  21931140.422 8 115248915.082 8      1145.219          51.000    21931153.680 8  88307704.444 8       877.509          51.000  
E25  27360817.711 6 143782078.020 6      2830.141          40.000    27360813.758 6 110170676.592 6      2168.404          37.000  
E31  24319954.922 8 127802260.978 8     -1568.363          51.000    24319956.875 8  97926436.043 8     -1201.749          51.000  
E09  22275500.148 8 117058531.716 8     -1738.441          51.000    22275504.500 8  89694226.169 8     -1332.062          51.000  
C22  22389839.625 8 116589745.958 8      -704.215          51.000                                                                  
C05  39788334.953 6 207188300.820 6        18.719          36.000    39788332.750 6 160211114.044 6        14.203          39.000  
C19  24081070.641 7 125396476.304 7     -3175.500          42.000                                                                  
> 2020 05 13 04 59 30.0000000  0 14      -0.000000000000
G13  20171501.141 8 106001959.078 8      -345.508          51.000    20171498.867 8  82598925.336 8      -269.227          49.000  
G28  21187558.383 6 111341396.251 6     -1354.516          41.000    21187556.523 6  86759559.178 6     -1055.470          40.000  
G05  23664331.125 5 124356891.586 5     -3563.684          33.000    23664335.797 5  96901496.879 5     -2776.903          34.000  
R10  21790336.500 8 116154385.016 8      3135.336          48.000                                                                  
R06  20910968.141 7 111584535.948 7     -3571.316          47.000                                                                  
R09  19480865.266 8 104026434.516 8       958.688          51.000    19480866.398 8  80909374.994 8       745.646          49.000  
R07  19300031.672 8 103314211.169 8       245.848          51.000    19300033.625 8  80355490.392 8       191.215          48.000  
E24  21924633.984 8 115214723.235 8      1134.719          51.000    21924647.617 8  88281505.496 8       869.475          51.000  
E25  27344673.125 6 143697240.427 6      2826.594          41.000    27344668.469 6 110105671.207 6      2165.677          37.000  
E31  24328932.094 8 127849436.606 8     -1576.211          51.000    24328934.000 8  97962583.581 8     -1207.780          51.000  
E09  22285453.445 8 117110833.011 8     -1747.828          51.000    22285457.352 8  89734301.181 8     -1339.219          51.000  
C22  22393944.312 8 116611120.756 8      -720.137          51.000                                                                  
C05  39788226.297 6 207187733.841 6        19.699          36.000    39788224.039 6 160210676.391 6        14.934          39.000  
C19  24099385.547 7 125491841.767 7     -3181.527          43.000                                                                  
