     3.02           OBSERVATION DATA    M (MIXED)           RINEX VERSION / TYPE
SAVERINEX           SC600               20200508 155931 LCL PGM / RUN BY / DATE
       G = GPS       R = GLONASS       C = COMPASS          COMMENT
       S = SBAS      J = QZSS          E = GALILEO          COMMENT
BEAN                                                        MARKER NAME
1                                                           MARKER NUMBER
GEODETIC                                                    MARKER TYPE
Unige DICCA         GTER                                    OBSERVER / AGENCY
SC60291900056       SC600               2.12(191226)        REC # / TYPE / VERS
                    HEMA45          NONE                    ANT # / TYPE
  4509407.8091   693652.4678  4442337.6214                  APPROX POSITION XYZ
        0.0000        0.0000        0.0000                  ANTENNA: DELTA H/E/N
G    8 C1C L1C D1C S1C C2Y L2Y D2Y S2Y                      SYS / # / OBS TYPES
R    8 C1C L1C D1C S1C C2P L2P D2P S2P                      SYS / # / OBS TYPES
C    8 C1I L1I D1I S1I C7I L7I D7I S7I                      SYS / # / OBS TYPES
E    8 C1C L1C D1C S1C C7Q L7Q D7Q S7Q                      SYS / # / OBS TYPES
DBHZ                                                        COMMENT
     30.000                                                 INTERVAL
  2020    05    08    13    00    0.0000000     GPS         TIME OF FIRST OBS
  2020    05    08    13    59   30.0000000     GPS         TIME OF LAST OBS
     0                                                      RCV CLOCK OFFS APPL
G L1C  0.00000                                              SYS / PHASE SHIFT
G L2Y  0.00000                                              SYS / PHASE SHIFT
R L1C  0.00000                                              SYS / PHASE SHIFT
R L2P  0.25000                                              SYS / PHASE SHIFT
C L1I  0.00000                                              SYS / PHASE SHIFT
C L7I  0.00000                                              SYS / PHASE SHIFT
E L1C  0.50000                                              SYS / PHASE SHIFT
E L7Q -0.25000                                              SYS / PHASE SHIFT
 12 R01  1 R02 -4 R03  5 R04  6 R10 -5 R13 -2 R14 -7 R15  0 GLONASS SLOT / FRQ #
    R16 -1 R17  4 R18 -3 R19  3                             GLONASS SLOT / FRQ #
 C1C   71.950 C2C   71.950 C2P   71.950                     GLONASS COD/PHS/BIS
    18                                                      LEAP SECONDS
*** Above antenna height is from mark to ANTENNA BOTTOM.    COMMENT
    17     4        0.0000        ANT MEASURE TYPE/HEIGT    COMMENT
    0.0000    0.0000    0.0458    0.0405    0.0000          COMMENT
                    BASE STATION                            COMMENT
                                                            END OF HEADER
> 2020 05 08 13 00  0.0000000  0 14        .000000000000
G18  20656454.625 8 108550437.566 8      1467.605          48.000    20656455.984 8  84584735.511 8      1143.589          48.000
G25  23167799.281 7 121747561.196 7     -3152.117          42.000    23167801.438 7  94868258.881 7     -2456.198          42.000
G29  21278656.578 8 111820083.482 8     -1988.926          50.000    21278655.781 8  87132553.521 8     -1549.815          50.000
G31  21617758.500 8 113602083.809 8     -1746.840          49.000    21617757.109 8  88521118.105 8     -1361.177          49.000
R15  20532579.805 8 109719845.369 8     -3153.152          50.000    20532581.250 7  85337672.620 7     -2452.455          44.000
R16  19418517.844 5 103730249.077 5       954.543          33.000    19418519.258 5  80679085.649 5       742.419          30.000
R18  19257039.281 8 102795485.340 8       289.910          51.000    19257042.984 8  79952039.722 8       225.483          49.000
R19  21781454.250 6 116516115.537 6      3282.496          37.000    21781461.156 6  90623648.250 6      2553.053          40.000
C29  21570481.133 8 112323245.305 8       459.672          51.000
C30  23126553.180 5 120426039.806 5     -2255.035          32.000
E01  23781382.547 8 124972011.688 8     -1051.777          51.000    23781384.367 8  95757774.651 8      -805.934          51.000
E21  27113360.172 7 142481620.505 7     -2796.027          47.000    27113368.328 7 109174237.479 7     -2142.420          47.000
E26  22657431.000 8 119065584.867 8      -906.594          51.000    22657434.570 8  91232111.890 8      -694.696          51.000
E33  24288243.820 8 127635593.170 8      1793.250          51.000    24288244.484 8  97798730.040 8      1374.043          51.000
> 2020 05 08 13 00 30.0000000  0 15        .000000000000
G18  20648127.664 8 108506680.507 8      1449.465          48.000    20648129.273 8  84550639.131 8      1129.453          49.000
G25  23185813.250 6 121842224.299 6     -3158.660          40.000    23185815.352 6  94942022.298 6     -2461.294          39.000
G29  21290032.500 8 111879864.452 8     -1996.477          49.000    21290031.789 8  87179136.082 8     -1555.699          49.000
G31  21627777.508 8 113654735.323 8     -1763.145          49.000    21627776.000 8  88562145.241 8     -1373.879          49.000
R15  20550330.039 8 109814699.911 8     -3170.281          49.000    20550332.023 7  85411448.319 7     -2465.774          44.000
R16  19413222.914 5 103701970.914 5       931.488          35.000    19413227.281 5  80657091.501 5       724.491          32.000
R17  20732836.219 5 110945593.299 5     -3036.645          34.000
R18  19255465.539 8 102787083.317 8       270.289          51.000    19255468.930 8  79945504.819 8       210.225          49.000
R19  21763080.055 6 116417819.457 6      3270.594          38.000    21763086.039 6  90547195.757 6      2543.795          40.000
C29  21567864.125 8 112309618.072 8       448.883          51.000
C30  23139561.742 5 120493776.761 5     -2260.867          34.000
E01  23787418.672 8 125003730.251 8     -1062.656          51.000    23787420.422 8  95782078.449 8      -814.234          51.000
E21  27129336.000 7 142565570.579 7     -2800.414          46.000    27129342.547 8 109238562.774 8     -2145.811          48.000
E26  22662637.211 8 119092944.011 8      -917.191          51.000    22662640.820 8  91253075.378 8      -702.777          51.000
E33  24278034.844 8 127581947.605 8      1783.281          51.000    24278036.141 8  97757625.022 8      1366.401          51.000
> 2020 05 08 13 01  0.0000000  0 14        .000000000000
G18  20639905.242 8 108463471.373 8      1431.320          49.000    20639906.742 8  84516969.696 8      1115.318          49.000
G25  23203864.797 6 121937090.124 6     -3165.465          38.000    23203867.102 6  95015943.690 6     -2466.596          38.000
G29  21301453.281 8 111939881.032 8     -2004.211          48.000    21301452.383 8  87225902.256 8     -1561.723          48.000
G31  21637891.008 8 113707881.601 8     -1779.656          50.000    21637888.977 8  88603557.899 8     -1386.745          50.000
R15  20568177.312 7 109910076.897 7     -3187.867          46.000    20568180.195 7  85485630.451 7     -2479.452          43.000
R16  19408064.625 6 103674415.099 6       906.699          37.000    19408070.367 5  80635659.134 5       705.211          33.000
R18  19254003.938 8 102779280.295 8       250.297          51.000    19254007.102 8  79939435.812 8       194.675          49.000
R19  21744774.820 6 116319893.243 6      3257.828          38.000    21744779.109 6  90471030.981 6      2533.866          39.000
C29  21565311.109 8 112296324.493 8       437.742          51.000
C30  23152601.594 5 120561676.493 5     -2265.625          33.000
E01  23793518.539 8 125035784.394 8     -1073.883          51.000    23793520.188 8  95806639.383 8      -822.794          51.000
E21  27145337.633 7 142649658.741 7     -2804.996          44.000    27145343.414 8 109302993.853 8     -2149.274          48.000
E26  22667905.531 8 119120629.231 8      -928.066          51.000    22667909.102 8  91274288.726 8      -711.107          51.000
E33  24267884.086 8 127528610.199 8      1773.012          50.000    24267886.367 8  97716756.110 8      1358.553          51.000
> 2020 05 08 13 01 30.0000000  0 14        .000000000000
G18  20631786.750 8 108420807.459 8      1412.750          50.000    20631787.953 8  84483725.070 8      1100.841          50.000
G25  23221953.305 6 122032153.826 6     -3172.301          38.000    23221956.711 6  95090019.236 6     -2471.926          39.000
G29  21312917.875 8 112000128.200 8     -2012.285          48.000    21312916.727 8  87272848.069 8     -1568.017          48.000
G31  21648097.633 8 113761517.172 8     -1796.203          49.000    21648095.391 8  88645351.818 8     -1399.642          49.000
R15  20586121.234 7 110005970.092 7     -3205.117          46.000    20586124.469 7  85560214.043 7     -2492.875          42.000
R16  19403041.086 6 103647579.488 6       882.336          38.000    19403045.625 5  80614786.968 5       686.261          33.000
R18  19252653.469 8 102772071.240 8       230.215          51.000    19252656.578 8  79933828.759 8       179.053          49.000
R19  21726538.000 6 116222334.422 6      3245.703          38.000    21726539.906 6  90395151.961 6      2524.439          38.000
C29  21562821.227 8 112283360.335 8       426.539          51.000
C30  23165671.953 6 120629734.080 6     -2271.570          36.000
E01  23799681.430 8 125068170.359 8     -1085.160          51.000    23799683.344 8  95831454.561 8      -831.474          51.000
E21  27161364.250 7 142733880.353 7     -2809.719          44.000    27161370.148 8 109367527.182 8     -2152.848          49.000
E26  22673234.898 8 119148635.614 8      -939.016          51.000    22673238.758 8  91295748.165 8      -719.437          51.000
E33  24257791.344 8 127475577.646 8      1762.590          50.000    24257794.531 8  97676120.785 8      1350.535          51.000
> 2020 05 08 13 02  0.0000000  0 14        .000000000000
G18  20623773.141 8 108378695.578 8      1394.430          50.000    20623774.531 8  84450910.631 8      1086.569          50.000
G25  23240080.375 6 122127420.100 6     -3179.027          40.000    23240083.797 6  95164252.641 6     -2477.167          40.000
G29  21324427.211 7 112060610.499 7     -2020.082          47.000    21324425.945 7  87319977.101 7     -1574.090          47.000
G31  21658397.883 8 113815645.982 8     -1812.586          48.000    21658395.852 8  88687530.096 8     -1412.405          48.000
R15  20604163.867 8 110102383.141 8     -3222.492          49.000    20604166.578 7  85635201.832 7     -2506.389          43.000
R16  19398153.773 6 103621472.045 6       858.004          37.000    19398156.641 5  80594481.211 5       667.336          32.000
R18  19251415.047 8 102765460.981 8       210.297          50.000    19251418.156 8  79928687.438 8       163.564          48.000
R19  21708370.531 6 116125150.425 6      3233.438          37.000    21708371.500 6  90319564.466 6      2514.896          38.000
C29  21560395.391 8 112270730.913 8       415.344          51.000
C30  23178773.359 5 120697954.028 5     -2277.270          34.000
E01  23805908.594 8 125100894.029 8     -1096.449          51.000    23805911.055 8  95856528.507 8      -840.175          51.000
E21  27177416.805 7 142818240.367 7     -2814.395          43.000    27177423.852 8 109432166.610 8     -2156.448          50.000
E26  22678626.312 8 119176967.848 8      -949.820          51.000    22678630.414 8  91317457.277 8      -727.793          51.000
E33  24247758.453 8 127422856.200 8      1752.105          51.000    24247761.594 8  97635723.841 8      1342.504          51.000
> 2020 05 08 13 02 30.0000000  0 15        .000000000000
G18  20615864.062 8 108337133.238 8      1376.492          51.000    20615865.367 8  84418524.401 8      1072.591          50.000
G25  23258245.953 6 122222884.342 6     -3185.113          40.000    23258247.781 6  95238640.254 6     -2481.909          40.000
G29  21335980.406 7 112121323.266 7     -2027.289          47.000    21335979.148 7  87367285.733 7     -1579.706          47.000
G31  21668790.703 8 113870262.503 8     -1828.395          49.000    21668789.328 8  88730088.401 8     -1424.723          49.000
R15  20622303.391 8 110199309.353 8     -3239.172          51.000    20622306.359 7  85710588.786 7     -2519.359          46.000
R16  19393402.805 6 103596091.478 6       834.004          38.000    19393405.547 5  80574740.778 5       648.670          34.000
R17  20801368.148 5 111312321.563 5     -3073.008          35.000    20801362.125 4  86576225.390 4     -2390.117          29.000
R18  19250287.945 8 102759444.744 8       190.891          50.000    19250291.062 8  79924008.143 8       148.470          49.000
R19  21690273.141 6 116028339.169 6      3221.020          36.000    21690273.516 6  90244266.858 6      2505.240          38.000
C29  21558033.055 8 112258432.160 8       404.664          51.000
C30  23191904.641 6 120766331.481 6     -2281.363          38.000
E01  23812199.188 8 125133951.869 8     -1107.289          51.000    23812202.094 8  95881858.511 8      -848.421          51.000
E21  27193494.633 7 142902734.393 7     -2818.469          43.000    27193503.562 8 109496908.706 8     -2159.630          51.000
E26  22684078.844 8 119205621.168 8      -960.254          51.000    22684082.742 8  91339412.408 8      -735.788          51.000
E33  24237784.836 8 127370442.707 8      1742.160          51.000    24237787.266 8  97595562.881 8      1334.902          51.000
> 2020 05 08 13 03  0.0000000  0 15        .000000000000
G18  20608056.852 8 108296104.203 8      1358.656          51.000    20608057.656 8  84386553.703 8      1058.693          48.000
G25  23276445.602 6 122318528.118 6     -3191.004          40.000    23276448.258 6  95313167.827 6     -2486.497          40.000
G29  21347573.961 7 112182247.992 7     -2034.410          46.000    21347572.875 7  87414759.533 7     -1585.255          46.000
G31  21679272.766 8 113925347.742 8     -1844.031          49.000    21679272.188 8  88773011.965 8     -1436.907          49.000
R15  20640535.312 8 110296728.768 8     -3255.629          51.000    20640538.688 8  85786359.422 8     -2532.156          48.000
R16  19388784.828 6 103571422.074 6       810.422          39.000    19388787.695 5  80555553.450 5       630.328          35.000
R17  20818629.508 5 111404638.927 5     -3081.391          32.000
R18  19249268.562 8 102754003.472 8       171.684          50.000    19249271.656 8  79919776.055 8       133.532          48.000
R19  21672242.375 6 115931884.963 6      3209.184          37.000    21672243.078 6  90169246.989 6      2496.035          39.000
C29  21555731.234 8 112246446.489 8       394.172          51.000
C30  23205062.359 5 120834847.979 5     -2286.262          35.000
E01  23818549.805 8 125167326.659 8     -1117.820          51.000    23818553.312 8  95907431.387 8      -856.488          51.000
E21  27209595.625 7 142987344.278 7     -2822.328          44.000    27209605.156 8 109561739.605 8     -2162.596          51.000
E26  22689589.008 8 119234577.134 8      -970.277          51.000    22689592.617 8  91361599.459 8      -743.432          51.000
E33  24227867.039 8 127318320.371 8      1732.496          51.000    24227868.703 8  97555625.018 8      1327.509          51.000
> 2020 05 08 13 03 30.0000000  0 15        .000000000000
G18  20600358.859 8 108255650.544 8      1340.035          50.000    20600359.492 8  84355031.376 8      1044.186          48.000
G25  23294687.227 6 122414391.524 6     -3198.082          41.000    23294691.719 6  95387866.517 6     -2492.012          41.000
G29  21359215.609 7 112243424.400 7     -2042.242          45.000    21359214.438 7  87462429.426 7     -1591.358          45.000
G31  21689851.641 8 113980940.698 8     -1860.355          50.000    21689851.836 8  88816331.119 8     -1449.628          50.000
R15  20658866.672 8 110394680.471 8     -3272.727          51.000    20658869.773 8  85862544.098 8     -2545.454          48.000
R16  19384308.078 6 103547507.618 6       785.758          39.000    19384311.586 6  80536953.295 6       611.145          37.000
R17  20835931.094 6 111497265.127 6     -3090.180          36.000
R18  19248364.477 8 102749177.974 8       151.855          50.000    19248367.477 8  79916022.881 8       118.110          48.000
R19  21654286.664 6 115835831.050 6      3196.039          36.000    21654288.109 6  90094538.428 6      2485.808          40.000
C29  21553497.141 8 112234814.151 8       383.055          50.000
C30  23218253.070 5 120903543.070 5     -2291.168          33.000
E01  23824968.750 8 125201059.560 8     -1129.223          51.000    23824972.562 8  95933278.664 8      -865.213          51.000
E21  27225726.820 7 143072110.371 7     -2826.984          45.000    27225736.156 8 109626690.157 8     -2166.104          51.000
E26  22695164.578 8 119263875.779 8      -981.145          51.000    22695168.180 8  91384049.062 8      -751.762          51.000
E33  24218012.672 8 127266530.793 8      1721.957          51.000    24218013.742 8  97515942.101 8      1319.419          51.000
> 2020 05 08 13 04  0.0000000  0 14        .000000000000
G18  20592766.672 8 108215753.284 8      1321.297          51.000    20592767.031 7  84323942.658 7      1029.582          46.000
G25  23312966.906 6 122510453.511 6     -3204.996          41.000    23312972.367 6  95462719.959 6     -2497.400          41.000
G29  21370901.117 7 112304831.273 7     -2050.098          43.000    21370899.805 7  87510278.915 7     -1597.479          44.000
G31  21700523.266 8 114037019.878 8     -1876.863          51.000    21700523.969 8  88860029.160 8     -1462.491          51.000
R15  20677293.156 8 110493141.696 8     -3289.898          51.000    20677295.570 8  85939125.063 8     -2558.810          48.000
R16  19379969.156 6 103524329.448 6       760.895          39.000    19379972.992 6  80518925.811 6       591.807          36.000
R18  19247571.734 8 102744946.530 8       131.758          50.000    19247575.125 8  79912731.771 8       102.478          48.000
R19  21636401.297 5 115740158.255 5      3183.051          35.000    21636404.898 7  90020126.305 7      2475.706          42.000
C29  21551327.078 8 112223514.900 8       371.719          51.000
C30  23231473.125 5 120972395.779 5     -2297.410          30.000
E01  23831452.305 8 125235130.665 8     -1140.688          51.000    23831456.172 8  95959385.101 8      -874.036          51.000
E21  27241883.875 7 143157011.794 7     -2831.664          46.000    27241892.555 8 109691744.380 8     -2169.678          51.000
E26  22700801.227 8 119293495.925 8      -992.012          51.000    22700804.883 8  91406745.020 8      -760.113          51.000
E33  24208217.828 8 127215054.367 8      1711.293          51.000    24208218.375 8  97476499.133 8      1311.256          51.000
> 2020 05 08 13 04 30.0000000  0 14        .000000000000
G18  20585277.930 8 108176397.740 8      1302.840          51.000    20585277.359 7  84293276.047 7      1015.200          46.000
G25  23331281.609 7 122606697.225 7     -3210.938          43.000    23331287.328 7  95537715.011 7     -2502.029          43.000
G29  21382627.023 6 112366452.016 6     -2057.641          41.000    21382625.945 6  87558295.059 6     -1603.359          41.000
G31  21711284.180 8 114093567.201 8     -1892.742          51.000    21711284.695 8  88904091.974 8     -1474.864          51.000
R15  20695810.906 8 110592093.726 8     -3306.605          51.000    20695812.992 7  86016087.745 7     -2571.807          47.000
R16  19375765.750 6 103501874.088 6       736.512          40.000    19375769.305 6  80501460.560 6       572.842          37.000
R18  19246886.797 8 102741291.815 8       112.215          50.000    19246890.398 7  79909889.212 7        87.278          47.000
R19  21618584.055 5 115644852.367 5      3170.887          35.000    21618589.406 7  89945999.504 7      2466.245          42.000
C29  21549218.320 8 112212532.745 8       360.766          51.000
C30  23244720.883 5 121041388.930 5     -2302.285          30.000
E01  23837997.273 8 125269524.292 8     -1151.832          51.000    23838000.898 8  95985738.663 8      -882.614          51.000
E21  27258063.469 7 143242031.955 7     -2835.988          45.000    27258071.031 8 109756889.624 8     -2173.093          50.000
E26  22706495.836 8 119323420.760 8     -1002.660          51.000    22706499.055 8  91429674.439 8      -768.257          51.000
E33  24198479.344 8 127163875.856 8      1700.938          51.000    24198479.883 8  97437284.428 8      1303.301          51.000
> 2020 05 08 13 05  0.0000000  0 14        .000000000000
G18  20577892.961 8 108137588.593 8      1284.832          51.000    20577891.906 7  84263035.200 7      1001.171          46.000
G25  23349631.633 7 122703125.378 7     -3217.047          43.000    23349637.586 7  95612853.786 7     -2506.793          42.000
G29  21394393.891 6 112428289.171 6     -2064.465          37.000    21394393.172 6  87606479.866 6     -1608.674          37.000
G31  21722134.641 8 114150584.174 8     -1908.133          51.000    21722134.562 8  88948520.745 8     -1486.860          51.000
R15  20714419.625 8 110691537.732 8     -3322.734          50.000    20714422.305 7  86093433.012 7     -2584.352          44.000
R16  19371698.438 6 103480146.679 6       712.332          41.000    19371702.266 6  80484561.446 6       554.036          38.000
R18  19246310.898 8 102738216.827 8        93.156          50.000    19246314.461 7  79907497.573 7        72.455          47.000
R19  21600836.070 5 115549918.650 5      3158.008          34.000    21600842.258 7  89872162.178 7      2456.228          42.000
C29  21547170.914 8 112201870.883 8       350.273          51.000
C30  23257998.656 5 121110525.374 5     -2306.508          30.000
E01  23844604.289 8 125304244.309 8     -1162.621          51.000    23844607.516 8  96012342.287 8      -890.807          51.000
E21  27274265.328 7 143327173.840 7     -2839.742          43.000    27274272.367 8 109822128.134 8     -2176.020          49.000
E26  22712248.938 8 119353652.918 8     -1012.605          51.000    22712251.789 8  91452839.323 8      -775.910          51.000
E33  24188797.594 8 127112999.463 8      1691.090          51.000    24188798.781 8  97398301.220 8      1295.824          51.000
> 2020 05 08 13 05 30.0000000  0 14        .000000000000
G18  20570610.328 8 108099317.948 8      1265.113          51.000    20570609.594 8  84233213.950 8       985.803          49.000
G25  23368015.156 7 122799728.023 7     -3224.477          44.000    23368020.797 7  95688128.500 7     -2512.582          44.000
G29  21406200.305 6 112490332.421 6     -2073.324          39.000    21406199.758 6  87654825.266 6     -1615.577          38.000
G31  21733072.461 8 114208060.085 8     -1925.129          51.000    21733071.820 8  88993307.129 8     -1500.100          51.000
R15  20733117.898 8 110791462.021 8     -3340.312          49.000    20733119.891 6  86171151.755 6     -2598.027          41.000
R16  19367766.461 6 103459140.301 6       686.723          41.000    19367769.852 6  80468223.172 6       534.118          39.000
R18  19245841.367 8 102735711.102 8        72.457          49.000    19245844.961 7  79905548.709 7        56.355          46.000
R19  21583156.344 5 115455349.715 5      3144.703          33.000    21583162.094 6  89798608.560 6      2445.877          41.000
C29  21545183.195 8 112191520.061 8       338.242          51.000
C30  23271302.742 4 121179795.048 4     -2311.621          28.000
E01  23851271.922 8 125339281.857 8     -1174.777          51.000    23851274.359 8  96039189.218 8      -900.169          51.000
E21  27290488.141 7 143412427.707 7     -2845.281          43.000    27290495.570 8 109887452.489 8     -2180.103          50.000
E26  22718058.500 8 119384182.380 8     -1024.195          51.000    22718061.562 8  91476232.020 8      -784.743          51.000
E33  24179170.914 8 127062416.796 8      1679.641          49.000    24179173.219 8  97359543.072 8      1286.979          51.000
> 2020 05 08 13 06  0.0000000  0 13        .000000000000
G18  20563439.188 8 108061632.567 8      1247.363          51.000    20563438.922 8  84203848.742 8       971.971          50.000
G25  23386440.453 7 122896549.935 7     -3230.094          45.000    23386445.453 7  95763574.084 7     -2516.959          45.000
G29  21418054.977 6 112552626.723 6     -2079.793          38.000    21418054.359 6  87703366.282 6     -1620.618          37.000
G31  21744105.828 8 114266039.292 8     -1939.945          51.000    21744104.500 8  89038485.704 8     -1511.646          51.000
R15  20751914.539 8 110891910.644 8     -3355.980          49.000    20751917.969 7  86249278.422 7     -2610.207          44.000
R16  19363978.289 6 103438903.469 6       662.816          41.000    19363981.312 6  80452483.407 6       515.527          38.000
R18  19245487.055 8 102733819.768 8        53.848          49.000    19245490.508 7  79904077.667 7        41.882          46.000
R19  21565554.781 5 115361193.344 5      3132.742          33.000    21565557.969 6  89725375.862 6      2436.577          40.000
C29  21543264.055 8 112181525.250 8       328.297          51.000
E01  23858008.891 8 125374682.778 8     -1185.012          51.000    23858010.578 8  96066314.581 8      -907.963          51.000
E21  27306740.805 7 143497838.576 7     -2848.574          43.000    27306749.000 8 109952897.147 8     -2182.674          50.000
E26  22723933.141 8 119415053.832 8     -1033.684          51.000    22723936.328 8  91499886.766 8      -791.995          51.000
E33  24169609.188 8 127012174.059 8      1670.211          50.000    24169612.039 8  97321045.398 8      1279.808          51.000
> 2020 05 08 13 06 30.0000000  0 13        .000000000000
G18  20556369.906 8 108024483.423 8      1228.762          51.000    20556370.203 8  84174901.359 8       957.477          51.000
G25  23404897.516 7 122993540.074 7     -3236.293          43.000    23404901.875 7  95839150.736 7     -2521.790          43.000
G29  21429947.508 6 112615121.311 6     -2087.195          40.000    21429947.242 6  87752063.350 6     -1626.386          40.000
G31  21755224.719 8 114324469.790 8     -1955.742          51.000    21755223.180 8  89084015.924 8     -1523.955          51.000
R15  20770800.125 8 110992830.064 8     -3372.336          51.000    20770805.312 8  86327771.273 8     -2622.928          48.000
R16  19360324.750 7 103419387.099 7       637.902          42.000    19360327.406 6  80437304.011 6       496.143          38.000
R18  19245237.898 8 102732490.926 8        34.344          48.000    19245241.711 7  79903044.131 7        26.712          46.000
R19  21548022.664 5 115267400.423 5      3119.871          35.000    21548023.141 6  89652425.868 6      2426.569          41.000
C29  21541403.688 8 112171836.492 8       317.320          51.000
E01  23864805.414 8 125410397.190 8     -1196.277          51.000    23864806.758 8  96093680.136 8      -916.622          51.000
E21  27323014.016 7 143583355.672 7     -2852.879          45.000    27323022.383 8 110018423.167 8     -2185.957          49.000
E26  22729863.141 8 119446216.221 8     -1044.105          51.000    22729866.070 8  91523764.426 8      -800.032          51.000
E33  24160103.445 8 126962221.724 8      1659.664          51.000    24160105.781 8  97282770.276 8      1271.649          51.000
> 2020 05 08 13 07  0.0000000  0 14        .000000000000
G18  20549405.258 8 107987884.946 8      1211.652          51.000    20549405.812 8  84146383.078 8       944.145          51.000
G25  23423388.578 7 123090710.873 7     -3241.199          43.000    23423392.922 7  95914868.198 7     -2525.610          42.000
G29  21441880.430 5 112677828.428 5     -2092.480          30.000    21441880.453 5  87800926.028 5     -1630.507          31.000
G31  21766431.492 8 114383363.288 8     -1969.902          51.000    21766430.242 8  89129906.923 8     -1534.992          51.000
R15  20789776.836 8 111094231.608 8     -3387.184          51.000    20789782.398 8  86406639.092 8     -2634.476          48.000
R16  19356809.250 7 103400607.040 7       614.809          42.000    19356811.414 6  80422697.312 6       478.184          38.000
R18  19245096.664 8 102731736.694 8        16.500          48.000    19245100.602 7  79902457.490 7        12.833          46.000
R19  21530560.891 6 115173986.530 6      3108.824          36.000    21530560.711 6  89579770.685 6      2417.974          41.000
C29  21539604.430 8 112162466.722 8       307.973          51.000
C30  23311394.852 5 121388541.387 5     -2325.848          30.000
E01  23871664.047 8 125446438.697 8     -1205.977          51.000    23871665.078 8  96121296.332 8      -924.045          51.000
E21  27339310.516 7 143668991.766 7     -2855.652          45.000    27339318.398 8 110084040.363 8     -2188.094          49.000
E26  22735850.773 8 119477681.962 8     -1053.070          51.000    22735853.641 8  91547874.526 8      -806.853          51.000
E33  24150655.961 8 126912573.778 8      1650.727          51.000    24150657.336 8  97244728.414 8      1264.866          51.000
> 2020 05 08 13 07 30.0000000  0 14        .000000000000
G18  20542549.906 8 107951859.394 8      1191.121          51.000    20542550.391 8  84118311.202 8       928.146          51.000
G25  23441917.641 7 123188082.624 7     -3249.227          42.000    23441921.789 7  95990742.251 7     -2531.865          42.000
G31  21777729.961 8 114442738.651 8     -1987.410          51.000    21777729.047 8  89176173.386 8     -1548.634          51.000
R15  20808847.500 8 111196133.928 8     -3405.203          51.000    20808852.656 8  86485896.416 8     -2648.491          48.000
R16  19353435.539 7 103382586.687 7       587.871          42.000    19353437.930 6  80408681.450 6       457.233          39.000
R17  20976049.055 5 112247074.864 5     -3157.875          34.000
R18  19245066.898 8 102731577.855 8        -4.793          48.000    19245070.672 7  79902333.951 7        -3.731          46.000
R19  21513172.867 5 115080974.557 5      3093.859          33.000    21513173.875 7  89507428.042 7      2406.335          42.000
C29  21537870.539 8 112153436.615 8       295.184          51.000
C30  23324810.648 5 121458422.462 5     -2331.590          34.000
E01  23878588.852 8 125482828.627 8     -1219.004          51.000    23878589.766 8  96149179.503 8      -934.024          51.000
E21  27355633.477 7 143754767.298 7     -2861.555          46.000    27355640.914 8 110149764.387 8     -2192.650          49.000
E26  22741899.984 8 119509471.193 8     -1065.238          51.000    22741903.133 8  91572232.512 8      -816.201          51.000
E33  24141270.820 8 126863252.019 8      1638.406          51.000    24141271.484 8  97206936.476 8      1255.441          51.000
> 2020 05 08 13 08  0.0000000  0 14        .000000000000
G18  20535798.945 8 107916383.276 8      1176.238          51.000    20535799.680 8  84090667.475 8       916.549          51.000
G25  23460480.148 7 123285629.972 7     -3252.004          43.000    23460483.438 7  96066753.105 7     -2534.032          44.000
G31  21789115.305 8 114502569.924 8     -1999.113          50.000    21789114.938 8  89222795.125 8     -1557.754          50.000
R15  20828005.961 8 111298509.656 8     -3417.523          49.000    20828010.789 7  86565521.933 7     -2658.077          46.000
R16  19350199.914 7 103365302.839 7       566.809          43.000    19350201.742 6  80395238.454 6       440.851          39.000
R17  20993788.242 5 112341879.238 5     -3162.379          33.000    20993789.781 4  87377118.718 4     -2459.628          24.000
R18  19245143.883 8 102731988.050 8       -20.234          48.000    19245147.406 7  79902653.001 7       -15.738          45.000
R19  21495855.234 6 114988341.172 6      3084.402          36.000    21495857.164 6  89435379.833 6      2398.977          41.000
C29  21536197.102 8 112144721.593 8       288.039          51.000
C30  23338252.148 5 121528428.178 5     -2332.605          32.000
E01  23885575.430 8 125519542.658 8     -1226.277          51.000    23885576.219 8  96177311.028 8      -939.636          51.000
E21  27371978.086 7 143840657.119 7     -2862.035          47.000    27371984.953 8 110215575.978 8     -2192.994          49.000
E26  22748005.977 8 119541558.527 8     -1071.668          51.000    22748009.258 8  91596818.903 8      -821.121          51.000
E33  24131943.125 8 126814232.546 8      1631.738          51.000    24131943.750 8  97169376.137 8      1250.329          51.000
> 2020 05 08 13 08 30.0000000  0 14        .000000000000
G18  20529154.758 8 107881468.707 8      1147.168          51.000    20529155.609 8  84063461.328 8       893.900          51.000
G25  23479078.273 7 123383363.049 7     -3268.301          43.000    23479080.570 7  96142908.686 7     -2546.731          43.000
G31  21800589.266 8 114562866.447 8     -2024.820          51.000    21800589.547 8  89269779.397 8     -1577.782          51.000
R15  20847253.641 7 111401367.551 7     -3444.062          47.000    20847258.125 7  86645522.488 7     -2678.715          43.000
R16  19347104.570 7 103348768.678 7       531.082          44.000    19347106.609 6  80382378.527 6       413.061          39.000
R17  21011559.430 5 112436949.910 5     -3180.277          32.000    21011566.406 4  87451064.733 4     -2473.555          26.000
R18  19245329.188 8 102732977.412 8       -49.914          48.000    19245332.523 7  79903422.529 7       -38.819          45.000
R19  21478612.523 6 114896099.400 6      3060.945          39.000    21478613.102 6  89363636.266 6      2380.738          41.000
C29  21534586.039 8 112136332.370 8       267.055          51.000
C30  23351719.797 4 121598577.837 4     -2347.789          29.000
E01  23892625.977 8 125556592.133 8     -1247.852          51.000    23892626.812 8  96205699.587 8      -956.110          51.000
E21  27388346.539 8 143926671.678 8     -2876.590          48.000    27388352.609 8 110281483.169 8     -2204.062          48.000
E26  22754170.641 8 119573954.089 8     -1092.262          51.000    22754173.727 8  91621641.484 8      -836.910          51.000
E33  24122675.016 8 126765527.094 8      1610.949          51.000    24122675.984 8  97132056.381 8      1234.379          51.000
> 2020 05 08 13 09  0.0000000  0 14        .000000000000
G18  20522629.477 8 107847178.254 8      1135.879          51.000    20522630.383 8  84036741.498 8       885.097          51.000
G25  23497723.195 7 123481342.521 7     -3266.668          42.000    23497725.516 7  96219256.265 7     -2545.459          42.000
G31  21812163.047 8 114623687.286 8     -2032.832          51.000    21812163.664 8  89317172.236 8     -1584.028          51.000
R15  20866603.188 8 111504767.719 8     -3452.375          49.000    20866607.086 7  86725944.816 7     -2685.184          43.000
R16  19344161.664 7 103333048.355 7       513.812          44.000    19344163.555 6  80370151.601 6       399.629          40.000
R17  21029355.578 4 112532287.387 4     -3180.727          29.000
R18  19245634.727 7 102734607.472 7       -61.715          46.000    19245637.750 7  79904690.358 7       -48.000          45.000
R19  21461455.203 6 114804313.390 6      3055.234          39.000    21461455.281 7  89292247.205 7      2376.296          43.000
C29  21533049.125 8 112128329.634 8       263.531          51.000
C30  23365228.773 5 121668931.069 5     -2345.168          33.000
E01  23899751.961 8 125594038.759 8     -1251.574          51.000    23899753.148 8  96234392.444 8      -958.971          51.000
E21  27404750.219 8 144012871.870 8     -2873.223          48.000    27404755.805 8 110347532.574 8     -2201.488          48.000
E26  22760405.578 8 119606718.442 8     -1094.988          51.000    22760408.406 8  91646746.646 8      -839.032          51.000
E33  24113478.359 8 126717197.674 8      1607.988          51.000    24113479.539 8  97095024.742 8      1232.071          51.000
> 2020 05 08 13 09 30.0000000  0 14        .000000000000
G18  20516200.305 8 107813392.497 8      1117.375          51.000    20516201.000 8  84010414.946 8       870.682          50.000
G25  23516391.898 6 123579447.103 6     -3272.684          41.000    23516394.609 6  96295701.321 6     -2550.146          41.000
G29  21502214.008 6 112994867.904 6     -2129.652          36.000    21502182.633 5  88047957.136 5     -1659.469          35.000
G31  21823813.664 8 114684910.558 8     -2047.789          51.000    21823813.906 8  89364878.672 8     -1595.683          51.000
R15  20886031.508 8 111608585.058 8     -3467.867          51.000    20886034.461 7  86806691.552 7     -2697.233          45.000
R16  19341348.664 7 103318021.806 7       488.836          44.000    19341350.477 6  80358464.284 6       380.206          40.000
R18  19246036.922 7 102736754.520 7       -80.484          47.000    19246039.812 7  79906360.288 7       -62.599          44.000
R19  21444359.656 6 114712862.187 6      3042.395          38.000    21444360.344 7  89221118.545 7      2366.310          44.000
C29  21531563.430 8 112120593.780 8       253.070          51.000
C30  23378754.930 4 121739367.722 4     -2349.031          29.000
E01  23906930.312 8 125631762.375 8     -1262.418          51.000    23906932.133 8  96263297.523 8      -967.316          51.000
E21  27421166.227 8 144099136.659 8     -2876.855          49.000    27421171.336 7 110413631.478 7     -2204.395          47.000
E26  22766687.695 8 119639730.272 8     -1104.898          51.000    22766690.352 8  91672041.423 8      -846.607          51.000
E33  24104330.258 8 126669124.530 8      1597.766          51.000    24104331.938 8  97058189.468 8      1224.244          51.000
> 2020 05 08 13 10  0.0000000  0 13        .000000000000
G18  20509872.469 8 107780139.864 8      1098.781          51.000    20509872.852 8  83984503.819 8       856.193          50.000
G25  23535089.320 6 123677703.400 6     -3278.512          41.000    23535092.641 6  96372264.602 6     -2554.688          40.000
G29  21514359.680 6 113058721.676 6     -2136.953          37.000    21514356.578 6  88097705.980 6     -1665.164          38.000
G31  21835545.812 8 114746561.772 8     -2062.918          51.000    21835545.445 8  89412918.551 8     -1607.469          51.000
R15  20905542.430 8 111712845.094 8     -3483.512          49.000    20905545.000 7  86887782.651 7     -2709.398          46.000
R16  19338670.992 7 103303718.878 7       463.914          45.000    19338673.125 6  80347339.768 6       360.822          41.000
R18  19246541.117 7 102739445.208 7       -99.480          47.000    19246543.891 7  79908453.044 7       -77.374          44.000
R19  21427330.023 6 114621775.288 6      3029.387          37.000    21427333.273 7  89150273.187 7      2356.187          44.000
C29  21530134.227 8 112113151.715 8       242.379          51.000
E01  23914166.727 8 125669790.552 8     -1273.480          51.000    23914168.891 8  96292435.975 8      -975.763          51.000
E21  27437600.086 8 144185492.829 8     -2880.836          50.000    27437604.109 7 110479800.395 7     -2207.361          47.000
E26  22773021.898 8 119673016.072 8     -1114.863          51.000    22773024.445 8  91697546.123 8      -854.210          51.000
E33  24095236.156 8 126621335.712 8      1587.461          51.000    24095238.367 8  97021572.057 8      1216.381          51.000
> 2020 05 08 13 10 30.0000000  0 14        .000000000000
G18  20503659.695 8 107747492.268 8      1079.289          50.000    20503659.891 8  83959064.152 8       841.004          50.000
G25  23553829.109 7 123776181.392 7     -3285.273          42.000    23553832.539 7  96449000.620 7     -2559.956          42.000
G29  21526581.656 6 113122956.425 6     -2144.438          37.000    21526579.969 6  88147759.085 6     -1670.984          37.000
G31  21847372.508 8 114808709.929 8     -2078.652          51.000    21847371.562 8  89461345.666 8     -1619.729          51.000
R15  20925148.352 7 111817617.053 7     -3499.727          47.000    20925151.984 7  86969271.958 7     -2722.007          47.000
R16  19336142.672 7 103290212.949 7       438.035          44.000    19336145.047 6  80336835.154 6       340.694          41.000
R18  19247160.422 7 102742750.304 7      -119.258          46.000    19247162.695 7  79911023.684 7       -92.756          42.000
R19  21410383.352 6 114531126.879 6      3015.102          37.000    21410387.031 7  89079768.858 7      2345.079          42.000
C29  21528774.812 8 112106073.362 8       231.098          51.000
C30  23405887.031 5 121880615.895 5     -2359.395          32.000
E01  23921474.859 8 125708194.374 8     -1285.180          51.000    23921476.844 8  96321862.262 8      -984.730          51.000
E21  27454064.992 8 144272010.614 8     -2885.336          50.000    27454067.328 7 110546093.127 7     -2210.887          45.000
E26  22779421.461 8 119706645.771 8     -1125.598          51.000    22779423.977 8  91723314.330 8      -862.420          51.000
E33  24086209.977 8 126573902.664 8      1576.355          51.000    24086212.312 8  96985227.269 8      1207.860          51.000
> 2020 05 08 13 11  0.0000000  0 14        .000000000000
G18  20497548.867 8 107715380.589 8      1061.125          49.000    20497549.164 8  83934042.071 8       826.851          49.000
G25  23572597.703 7 123874810.084 7     -3290.500          43.000    23572601.188 7  96525854.078 7     -2564.026          43.000
G29  21538838.469 5 113187360.700 5     -2150.359          34.000    21538838.094 5  88197954.280 5     -1675.602          35.000
G31  21859279.961 8 114871283.229 8     -2093.113          51.000    21859278.602 8  89510104.080 8     -1630.997          51.000
R15  20944837.070 8 111922827.403 8     -3514.570          50.000    20944841.398 7  87051102.241 7     -2733.555          47.000
R16  19333750.414 7 103277434.894 7       413.270          44.000    19333753.367 7  80326896.653 7       321.432          42.000
R18  19247881.281 7 102746597.403 7      -137.496          46.000    19247883.367 7  79914015.877 7      -106.941          42.000
R19  21393507.305 6 114440846.763 6      3002.801          40.000    21393509.312 7  89009551.028 7      2335.512          43.000
C29  21527471.883 8 112099289.103 8       221.016          51.000
C30  23419495.266 4 121951450.306 4     -2362.984          28.000
E01  23928840.945 8 125746904.012 8     -1295.695          51.000    23928842.695 8  96351522.865 8      -992.826          51.000
E21  27470547.195 8 144358619.377 8     -2888.672          51.000    27470547.570 7 110612455.560 7     -2213.452          44.000
E26  22785873.008 8 119740548.374 8     -1134.875          51.000    22785875.344 8  91749291.647 8      -869.538          51.000
E33  24077238.461 8 126526755.938 8      1566.582          51.000    24077240.453 8  96949101.877 8      1200.287          51.000
> 2020 05 08 13 11 30.0000000  0 12        .000000000000
G18  20491546.945 8 107683841.419 8      1042.758          48.000    20491547.562 8  83909466.076 8       812.539          48.000
G25  23591401.375 7 123973624.345 7     -3296.035          42.000    23591404.414 7  96602852.151 7     -2568.342          42.000
G31  21871274.383 8 114934315.448 8     -2107.762          49.000    21871273.141 8  89559220.077 8     -1642.415          49.000
R15  20964615.016 8 112028509.674 8     -3529.609          51.000    20964618.984 7  87133299.548 7     -2745.255          45.000
R16  19331501.375 7 103265422.272 7       388.473          44.000    19331504.391 7  80317553.500 7       302.145          42.000
R18  19248710.062 7 102751021.502 7      -156.234          47.000    19248711.883 6  79917456.840 6      -121.519          41.000
R19  21376706.820 6 114350973.090 6      2990.004          38.000    21376708.789 7  88939649.324 7      2325.559          43.000
C29  21526232.109 8 112092833.981 8       210.621          51.000
E01  23936271.766 8 125785955.323 8     -1306.480          51.000    23936273.039 8  96381445.248 8     -1001.099          51.000
E21  27487053.156 8 144445354.140 8     -2892.285          50.000    27487051.484 7 110678914.538 7     -2216.068          42.000
E26  22792383.008 8 119774758.680 8     -1144.578          51.000    22792385.180 8  91775504.721 8      -876.978          51.000
E33  24068328.172 8 126479931.802 8      1556.297          51.000    24068329.586 8  96913223.663 8      1192.529          51.000
> 2020 05 08 13 12  0.0000000  0 12        .000000000000
G18  20485654.414 8 107652876.712 8      1023.535          49.000    20485655.398 8  83885337.753 8       797.560          50.000
G25  23610240.523 7 124072624.325 7     -3302.016          44.000    23610242.406 7  96679994.938 7     -2573.002          44.000
G31  21883355.961 8 114997805.785 8     -2123.043          50.000    21883354.805 8  89608693.033 8     -1654.322          50.000
R15  20984480.891 8 112134662.383 8     -3545.285          51.000    20984484.117 7  87215862.693 7     -2757.447          44.000
R16  19329396.445 7 103254178.178 7       363.004          45.000    19329399.359 7  80308808.091 7       282.336          42.000
R18  19249646.969 7 102756022.437 7      -175.391          47.000    19249648.680 7  79921346.481 7      -136.415          42.000
R19  21359982.250 6 114261508.626 6      2976.371          38.000    21359985.117 7  88870065.877 7      2314.955          44.000
C29  21525055.703 8 112086708.741 8       199.605          51.000
E01  23943767.953 8 125825349.542 8     -1318.008          51.000    23943768.750 8  96411630.368 8     -1009.893          50.000
E21  27503582.773 8 144532215.360 8     -2896.730          49.000    27503579.375 6 110745470.397 6     -2219.423          41.000
E26  22798951.227 8 119809276.750 8     -1154.836          50.000    22798953.672 8  91801953.632 8      -884.913          51.000
E33  24059478.938 8 126433431.927 8      1545.492          51.000    24059480.469 8  96877593.899 8      1184.178          51.000
> 2020 05 08 13 12 30.0000000  0 14        .000000000000
G18  20479864.625 8 107622450.555 8      1004.664          50.000    20479865.688 8  83861629.061 8       782.855          50.000
G25  23629107.883 7 124171772.257 7     -3307.902          45.000    23629108.352 7  96757253.005 7     -2577.586          45.000
G29  21575856.648 4 113381891.285 4     -2171.301          29.000    21575853.922 5  88349522.606 5     -1691.917          30.000
G31  21895517.656 8 115061715.561 8     -2137.812          50.000    21895516.648 8  89658492.810 8     -1665.828          50.000
R15  21004426.773 8 112241245.484 8     -3560.438          51.000    21004429.203 7  87298760.560 7     -2769.232          44.000
R16  19327428.750 7 103243666.821 7       337.781          45.000    19327431.797 7  80300632.571 7       262.716          43.000
R18  19250684.727 7 102761561.499 7      -194.016          47.000    19250686.766 7  79925654.648 7      -150.901          42.000
R19  21343327.391 6 114172417.197 6      2962.828          39.000    21343330.789 7  88800772.592 7      2304.425          43.000
C05  39623152.875 5 206328153.825 5        15.973          35.000    39623153.344 6 159546018.255 6        11.928          36.000
C29  21523935.727 8 112080876.569 8       188.957          51.000
E01  23951322.336 8 125865049.929 8     -1328.918          51.000    23951323.352 8  96442050.116 8     -1018.274          51.000
E21  27520128.992 8 144619165.408 8     -2900.254          49.000    27520125.125 6 110812094.367 6     -2222.308          39.000
E26  22805571.016 8 119844064.777 8     -1164.555          51.000    22805573.633 8  91828609.396 8      -892.282          51.000
E33  24050684.336 8 126387220.008 8      1535.082          51.000    24050686.203 8  96842184.761 8      1176.250          51.000
> 2020 05 08 13 13  0.0000000  0 14        .000000000000
G18  20474188.117 8 107592620.523 8       986.711          50.000    20474189.273 8  83838384.874 8       768.866          50.000
G25  23648014.070 7 124271124.019 7     -3312.793          45.000    23648014.086 7  96834669.891 7     -2581.400          45.000
G29  21588275.188 5 113447113.342 5     -2177.230          34.000    21588275.883 5  88400371.024 5     -1696.543          35.000
G31  21907769.648 8 115126099.596 8     -2151.754          51.000    21907768.703 8  89708662.144 8     -1676.694          51.000
R15  21024463.406 8 112348313.980 8     -3574.691          51.000    21024466.406 7  87382035.973 7     -2780.319          46.000
R16  19325609.367 7 103233947.561 7       313.094          45.000    19325612.367 7  80293073.153 7       243.517          43.000
R18  19251833.570 7 102767695.087 7      -212.062          46.000    19251835.789 7  79930425.186 7      -164.938          43.000
R19  21326753.398 6 114083758.150 6      2950.461          38.000    21326755.758 7  88731815.602 7      2294.806          42.000
C05  39623066.500 5 206327705.756 5        16.293          35.000    39623067.391 6 159545673.303 6        12.442          36.000
C29  21522882.617 8 112075393.461 8       179.148          51.000
E01  23958945.750 8 125905113.455 8     -1339.297          50.000    23958947.367 8  96472748.112 8     -1026.232          51.000
E21  27536702.297 7 144706260.439 7     -2903.406          46.000    27536699.742 6 110878829.395 6     -2224.667          39.000
E26  22812252.945 8 119879178.652 8     -1173.664          51.000    22812255.617 8  91855514.804 8      -899.298          51.000
E33  24041956.273 8 126341353.342 8      1525.281          51.000    24041957.695 8  96807040.164 8      1168.758          51.000
> 2020 05 08 13 13 30.0000000  0 16        .000000000000
G18  20468610.039 8 107563307.350 8       968.605          51.000    20468611.234 8  83815543.459 8       754.761          51.000
G25  23666943.742 7 124370598.592 7     -3317.664          45.000    23666944.055 7  96912182.471 7     -2585.193          45.000
G29  21600724.312 6 113512535.005 6     -2183.344          36.000    21600724.828 5  88451348.926 5     -1701.307          35.000
G31  21920095.977 8 115190875.771 8     -2165.555          50.000    21920095.367 8  89759137.061 8     -1687.442          50.000
R15  21044575.203 8 112455783.796 8     -3588.816          51.000    21044578.516 7  87465623.557 7     -2791.305          45.000
R16  19323923.297 7 103224939.932 7       288.535          45.000    19323926.367 7  80286067.205 7       224.416          43.000
R17  21191533.508 5 113400152.257 5     -3244.043          30.000
R18  19253078.203 7 102774340.507 7      -229.922          46.000    19253081.391 7  79935593.871 7      -178.828          43.000
R19  21310245.156 6 113995451.298 6      2937.625          38.000    21310247.125 7  88663132.542 7      2284.819          42.000
C05  39622971.688 5 206327210.077 5        17.777          34.000    39622972.828 6 159545291.328 6        13.366          36.000
C29  21521881.133 8 112070179.667 8       169.418          51.000
C30  23487907.266 5 122307647.496 5     -2383.285          33.000
E01  23966622.875 8 125945460.147 8     -1349.508          49.000    23966625.219 8  96503663.104 8     -1034.041          51.000
E21  27553286.977 7 144793419.695 7     -2906.129          44.000    27553286.633 6 110945613.681 6     -2226.903          39.000
E26  22818981.164 8 119914537.220 8     -1182.664          51.000    22818984.250 8  91882607.722 8      -906.125          51.000
E33  24033279.461 8 126295752.310 8      1515.727          51.000    24033280.062 8  96772099.145 8      1161.392          51.000
> 2020 05 08 13 14  0.0000000  0 16        .000000000000
G18  20463149.680 8 107534612.188 8       947.863          51.000    20463150.797 8  83793183.598 8       738.595          51.000
G25  23685915.750 7 124470295.431 7     -3325.371          46.000    23685916.617 7  96989868.246 7     -2591.201          46.000
G29  21613222.008 6 113578211.033 6     -2192.117          37.000    21613223.984 6  88502524.967 6     -1708.149          36.000
G31  21932515.398 8 115256142.069 8     -2182.066          50.000    21932515.289 8  89809993.887 8     -1700.315          50.000
R15  21064780.695 8 112563754.408 8     -3605.688          51.000    21064783.781 7  87549600.621 7     -2804.427          44.000
R16  19322389.523 7 103216748.080 7       260.902          45.000    19322392.695 7  80279695.741 7       202.924          44.000
R17  21209755.969 4 113497676.643 4     -3252.492          29.000
R18  19254437.875 7 102781598.124 7      -250.547          46.000    19254440.711 7  79941238.670 7      -194.870          42.000
R19  21293822.602 6 113907600.762 6      2922.133          37.000    21293824.695 7  88594804.367 7      2272.770          43.000
C05  39622887.305 5 206326771.620 5        15.387          35.000    39622888.383 5 159544951.496 5        11.659          35.000
C29  21520950.430 8 112065334.309 8       156.969          51.000
C30  23501676.484 4 122379295.999 4     -2390.035          29.000
E01  23974373.445 8 125986190.410 8     -1362.480          51.000    23974376.062 8  96534871.990 8     -1043.973          51.000
E21  27569901.586 7 144880742.784 7     -2911.855          42.000    27569903.977 6 111012523.519 6     -2231.264          39.000
E26  22825775.102 8 119950239.838 8     -1194.203          51.000    22825778.430 8  91909964.259 8      -915.045          51.000
E33  24024672.383 8 126250517.765 8      1503.312          51.000    24024672.383 8  96737438.942 8      1151.868          51.000
> 2020 05 08 13 14 30.0000000  0 14        .000000000000
G18  20457803.430 8 107506517.380 8       929.188          51.000    20457804.477 8  83771291.574 8       724.042          51.000
G25  23704926.258 7 124570195.095 7     -3330.773          45.000    23704927.609 7  97067712.098 7     -2595.408          46.000
G29  21625764.836 6 113644121.494 6     -2198.203          39.000    21625764.961 6  88553883.760 6     -1712.892          38.000
G31  21945024.492 8 115321878.473 8     -2196.512          50.000    21945024.930 8  89861217.037 8     -1711.568          50.000
R15  21085075.461 8 112672204.210 8     -3620.230          51.000    21085078.086 7  87633950.386 7     -2815.738          43.000
R16  19321005.500 7 103209354.683 7       235.723          46.000    19321008.523 7  80273945.331 7       183.340          44.000
R18  19255908.383 7 102789448.126 7      -268.828          46.000    19255911.375 7  79947344.236 7      -209.089          43.000
R19  21277482.047 6 113820188.694 6      2909.402          39.000    21277483.922 7  88526817.250 7      2262.872          42.000
C05                                                                  39622810.547 5 159544638.897 5        12.152          35.000
C29  21520086.961 8 112060838.756 8       146.641          51.000
E01  23982194.156 8 126027285.934 8     -1373.309          51.000    23982196.633 8  96566360.770 8     -1052.290          51.000
E21  27586544.453 7 144968210.648 7     -2915.410          42.000    27586549.164 6 111079544.275 6     -2234.002          41.000
E26  22832631.031 8 119986267.127 8     -1203.660          51.000    22832634.289 8  91937569.580 8      -922.294          51.000
E33  24016131.430 8 126205631.805 8      1493.020          51.000    24016130.844 8  96703045.846 8      1143.996          51.000
> 2020 05 08 13 15  0.0000000  0 14        .000000000000
G18  20452552.336 8 107478922.645 8       909.715          51.000    20452553.422 8  83749789.201 8       708.869          50.000
G25  23723955.477 7 124670195.615 7     -3336.875          44.000    23723957.844 7  97145634.513 7     -2600.165          44.000
G29  21638332.938 6 113710164.976 6     -2205.199          38.000    21638332.688 6  88605346.197 6     -1718.337          37.000
G31  21957603.523 8 115387981.805 8     -2211.121          50.000    21957603.938 8  89912726.105 8     -1722.952          50.000
R15  21105439.344 8 112781027.735 8     -3635.277          49.000    21105442.578 7  87718590.821 7     -2827.438          45.000
R16  19319751.844 7 103202658.301 7       209.770          46.000    19319755.016 7  80268737.026 7       163.154          44.000
R18  19257470.008 7 102797786.269 7      -287.746          44.000    19257473.945 7  79953829.442 7      -223.803          42.000
R19  21261204.023 6 113733113.755 6      2895.078          38.000    21261205.531 7  88459092.332 7      2251.730          42.000
C05  39622719.633 5 206325897.494 5        15.375          34.000    39622720.375 5 159544275.343 5        11.632          35.000
C29  21519271.555 8 112056592.597 8       135.715          51.000
E01  23990065.289 8 126068645.789 8     -1384.719          51.000    23990067.383 8  96598052.077 8     -1061.012          51.000
E21  27603196.711 7 145055721.588 7     -2919.508          42.000    27603203.508 7 111146597.977 7     -2236.936          43.000
E26  22839529.203 8 120022517.052 8     -1213.727          51.000    22839532.375 8  91965345.475 8      -929.944          51.000
E33  24007637.375 8 126160993.923 8      1482.117          51.000    24007636.453 8  96668842.814 8      1135.666          51.000
> 2020 05 08 13 15 30.0000000  0 15        .000000000000
G18  20447413.172 8 107451915.773 8       890.344          51.000    20447414.078 8  83728744.911 8       693.774          50.000
G25  23743020.062 7 124770383.123 7     -3342.910          45.000    23743023.016 7  97223702.613 7     -2604.868          45.000
G29  21650942.203 6 113776427.419 6     -2212.133          38.000    21650942.156 6  88656979.276 6     -1723.743          39.000
G31  21970268.422 8 115454537.178 8     -2226.129          48.000    21970268.914 8  89964587.421 8     -1734.649          48.000
R15  21125889.391 8 112890310.744 8     -3650.477          50.000    21125893.797 8  87803588.738 8     -2839.260          48.000
R16  19318645.516 7 103196748.970 7       183.793          46.000    19318648.961 7  80264140.857 7       142.950          44.000
R18  19259139.852 7 102806699.750 7      -306.652          45.000    19259143.680 7  79960762.130 7      -238.507          42.000
R19  21245005.125 6 113646466.532 6      2881.062          36.000    21245007.852 7  88391700.064 7      2240.826          43.000
C05  39622633.789 5 206325450.475 5        14.871          35.000    39622634.461 6 159543929.687 6        11.240          36.000
C29  21518520.695 8 112052681.696 8       124.656          51.000
C30  23543104.242 5 122595136.002 5     -2402.930          32.000
E01  23998003.125 8 126110357.102 8     -1396.379          51.000    23998005.164 8  96630012.678 8     -1069.953          51.000
E21  27619874.070 7 145143361.881 7     -2923.715          42.000    27619882.766 7 111213750.808 7     -2240.150          46.000
E26  22846486.023 8 120059075.621 8     -1223.926          51.000    22846489.234 8  91993357.875 8      -937.762          51.000
E33  23999206.602 8 126116691.623 8      1470.977          51.000    23999205.859 8  96634896.916 8      1127.160          51.000
> 2020 05 08 13 16  0.0000000  0 15        .000000000000
G18  20442382.953 8 107425482.401 8       871.605          50.000    20442383.664 8  83708147.512 8       679.173          50.000
G25  23762117.516 7 124870741.581 7     -3348.070          45.000    23762120.477 7  97301903.947 7     -2608.889          45.000
G29  21663589.734 5 113842893.251 5     -2218.793          33.000    21663591.883 5  88708770.830 5     -1728.933          33.000
G31  21983015.969 7 115521527.365 7     -2240.215          47.000    21983016.258 7  90016787.526 7     -1745.625          47.000
R15  21146423.133 8 113000035.274 8     -3664.750          51.000    21146428.039 8  87888930.032 8     -2850.361          48.000
R16  19317684.242 7 103191612.747 7       158.406          47.000    19317687.531 7  80260146.012 7       123.202          44.000
R18  19260913.984 7 102816171.672 7      -324.922          44.000    19260918.219 7  79968129.182 7      -252.714          43.000
R19  21228883.664 5 113560232.740 5      2867.500          35.000    21228887.680 7  88324629.308 7      2230.278          43.000
C05  39622549.219 5 206325010.835 5        15.012          35.000    39622550.086 5 159543589.726 5        11.345          35.000
C29  21517831.375 8 112049090.828 8       114.461          51.000
C30  23556956.219 5 122667277.675 5     -2406.609          31.000
E01  24006005.000 8 126152404.898 8     -1407.141          51.000    24006007.234 8  96662231.098 8     -1078.145          51.000
E21  27636573.422 7 145231115.813 7     -2926.789          42.000    27636583.016 7 111280990.773 7     -2242.775          46.000
E26  22853498.602 8 120095926.839 8     -1233.148          51.000    22853501.953 8  92021594.530 8      -944.895          51.000
E33  23990836.211 8 126072710.338 8      1460.758          51.000    23990836.250 8  96601196.986 8      1119.264          51.000
> 2020 05 08 13 16 30.0000000  0 14        .000000000000
G18  20437461.578 8 107399620.239 8       852.535          51.000    20437462.086 8  83687995.192 8       664.313          50.000
G25  23781246.938 7 124971267.148 7     -3353.672          45.000    23781249.742 7  97380235.472 7     -2613.254          45.000
G29  21676275.016 5 113909558.747 5     -2224.816          35.000    21676277.711 5  88760717.941 5     -1733.620          35.000
G31  21995845.516 8 115588947.422 8     -2254.496          48.000    21995845.609 8  90069322.568 8     -1756.750          48.000
R15  21167038.992 8 113110195.541 8     -3679.238          51.000    21167043.469 8  87974610.223 8     -2861.630          49.000
R16  19316867.469 7 103187247.934 7       132.637          47.000    19316870.398 7  80256751.158 7       103.162          44.000
R18  19262792.164 7 102826197.528 7      -343.352          45.000    19262796.406 7  79975927.056 7      -267.054          42.000
R19  21212840.578 6 113474411.068 6      2853.777          36.000    21212844.016 7  88257879.117 7      2219.605          42.000
C05  39622465.688 5 206324575.775 5        14.781          35.000    39622466.359 5 159543253.335 5        11.001          35.000
C29  21517202.625 8 112045816.655 8       103.891          51.000
E01  24014070.336 8 126194786.213 8     -1418.223          51.000    24014072.773 8  96694705.086 8     -1086.687          51.000
E21  27653294.141 7 145318979.716 7     -2930.660          42.000    27653303.273 7 111348314.988 7     -2245.523          46.000
E26  22860566.117 8 120133066.723 8     -1242.773          51.000    22860569.633 8  92050052.349 8      -952.216          51.000
E33  23982526.453 8 126029047.559 8      1450.152          51.000    23982527.523 8  96567741.099 8      1111.123          51.000
> 2020 05 08 13 17  0.0000000  0 15        .000000000000
G18  20432646.469 8 107374317.045 8       834.098          50.000    20432647.055 8  83668278.406 8       649.949          50.000
G25  23800405.625 7 125071945.874 7     -3358.512          45.000    23800408.734 7  97458686.309 7     -2617.028          45.000
G29  21688996.109 6 113976409.890 6     -2231.465          37.000    21688998.328 6  88812809.661 6     -1738.804          37.000
G31  22008754.383 8 115656782.312 8     -2268.133          51.000    22008754.344 8  90122180.865 8     -1767.376          51.000
R15  21187733.062 8 113220775.571 8     -3693.090          51.000    21187737.078 8  88060616.870 8     -2872.403          48.000
R16  19316192.703 7 103183642.766 7       107.391          47.000    19316195.219 7  80253947.116 7        83.526          44.000
R17  21319831.734 5 114086709.563 5     -3291.059          32.000
R18  19264771.508 7 102836762.855 7      -361.145          45.000    19264775.375 7  79984144.520 7      -280.890          42.000
R19  21196872.297 5 113388989.397 5      2840.598          35.000    21196874.469 6  88191440.094 6      2209.354          41.000
C05  39622380.891 5 206324132.824 5        15.109          35.000    39622381.297 5 159542909.772 5        11.623          35.000
C29  21516632.219 8 112042846.060 8        93.875          51.000
E01  24022196.312 8 126237488.231 8     -1428.695          51.000    24022199.094 8  96727424.798 8     -1094.667          51.000
E21  27670033.586 6 145406939.949 6     -2933.746          41.000    27670041.258 7 111415712.979 7     -2247.816          45.000
E26  22867685.852 8 120170481.344 8     -1251.668          51.000    22867689.375 8  92078720.697 8      -959.088          51.000
E33  23974275.641 8 125985690.761 8      1440.246          51.000    23974277.414 8  96534519.671 8      1103.526          51.000
> 2020 05 08 13 17 30.0000000  0 14        .000000000000
G18  20427932.328 8 107349545.352 8       813.078          49.000    20427933.273 8  83648975.802 8       633.567          49.000
G25  23819587.727 7 125172748.672 7     -3366.039          45.000    23819591.430 7  97537233.868 7     -2622.888          45.000
G29  21701747.391 5 114043417.587 5     -2240.043          34.000    21701750.141 5  88865023.456 5     -1745.494          32.000
G31  22021736.664 8 115725002.061 8     -2284.207          51.000    22021736.023 8  90175339.068 8     -1779.902          51.000
R15  21208499.672 8 113331744.154 8     -3709.211          50.000    21208503.078 7  88146925.717 7     -2884.945          46.000
R16  19315655.039 8 103180769.326 8        79.574          48.000    19315657.148 7  80251712.208 7        61.891          43.000
R18  19266846.625 7 102847837.521 7      -381.418          45.000    19266850.586 7  79992758.162 7      -296.655          42.000
R19  21180972.727 5 113303940.449 5      2824.516          35.000    21180975.398 7  88125290.943 7      2196.845          42.000
C05  39622289.133 5 206323654.379 5        12.387          35.000    39622289.523 6 159542540.769 6         9.977          36.000
C29  21516114.953 8 112040150.801 8        81.531          51.000
E01  24030377.578 8 126280482.888 8     -1441.875          51.000    24030380.750 8  96760368.726 8     -1104.795          51.000
E21  27686785.727 7 145494967.703 7     -2939.449          42.000    27686791.766 7 111483162.684 7     -2252.087          45.000
E26  22874852.438 8 120208141.560 8     -1263.223          51.000    22874855.688 8  92107577.225 8      -967.969          51.000
E33  23966078.359 8 125942612.384 8      1427.574          51.000    23966080.484 8  96501511.586 8      1093.802          51.000
> 2020 05 08 13 18  0.0000000  0 14        .000000000000
G18  20423343.336 8 107325430.107 8       795.793          51.000    20423344.188 8  83630184.692 8       620.095          51.000
G25  23838816.656 7 125273798.999 7     -3369.711          44.000    23838821.086 7  97615974.328 7     -2625.749          44.000
G29  21714552.641 5 114110743.838 5     -2244.031          32.000    21714555.539 5  88917474.798 5     -1748.593          32.000
G31  22034815.297 8 115793728.770 8     -2296.367          51.000    22034814.375 8  90228892.303 8     -1789.377          51.000
R15  21229361.633 8 113443224.840 8     -3721.477          49.000    21229364.500 7  88233632.852 7     -2894.485          43.000
R16  19315278.203 8 103178756.067 8        55.684          48.000    19315279.945 7  80250146.324 7        43.306          43.000
R18  19269040.055 7 102859546.370 7      -397.875          46.000    19269043.820 6  80001865.054 6      -309.461          41.000
R19  21165167.359 6 113219392.440 6      2813.445          38.000    21165171.039 7  88059531.390 7      2188.235          43.000
C05  39622214.211 5 206323266.013 5        14.035          35.000    39622214.656 5 159542238.899 5        11.306          35.000
C29  21515673.891 8 112037853.719 8        72.879          51.000
E01  24038638.438 8 126323894.534 8     -1450.988          51.000    24038641.445 8  96793632.165 8     -1111.763          51.000
E21  27703573.891 7 145583186.580 7     -2940.625          43.000    27703578.312 7 111550758.849 7     -2253.371          44.000
E26  22882089.258 8 120246170.784 8     -1270.746          51.000    22882092.367 8  92136716.499 8      -973.668          51.000
E33  23957957.992 8 125899937.181 8      1418.840          51.000    23957960.320 8  96468812.406 8      1087.130          51.000
> 2020 05 08 13 18 30.0000000  0 14        .000000000000
G18  20418849.742 8 107301815.212 8       777.035          51.000    20418850.305 8  83611783.485 8       605.482          51.000
G25  23858062.805 7 125374939.167 7     -3374.633          45.000    23858067.805 7  97694784.790 7     -2629.584          44.000
G29  21727381.367 5 114178154.900 5     -2250.980          33.000    21727384.945 5  88970002.868 5     -1754.008          34.000
G31  22047959.867 8 115862803.668 8     -2310.035          50.000    22047959.125 8  90282716.871 8     -1800.027          50.000
R15  21250289.148 8 113555055.456 8     -3735.375          49.000    21250290.336 6  88320612.095 6     -2905.295          40.000
R16  19315032.703 8 103177444.465 8        30.227          48.000    19315034.164 7  80249126.189 7        23.510          43.000
R18  19271322.422 7 102871728.808 7      -415.836          45.000    19271326.070 7  80011340.278 7      -323.425          43.000
R19  21149427.031 6 113135186.990 6      2799.555          38.000    21149430.164 7  87994038.310 7      2177.434          43.000
C05  39622126.250 5 206322808.112 5        14.355          35.000    39622127.000 6 159541886.227 6        11.430          36.000
C29  21515279.500 8 112035799.189 8        62.695          51.000
E01  24046949.109 8 126367566.532 8     -1461.812          51.000    24046951.461 8  96827095.110 8     -1120.111          51.000
E21  27720368.055 7 145671439.181 7     -2944.191          44.000    27720370.930 7 111618380.810 7     -2255.858          43.000
E26  22889366.297 8 120284411.231 8     -1279.879          51.000    22889369.445 8  92166017.640 8      -980.734          51.000
E33  23949884.641 8 125857508.853 8      1408.422          51.000    23949886.977 8  96436302.405 8      1079.192          51.000
> 2020 05 08 13 19  0.0000000  0 14        .000000000000
G18  20414472.945 8 107278814.327 8       758.547          51.000    20414473.398 8  83593860.726 8       591.079          51.000
G25  23877347.703 7 125476281.266 7     -3379.270          46.000    23877352.820 7  97773752.600 7     -2633.197          46.000
G29  21740254.805 5 114245807.141 5     -2256.848          34.000
G31  22061191.555 8 115932337.522 8     -2323.352          49.000    22061191.039 8  90336899.067 8     -1810.401          49.000
R15  21271303.258 8 113667348.264 8     -3748.711          49.000    21271303.172 7  88407950.831 7     -2915.664          43.000
R16  19314940.414 8 103176950.816 8         4.879          48.000    19314941.844 7  80248742.222 7         3.795          44.000
R18  19273714.516 7 102884498.287 7      -433.273          47.000    19273718.625 7  80021272.125 7      -336.990          43.000
R19  21133772.242 6 113051440.810 6      2785.820          39.000    21133774.438 7  87928902.436 7      2166.752          42.000
C05  39622047.172 5 206322395.678 5        15.008          35.000    39622048.180 6 159541568.697 6        11.345          36.000
C29  21514953.047 8 112034098.919 8        52.812          51.000
E01  24055330.797 8 126411611.968 8     -1472.438          51.000    24055332.766 8  96860844.183 8     -1128.243          51.000
E21  27737189.594 7 145759837.835 7     -2947.242          44.000    27737191.789 7 111686114.681 7     -2258.142          43.000
E26  22896704.898 8 120322975.019 8     -1288.910          51.000    22896707.891 8  92195566.502 8      -987.568          51.000
E33  23941879.672 8 125815440.967 8      1398.164          51.000    23941881.805 8  96404068.568 8      1071.347          51.000
> 2020 05 08 13 19 30.0000000  0 14        .000000000000
G18  20410195.391 8 107256334.828 8       738.879          51.000    20410195.445 8  83576344.229 8       575.750          51.000
G25  23896653.258 7 125577731.134 7     -3385.105          46.000    23896658.086 7  97852804.363 7     -2637.748          46.000
G29  21753154.938 5 114313594.073 5     -2263.230          35.000    21753155.859 5  89075531.136 5     -1763.556          34.000
G31  22074492.375 8 116002235.062 8     -2337.664          48.000    22074492.172 8  90391364.673 8     -1821.556          48.000
R15  21292385.273 8 113780005.630 8     -3763.023          48.000    21292386.391 7  88495573.194 7     -2926.796          45.000
R16  19314983.648 8 103177181.284 8       -21.484          48.000    19314985.234 7  80248921.446 7       -16.710          43.000
R18  19276198.656 7 102897758.324 7      -451.977          45.000    19276202.211 7  80031585.457 7      -351.534          43.000
R19  21118185.711 6 112968060.272 6      2771.637          38.000    21118187.148 7  87864050.917 7      2155.717          42.000
C05  39621959.250 5 206321938.067 5        14.777          35.000    39621960.297 6 159541215.059 6        10.965          36.000
C29  21514676.539 8 112032660.159 8        41.840          51.000
E01  24063765.820 8 126455937.679 8     -1483.832          51.000    24063767.859 8  96894808.004 8     -1136.929          51.000
E21  27754020.805 7 145848288.593 7     -2950.844          45.000    27754023.453 7 111753888.513 7     -2261.099          43.000
E26  22904087.031 8 120361767.935 8     -1298.633          51.000    22904089.703 8  92225290.925 8      -995.008          51.000
E33  23933925.242 8 125773640.722 8      1387.227          51.000    23933927.164 8  96372039.818 8      1062.904          51.000
> 2020 05 08 13 20  0.0000000  0 15        .000000000000
G18  20406032.000 8 107234455.403 8       719.980          51.000    20406031.719 8  83559295.336 8       561.021          51.000
G25  23915993.906 7 125679365.994 7     -3390.141          46.000    23915998.141 7  97932000.298 7     -2641.668          46.000
G29  21766096.164 6 114381599.587 6     -2268.965          36.000    21766094.969 6  89128522.468 6     -1768.025          36.000
G31  22087877.031 8 116072572.514 8     -2351.129          48.000    22087877.305 7  90446173.077 7     -1832.052          47.000
R15  21313549.914 8 113893104.143 8     -3776.570          50.000    21313552.234 7  88583538.694 7     -2937.336          45.000
R16  19315177.422 8 103178216.441 8       -47.203          48.000    19315178.961 7  80249726.554 7       -36.714          44.000
R18  19278789.508 7 102911587.139 7      -469.770          47.000    19278792.953 7  80042341.204 7      -365.379          44.000
R19  21102682.234 6 112885126.424 6      2757.918          38.000    21102683.852 7  87799546.823 7      2145.044          42.000
C05  39621877.250 5 206321511.545 5        14.367          35.000    39621878.352 6 159540884.456 6        11.046          36.000
C29  21514465.352 8 112031559.995 8        31.699          51.000
C30  23668580.539 4 123248479.913 4     -2438.234          29.000
E01  24072269.070 8 126500621.831 8     -1494.699          51.000    24072271.328 8  96929046.491 8     -1145.304          51.000
E21  27770876.594 7 145936868.944 7     -2954.082          45.000    27770880.602 7 111821761.664 7     -2263.470          43.000
E26  22911527.383 8 120400867.105 8     -1307.629          51.000    22911529.898 8  92255250.029 8     -1001.991          51.000
E33  23926036.656 8 125732186.713 8      1376.770          51.000    23926038.375 8  96340276.365 8      1054.933          51.000
> 2020 05 08 13 20 30.0000000  0 14        .000000000000
G18  20401977.336 8 107213148.112 8       698.949          51.000    20401977.023 8  83542692.281 8       544.636          50.000
G25  23935363.938 7 125781156.351 7     -3397.340          44.000    23935367.820 7  98011317.412 7     -2647.278          43.000
G31  22101340.086 8 116143319.357 8     -2366.773          49.000    22101340.383 8  90501300.467 8     -1844.239          49.000
R15  21334791.492 8 114006612.224 8     -3792.152          51.000    21334793.766 7  88671822.684 7     -2949.455          43.000
R16  19315516.586 7 103180028.545 7       -75.105          47.000    19315518.375 7  80251135.956 7       -58.415          44.000
R18  19281480.859 7 102925953.842 7      -489.625          45.000    19281484.156 7  80053515.333 7      -380.816          43.000
R19  21087256.742 6 112802611.500 6      2741.852          36.000    21087258.695 6  87735368.561 6      2132.551          41.000
C05  39621795.727 5 206321087.168 5        12.207          35.000    39621796.812 6 159540557.269 6         9.460          36.000
C29  21514313.781 8 112030769.874 8        19.438          51.000
C30  23682631.922 4 123321709.222 4     -2444.180          28.000
E01  24080834.938 8 126545635.974 8     -1507.770          51.000    24080837.266 8  96963537.842 8     -1155.370          51.000
E21  27787751.633 7 146025549.692 7     -2959.590          46.000    27787757.414 7 111889711.763 7     -2267.666          42.000
E26  22919020.352 8 120440243.132 8     -1318.988          51.000    22919023.016 8  92285421.257 8     -1010.647          51.000
E33  23918208.805 8 125691050.888 8      1364.055          51.000    23918210.211 8  96308756.737 8      1045.173          51.000
> 2020 05 08 13 21  0.0000000  0 14        .000000000000
G18  20398039.312 8 107192453.367 8       681.258          51.000    20398038.719 8  83526566.505 8       530.850          49.000
G25  23954770.758 7 125883141.197 7     -3401.195          42.000    23954774.828 7  98090786.065 7     -2650.282          43.000
G31  22114888.430 8 116214513.128 8     -2378.887          51.000    22114888.094 8  90556776.103 8     -1853.681          51.000
R15  21356116.938 8 114120567.474 8     -3804.219          51.000    21356117.938 7  88760454.426 7     -2958.840          42.000
R16  19316008.602 7 103182659.256 7       -99.691          47.000    19316010.594 7  80253182.046 7       -77.538          44.000
R18  19284280.469 7 102940897.724 7      -506.051          45.000    19284283.328 7  80065138.332 7      -393.595          43.000
R19  21071916.742 6 112720557.190 6      2728.914          36.000    21071918.688 6  87671548.599 6      2122.492          40.000
C05  39621722.680 5 206320705.853 5        13.523          35.000    39621723.586 6 159540261.413 6        10.593          36.000
C29  21514229.055 8 112030328.932 8        10.547          51.000
C30  23696711.844 5 123395010.170 5     -2446.547          32.000
E01  24089470.859 8 126591019.959 8     -1517.289          51.000    24089473.445 8  96998312.585 8     -1162.586          51.000
E21  27804653.648 7 146114370.035 7     -2961.363          46.000    27804660.734 6 111957768.854 6     -2269.094          40.000
E26  22926573.367 8 120479934.861 8     -1326.656          51.000    22926576.328 8  92315834.380 8     -1016.550          51.000
E33  23910449.031 8 125650273.540 8      1354.930          51.000    23910450.328 8  96277511.783 8      1038.202          51.000
> 2020 05 08 13 21 30.0000000  0 14        .000000000000
G18  20394203.430 8 107172297.106 8       662.660          51.000    20394203.133 8  83510860.354 8       516.362          49.000
G25  23974200.117 6 125985245.043 6     -3405.945          41.000    23974205.086 6  98170347.415 6     -2653.986          41.000
G31  22128507.180 8 116286077.518 8     -2391.906          51.000    22128505.742 8  90612540.498 8     -1863.823          51.000
R15  21377511.086 8 114234891.285 8     -3817.305          51.000    21377512.516 7  88849372.826 7     -2969.018          43.000
R16  19316640.023 7 103186033.421 7      -125.145          47.000    19316642.164 7  80255806.395 7       -97.335          44.000
R18  19287173.305 7 102956341.365 7      -523.430          44.000    19287176.648 7  80077150.065 7      -407.112          43.000
R19  21056648.867 6 112638888.964 6      2715.586          37.000    21056651.531 6  87608028.906 6      2112.122          40.000
C05  39621643.531 5 206320294.947 5        13.898          35.000    39621644.555 6 159539943.861 6        10.581          36.000
C29  21514197.250 8 112030162.984 8          .637          51.000
C30  23710809.109 6 123468441.530 6     -2449.348          36.000
E01  24098162.742 8 126636699.263 8     -1527.820          51.000    24098165.906 8  97033313.618 8     -1170.688          51.000
E21  27821568.617 7 146203254.703 7     -2964.199          47.000    27821576.312 6 112025875.262 6     -2271.389          41.000
E26  22934172.078 8 120519866.736 8     -1335.281          51.000    22934175.219 8  92346431.514 8     -1023.126          51.000
E33  23902742.961 8 125609780.490 8      1344.766          51.000    23902744.836 8  96246484.674 8      1030.432          51.000
> 2020 05 08 13 22  0.0000000  0 15        .000000000000
G18  20390474.852 8 107152704.787 8       646.949          51.000    20390474.719 8  83495593.615 8       504.116          49.000
G25  23993656.914 6 126087491.860 6     -3407.660          41.000    23993662.430 6  98250020.215 6     -2655.320          41.000
G29  21818221.781 5 114655527.533 5     -2291.188          34.000
G31  22142200.508 8 116358034.844 8     -2401.734          51.000    22142198.172 8  90668611.076 8     -1871.481          51.000
R15  21398978.289 8 114349606.157 8     -3827.008          51.000    21398981.477 7  88938595.468 7     -2976.562          46.000
R16  19317415.570 7 103190177.821 7      -147.695          45.000    19317417.930 7  80259029.789 7      -114.877          44.000
R18  19290164.266 7 102972308.540 7      -537.480          44.000    19290167.867 7  80089568.968 7      -418.040          43.000
R19  21041459.484 6 112557633.916 6      2705.090          38.000    21041462.656 6  87544830.554 6      2103.959          41.000
C05  39621563.273 5 206319876.586 5        17.195          35.000    39621564.273 6 159539621.113 6        13.248          36.000
C29  21514222.820 8 112030296.400 8        -6.188          51.000
C30  23724926.773 5 123541975.337 5     -2449.473          33.000
E01  24106915.609 8 126682698.885 8     -1535.398          51.000    24106919.375 8  97068560.083 8     -1176.522          51.000
E21  27838500.914 7 146292227.955 7     -2964.031          47.000    27838508.828 6 112094049.496 6     -2271.126          41.000
E26  22941821.078 8 120560062.754 8     -1341.086          51.000    22941824.141 8  92377231.046 8     -1027.519          51.000
E33  23895096.094 8 125569597.194 8      1337.480          51.000    23895098.352 8  96215694.893 8      1024.865          51.000
> 2020 05 08 13 22 30.0000000  0 15        .000000000000
G18  20386839.859 8 107133603.343 8       624.637          50.000    20386839.875 8  83480709.370 8       486.730          50.000
G25  24013126.984 7 126189807.082 7     -3415.352          42.000    24013132.602 7  98329746.289 7     -2661.316          43.000
G29  21831330.461 4 114724387.304 4     -2300.637          28.000    21831327.281 4  89395642.174 4     -1792.704          29.000
G31  22155953.820 8 116430309.564 8     -2418.379          51.000    22155951.430 8  90724929.012 8     -1884.451          51.000
R15  21420504.219 8 114464634.431 8     -3843.410          50.000    21420508.703 8  89028061.915 8     -2989.319          48.000
R16  19318321.453 7 103195018.342 7      -177.090          46.000    19318323.875 7  80262794.629 7      -137.737          44.000
R17  21524740.914 5 115183235.759 5     -3353.816          31.000
R18  19293239.211 7 102988723.234 7      -558.730          43.000    19293243.086 7  80102335.914 7      -434.568          43.000
R19  21026333.570 6 112476718.077 6      2687.438          38.000    21026336.500 6  87481896.057 6      2090.229          41.000
C05  39621468.148 5 206319381.197 5        14.297          35.000    39621469.125 5 159539237.011 5        11.303          35.000
C29  21514291.758 8 112030655.942 8       -19.625          51.000
E01  24115715.922 8 126728945.239 8     -1549.547          51.000    24115719.742 8  97103995.588 8     -1187.327          51.000
E21  27855436.039 7 146381215.537 7     -2970.371          45.000    27855443.625 7 112162234.672 7     -2275.918          42.000
E26  22949506.227 8 120600448.402 8     -1353.211          51.000    22949509.133 8  92408175.872 8     -1036.861          51.000
E33  23887494.414 8 125529650.513 8      1323.770          51.000    23887496.867 8  96185086.396 8      1014.299          51.000
> 2020 05 08 13 23  0.0000000  0 16        .000000000000
G18  20383320.180 8 107115108.616 8       606.270          50.000    20383320.539 8  83466297.920 8       472.418          50.000
G25  24032632.016 7 126292305.227 7     -3419.512          43.000    24032637.031 7  98409614.911 7     -2664.555          43.000
G29  21844470.984 5 114793481.390 5     -2306.289          33.000    21844479.109 5  89449456.185 5     -1797.108          35.000
G31  22169788.695 8 116503015.094 8     -2430.809          50.000    22169787.289 8  90781582.661 8     -1894.137          50.000
R15  21442110.953 8 114580090.553 8     -3855.715          51.000    21442115.688 7  89117861.125 7     -2998.889          47.000
R16  19319380.086 7 103200673.484 7      -202.137          46.000    19319382.430 7  80267193.066 7      -157.214          45.000
R17  21543593.773 5 115284105.546 5     -3359.051          32.000
R18  19296419.344 7 103005700.917 7      -575.328          44.000    19296423.602 7  80115540.767 7      -447.477          43.000
R19  21011292.438 6 112396260.366 6      2674.023          37.000    21011294.492 6  87419317.888 6      2079.799          39.000
C05  39621380.094 5 206318922.480 5        14.590          35.000    39621380.977 6 159538882.351 6        11.152          36.000
C29  21514426.062 8 112031355.625 8       -29.145          51.000
C30  23753254.242 5 123689308.267 5     -2459.691          35.000
E01  24124585.461 8 126775553.801 8     -1559.750          51.000    24124588.836 8  97139708.620 8     -1195.154          51.000
E21  27872395.727 7 146470332.215 7     -2972.785          43.000    27872402.234 6 112230518.759 6     -2277.833          41.000
E26  22957249.266 8 120641138.116 8     -1361.488          51.000    22957252.156 8  92439353.695 8     -1043.254          51.000
E33  23879959.641 8 125490056.281 8      1313.848          51.000    23879962.320 8  96154747.965 8      1006.673          51.000
> 2020 05 08 13 23 30.0000000  0 15        .000000000000
G18  20379927.461 8 107097279.579 8       586.031          51.000    20379927.695 8  83452405.166 8       456.648          49.000
G25  24052182.859 7 126395043.981 7     -3425.867          43.000    24052187.039 7  98489671.007 7     -2669.510          43.000
G29  21857668.289 5 114862821.973 5     -2313.195          34.000    21857665.969 5  89503494.834 5     -1802.490          33.000
G31  22183716.305 8 116576207.615 8     -2444.863          51.000    22183716.383 8  90838615.799 8     -1905.088          51.000
R15  21463808.195 8 114696031.495 8     -3869.840          51.000    21463812.914 7  89208037.373 7     -3009.878          45.000
R16  19320602.367 7 103207203.366 7      -229.340          45.000    19320605.320 7  80272271.845 7      -178.375          45.000
R18  19299716.289 7 103023299.271 7      -593.953          46.000    19299720.164 7  80129228.365 7      -461.964          43.000
R19  20996348.766 6 112316321.587 6      2658.777          38.000    20996350.219 6  87357143.339 6      2067.938          40.000
C05  39621310.188 5 206318559.329 5        13.855          35.000    39621311.250 6 159538601.133 6        10.367          36.000
C29  21514636.883 8 112032453.137 8       -40.332          51.000
C30  23767450.539 6 123763213.048 6     -2464.117          37.000
E01  24133535.102 8 126822583.054 8     -1571.707          51.000    24133537.742 8  97175743.960 8     -1204.295          50.000
E21  27889390.602 6 146559635.762 6     -2976.863          41.000    27889395.508 6 112298945.997 6     -2281.003          38.000
E26  22965061.023 8 120682189.450 8     -1371.410          51.000    22965064.102 8  92470808.595 8     -1050.794          51.000
E33  23872503.383 8 125450873.418 8      1302.219          51.000    23872505.930 8  96124724.726 8       997.786          51.000
> 2020 05 08 13 24  0.0000000  0 16        .000000000000
G18  20376634.375 8 107079974.108 8       568.574          51.000    20376634.625 8  83438920.393 8       443.045          51.000
G21  20678517.172 8 108666339.559 8       193.648          51.000    20678516.242 8  84675062.770 8       150.898          50.000
G25  24071752.023 7 126497879.752 7     -3428.895          43.000    24071755.383 7  98569802.674 7     -2671.866          43.000
G29  21870889.617 6 114932309.135 6     -2317.809          36.000    21870891.750 4  89557641.604 4     -1806.085          29.000
G31  22197709.242 8 116649742.627 8     -2456.363          51.000    22197710.523 8  90895915.817 8     -1914.049          51.000
R15  21485568.188 8 114812309.367 8     -3880.988          51.000    21485571.586 6  89298475.634 6     -3018.553          41.000
R16  19321961.484 7 103214464.116 7      -253.586          45.000    19321964.805 7  80277919.080 7      -197.234          45.000
R18  19303101.914 7 103041372.051 7      -609.871          45.000    19303106.000 7  80143284.988 7      -474.341          43.000
R19  20981475.438 6 112236757.746 6      2646.715          37.000    20981477.188 6  87295260.364 6      2058.556          40.000
C05  39621231.562 5 206318149.364 5        14.648          35.000    39621232.703 6 159538284.446 6        11.671          36.000
C29  21514896.750 8 112033806.875 8       -48.875          51.000
C30  23781652.617 6 123837175.473 6     -2465.855          37.000
E01  24142537.688 8 126869890.481 8     -1581.074          51.000    24142539.242 8  97211992.421 8     -1211.478          49.000
E21  27906393.266 6 146648982.947 6     -2978.203          39.000    27906396.227 5 112367406.731 5     -2282.344          34.000
E26  22972914.242 8 120723458.865 8     -1378.738          51.000    22972917.508 8  92502430.618 8     -1056.469          51.000
E33  23865098.789 8 125411959.770 8      1293.102          51.000    23865100.781 8  96094907.777 8       990.830          51.000
> 2020 05 08 13 24 30.0000000  0 16        .000000000000
G18  20373446.727 8 107063222.212 8       549.121          51.000    20373447.109 8  83425866.966 8       427.887          51.000
G21  20677462.883 8 108660798.483 8       176.777          50.000    20677462.273 8  84670745.055 8       137.749          50.000
G25  24091344.773 6 126600841.195 6     -3434.047          41.000    24091347.828 6  98650032.276 6     -2675.884          41.000
G29  21884144.680 5 115001952.422 5     -2324.164          35.000    21884143.086 5  89611909.308 5     -1811.049          34.000
G31  22211772.844 8 116723647.504 8     -2469.629          51.000    22211774.789 8  90953504.012 8     -1924.386          51.000
R15  21507395.484 8 114928951.244 8     -3894.062          50.000    21507397.047 6  89389196.898 6     -3028.724          41.000
R16  19323463.523 7 103222486.218 7      -279.953          45.000    19323466.734 7  80284158.502 7      -217.741          45.000
R18  19306582.031 7 103059947.880 7      -627.633          46.000    19306585.945 7  80157732.835 7      -488.162          43.000
R19  20966676.836 5 112157600.378 5      2631.418          35.000    20966679.766 6  87233693.502 6      2046.655          40.000
C05  39621149.609 5 206317722.608 5        14.527          35.000    39621150.945 6 159537956.222 6        11.279          36.000
C29  21515211.375 8 112035445.853 8       -59.375          51.000
C30  23795871.234 6 123911224.224 6     -2469.684          36.000
E01  24151598.750 8 126917505.632 8     -1592.289          51.000    24151599.477 8  97248476.680 8     -1220.066          50.000
E21  27923409.086 5 146738402.687 5     -2981.578          34.000    27923408.867 5 112435922.975 5     -2284.762          32.000
E26  22980814.508 8 120764975.039 8     -1387.973          51.000    22980817.742 8  92534241.699 8     -1063.532          51.000
E33  23857751.273 8 125373345.390 8      1282.152          51.000    23857752.109 8  96065320.154 8       982.351          51.000
> 2020 05 08 13 25  0.0000000  0 15        .000000000000
G18  20370369.953 8 107047053.076 8       529.035          51.000    20370370.281 8  83413267.659 8       412.238          51.000
G21  20676504.031 8 108655760.298 8       159.254          50.000    20676503.359 8  84666819.222 8       124.094          50.000
G25  24110966.320 6 126703956.265 6     -3440.160          41.000    24110969.672 6  98730381.610 6     -2680.647          40.000
G29  21897433.586 6 115071784.763 6     -2330.914          37.000    21897436.844 6  89666323.972 6     -1816.297          36.000
G31  22225912.180 8 116797948.812 8     -2483.695          51.000    22225913.453 8  91011401.107 8     -1935.347          51.000
R15  21529296.141 8 115045983.699 8     -3907.934          51.000    21529298.875 7  89480222.037 7     -3039.504          46.000
R16  19325113.695 7 103231300.225 7      -307.457          45.000    19325116.820 7  80291013.858 7      -239.133          44.000
R18  19310161.391 7 103079054.379 7      -646.137          44.000    19310165.633 7  80172593.484 7      -502.548          42.000
R19  20951960.320 6 112078880.239 6      2616.316          36.000    20951963.695 6  87172466.731 6      2034.913          39.000
C05  39621070.281 5 206317309.589 5        13.434          34.000    39621071.672 6 159537636.852 6        10.506          36.000
C29  21515586.344 8 112037398.300 8       -70.656          51.000
E01  24160723.531 8 126965457.302 8     -1604.266          51.000    24160724.461 8  97285218.835 8     -1229.284          51.000
E21  27940443.961 5 146828024.138 5     -2985.508          31.000    27940439.422 5 112504574.386 5     -2288.154          32.000
E26  22988766.914 8 120806765.852 8     -1397.832          51.000    22988770.234 8  92566263.233 8     -1071.081          51.000
E33  23850466.031 8 125335059.454 8      1270.457          51.000    23850465.430 8  96035984.199 8       973.461          51.000
> 2020 05 08 13 25 30.0000000  0 16        .000000000000
G18  20367402.484 8 107031458.563 8       510.727          51.000    20367402.734 8  83401116.083 8       397.969          51.000
G21  20675639.328 8 108651215.785 8       143.910          51.000    20675638.500 8  84663278.041 8       112.138          50.000
G25  24130615.531 7 126807215.346 7     -3443.812          42.000    24130619.562 7  98810843.156 7     -2683.490          42.000
G29  21910756.695 5 115141797.219 5     -2336.273          30.000    21910754.938 5  89720879.060 5     -1820.476          31.000
G31  22240125.188 8 116872636.099 8     -2495.383          51.000    22240123.641 8  91069598.939 8     -1944.454          51.000
R15  21551268.289 8 115163395.163 8     -3919.355          51.000    21551272.016 8  89571541.991 8     -3048.391          48.000
R16  19326910.742 7 103240897.958 7      -332.426          46.000    19326913.469 7  80298478.752 7      -258.553          44.000
R18  19313838.367 7 103098681.183 7      -662.418          46.000    19313842.211 6  80187858.767 6      -515.214          41.000
R19  20937325.156 6 112000589.754 6      2602.945          37.000    20937328.133 6  87111574.168 6      2024.516          40.000
C05                                                                  39620993.297 6 159537321.081 6        10.614          36.000
C29  21516019.648 8 112039655.358 8       -79.684          51.000
C30  23824347.695 5 124059628.572 5     -2476.137          31.000
E01  24169910.578 8 127013736.927 8     -1614.301          51.000    24169912.359 8  97322212.312 8     -1236.905          51.000
E21                                                                  27957488.406 5 112573220.795 5     -2289.273          30.000
E26  22996769.711 8 120848821.731 8     -1405.734          51.000    22996773.297 8  92598487.866 8     -1077.118          51.000
E33  23843241.430 8 125297093.858 8      1260.699          51.000    23843239.961 8  96006893.681 8       965.993          51.000
> 2020 05 08 13 26  0.0000000  0 15        .000000000000
G18  20364544.086 8 107016437.883 8       490.641          51.000    20364544.617 8  83389411.665 8       382.317          51.000
G21  20674868.258 8 108647163.427 8       126.316          50.000    20674867.359 8  84660120.363 8        98.428          50.000
G25  24150292.531 7 126910616.516 7     -3449.816          44.000    24150296.578 7  98891415.428 7     -2688.172          44.000
G31  22254410.805 8 116947705.676 8     -2509.199          50.000    22254406.562 8  91128094.614 8     -1955.223          50.000
R15  21573310.438 8 115281181.659 8     -3933.020          48.000    21573314.930 8  89663153.637 8     -3059.015          49.000
R16  19328854.617 7 103251278.743 7      -359.660          46.000    19328856.727 7  80306552.665 7      -279.739          44.000
R17  21657098.531 5 115891462.444 5     -3388.758          31.000
R18  19317612.273 7 103118825.732 7      -680.730          45.000    19317615.938 6  80203526.754 6      -529.457          41.000
R19  20922770.328 6 111922728.942 6      2587.746          37.000    20922773.766 6  87051015.806 6      2012.691          40.000
C05  39620914.344 5 206316497.246 5        13.324          35.000    39620915.594 6 159537008.270 6        10.264          36.000
C29  21516511.367 8 112042215.689 8       -90.918          51.000
C30  23838632.070 5 124133999.772 5     -2480.602          31.000
E01  24179159.969 8 127062343.387 8     -1626.223          50.000    24179162.680 8  97359456.243 8     -1246.082          51.000
E26  23004822.758 8 120891140.660 8     -1415.621          51.000    23004826.453 8  92630914.042 8     -1084.667          51.000
E33  23836077.211 8 125259447.877 8      1249.016          51.000    23836076.227 8  95978048.059 8       957.044          51.000
> 2020 05 08 13 26 30.0000000  0 15        .000000000000
G18  20361794.297 8 107001987.896 8       471.352          51.000    20361794.922 8  83378151.924 8       367.287          50.000
G21  20674190.094 8 108643600.002 8       109.922          50.000    20674189.234 8  84657343.689 8        85.653          50.000
G25  24169995.961 7 127014155.290 7     -3454.277          45.000    24169999.336 7  98972094.927 7     -2691.645          45.000
G29  21937502.891 5 115282352.487 5     -2349.426          35.000    21937501.969 5  89830408.309 5     -1830.718          35.000
G31  22268767.531 8 117023152.172 8     -2522.023          48.000    22268763.047 8  91186884.015 8     -1965.216          48.000
R15  21595419.156 6 115399336.595 6     -3945.469          39.000    21595426.289 8  89755051.929 8     -3068.695          49.000
R16  19330944.469 7 103262440.367 7      -385.734          47.000    19330945.891 7  80315233.900 7      -300.016          44.000
R18  19321482.305 7 103139482.702 7      -697.859          45.000    19321486.055 6  80219593.299 6      -542.780          41.000
R19  20908295.398 6 111845295.413 6      2573.488          36.000    20908299.008 6  86990789.750 6      2001.605          39.000
C05  39620836.828 5 206316093.101 5        12.926          35.000    39620838.203 6 159536696.145 6         9.895          36.000
C29  21517060.594 8 112045075.409 8      -100.996          51.000
E01  24188471.148 8 127111273.184 8     -1637.098          51.000    24188474.523 8  97396947.912 8     -1254.376          51.000
E21                                                                  27991644.750 5 112710751.485 5     -2294.658          32.000
E26  23012925.008 8 120933718.179 8     -1424.258          51.000    23012928.789 8  92663538.365 8     -1091.314          51.000
E33  23828972.859 8 125222118.335 8      1238.348          51.000    23828973.211 8  95949444.937 8       948.843          51.000
> 2020 05 08 13 27  0.0000000  0 15        .000000000000
G18  20359153.055 8 106988109.083 8       452.957          50.000    20359154.078 8  83367337.277 8       352.957          50.000
G21  20673605.133 8 108640525.357 8        94.277          50.000    20673604.000 8  84654947.844 8        73.463          50.000
G25  24189725.289 7 127117830.986 7     -3458.191          45.000    24189727.719 7  99052881.095 7     -2694.698          45.000
G29  21950925.969 6 115352891.609 6     -2354.238          36.000    21950928.219 6  89885373.796 6     -1834.471          36.000
G31  22283195.141 8 117098973.430 8     -2533.844          48.000    22283191.953 8  91245965.488 8     -1974.424          48.000
R15  21617596.219 7 115517857.411 7     -3956.891          45.000    21617605.797 8  89847234.834 8     -3077.582          48.000
R16  19333180.180 7 103274383.170 7      -411.254          47.000    19333182.016 7  80324522.708 7      -319.867          45.000
R18  19325447.930 7 103160650.665 7      -714.363          43.000    19325451.938 6  80236057.275 6      -555.616          41.000
R19  20893900.758 6 111768290.968 6      2559.531          38.000    20893903.406 6  86930897.420 6      1990.747          38.000
C05  39620759.508 5 206315690.863 5        13.176          34.000    39620761.180 6 159536385.083 6        10.515          36.000
C29  21517667.141 8 112048234.412 8      -110.355          51.000
E01  24197844.141 8 127160526.553 8     -1647.293          51.000    24197847.703 8  97434687.482 8     -1262.191          51.000
E21                                                                  28008751.227 6 112779614.227 6     -2296.585          37.000
E26  23021076.242 8 120976553.544 8     -1432.254          51.000    23021080.164 8  92696360.268 8     -1097.417          51.000
E33  23821929.344 8 125185105.937 8      1228.352          51.000    23821930.477 8  95921084.796 8       941.213          51.000
> 2020 05 08 13 27 30.0000000  0 13        .000000000000
G18  20356621.016 8 106974803.944 8       433.047          50.000    20356622.359 8  83356969.624 8       337.436          50.000
G21  20673113.297 8 108637940.855 8        76.996          49.000    20673112.203 8  84652933.944 8        60.000          49.000
G25  24209480.656 7 127221644.764 7     -3463.590          45.000    24209481.852 7  99133774.837 7     -2698.904          45.000
G31  22297694.336 8 117175169.671 8     -2547.059          48.000    22297692.445 8  91305339.129 8     -1984.724          48.000
R15  21639845.516 8 115636743.594 8     -3969.773          49.000    21639853.195 7  89939701.792 7     -3087.605          46.000
R16  19335562.359 7 103287109.849 7      -438.332          46.000    19335564.883 7  80334421.234 7      -340.925          45.000
R18  19329509.336 7 103182330.339 7      -732.082          42.000    19329513.039 6  80252919.270 6      -569.397          41.000
R19  20879587.055 6 111691718.649 6      2544.195          37.000    20879587.820 6  86871341.190 6      1978.819          38.000
C05  39620682.828 5 206315291.536 5        12.156          35.000    39620684.828 6 159536077.089 6         9.373          36.000
C29  21518331.711 8 112051694.574 8      -121.289          51.000
E01  24207279.281 8 127210105.496 8     -1659.027          51.000    24207282.844 8  97472676.517 8     -1271.263          51.000
E26  23029276.805 8 121019647.975 8     -1441.785          51.000    23029280.859 8  92729380.674 8     -1104.798          51.000
E33  23814946.961 8 125148413.137 8      1216.785          51.000    23814948.516 8  95892969.532 8       932.318          51.000
> 2020 05 08 13 28  0.0000000  0 14        .000000000000
G18  20354197.836 8 106962070.818 8       415.770          49.000    20354199.320 8  83347047.710 8       323.976          49.000
G21  20672714.164 8 108635844.380 8        62.555          49.000    20672713.188 8  84651300.343 8        48.744          49.000
G25  24229261.562 7 127325593.861 7     -3466.309          44.000    24229262.438 7  99214773.996 7     -2701.023          44.000
G29  21977871.305 6 115494515.315 6     -2365.090          36.000    21977875.594 5  89995709.828 5     -1842.924          35.000
G31  22312264.562 8 117251736.603 8     -2557.531          49.000    22312263.617 8  91365001.633 8     -1992.881          49.000
R15  21662162.492 8 115755990.134 8     -3980.059          49.000    21662167.984 7  90032448.990 7     -3095.604          45.000
R16  19338090.859 7 103300619.339 7      -462.398          46.000    19338094.352 7  80344928.615 7      -359.643          45.000
R18  19333665.930 7 103204518.010 7      -747.305          42.000    19333668.875 6  80270176.334 6      -581.237          40.000
R19  20865353.398 6 111615577.749 6      2531.875          36.000    20865353.758 6  86812120.527 6      1969.239          39.000
C05  39620606.789 5 206314896.038 5        14.477          35.000    39620608.789 6 159535770.901 6        10.699          36.000
C29  21519053.414 8 112055453.625 8      -129.418          51.000
E01  24216775.938 8 127260008.124 8     -1667.969          51.000    24216779.289 8  97510913.572 8     -1278.042          51.000
E26  23037526.297 8 121062998.631 8     -1448.422          51.000    23037530.195 8  92762597.405 8     -1109.827          51.000
E33  23808025.031 8 125112038.433 8      1207.973          51.000    23808027.203 8  95865098.025 8       925.655          51.000
> 2020 05 08 13 28 30.0000000  0 14        .000000000000
G18  20351882.789 8 106949905.383 8       395.922          51.000    20351884.484 8  83337568.152 8       308.511          50.000
G21  20672406.930 8 108634230.884 8        45.609          48.000    20672405.719 8  84650043.050 8        35.537          48.000
G25  24249067.023 7 127429672.617 7     -3471.688          44.000    24249068.578 7  99295874.231 7     -2705.214          45.000
G29  21991391.547 5 115565570.286 5     -2371.465          32.000    21991394.094 5  90051077.238 5     -1847.904          30.000
G31  22326904.336 8 117328667.197 8     -2570.543          51.000    22326904.188 8  91424947.504 8     -2003.020          51.000
R15  21684545.047 7 115875589.698 7     -3992.582          47.000    21684549.266 7  90125470.756 7     -3105.345          45.000
R16  19340765.516 7 103314907.246 7      -489.336          47.000    19340769.289 7  80356041.409 7      -380.595          45.000
R18  19337916.297 7 103227207.348 7      -764.738          42.000    19337919.336 6  80287823.597 6      -594.796          41.000
R19  20851199.609 6 111539864.579 6      2516.863          36.000    20851200.367 6  86753232.522 6      1957.560          40.000
C05  39620530.398 5 206314497.840 5        12.793          35.000    39620532.258 6 159535465.317 6        10.330          36.000
C29  21519831.602 8 112059506.688 8      -140.137          51.000
E01  24226333.047 8 127310229.774 8     -1679.535          51.000    24226336.031 8  97549395.057 8     -1286.923          51.000
E26  23045823.469 8 121106599.911 8     -1457.688          51.000    23045827.031 8  92796006.168 8     -1116.944          51.000
E33  23801163.094 8 125075977.566 8      1196.656          51.000    23801165.516 8  95837466.997 8       916.888          51.000
> 2020 05 08 13 29  0.0000000  0 15        .000000000000
G18  20349673.039 8 106938292.532 8       378.168          51.000    20349674.641 8  83328519.167 8       294.676          51.000
G21  20672188.609 8 108633085.051 8        30.684          48.000    20672187.453 7  84649150.184 7        23.909          47.000
G25  24268894.109 7 127533864.795 7     -3474.711          44.000    24268896.773 7  99377062.868 7     -2707.570          44.000
G29  22004941.539 5 115636776.969 5     -2375.133          30.000    22004946.086 4  90106562.947 4     -1850.765          29.000
G31  22341610.258 8 117405944.223 8     -2581.352          51.000    22341610.734 8  91485163.313 8     -2011.446          51.000
R15  21706988.594 7 115995523.549 7     -4002.914          44.000    21706993.703 7  90218752.588 7     -3113.378          44.000
R16  19343583.336 8 103329958.761 8      -514.133          48.000    19343586.836 7  80367748.128 7      -399.881          44.000
R18  19342257.656 7 103250381.157 7      -780.258          42.000    19342260.344 6  80305847.628 6      -606.867          39.000
R19  20837122.891 6 111464564.812 6      2503.387          38.000    20837124.289 6  86694666.044 6      1947.079          40.000
C05  39620450.844 5 206314083.565 5        14.484          34.000    39620452.578 6 159535144.993 6        11.164          36.000
C29  21520663.414 8 112063838.225 8      -148.820          51.000
C30  23924721.836 5 124582289.599 5     -2499.242          30.000
E01  24235947.586 8 127360755.023 8     -1689.059          51.000    24235950.344 8  97588109.179 8     -1294.271          51.000
E26  23054165.227 8 121150435.603 8     -1464.910          51.000    23054168.547 8  92829594.561 8     -1122.509          51.000
E33  23794358.344 8 125040215.654 8      1187.281          51.000    23794360.125 8  95810065.018 8       909.729          51.000
> 2020 05 08 13 29 30.0000000  0 16        .000000000000
G18  20347572.266 8 106927252.059 8       358.211          51.000    20347573.602 8  83319916.201 8       279.128          51.000
G21  20672062.805 7 108632425.721 7        13.535          47.000    20672062.047 7  84648636.415 7        10.547          47.000
G25  24288746.531 7 127638189.125 7     -3479.871          45.000    24288749.891 7  99458354.475 7     -2711.591          45.000
G29  22018524.648 6 115708154.209 6     -2382.828          37.000    22018526.961 6  90162181.642 6     -1856.743          36.000
G31  22356385.477 8 117483584.919 8     -2594.391          51.000    22356386.039 8  91545662.517 8     -2021.603          51.000
R15  21729497.516 7 116115808.582 7     -4015.535          46.000    21729503.680 7  90312307.556 7     -3123.197          42.000
R16  19346547.758 7 103345793.889 7      -541.195          47.000    19346551.102 7  80380064.298 7      -420.933          44.000
R17  21790635.672 5 116606092.349 5     -3418.258          30.000
R18  19346692.727 6 103274057.844 6      -797.984          41.000    19346695.734 6  80324262.823 6      -620.655          39.000
R19  20823127.867 6 111389699.635 6      2488.039          38.000    20823129.047 6  86636437.582 6      1935.141          39.000
C05  39620371.984 5 206313673.437 5        13.480          35.000    39620373.758 6 159534826.124 6         9.923          36.000
C29  21521552.297 8 112068467.329 8      -159.508          51.000
C30  23939132.828 5 124657320.044 5     -2503.352          31.000
E01  24245623.383 8 127411603.383 8     -1700.551          51.000    24245625.852 8  97627070.882 8     -1303.061          51.000
E26  23062555.164 8 121194524.342 8     -1474.125          51.000    23062558.461 8  92863376.832 8     -1129.503          51.000
E33  23787614.062 8 125004772.554 8      1175.836          51.000    23787615.133 8  95782907.334 8       900.980          51.000
> 2020 05 08 13 30  0.0000000  0 15        .000000000000
G18  20345579.766 8 106916780.380 8       339.602          51.000    20345581.023 8  83311756.463 8       264.625          51.000
G21  20672029.000 8 108632248.240 8        -2.051          48.000    20672028.008 8  84648498.108 8        -1.601          48.000
G25  24308623.219 7 127742640.799 7     -3483.723          45.000    24308626.680 7  99539745.306 7     -2714.592          44.000
G29  22032140.727 5 115779670.297 5     -2388.055          30.000    22032142.570 5  90217937.240 5     -1860.822          30.000
G31  22371228.625 8 117561583.504 8     -2605.836          51.000    22371229.000 8  91606440.599 8     -2030.522          51.000
R15  21752072.531 8 116236438.295 8     -4026.652          49.000    21752077.352 7  90406130.548 7     -3131.844          42.000
R16  19349658.273 7 103362409.259 7      -566.945          47.000    19349661.484 7  80392987.353 7      -440.957          44.000
R18  19351221.438 7 103298231.467 7      -814.035          43.000    19351224.273 6  80343064.520 6      -633.141          39.000
R19  20809213.484 6 111315266.176 6      2473.715          37.000    20809214.523 6  86578544.908 6      1924.000          38.000
C05  39620293.086 5 206313262.193 5        13.332          35.000    39620294.750 6 159534508.047 6        10.499          36.000
C29  21522497.797 8 112073389.949 8      -168.941          51.000
C30  23953561.344 5 124732441.321 5     -2504.977          30.000
E01  24255359.891 8 127462771.022 8     -1710.832          51.000    24255362.164 8  97666277.239 8     -1310.840          51.000
E26  23070992.242 8 121238861.382 8     -1481.930          51.000    23070995.594 8  92897349.363 8     -1135.508          51.000
E33  23780929.508 8 124969644.877 8      1165.742          51.000    23780930.312 8  95755991.325 8       893.225          51.000
> 2020 05 08 13 30 30.0000000  0 14        .000000000000
G18  20343706.195 8 106906933.850 8       318.676          51.000    20343707.359 8  83304083.862 8       248.319          51.000
G21  20672097.820 8 108632609.462 8       -20.102          49.000    20672096.461 8  84648779.590 8       -15.664          49.000
G25  24328534.586 7 127847275.065 7     -3490.066          44.000    24328537.797 7  99621278.416 7     -2719.538          44.000
G29  22045797.164 5 115851434.991 5     -2394.551          33.000    22045795.422 5  90273857.726 5     -1865.878          31.000
G31  22386149.578 8 117639993.603 8     -2619.637          51.000    22386149.977 8  91667539.349 8     -2041.278          51.000
R15  21774722.539 8 116357466.867 8     -4039.992          50.000    21774725.719 7  90500263.768 7     -3142.219          43.000
R16  19352925.695 7 103379862.729 7      -594.938          47.000    19352928.594 7  80406562.274 7      -462.729          44.000
R18  19355853.461 6 103322957.685 6      -832.469          41.000    19355856.109 6  80362296.002 6      -647.476          38.000
R19  20795390.336 6 111241322.813 6      2457.465          37.000    20795391.227 6  86521033.464 6      1911.365          37.000
C05  39620224.891 5 206312907.258 5        11.941          34.000    39620226.484 6 159534233.241 6         9.243          36.000
C29  21523510.172 8 112078661.407 8      -180.641          51.000
E01  24265167.852 8 127514314.021 8     -1723.500          51.000    24265170.078 8  97705771.223 8     -1320.589          51.000
E26  23079486.969 8 121283501.961 8     -1492.203          51.000    23079490.414 8  92931554.486 8     -1143.346          51.000
E33  23774315.859 8 124934889.140 8      1153.242          51.000    23774316.531 8  95729360.300 8       883.647          51.000
> 2020 05 08 13 31  0.0000000  0 14        .000000000000
G18  20341935.227 8 106897626.422 8       299.570          51.000    20341936.086 8  83296831.343 8       233.431          51.000
G21  20672252.500 8 108633422.007 8       -36.246          49.000    20672251.164 8  84649412.771 8       -28.241          49.000
G25  24348464.055 7 127952004.770 7     -3494.270          42.000    24348466.906 7  99702885.901 7     -2722.807          42.000
G31  22401131.500 8 117718726.528 8     -2631.523          50.000    22401132.086 8  91728889.663 8     -2050.538          50.000
R15  21797429.961 8 116478803.647 8     -4051.527          49.000    21797432.609 7  90594636.744 7     -3151.191          43.000
R16  19356333.766 7 103398066.728 7      -621.016          47.000    19356336.344 7  80420720.913 7      -483.012          44.000
R18  19360572.383 7 103348147.422 7      -849.098          42.000    19360575.602 6  80381888.040 6      -660.406          40.000
R19  20781642.297 6 111167782.861 6      2442.961          37.000    20781643.641 6  86463835.797 6      1900.087          38.000
C05  39620150.781 5 206312521.771 5        11.793          34.000    39620152.445 5 159533935.920 5         8.886          35.000
C29  21524573.094 8 112084195.916 8      -190.605          51.000
C30  23982468.500 4 124883023.916 4     -2513.398          29.000
E01  24275031.250 8 127566146.083 8     -1734.387          51.000    24275033.078 8  97745486.697 8     -1328.931          51.000
E26  23088022.898 8 121328358.911 8     -1500.617          51.000    23088026.562 8  92965925.406 8     -1149.827          51.000
E33  23767756.727 8 124900419.471 8      1142.445          51.000    23767757.352 8  95702948.462 8       875.398          51.000
> 2020 05 08 13 31 30.0000000  0 16        .000000000000
G18  20340275.508 8 106888904.180 8       281.773          51.000    20340276.188 8  83290034.795 8       219.564          51.000
G20  23945853.094 6 125836306.525 6      3309.512          38.000    23945851.336 4  98054269.889 4      2578.831          28.000
G21  20672501.828 8 108634731.398 8       -51.055          50.000    20672500.258 8  84650433.095 8       -39.783          49.000
G25  24368420.312 7 128056874.838 7     -3497.055          42.000    24368423.398 7  99784602.725 7     -2724.981          43.000
G29  22073222.117 4 115995565.134 4     -2404.918          28.000    22073193.672 4  90386033.165 4     -1873.950          27.000
G31  22416183.133 8 117797826.369 8     -2642.012          49.000    22416183.773 8  91790525.872 8     -2058.713          50.000
R15  21820202.555 7 116600492.377 7     -4061.352          47.000    21820205.562 6  90689283.447 6     -3158.832          41.000
R16  19359891.172 8 103417068.300 8      -645.828          48.000    19359893.273 7  80435499.884 7      -502.311          43.000
R17  21867494.320 5 117017311.516 5     -3434.078          31.000    21867489.977 5  91013498.300 5     -2670.950          31.000
R18  19365385.969 6 103373845.293 6      -864.203          41.000    19365390.133 6  80401875.310 6      -672.155          38.000
R19  20767978.523 5 111094694.264 5      2429.602          35.000    20767981.258 6  86406989.092 6      1889.690          39.000
C05  39620079.977 5 206312152.538 5        12.918          34.000    39620081.531 5 159533651.580 5         9.820          35.000
C29  21525695.273 8 112090038.704 8      -199.137          51.000
E01  24284958.539 8 127618313.064 8     -1743.730          51.000    24284960.141 8  97785458.768 8     -1336.126          51.000
E26  23096608.695 8 121373477.273 8     -1507.562          51.000    23096612.492 8  93000496.602 8     -1155.148          51.000
E33  23761260.641 8 124866282.096 8      1133.086          51.000    23761261.297 8  95676791.263 8       868.221          51.000
> 2020 05 08 13 32  0.0000000  0 14        .000000000000
G18  20338721.180 8 106880736.176 8       262.758          51.000    20338721.828 8  83283670.141 8       204.746          51.000
G20  23926968.258 6 125737057.513 6      3307.523          39.000    23926968.812 5  97976933.187 5      2577.285          31.000
G21  20672839.664 8 108636506.161 8       -67.191          51.000    20672837.805 8  84651816.046 8       -52.354          49.000
G25  24388397.438 7 128161853.430 7     -3501.539          43.000    24388400.875 7  99866404.119 7     -2728.475          43.000
G31  22431298.500 8 117877259.989 8     -2653.660          49.000    22431299.117 8  91852422.178 8     -2067.787          49.000
R15  21843033.094 7 116722498.619 7     -4072.480          45.000    21843036.211 6  90784177.101 6     -3167.491          37.000
R16  19363591.969 7 103436835.864 7      -672.113          47.000    19363593.906 7  80450874.635 7      -522.755          45.000
R18  19370289.008 7 103400018.262 7      -880.652          42.000    19370291.438 6  80422232.011 6      -684.955          37.000
R19  20754393.461 5 111022026.707 5      2415.355          32.000    20754397.227 6  86350469.804 6      1878.607          39.000
C05  39620006.375 5 206311769.311 5        12.715          34.000
C29  21526870.227 8 112096158.673 8      -208.887          51.000
E01  24294943.562 8 127670783.880 8     -1754.379          51.000    24294945.500 8  97825663.636 8     -1344.255          51.000
E26  23105238.078 8 121418825.080 8     -1515.699          51.000    23105241.805 8  93035243.610 8     -1161.398          51.000
E33  23754821.734 8 124832446.352 8      1122.477          51.000    23754822.422 8  95650865.179 8       860.124          51.000
> 2020 05 08 13 32 30.0000000  0 15        .000000000000
G18  20337274.625 8 106873135.024 8       244.086          50.000    20337274.820 8  83277747.169 8       190.197          50.000
G20  23908095.477 5 125637873.612 5      3305.461          35.000    23908096.148 5  97899647.220 5      2575.690          35.000
G21  20673268.438 8 108638758.518 8       -82.961          51.000    20673266.648 8  84653571.144 8       -64.645          50.000
G25  24408397.312 7 128266951.901 7     -3505.207          43.000    24408401.188 7  99948298.944 7     -2731.333          43.000
G31  22446479.344 7 117957037.365 7     -2664.855          47.000    22446480.008 7  91914586.329 7     -2076.511          47.000
R15  21865925.180 7 116844831.956 7     -4083.211          46.000    21865927.438 6  90879325.108 6     -3175.834          38.000
R16  19367438.266 7 103457382.522 7      -697.727          46.000    19367440.656 7  80466855.336 7      -542.676          45.000
R18  19375282.422 7 103426677.053 7      -896.457          43.000    19375285.195 6  80442966.656 6      -697.241          39.000
R19  20740891.016 5 110949793.540 5      2401.066          34.000    20740893.648 6  86294288.535 6      1867.502          37.000
C05  39619932.914 5 206311386.165 5        13.238          34.000    39619934.508 6 159533058.276 6         9.814          36.000
C29  21528100.867 8 112102567.814 8      -218.371          51.000
C30  24025996.609 5 125109693.832 5     -2520.695          34.000
E01  24304988.492 8 127723570.824 8     -1764.770          51.000    24304991.172 8  97866110.725 8     -1352.193          51.000
E26  23113913.281 8 121464413.778 8     -1523.543          51.000    23113916.766 8  93070175.201 8     -1167.387          51.000
E33  23748442.625 8 124798925.009 8      1112.238          51.000    23748443.461 8  95625179.984 8       852.258          51.000
> 2020 05 08 13 33  0.0000000  0 15        .000000000000
G18  20335907.164 8 106865950.957 8       224.961          48.000    20335907.062 8  83272149.203 8       175.294          48.000
G21  20673759.453 8 108641337.943 8       -99.109          51.000    20673757.711 8  84655581.103 8       -77.228          50.000
G25  24428391.133 7 128372019.521 7     -3509.227          43.000    24428395.453 7 100030169.730 7     -2734.465          43.000
G31  22461696.555 7 118037006.234 7     -2676.375          46.000    22461697.172 7  91976899.719 7     -2085.487          46.000
R15  21888851.188 8 116967337.408 8     -4094.125          49.000    21888854.031 7  90974607.025 7     -3184.322          42.000
R16  19371401.516 7 103478556.322 7      -724.004          45.000    19371404.328 7  80483323.854 7      -563.114          44.000
R17  21925326.508 5 117326827.252 5     -3445.277          33.000
R18  19380338.938 7 103453668.013 7      -913.008          44.000    19380342.312 6  80463959.640 6      -710.117          38.000
R19  20727440.234 5 110877843.299 5      2385.434          35.000    20727442.078 6  86238327.317 6      1855.340          37.000
C05  39619830.992 5 206310856.212 5        11.996          34.000    39619832.656 5 159532647.680 5         9.599          35.000
C29  21529358.609 8 112109117.388 8      -228.172          51.000
C30  24040491.695 5 125185220.421 5     -2523.746          33.000
E01  24315064.977 8 127776523.951 8     -1775.414          51.000    24315068.320 8  97906685.164 8     -1360.382          51.000
E26  23122605.734 8 121510092.689 8     -1531.633          51.000    23122609.094 8  93105175.910 8     -1173.580          51.000
E33  23742094.750 8 124765568.589 8      1101.551          51.000    23742095.938 8  95599621.169 8       844.099          51.000
> 2020 05 08 13 33 30.0000000  0 16        .000000000000
G18  20334695.273 8 106859584.181 8       205.191          48.000    20334695.352 8  83267188.097 8       159.889          48.000
G21  20674388.688 8 108644644.148 8      -115.684          50.000    20674386.758 8  84658157.373 8       -90.143          50.000
G25  24448455.148 6 128477455.546 6     -3513.930          41.000    24448459.805 6 100112327.594 6     -2738.133          41.000
G29  22128352.453 5 116285276.397 5     -2427.898          34.000
G31  22477026.516 7 118117564.971 7     -2688.348          46.000    22477026.562 7  92039672.757 7     -2094.816          46.000
R15  21911885.625 8 117090418.826 8     -4105.547          49.000    21911889.031 7  91070336.958 7     -3193.206          45.000
R16  19375558.461 7 103500764.229 7      -750.742          45.000    19375561.953 7  80500596.664 7      -583.911          45.000
R17  21944662.625 4 117430327.502 4     -3449.258          28.000
R18  19385532.906 7 103481395.815 7      -929.785          43.000    19385535.250 6  80485525.663 6      -723.169          39.000
R19  20714117.992 5 110806584.633 5      2370.723          35.000    20714120.703 6  86182903.937 6      1843.895          36.000
C05                                                                  39619778.500 6 159532428.888 6         9.189          36.000
C29  21530719.289 8 112116203.529 8      -238.559          51.000
C30  24055054.805 5 125261079.261 5     -2527.766          34.000
E01  24325249.086 8 127830043.318 8     -1786.832          51.000    24325252.852 8  97947693.477 8     -1369.125          51.000
E26  23131391.398 8 121556261.024 8     -1540.488          51.000    23131394.727 8  93140551.641 8     -1180.380          51.000
E33  23735854.680 8 124732777.494 8      1090.246          51.000    23735855.859 8  95574495.560 8       835.368          51.000
> 2020 05 08 13 34  0.0000000  0 15        .000000000000
G18  20333579.602 7 106853722.985 7       183.504          47.000    20333579.555 7  83262620.921 7       142.990          47.000
G20  23851545.141 5 125340714.891 5      3293.805          34.000
G21  20675096.672 8 108648364.446 8      -134.336          51.000    20675094.648 8  84661056.307 8      -104.677          50.000
G25  24468529.602 6 128582947.248 6     -3520.914          38.000    24468534.281 6 100194528.816 6     -2743.575          37.000
G29  22142225.109 5 116358175.775 5     -2435.422          34.000    22142222.359 5  90668686.333 5     -1897.728          34.000
G31  22492409.453 8 118198398.917 8     -2702.613          48.000    22492408.570 8  92102660.179 8     -2105.932          48.000
R15  21934967.492 8 117213756.220 8     -4119.059          49.000    21934971.531 7  91166265.999 7     -3203.712          46.000
R16  19379849.781 7 103523689.340 7      -779.613          46.000    19379853.766 7  80518427.268 7      -606.366          44.000
R18  19390805.867 7 103509542.073 7      -948.555          43.000    19390809.234 6  80507417.205 6      -737.765          40.000
R19  20700866.602 5 110735701.050 5      2352.758          34.000    20700869.969 6  86127772.298 6      1829.926          36.000
C05  39619710.648 5 206310228.828 5         9.277          34.000    39619712.625 5 159532164.344 5         6.920          35.000
C29  21532123.969 8 112123517.056 8      -250.965          51.000
E01  24335481.539 8 127883817.008 8     -1800.125          51.000    24335485.484 8  97988896.665 8     -1379.346          51.000
E26  23140210.625 8 121602606.062 8     -1551.176          51.000    23140213.953 8  93176062.768 8     -1188.578          51.000
E33  23729663.406 8 124700240.352 8      1076.918          51.000    23729663.992 8  95549564.529 8       825.138          51.000
> 2020 05 08 13 34 30.0000000  0 14        .000000000000
G18  20332567.820 8 106848407.493 8       169.902          48.000    20332567.805 7  83258478.963 7       132.394          47.000
G20  23832729.641 6 125241841.504 6      3296.637          37.000    23832737.406 5  97591066.294 5      2568.805          35.000
G21  20675891.109 8 108652539.012 8      -144.863          50.000    20675889.203 8  84664309.221 8      -112.880          50.000
G29  22156126.312 6 116431221.972 6     -2435.320          36.000    22156125.336 6  90725605.487 6     -1897.649          37.000
G31  22507851.875 8 118279545.981 8     -2708.160          48.000    22507850.633 8  92165891.594 8     -2110.255          48.000
R15  21958104.109 8 117337387.381 8     -4124.062          49.000    21958108.703 7  91262423.537 7     -3207.604          46.000
R16  19384283.367 7 103547372.158 7      -800.285          47.000    19384287.188 7  80536847.235 7      -622.444          44.000
R18  19396164.312 7 103538145.912 7      -959.145          43.000    19396167.922 6  80529664.644 6      -746.001          39.000
R19  20687692.648 5 110665234.338 5      2344.254          32.000    20687696.898 6  86072964.876 6      1823.309          36.000
C05  39619640.844 5 206309866.613 5        13.977          35.000    39619642.781 5 159531883.052 5        10.983          35.000
C29  21533579.844 8 112131097.302 8      -255.258          51.000
E01  24345769.969 8 127937884.957 8     -1805.203          51.000    24345773.789 8  98030325.327 8     -1383.261          51.000
E26  23149070.953 8 121649166.974 8     -1553.711          51.000    23149074.242 8  93211739.305 8     -1190.470          51.000
E33  23723528.094 8 124667997.476 8      1071.723          51.000    23723528.570 8  95524858.980 8       821.190          51.000
> 2020 05 08 13 35  0.0000000  0 14        .000000000000
G18  20331658.641 8 106843628.518 8       148.922          49.000    20331658.406 8  83254755.057 8       116.043          49.000
G20  23813925.219 6 125143018.904 6      3292.137          38.000    23813930.758 5  97514061.763 5      2565.301          34.000
G21  20676770.133 8 108657157.958 8      -162.699          50.000    20676768.203 8  84667908.396 8      -126.779          50.000
G29  22170050.695 6 116504395.890 6     -2442.461          37.000    22170055.117 6  90782624.061 6     -1903.216          37.000
G31  22523351.227 7 118360995.041 7     -2721.402          46.000    22523350.609 7  92229358.340 7     -2120.573          46.000
R15  21981293.242 8 117461299.981 8     -4136.414          48.000    21981298.047 7  91358799.951 7     -3217.214          44.000
R16  19388856.906 7 103571803.654 7      -828.180          46.000    19388860.820 7  80555849.480 7      -644.140          44.000
R18  19401606.844 7 103567196.019 7      -977.113          43.000    19401610.000 6  80552259.127 6      -759.977          40.000
C05  39619565.531 5 206309473.348 5        11.859          34.000    39619567.430 5 159531580.360 5         9.098          35.000
C29  21535084.992 8 112138934.882 8      -266.938          51.000
C30  24098799.453 4 125488747.700 4     -2535.965          29.000
E01  24356112.695 8 127992237.871 8     -1817.859          51.000    24356116.500 8  98071972.367 8     -1392.893          51.000
E26  23157970.422 8 121695933.698 8     -1563.660          51.000    23157973.859 8  93247573.538 8     -1198.087          51.000
E33  23717446.883 8 124636040.017 8      1059.195          51.000    23717447.758 8  95500372.129 8       811.564          51.000
> 2020 05 08 13 35 30.0000000  0 15        .000000000000
G18  20330859.148 8 106839425.727 8       130.516          49.000    20330858.797 8  83251480.170 8       101.700          49.000
G20  23795137.914 6 125044290.190 6      3289.406          36.000    23795143.211 5  97437130.351 5      2563.180          34.000
G21  20677741.078 8 108662260.366 8      -178.164          50.000    20677739.000 8  84671884.292 8      -138.829          50.000
G25  24528871.594 5 128900099.151 5     -3528.949          33.000    24528866.438 5 100441617.293 5     -2749.834          34.000
G29  22184006.586 6 116577736.836 6     -2447.547          38.000    22184011.797 6  90839772.737 6     -1907.185          38.000
G31  22538914.508 7 118442783.407 7     -2731.867          47.000    22538915.352 7  92293089.492 7     -2128.728          47.000
R15  22004541.984 7 117585531.510 7     -4146.402          47.000    22004546.805 7  91455424.453 7     -3224.980          42.000
R16  19393578.414 8 103597024.444 8      -853.840          48.000    19393581.719 7  80575465.625 7      -664.098          43.000
R18  19407139.992 7 103596731.158 7      -992.531          44.000    19407143.273 6  80575230.930 6      -771.969          40.000
C05  39619492.172 5 206309091.809 5        12.211          34.000    39619493.922 5 159531283.926 5         9.355          35.000
C29  21536647.156 8 112147068.842 8      -276.012          51.000
C30  24113417.633 5 125564834.047 5     -2537.672          33.000
E01  24366517.477 8 128046915.355 8     -1827.949          51.000    24366521.156 8  98113868.106 8     -1400.660          51.000
E26  23166916.336 8 121742945.004 8     -1571.121          51.000    23166920.023 8  93283595.175 8     -1203.861          51.000
E33  23711427.703 8 124604408.039 8      1048.914          51.000    23711428.859 8  95476134.632 8       803.725          51.000
> 2020 05 08 13 36  0.0000000  0 17        .000000000000
G18  20330166.742 8 106835785.293 8       112.285          51.000    20330166.391 8  83248643.473 8        87.495          51.000
G20  23776366.375 6 124945644.681 6      3287.195          37.000    23776372.555 4  97360263.674 4      2561.460          27.000
G21  20678801.273 8 108667831.799 8      -193.258          50.000    20678799.367 8  84676225.663 8      -150.587          50.000
G25  24549024.227 6 129006002.434 6     -3531.328          39.000    24549018.836 6 100524139.160 6     -2751.690          39.000
G29  22197992.109 6 116651229.946 6     -2451.922          39.000    22197993.781 6  90897040.066 6     -1910.585          38.000
G31  22554539.516 8 118524895.076 8     -2742.066          48.000    22554541.367 8  92357072.581 8     -2136.675          49.000
R15  22027846.570 7 117710065.013 7     -4155.715          43.000    22027852.672 6  91552283.862 6     -3232.223          39.000
R16  19398445.172 8 103623020.075 8      -879.113          48.000    19398447.648 7  80595684.433 7      -683.755          43.000
R17  22041553.883 5 117948758.366 5     -3463.727          31.000
R18  19412761.062 7 103626735.502 7     -1007.523          44.000    19412763.805 6  80598567.617 6      -783.629          40.000
R19  20648655.938 4 110456354.994 4      2299.320          29.000    20648656.188 5  85910521.893 5      1788.357          35.000
C05  39619418.281 5 206308706.635 5        13.387          34.000
C29  21538263.242 8 112155485.088 8      -284.848          51.000
C30  24128046.156 5 125640996.985 5     -2539.543          31.000
E01  24376981.664 8 128101903.387 8     -1837.652          51.000    24376984.953 8  98156001.778 8     -1408.086          51.000
E26  23175905.930 8 121790186.082 8     -1578.086          51.000    23175909.703 8  93319792.878 8     -1209.219          51.000
E33  23705467.812 8 124573087.907 8      1039.156          51.000    23705469.289 8  95452136.085 8       796.255          51.000
> 2020 05 08 13 36 30.0000000  0 16        .000000000000
G18  20329587.844 8 106832741.452 8        91.734          51.000    20329587.148 8  83246271.655 8        71.481          51.000
G20  23757618.000 6 124847119.917 6      3282.371          38.000    23757623.758 5  97283491.173 5      2557.695          31.000
G21  20679957.219 8 108673905.925 8      -210.605          51.000    20679955.453 8  84680958.762 8      -164.108          51.000
G25  24569200.914 7 129112047.659 7     -3536.770          42.000    24569197.953 6 100606771.663 6     -2755.927          41.000
G26  20497034.203 6 107712638.928 6      1114.500          37.000    20497035.055 6  83931925.230 6       868.442          36.000
G29  22212012.617 6 116724909.480 6     -2458.762          36.000    22212010.945 5  90954452.652 5     -1915.921          35.000
G31  22570232.219 8 118607361.847 8     -2754.469          49.000    22570234.375 8  92421332.361 8     -2146.342          49.000
R15  22051213.203 7 117834932.146 7     -4167.453          43.000    22051221.984 6  91649402.795 6     -3241.349          38.000
R16  19403463.617 8 103649825.515 8      -906.816          48.000    19403465.727 7  80616533.068 7      -705.302          43.000
R17  22060993.555 5 118052759.212 5     -3468.492          34.000
R18  19418476.227 7 103657242.174 7     -1025.078          44.000    19418478.633 6  80622295.070 6      -797.283          40.000
C05  39619350.508 5 206308353.866 5        11.594          35.000    39619352.312 5 159530713.698 5         8.856          35.000
C29  21539940.023 8 112164217.308 8      -296.113          51.000
E01  24387511.609 8 128157236.165 8     -1850.023          51.000    24387514.320 8  98198399.566 8     -1417.515          51.000
E26  23184945.781 8 121837690.397 8     -1587.645          51.000    23184949.328 8  93356192.270 8     -1216.561          51.000
E33  23699573.531 8 124542114.225 8      1026.852          51.000    23699575.578 8  95428403.008 8       786.814          51.000
> 2020 05 08 13 37  0.0000000  0 17        .000000000000
G18  20329114.391 8 106830252.092 8        74.113          51.000    20329113.758 8  83244331.902 8        57.751          51.000
G20  23738885.266 6 124748677.214 6      3280.352          40.000    23738890.969 4  97206782.578 4      2556.112          27.000
G21  20681200.648 8 108680440.210 8      -225.086          51.000    20681198.875 8  84686050.406 8      -175.392          50.000
G25  24589396.898 7 129218191.898 7     -3539.309          45.000    24589395.602 7 100689481.336 7     -2757.906          45.000
G26  20490714.344 6 107679420.232 6      1100.676          38.000    20490713.992 6  83906040.488 6       857.669          38.000
G29  22226060.266 5 116798732.669 5     -2462.730          33.000    22226058.547 5  91011977.153 5     -1919.014          33.000
G31  22585984.211 8 118690139.302 8     -2764.047          49.000    22585985.742 8  92485834.213 8     -2153.806          49.000
R15  22074633.000 6 117960087.524 6     -4176.355          40.000    22074644.414 6  91746745.943 6     -3248.273          39.000
R16  19408625.672 7 103677397.846 7      -931.535          47.000    19408627.336 7  80637978.192 7      -724.527          44.000
R17  22080443.773 5 118156837.855 5     -3470.121          32.000
R18  19424277.008 7 103688206.708 7     -1039.375          44.000    19424279.406 6  80646378.606 6      -808.403          39.000
R19  20623056.859 5 110319461.252 5      2269.035          31.000    20623055.945 6  85804002.909 6      1764.811          38.000
C05  39619280.992 5 206307991.762 5        12.664          34.000    39619282.852 5 159530434.631 5        10.037          35.000
C29  21541669.602 8 112173223.543 8      -304.359          51.000
E01  24398099.336 8 128212871.369 8     -1859.070          51.000    24398100.781 8  98241029.085 8     -1424.396          51.000
E26  23194027.562 8 121885414.956 8     -1593.957          51.000    23194031.016 8  93392760.417 8     -1221.344          51.000
E33  23693737.250 8 124511445.220 8      1017.758          51.000    23693739.391 8  95404903.377 8       779.810          51.000
> 2020 05 08 13 37 30.0000000  0 18        .000000000000
G18  20328745.531 8 106828312.579 8        54.430          51.000    20328745.055 8  83242820.600 8        42.413          51.000
G20  23720167.953 6 124650315.254 6      3276.293          40.000
G21  20682530.742 8 108687429.543 8      -241.660          51.000    20682528.914 8  84691496.644 8      -188.307          51.000
G25  24609611.305 7 129324429.540 7     -3543.781          45.000    24609611.102 7 100772263.802 7     -2761.391          45.000
G26  20484475.109 6 107646631.172 6      1084.684          40.000    20484472.922 6  83880490.611 6       845.211          39.000
G29  22240134.734 6 116872694.764 6     -2468.617          39.000    22240132.680 6  91069609.938 6     -1923.598          36.000
G31  22601794.148 8 118773220.722 8     -2775.508          48.000    22601794.773 8  92550572.943 8     -2162.736          48.000
R15  22098103.750 6 118085523.386 6     -4187.176          38.000    22098117.914 6  91844307.244 6     -3256.692          39.000
R16  19413930.008 7 103705732.203 7      -958.238          46.000    19413931.984 7  80660015.997 7      -745.296          45.000
R17  22099910.047 5 118260988.307 5     -3473.320          31.000
R18  19430162.133 7 103719622.805 7     -1055.953          42.000    19430165.062 6  80670813.299 6      -821.300          41.000
R19  20610371.562 5 110251621.035 5      2253.082          30.000    20610372.914 6  85751238.379 6      1752.400          36.000
C05  39619209.016 5 206307617.618 5        11.625          34.000    39619210.789 5 159530144.141 5         9.352          35.000
C29  21543450.711 8 112182498.926 8      -314.641          51.000
C30  24172035.578 5 125870120.040 5     -2548.027          30.000
E01  24408743.789 8 128268804.317 8     -1870.414          51.000    24408743.711 8  98283886.779 8     -1433.150          51.000
E26  23203150.125 8 121933354.281 8     -1602.496          51.000    23203153.766 8  93429493.131 8     -1227.902          51.000
E33  23687958.195 8 124481076.596 8      1006.258          51.000    23687959.914 8  95381633.908 8       771.011          51.000
> 2020 05 08 13 38  0.0000000  0 16        .000000000000
G18  20328489.000 8 106826963.898 8        35.746          51.000    20328488.414 8  83241769.696 8        27.854          51.000
G20  23701474.383 7 124552078.424 7      3273.121          42.000    23701476.172 4  97053550.464 4      2550.484          27.000
G21  20683955.125 8 108694914.489 8      -257.129          51.000    20683953.570 8  84697329.092 8      -200.360          51.000
G25  24629851.453 7 129430800.790 7     -3547.137          44.000    24629853.078 7 100855150.374 7     -2764.006          43.000
G26  20478325.383 6 107614314.790 6      1069.543          36.000    20478323.648 6  83855309.070 6       833.410          37.000
G29  22254243.094 5 116946836.119 5     -2473.020          32.000    22254243.367 5  91127382.455 5     -1927.034          31.000
G31  22617669.367 8 118856644.998 8     -2785.871          49.000    22617669.438 8  92615578.820 8     -2170.809          49.000
R15  22121635.531 6 118211278.388 6     -4196.207          39.000    22121650.469 6  91942116.790 6     -3263.714          39.000
R16  19419384.586 7 103734870.248 7      -983.977          45.000    19419387.070 7  80682678.918 7      -765.318          45.000
R17  22119395.109 5 118365250.309 5     -3476.387          32.000
R18  19436139.016 6 103751530.251 6     -1070.898          41.000    19436143.008 6  80695630.224 6      -832.921          41.000
C05  39619142.164 5 206307269.107 5        12.211          34.000    39619144.016 5 159529875.081 5         9.273          35.000
C29  21545291.359 8 112192083.854 8      -323.938          51.000
E01  24419452.352 8 128325075.919 8     -1880.641          51.000    24419451.453 8  98327003.971 8     -1440.959          51.000
E26  23212321.219 8 121981548.529 8     -1610.004          51.000    23212324.953 8  93466421.182 8     -1233.633          51.000
E33  23682244.062 8 124451049.716 8       995.961          51.000    23682245.562 8  95358626.304 8       763.121          51.000
> 2020 05 08 13 38 30.0000000  0 16        .000000000000
G18  20328346.750 8 106826215.843 8        14.285          51.000    20328346.391 8  83241186.804 8        11.131          51.000
G20  23682807.227 7 124453979.939 7      3266.988          44.000    23682805.664 5  96977110.026 5      2545.708          32.000
G21  20685475.562 8 108702904.019 8      -275.379          51.000    20685474.156 8  84703554.693 8      -214.584          51.000
G25  24650119.156 6 129537314.409 6     -3553.250          41.000    24650122.500 6 100938147.893 6     -2768.769          41.000
G26  20472266.656 5 107582483.033 5      1053.609          34.000    20472267.547 5  83830505.140 5       820.997          35.000
G29  22268393.758 5 117021198.966 5     -2480.918          33.000
G31  22633611.406 8 118940419.542 8     -2798.984          50.000    22633610.953 8  92680857.609 8     -2181.027          50.000
R15  22145232.109 6 118337359.879 6     -4208.777          41.000    22145243.883 6  92040180.166 6     -3273.493          39.000
R16  19424991.547 7 103764822.107 7     -1012.559          45.000    19424994.164 7  80705974.797 7      -787.543          45.000
R17  22138902.711 6 118469632.441 6     -3481.980          37.000
R18  19442209.836 7 103783937.465 7     -1089.230          42.000    19442213.766 6  80720835.783 6      -847.179          40.000
C05  39619082.656 5 206306959.059 5         8.523          34.000    39619084.602 5 159529635.295 5         7.198          35.000
C29  21547193.555 8 112201987.851 8      -336.098          51.000
E01  24430226.188 8 128381695.901 8     -1893.812          49.000    24430225.906 8  98370388.083 8     -1451.073          50.000
E26  23221542.578 8 122030006.718 8     -1620.344          51.000    23221546.094 8  93503551.453 8     -1241.538          51.000
E33  23676596.805 8 124421374.730 8       982.637          51.000    23676598.570 8  95335888.350 8       752.932          51.000
> 2020 05 08 13 39  0.0000000  0 16        .000000000000
G18  20328307.273 8 106826007.922 8        -1.902          51.000    20328307.125 8  83241024.808 8        -1.482          51.000
G20  23664155.773 7 124355963.025 7      3266.109          44.000    23664153.234 5  96900733.246 5      2545.020          34.000
G21  20687080.414 8 108711337.289 8      -288.219          51.000    20687078.836 8  84710126.070 8      -224.583          51.000
G25  24670402.844 6 129643909.265 6     -3554.266          40.000    24670406.531 6 101021208.718 6     -2769.561          40.000
G26  20466286.773 5 107551065.006 5      1040.562          31.000    20466291.945 5  83806038.702 5       810.828          32.000
G31  22649608.336 8 119024481.686 8     -2806.699          50.000    22649607.133 8  92746360.517 8     -2187.041          50.000
R15  22168878.531 6 118463703.564 6     -4215.758          39.000    22168886.953 6  92138447.458 6     -3278.926          38.000
R16  19430739.219 7 103795525.683 7     -1035.945          44.000    19430741.820 7  80729855.364 7      -805.735          46.000
R17  22158419.008 5 118574071.228 5     -3481.863          33.000
R18  19448362.539 7 103816781.247 7     -1101.883          42.000    19448367.195 6  80746380.959 6      -857.020          41.000
R19  20572846.406 5 110050827.691 5      2208.672          32.000    20572846.922 5  85595101.319 5      1717.859          34.000
C05                                                                  39619021.102 5 159529379.917 5         9.119          35.000
C29  21549145.383 8 112212150.800 8      -342.914          51.000
E01  24441053.719 7 128438603.725 7     -1901.602          47.000    24441054.867 8  98413992.765 8     -1457.062          50.000
E26  23230802.461 8 122078667.661 8     -1625.195          51.000    23230805.703 8  93540837.085 8     -1245.283          51.000
E33  23671005.008 8 124391991.610 8       974.719          51.000    23671007.156 8  95313374.017 8       746.925          51.000
> 2020 05 08 13 39 30.0000000  0 16        .000000000000
G18  20328361.688 8 106826293.914 8       -14.824          51.000    20328361.414 8  83241247.665 8       -11.551          51.000
G20  23645511.656 7 124257984.903 7      3268.078          43.000    23645508.453 6  96824386.690 6      2546.557          38.000
G21  20688760.742 8 108720167.685 8      -298.070          51.000    20688759.406 8  84717006.913 8      -232.263          51.000
G25  24690693.609 6 129750538.389 6     -3551.812          41.000    24690695.758 6 101104296.231 6     -2767.652          41.000
G26  20460383.383 6 107520039.074 6      1030.512          37.000    20460387.477 6  83781864.064 6       802.996          37.000
G31  22665650.688 8 119108783.042 8     -2811.105          49.000    22665648.812 8  92812049.835 8     -2190.472          49.000
R15  22192562.883 7 118590259.455 7     -4218.984          43.000    22192570.062 6  92236879.818 6     -3281.432          37.000
R16  19436618.484 7 103826934.062 7     -1055.652          44.000    19436621.656 7  80754284.069 7      -821.066          46.000
R18  19454588.102 7 103850013.167 7     -1111.262          42.000    19454592.617 6  80772228.032 6      -864.312          40.000
R19  20560491.164 5 109984733.238 5      2199.531          32.000    20560494.156 6  85543694.573 6      1710.747          37.000
C05  39618942.664 5 206306230.800 5        17.387          35.000    39618944.641 5 159529072.011 5        13.435          35.000
C29  21551138.039 8 112222526.766 8      -346.590          51.000
C30  24230888.180 5 126176569.005 5     -2553.574          30.000
E01  24451927.562 8 128495753.177 8     -1906.074          48.000    24451930.148 8  98457782.582 8     -1460.552          51.000
E26  23240091.930 8 122127484.372 8     -1626.977          51.000    23240095.016 8  93578242.081 8     -1246.629          51.000
E33  23665459.859 8 124362854.514 8       970.023          51.000    23665462.430 8  95291048.173 8       743.253          51.000
> 2020 05 08 13 40  0.0000000  0 18        .000000000000
G18  20328526.758 8 106827161.557 8       -43.406          51.000    20328526.531 8  83241923.756 8       -33.823          51.000
G20  23626892.391 7 124160136.723 7      3254.785          42.000    23626888.992 6  96748141.404 6      2536.199          37.000
G21  20690533.367 8 108729482.621 8      -323.316          51.000    20690532.328 8  84724265.314 8      -251.935          51.000
G25  24711008.094 7 129857288.743 7     -3565.023          43.000    24711009.031 7 101187478.153 7     -2777.949          43.000
G26  20454569.539 6 107489487.334 6      1005.605          36.000    20454571.961 6  83758057.566 6       783.589          37.000
G29  22310986.102 5 117244998.759 5     -2497.867          33.000    22310992.422 4  91359772.583 4     -1946.378          29.000
G31  22681754.367 8 119193409.240 8     -2831.039          48.000    22681752.602 8  92877992.307 8     -2206.004          49.000
R15  22216302.781 7 118717114.087 7     -4238.445          45.000    22216309.805 5  92335544.488 5     -3296.572          34.000
R16  19442646.438 7 103859136.559 7     -1091.625          44.000    19442649.734 7  80779330.478 7      -849.042          45.000
R17  22197464.117 5 118783078.040 5     -3491.852          33.000
R18  19460902.758 6 103883720.788 6     -1136.117          40.000    19460906.742 6  80798445.044 6      -883.647          39.000
R19  20548224.047 5 109919103.716 5      2175.188          30.000    20548228.461 6  85492649.386 6      1691.812          38.000
C05  39618870.281 5 206305852.958 5         7.633          33.000    39618872.039 6 159528780.221 6         5.748          36.000
C29  21553188.297 8 112233202.470 8      -365.590          51.000
C30  24245632.984 4 126253371.091 4     -2563.848          28.000
E01  24462865.625 8 128553231.877 8     -1925.910          51.000    24462868.633 8  98501824.681 8     -1475.871          51.000
E26  23249427.586 8 122176543.785 8     -1644.102          51.000    23249430.617 8  93615833.054 8     -1259.769          51.000
E33  23659978.438 8 124334051.565 8       949.785          51.000    23659981.383 8  95268978.351 8       727.787          51.000
> 2020 05 08 13 40 30.0000000  0 16        .000000000000
G18  20328807.805 8 106828639.813 8       -57.059          50.000    20328807.969 8  83243075.656 8       -44.461          50.000
G20  23608303.539 6 124062450.827 6      3255.891          39.000    23608300.453 6  96672022.545 6      2537.061          40.000
G21  20692403.461 8 108739310.353 8      -333.879          50.000    20692402.367 8  84731923.291 8      -260.165          50.000
G25  24731351.273 7 129964188.491 7     -3563.496          42.000    24731352.836 7 101270776.531 7     -2776.753          42.000
G26  20448851.672 6 107459438.641 6       995.449          36.000    20448853.836 6  83734642.992 6       775.675          36.000
G31  22697924.672 8 119278387.226 8     -2836.148          49.000    22697923.938 8  92944208.887 8     -2209.989          49.000
R15  22240103.961 7 118844294.188 7     -4242.336          47.000    22240109.953 5  92434462.264 5     -3299.601          33.000
R16  19448828.492 7 103892162.229 7     -1112.316          45.000    19448832.000 7  80805017.100 7      -865.135          45.000
R17  22217025.180 5 118887745.797 5     -3488.477          32.000    22217029.453 4  92468297.458 4     -2713.263          26.000
R18  19467310.945 6 103917931.853 6     -1146.449          39.000    19467314.625 6  80825053.664 6      -891.683          39.000
R19  20536049.320 4 109854012.586 4      2165.555          29.000    20536053.812 6  85442029.448 6      1684.323          38.000
C05  39618807.211 5 206305524.802 5        12.605          34.000    39618809.234 5 159528527.246 5         9.768          35.000
C29  21555301.531 8 112244206.580 8      -370.062          51.000
E01  24473872.344 8 128611068.875 8     -1931.512          51.000    24473875.086 8  98546141.302 8     -1480.004          51.000
E26  23258814.812 8 122225874.237 8     -1646.480          51.000    23258817.984 8  93653631.697 8     -1261.595          51.000
E33  23654566.602 8 124305612.167 8       944.234          51.000    23654569.445 8  95247187.116 8       723.537          51.000
> 2020 05 08 13 41  0.0000000  0 17        .000000000000
G18  20329188.477 8 106830642.209 8       -77.215          50.000    20329188.969 8  83244635.943 8       -60.167          50.000
G20  23589729.734 6 123964844.407 6      3250.527          39.000    23589726.609 6  96595965.603 6      2532.881          39.000
G21  20694354.531 8 108749563.961 8      -350.738          50.000    20694353.461 8  84739913.120 8      -273.306          50.000
G25  24751706.211 7 130071150.320 7     -3568.066          42.000    24751709.195 7 101354123.294 7     -2780.315          42.000
G26  20443213.367 5 107429808.521 5       979.191          35.000    20443216.828 5  83711554.535 5       763.006          35.000
G31  22714145.211 8 119363628.207 8     -2847.508          50.000    22714145.867 8  93010630.371 8     -2218.840          50.000
R15  22263949.102 7 118971708.875 7     -4252.805          47.000    22263954.211 5  92533562.440 5     -3307.740          30.000
R16  19455148.414 7 103925922.834 7     -1139.430          46.000    19455151.695 7  80831275.318 7      -886.226          44.000
R17  22236591.977 5 118992448.427 5     -3492.180          35.000
R18  19473797.297 6 103952557.123 6     -1162.715          39.000    19473801.641 6  80851984.375 6      -904.334          38.000
R19  20523948.758 5 109789286.615 5      2148.910          30.000    20523953.008 5  85391687.050 5      1671.375          35.000
C05                                                                  39618739.992 5 159528247.361 5         8.835          35.000
C29  21557461.328 8 112255453.255 8      -380.602          51.000
C30  24275184.852 5 126407227.196 5     -2566.492          30.000
E01  24484930.688 8 128669177.653 8     -1943.148          51.000    24484933.016 8  98590666.187 8     -1488.921          51.000
E26  23268237.055 8 122275388.580 8     -1655.242          51.000    23268240.516 8  93691571.250 8     -1268.302          51.000
E33  23649207.695 8 124277450.286 8       932.414          51.000    23649209.977 8  95225608.552 8       714.426          51.000
> 2020 05 08 13 41 30.0000000  0 16        .000000000000
G18  20329678.180 8 106833217.387 8       -95.379          50.000    20329678.984 8  83246642.561 8       -74.321          50.000
G20  23571180.945 6 123867369.716 6      3246.898          40.000    23571177.750 6  96520011.321 6      2530.054          39.000
G21  20696395.805 8 108760291.490 8      -365.512          50.000    20696395.164 8  84748272.239 8      -284.814          50.000
G25  24772081.750 7 130178222.198 7     -3570.797          42.000    24772085.875 7 101437555.831 7     -2782.442          42.000
G26  20437664.930 6 107400647.691 6       963.898          38.000    20437668.492 6  83688831.792 6       751.087          38.000
G31  22730425.047 8 119449178.809 8     -2856.809          51.000    22730426.781 8  93077293.117 8     -2226.088          51.000
R15  22287846.828 8 119099405.094 8     -4261.145          48.000    22287851.875 5  92632958.640 5     -3314.230          31.000
R16  19461615.703 8 103960467.869 8     -1164.473          48.000    19461618.297 7  80858143.666 7      -905.701          44.000
R17  22256174.656 5 119097233.974 5     -3494.375          34.000
R18  19480370.375 6 103987644.335 6     -1177.395          38.000    19480374.977 6  80879274.415 6      -915.751          37.000
R19  20511934.562 5 109725019.703 5      2134.379          30.000    20511936.641 5  85341701.773 5      1660.076          33.000
C29  21559676.992 8 112266990.611 8      -389.359          51.000
C30  24289968.172 5 126484238.048 5     -2567.617          30.000
E01  24496049.758 8 128727606.861 8     -1952.953          51.000    24496051.875 8  98635436.579 8     -1496.368          51.000
E26  23277703.445 8 122325134.744 8     -1662.059          51.000    23277707.086 8  93729688.439 8     -1273.537          51.000
E33  23643911.258 8 124249615.043 8       922.418          51.000    23643912.641 8  95204280.254 8       706.749          51.000
> 2020 05 08 13 42  0.0000000  0 16        .000000000000
G18  20330274.758 8 106836353.548 8      -115.145          50.000    20330275.930 8  83249086.322 8       -89.723          50.000
G20  23552655.727 6 123770018.429 6      3241.941          40.000    23552652.195 6  96444153.207 6      2526.188          39.000
G21  20698524.828 8 108771480.764 8      -381.859          49.000    20698524.438 8  84756991.158 8      -297.550          49.000
G25  24792475.617 6 130285391.719 6     -3574.840          41.000    24792480.578 6 101521064.438 6     -2785.593          41.000
G26  20432203.875 6 107371946.496 6       947.781          40.000    20432207.203 6  83666467.239 6       738.531          41.000
G31  22746761.320 8 119535025.053 8     -2867.637          51.000    22746763.656 8  93144186.235 8     -2234.522          51.000
R15  22311794.219 7 119227367.914 7     -4271.043          47.000    22311800.266 5  92732485.125 5     -3321.928          33.000
R16  19468227.820 8 103995785.333 8     -1191.328          49.000    19468229.609 7  80885612.793 7      -926.589          43.000
R17  22275767.109 5 119202131.946 5     -3497.418          32.000
R18  19487027.430 6 104023179.801 6     -1193.184          38.000    19487032.125 5  80906913.159 5      -928.029          34.000
R19  20500003.422 5 109661200.824 5      2118.586          30.000    20500004.195 5  85292064.895 5      1647.789          31.000
C05  39618604.672 5 206304470.603 5         9.652          34.000    39618607.531 5 159527714.653 5         7.844          35.000
C29  21561946.242 8 112278806.940 8      -399.691          51.000
E01  24507227.594 8 128786344.709 8     -1964.207          51.000    24507229.320 8  98680443.487 8     -1505.069          51.000
E26  23287211.562 8 122375100.345 8     -1670.305          51.000    23287215.102 8  93767973.771 8     -1279.907          51.000
E33  23638674.852 8 124222095.136 8       910.938          51.000    23638675.523 8  95183193.592 8       697.937          51.000
> 2020 05 08 13 42 30.0000000  0 18        .000000000000
G18  20330979.742 8 106840058.697 8      -130.047          51.000    20330980.898 8  83251973.447 8      -101.335          51.000
G20  23534154.984 6 123672802.041 6      3241.207          37.000    23534152.148 6  96368400.203 6      2525.616          37.000
G21  20700743.273 8 108783139.504 8      -393.605          49.000    20700742.719 8  84766075.890 8      -306.706          49.000
G25  24812889.258 7 130392666.091 7     -3574.828          42.000    24812894.789 7 101604654.748 7     -2785.583          42.000
G26  20426832.008 6 107343715.162 6       935.988          41.000    20426835.156 7  83644468.787 7       729.342          42.000
G29  22382491.984 6 117620789.579 6     -2516.145          36.000    22382491.688 5  91652583.964 5     -1960.626          35.000
G31  22763155.102 8 119621172.943 8     -2873.699          51.000    22763157.625 8  93211314.395 8     -2239.249          51.000
R15  22335792.031 7 119355602.647 7     -4276.020          45.000    22335799.164 5  92832223.092 5     -3325.799          33.000
R16  19474985.883 8 104031882.419 8     -1213.262          50.000    19474987.125 7  80913688.276 7      -943.648          43.000
R17  22295375.289 4 119307063.297 4     -3495.594          29.000
R18  19493769.984 6 104059170.512 6     -1204.277          39.000    19493773.914 6  80934905.896 6      -936.657          36.000
R19  20488157.750 5 109597839.336 5      2106.949          30.000    20488157.977 5  85242783.701 5      1638.735          32.000
C05  39618540.727 5 206304136.893 5        14.211          34.000    39618543.602 5 159527457.018 5        10.276          35.000
C29  21564270.586 8 112290910.120 8      -405.340          51.000
C30  24319577.305 4 126638417.893 4     -2570.793          29.000
E01  24518465.812 8 128845399.266 8     -1970.938          51.000    24518467.539 8  98725693.037 8     -1510.217          51.000
E26  23296762.836 8 122425292.762 8     -1674.047          51.000    23296766.188 8  93806432.866 8     -1282.714          51.000
E33  23633499.992 8 124194899.034 8       903.973          51.000    23633500.203 8  95162355.026 8       692.681          51.000
> 2020 05 08 13 43  0.0000000  0 15        .000000000000
G18  20331798.258 8 106844359.961 8      -156.012          51.000    20331799.258 8  83255325.074 8      -121.568          51.000
G20  23515683.000 6 123575751.720 6      3229.523          37.000    23515683.844 6  96292776.565 6      2516.509          37.000
G21  20703056.133 8 108795294.337 8      -416.004          49.000    20703055.781 8  84775547.199 8      -324.156          49.000
G25  24833327.789 7 130500071.767 7     -3585.055          42.000    24833333.102 7 101688347.379 7     -2793.552          42.000
G26  20421554.812 6 107315982.937 6       913.809          39.000    20421557.898 6  83622859.274 6       712.056          39.000
G31  22779611.227 8 119707647.805 8     -2890.559          51.000    22779613.484 8  93278697.364 8     -2252.386          51.000
R15  22359845.453 7 119484134.709 7     -4292.137          43.000    22359852.297 5  92932192.409 5     -3338.332          31.000
R16  19481895.062 8 104068787.041 8     -1246.301          49.000    19481896.266 7  80942391.834 7      -969.345          43.000
R18  19500602.289 6 104095642.274 6     -1226.277          38.000    19500607.539 5  80963272.865 5      -953.768          35.000
R19  20476399.836 4 109534929.009 4      2085.441          28.000    20476403.195 5  85193851.736 5      1622.013          32.000
C05  39618484.359 5 206303843.054 5         6.047          34.000    39618487.141 5 159527229.766 5         5.059          35.000
C29  21566655.172 8 112303327.000 8      -421.715          51.000
E01  24529769.461 8 128904797.663 8     -1988.352          51.000    24529770.984 8  98771206.053 8     -1523.515          51.000
E26  23306362.359 8 122475738.534 8     -1688.395          51.000    23306365.734 8  93845086.107 8     -1293.702          51.000
E33  23628392.180 8 124168054.352 8       886.250          51.000    23628391.992 8  95141785.744 8       679.102          51.000
> 2020 05 08 13 43 30.0000000  0 15        .000000000000
G18  20332710.281 8 106849152.792 8      -169.332          51.000    20332711.422 8  83259059.764 8      -131.947          51.000
G20  23497225.195 6 123478766.284 6      3230.246          41.000    23497228.031 6  96217203.566 6      2517.078          39.000
G21  20705443.320 8 108807840.098 8      -426.070          49.000    20705443.203 8  84785323.128 8      -332.003          49.000
G25  24853771.273 6 130607503.539 6     -3582.605          40.000    24853775.953 6 101772060.318 6     -2791.647          40.000
G26  20416352.336 6 107288647.520 6       903.008          38.000    20416356.258 6  83601558.918 6       703.642          38.000
G29  22411302.961 6 117772184.374 6     -2527.285          39.000    22411304.570 6  91770531.095 6     -1969.307          38.000
G31  22796109.289 8 119794342.853 8     -2894.848          51.000    22796110.844 8  93346251.897 8     -2255.725          51.000
R15  22383934.023 6 119612854.664 6     -4295.184          38.000    22383941.477 5  93032307.844 5     -3340.698          32.000
R16  19488934.992 8 104106392.299 8     -1266.574          48.000    19488936.383 7  80971640.344 7      -985.113          42.000
R18  19507505.000 6 104132487.493 6     -1236.211          36.000    19507508.242 5  80991930.178 5      -961.497          35.000
C05  39618415.875 5 206303487.186 5        11.426          34.000    39618418.469 6 159526953.418 6         9.047          36.000
C29  21569080.008 8 112315953.955 8      -425.707          51.000
E01  24541118.438 8 128964435.439 8     -1993.176          51.000    24541119.750 8  98816902.491 8     -1527.283          51.000
E26  23315990.109 8 122526332.511 8     -1690.207          51.000    23315993.625 8  93883852.913 8     -1295.091          51.000
E33  23623331.375 8 124141457.073 8       881.180          51.000    23623331.016 8  95121406.040 8       675.163          51.000
> 2020 05 08 13 44  0.0000000  0 14        .000000000000
G18  20333734.234 8 106854533.807 8      -190.949          51.000    20333735.250 8  83263252.774 8      -148.792          51.000
G20  23478800.703 7 123381946.027 7      3222.879          44.000    23478803.469 6  96141759.306 6      2511.337          39.000
G21  20707923.289 8 108820873.053 8      -444.332          49.000    20707923.016 8  84795478.684 8      -346.233          49.000
G25  24874237.680 6 130715057.357 6     -3588.699          39.000    24874241.961 6 101855868.367 6     -2796.392          39.000
G26  20411244.289 6 107261807.580 6       884.809          40.000    20411248.914 6  83580644.657 6       689.458          40.000
G29  22425751.094 5 117848116.760 5     -2535.211          35.000    22425747.094 5  91829685.256 5     -1975.489          34.000
G31  22812667.219 8 119881352.425 8     -2907.348          51.000    22812667.539 8  93414051.520 8     -2265.466          51.000
R16  19496124.109 7 104144796.525 7     -1295.328          47.000    19496126.305 7  81001510.270 7     -1007.477          43.000
R18  19514495.156 6 104169802.929 6     -1253.168          39.000    19514499.586 5  81020953.349 5      -974.683          35.000
C05  39618353.414 5 206303162.695 5         8.121          34.000    39618356.211 5 159526702.503 5         6.410          35.000
C29  21571563.492 8 112328886.743 8      -437.941          51.000
E01  24552530.984 8 129024409.273 8     -2006.465          51.000    24552532.266 8  98862856.425 8     -1537.430          51.000
E26  23325664.344 8 122577170.766 8     -1700.449          51.000    23325667.812 8  93922806.896 8     -1302.927          51.000
E33  23618335.844 8 124115204.366 8       867.602          51.000    23618335.188 8  95101290.359 8       664.804          51.000
> 2020 05 08 13 44 30.0000000  0 17        .000000000000
G18  20334856.594 8 106860432.392 8      -202.941          51.000    20334857.430 8  83267849.074 8      -158.136          51.000
G20  23460395.625 7 123285224.415 7      3224.699          46.000    23460398.039 6  96066391.902 6      2512.756          40.000
G21  20710482.391 8 108834322.084 8      -452.953          48.000    20710482.242 8  84805958.447 8      -352.950          48.000
G25  24894713.578 6 130822661.991 6     -3585.461          37.000    24894718.594 6 101939716.028 6     -2793.869          38.000
G26  20406217.898 6 107235394.705 6       875.359          41.000    20406222.820 6  83560063.167 6       682.098          40.000
G29  22440221.398 5 117924134.064 5     -2533.656          31.000    22440209.016 5  91888899.986 5     -1974.293          32.000
G31  22829270.969 8 119968603.955 8     -2910.145          50.000    22829269.844 8  93482039.659 8     -2267.648          50.000
R15  22432256.094 5 119871173.891 5     -4307.824          32.000    22432261.672 4  93233158.633 4     -3350.530          25.000
R16  19503449.047 7 104183927.368 7     -1314.191          45.000    19503452.109 7  81031945.322 7     -1022.152          42.000
R17  22373922.945 5 119727361.692 5     -3503.160          32.000
R18  19521560.672 6 104207515.265 6     -1261.508          39.000    19521564.414 5  81050285.106 5      -981.176          34.000
C05  39618284.141 5 206302802.001 5        14.641          34.000
C29  21574092.203 8 112342055.432 8      -440.688          51.000
C30  24378965.883 5 126947666.386 5     -2577.285          31.000
E01  24563994.102 8 129084648.625 8     -2010.164          51.000    24563995.352 8  98909013.799 8     -1540.256          51.000
E26  23335371.438 8 122628182.153 8     -1701.047          51.000    23335374.617 8  93961893.519 8     -1303.349          51.000
E33  23613392.172 8 124089226.121 8       863.598          51.000    23613391.375 8  95081384.959 8       661.748          51.000
> 2020 05 08 13 45  0.0000000  0 15        .000000000000
G18  20336082.055 8 106866871.907 8      -229.887          51.000    20336082.859 8  83272866.880 8      -179.133          51.000
G20  23442014.648 7 123188628.252 7      3211.590          46.000    23442016.430 6  95991122.253 6      2502.541          40.000
G21  20713125.031 8 108848210.314 8      -476.410          48.000    20713125.227 8  84816780.460 8      -371.229          48.000
G26  20401277.930 7 107209434.493 7       851.566          43.000    20401282.109 7  83539834.405 7       663.558          43.000
G29  22454722.789 6 118000279.001 6     -2546.367          38.000    22454698.914 6  91948233.848 6     -1984.176          37.000
G31  22845924.297 7 120056119.076 7     -2927.797          47.000    22845921.945 7  93550233.199 7     -2281.403          47.000
R15  22456481.406 6 120000616.241 6     -4324.969          40.000    22456482.867 4  93333850.399 4     -3363.862          25.000
R16  19510914.188 7 104223808.302 7     -1348.090          45.000    19510917.641 6  81062963.798 6     -1048.514          41.000
R17  22393578.523 5 119832544.190 5     -3513.238          32.000
R18  19528703.836 6 104245646.630 6     -1284.031          36.000    19528707.906 5  81079942.901 5      -998.691          33.000
C05  39618212.508 5 206302427.500 5         6.297          34.000    39618215.109 5 159526135.126 5         5.277          35.000
C29  21576670.852 8 112355483.205 8      -458.008          51.000
E01  24575512.250 8 129145176.883 8     -2028.516          51.000    24575513.547 8  98955392.582 8     -1554.326          51.000
E26  23345115.781 8 122679389.497 8     -1716.293          51.000    23345118.812 8  94001130.300 8     -1315.079          51.000
E33  23608505.156 8 124063546.174 8       844.918          51.000    23608504.914 8  95061708.128 8       647.402          51.000
> 2020 05 08 13 45 30.0000000  0 16        .000000000000
G18  20337428.352 8 106873946.032 8      -242.418          50.000    20337428.984 8  83278379.191 8      -188.897          50.000
G20  23423675.766 7 123092254.540 7      3212.777          45.000    23423676.680 6  95916025.948 6      2503.466          37.000
G21  20715869.109 8 108862630.799 8      -485.578          48.000    20715869.078 8  84828017.193 8      -378.373          48.000
G26  20396442.633 7 107184022.730 7       841.824          44.000    20396445.820 7  83520033.051 7       655.967          44.000
G29  22469231.805 5 118076614.445 5     -2545.922          30.000
G31  22862644.484 7 120143989.417 7     -2931.055          46.000    22862641.648 7  93618703.533 7     -2283.942          46.000
R15  22480763.961 6 120130382.066 6     -4326.742          40.000    22480764.594 5  93434743.356 5     -3365.250          30.000
R16  19518537.914 7 104264533.948 7     -1367.527          45.000    19518540.875 7  81094639.286 7     -1063.632          42.000
R17  22413256.023 5 119937862.667 5     -3508.699          31.000    22413272.648 4  93285068.158 4     -2728.988          25.000
R18  19535943.367 6 104284291.270 6     -1292.531          36.000    19535943.906 4  81109999.738 4     -1005.305          29.000
C05                                                                  39618159.016 5 159525908.633 5         9.705          34.000
C29  21579317.172 8 112369262.959 8      -461.273          51.000
C30  24408739.570 5 127102691.094 5     -2585.238          33.000
E01  24587103.188 8 129206087.891 8     -2032.871          51.000    24587105.055 8  99002064.636 8     -1557.660          51.000
E26  23354915.258 8 122730886.001 8     -1717.477          51.000    23354918.461 8  94040588.649 8     -1315.986          51.000
E33  23603692.984 8 124038258.838 8       840.238          51.000    23603693.641 8  95042332.141 8       643.807          51.000
> 2020 05 08 13 46  0.0000000  0 15        .000000000000
G18  20338866.711 8 106881503.737 8      -261.320          50.000    20338866.961 8  83284268.320 8      -203.626          50.000
G20  23405350.898 7 122995956.472 7      3207.191          44.000    23405350.188 6  95840988.562 6      2499.110          36.000
G21  20718685.656 7 108877432.135 7      -501.004          47.000    20718685.398 7  84839550.706 7      -390.393          47.000
G26  20391683.352 7 107159010.704 7       825.629          44.000    20391686.039 7  83500543.171 7       643.347          44.000
G31  22879403.078 7 120232061.704 7     -2940.293          44.000    22879400.492 7  93687331.232 7     -2291.140          44.000
R15  22505078.656 6 120260314.831 6     -4335.348          41.000    22505080.703 5  93535802.070 5     -3371.940          33.000
R16  19526291.406 7 104305950.908 7     -1393.539          45.000    19526293.938 7  81126852.435 7     -1083.867          42.000
R17  22432935.836 5 120043162.748 5     -3511.184          32.000    22432948.852 4  93366967.599 4     -2730.924          29.000
R18  19543249.609 5 104323294.189 5     -1307.500          33.000    19543251.172 5  81140263.392 5     -1016.938          32.000
C05  39618087.500 5 206301776.897 5        11.605          34.000    39618089.906 5 159525631.009 5         9.062          35.000
C29  21582002.320 8 112383245.147 8      -470.793          51.000
C30  24423644.438 5 127180275.368 5     -2587.855          32.000
E01  24598738.289 8 129267230.721 8     -2043.293          51.000    24598740.930 8  99048914.323 8     -1565.616          51.000
E26  23364740.953 8 122782520.176 8     -1724.820          51.000    23364744.516 8  94080152.487 8     -1321.610          51.000
E33  23598926.719 8 124013213.662 8       829.406          51.000    23598928.102 8  95023141.709 8       635.519          51.000
> 2020 05 08 13 46 30.0000000  0 17        .000000000000
G18  20340420.641 8 106889668.674 8      -282.000          49.000    20340420.844 8  83290630.605 8      -219.740          50.000
G20  23387064.445 7 122899861.385 7      3200.102          43.000    23387061.820 6  95766109.361 6      2493.592          38.000
G21  20721598.195 8 108892737.698 8      -518.254          49.000    20721597.969 8  84851477.112 8      -403.834          49.000
G26  20387023.984 7 107134524.201 7       807.863          45.000    20387026.492 7  83481462.777 7       629.504          45.000
G29  22498364.805 5 118229704.831 5     -2556.883          32.000
G31  22896223.742 7 120320457.924 7     -2951.656          45.000    22896221.758 7  93756211.355 7     -2299.995          45.000
R15  22529447.734 6 120390537.362 6     -4345.230          41.000    22529449.336 5  93637086.122 5     -3379.630          33.000
R16  19534197.812 7 104348184.134 7     -1420.996          45.000    19534199.969 7  81159700.491 7     -1105.219          43.000
R17  22452634.656 5 120148568.389 5     -3514.961          33.000    22452644.453 5  93448949.792 5     -2733.859          31.000
R18  19550647.070 6 104362779.362 6     -1323.883          36.000    19550650.562 5  81170974.215 5     -1029.684          30.000
R19  20396405.945 5 109107014.339 5      1983.684          30.000    20396404.672 4  84861016.934 4      1542.868          27.000
C05                                                                  39618031.547 5 159525395.654 5         7.409          35.000
C29  21584749.914 8 112397552.386 8      -481.934          51.000
C30  24438560.602 5 127257976.467 5     -2591.352          33.000
E01  24610441.164 8 129328729.113 8     -2055.402          51.000    24610444.398 8  99096036.448 8     -1574.931          51.000
E26  23374616.227 8 122834415.204 8     -1733.770          51.000    23374620.000 8  94119916.194 8     -1328.476          51.000
E33  23594229.773 8 123988534.830 8       816.973          51.000    23594231.703 8  95004231.972 8       625.962          51.000
> 2020 05 08 13 47  0.0000000  0 16        .000000000000
G18  20342077.719 8 106898376.307 8      -299.027          50.000    20342077.867 8  83297415.787 8      -233.008          50.000
G20  23368805.297 7 122803908.648 7      3196.195          45.000    23368801.875 6  95691341.090 6      2490.548          37.000
G21  20724594.539 8 108908482.764 8      -531.891          49.000    20724594.180 8  84863745.989 8      -414.460          49.000
G26  20382452.641 7 107110500.917 7       793.430          46.000    20382455.078 7  83462743.337 7       618.260          46.000
G31  22913093.703 7 120409111.414 7     -2959.180          44.000    22913092.953 7  93825291.966 7     -2305.854          43.000
R15  22553858.211 7 120520981.702 7     -4351.477          42.000    22553860.367 5  93738542.720 5     -3384.488          35.000
R16  19542244.414 7 104391167.797 7     -1445.059          45.000    19542246.766 7  81193132.219 7     -1123.938          43.000
R17  22472340.289 5 120254013.429 5     -3514.797          32.000    22472348.422 5  93530962.661 5     -2733.731          31.000
R18  19558122.086 6 104402680.017 6     -1336.809          37.000    19558123.312 4  81202018.999 4     -1039.743          27.000
R19  20385317.711 4 109047697.842 4      1970.496          29.000
C05                                                                  39617971.859 5 159525154.780 5         8.578          34.000
C29  21587547.602 8 112412120.823 8      -489.742          51.000
C30  24453489.820 6 127335730.219 6     -2592.164          36.000
E01  24622199.383 8 129390518.672 8     -2064.270          51.000    24622203.047 8  99143381.659 8     -1581.719          51.000
E26  23384528.781 8 122886506.076 8     -1739.359          51.000    23384532.312 8  94159829.962 8     -1332.744          51.000
E33  23589590.375 8 123964158.432 8       807.766          51.000    23589593.031 8  94985553.959 8       618.940          51.000
> 2020 05 08 13 47 30.0000000  0 15        .000000000000
G18  20343837.375 8 106907622.613 8      -317.250          50.000    20343837.188 8  83304620.697 8      -247.208          49.000
G20  23350573.281 7 122708098.038 7      3191.148          46.000    23350570.195 6  95616683.532 6      2486.612          39.000
G21  20727673.781 8 108924662.780 8      -546.680          50.000    20727673.078 8  84876353.791 8      -425.984          50.000
G26  20377968.945 7 107086939.052 7       777.652          46.000    20377971.234 7  83444383.438 7       605.963          45.000
G31  22930011.922 7 120498016.676 7     -2967.930          45.000    22930012.375 7  93894568.758 7     -2312.672          45.000
R15  22578309.375 7 120651641.185 7     -4358.828          42.000    22578312.484 6  93840166.604 6     -3390.206          36.000
R16  19550430.516 7 104434897.283 7     -1470.145          45.000    19550433.102 7  81227144.035 7     -1143.446          44.000
R17  22492051.312 5 120359492.783 5     -3516.988          34.000    22492057.812 4  93613002.270 4     -2735.432          28.000
R18  19565673.805 5 104442990.755 5     -1350.309          35.000    19565677.555 5  81233371.891 5     -1050.234          33.000
C05                                                                  39617910.320 5 159524907.059 5         8.174          34.000
C29  21590394.633 8 112426946.617 8      -498.637          51.000
C30  24468430.820 5 127413532.807 5     -2593.887          33.000
E01  24634012.211 8 129452595.488 8     -2074.195          51.000    24634015.820 8  99190946.990 8     -1589.339          51.000
E26  23394477.773 8 122938788.373 8     -1746.102          51.000    23394480.891 8  94199890.423 8     -1337.937          51.000
E33  23585008.203 8 123940081.058 8       797.387          51.000    23585011.539 8  94967105.070 8       611.000          51.000
> 2020 05 08 13 48  0.0000000  0 16        .000000000000
G18  20345700.273 8 106917412.113 8      -336.527          50.000    20345700.094 8  83312248.885 8      -262.229          50.000
G20  23332369.836 7 122612437.823 7      3185.078          47.000    23332367.938 6  95542143.177 6      2481.882          41.000
G21  20730836.633 8 108941281.883 8      -562.414          51.000    20730835.555 8  84889303.736 8      -438.245          51.000
G26  20373574.289 7 107063845.452 7       760.887          45.000    20373576.477 7  83426388.423 7       592.896          45.000
G31  22946978.750 7 120587175.876 7     -2977.559          45.000    22946980.195 7  93964043.403 7     -2320.179          45.000
R15  22602801.445 6 120782517.859 6     -4367.281          41.000    22602804.164 5  93941959.438 5     -3396.780          34.000
R16  19558757.016 7 104479376.726 7     -1496.285          46.000    19558759.898 7  81261739.151 7     -1163.777          43.000
R17  22511770.383 6 120465010.159 6     -3518.898          37.000    22511775.414 4  93695045.339 4     -2736.921          27.000
R18  19573303.805 6 104483714.831 6     -1365.367          36.000    19573309.484 4  81265046.271 4     -1061.949          28.000
C05                                                                  39617847.836 5 159524655.594 5         7.690          35.000
C29  21593292.102 8 112442034.476 8      -508.441          51.000
C30  24483382.141 4 127491396.140 4     -2597.848          29.000
E01  24645880.555 8 129514964.281 8     -2084.922          51.000    24645883.734 8  99238736.059 8     -1597.532          51.000
E26  23404463.992 8 122991266.268 8     -1753.566          51.000    23404466.961 8  94240100.742 8     -1343.627          51.000
E31  23802635.602 6 125083690.059 6       713.355          40.000
E33  23580484.312 8 123916307.855 8       786.312          51.000    23580487.695 8  94948889.245 8       602.478          51.000
> 2020 05 08 13 48 30.0000000  0 17        .000000000000
G18  20347667.242 8 106927748.227 8      -354.230          51.000    20347667.188 8  83320303.009 8      -276.024          50.000
G20  23314196.328 8 122516935.341 8      3180.176          48.000    23314195.844 7  95467725.732 7      2478.062          43.000
G21  20734083.555 8 108958343.128 8      -576.621          51.000    20734082.422 8  84902598.219 8      -449.312          51.000
G26  20369269.734 7 107041225.709 7       745.445          46.000    20369272.039 7  83408762.645 7       580.866          46.000
G31  22963994.484 7 120676590.718 7     -2985.234          45.000    22963996.766 7  94033717.250 7     -2326.157          45.000
R15  22627334.414 6 120913612.568 6     -4373.906          40.000    22627336.711 5  94043921.878 5     -3401.933          33.000
R16  19567224.430 7 104524609.167 7     -1520.918          47.000    19567227.492 7  81296919.907 7     -1182.939          44.000
R17  22531497.234 6 120570568.090 6     -3519.676          36.000    22531502.156 4  93777146.938 4     -2737.526          27.000
R18  19581009.453 4 104524757.337 4     -1379.691          28.000    19581020.914 5  81297041.444 5     -1073.096          31.000
R19  20352541.312 4 108872375.319 4      1925.484          28.000
C05                                                                  39617785.516 5 159524404.852 5         7.684          35.000
C29  21596240.586 8 112457387.912 8      -516.793          51.000
E01  24657804.977 8 129577628.603 8     -2094.254          51.000    24657807.609 8  99286751.571 8     -1604.664          51.000
E12  24963559.359 7 131184387.287 7      2616.707          43.000    24963559.914 7 100517909.249 7      2004.952          43.000
E26  23414488.023 8 123043942.772 8     -1759.672          51.000    23414491.211 8  94280463.250 8     -1348.305          51.000
E31  23798592.617 6 125062437.965 6       701.699          41.000
E33  23576019.422 8 123892842.836 8       776.559          51.000    23576022.320 8  94930909.569 8       594.989          51.000
> 2020 05 08 13 49  0.0000000  0 18        .000000000000
G18  20349742.023 8 106938651.073 8      -372.996          51.000    20349742.070 8  83328798.744 8      -290.646          51.000
G20  23296057.305 8 122421614.611 8      3174.121          48.000    23296057.992 7  95393449.920 7      2473.344          43.000
G21  20737418.367 8 108975866.337 8      -591.891          51.000    20737416.984 8  84916252.675 8      -461.213          51.000
G26  20365059.695 7 107019102.192 7       729.164          46.000    20365062.055 7  83391523.539 7       568.180          46.000
G31  22981062.102 7 120766279.227 7     -2994.332          43.000    22981065.188 7  94103604.374 7     -2333.243          43.000
R15  22651912.016 6 121044943.678 6     -4381.977          37.000    22651914.555 5  94146068.123 5     -3408.213          33.000
R16  19575837.000 8 104570614.751 8     -1546.516          48.000    19575839.875 7  81332701.997 7     -1202.845          43.000
R17  22551235.805 6 120676186.151 6     -3521.656          37.000    22551239.836 4  93859294.244 4     -2739.066          27.000
R18  19588795.844 5 104566327.450 5     -1393.176          32.000    19588817.227 4  81329377.044 4     -1083.575          29.000
R19  20341790.219 5 108814874.109 5      1909.543          30.000    20341794.867 4  84633800.497 4      1485.200          26.000
C05                                                                  39617727.148 5 159524169.848 5         7.745          35.000
C29  21599243.922 8 112473027.083 8      -526.129          51.000
C30  24513320.883 5 127647292.820 5     -2601.363          32.000
E01  24669789.305 8 129640608.787 8     -2104.605          51.000    24669791.906 8  99335009.096 8     -1612.671          51.000
E12  24948636.477 7 131105966.641 7      2611.195          43.000    24948637.078 7 100457820.774 7      2000.837          43.000
E26  23424553.641 8 123096837.675 8     -1766.863          51.000    23424557.164 8  94320993.109 8     -1353.845          51.000
E31  23794621.625 6 125041570.011 6       689.215          40.000
E33  23571617.406 8 123869706.811 8       765.629          51.000    23571619.438 8  94913181.971 8       586.660          51.000
> 2020 05 08 13 49 30.0000000  0 18        .000000000000
G18  20351917.555 8 106950083.782 8      -389.473          51.000    20351917.656 8  83337707.344 8      -303.482          51.000
G20  23277946.383 7 122326442.650 7      3170.215          47.000    23277948.062 7  95319290.020 7      2470.300          44.000
G21  20740833.852 8 108993814.097 8      -604.879          51.000    20740832.102 8  84930237.937 8      -471.334          51.000
G26  20360937.547 8 106997440.314 8       714.777          48.000    20360939.688 8  83374644.138 8       556.969          48.000
G31  22998173.867 7 120856202.737 7     -3001.105          42.000    22998177.891 7  94173674.619 7     -2338.524          42.000
R15  22676526.141 6 121176470.751 6     -4386.812          36.000    22676528.484 5  94248366.789 5     -3411.968          31.000
R16  19584587.172 7 104617355.261 7     -1569.797          47.000    19584589.672 7  81369055.688 7     -1220.956          43.000
R17  22570978.219 6 120781825.776 6     -3521.051          37.000    22570980.961 4  93941460.376 4     -2738.592          25.000
R18  19596658.930 6 104608297.490 6     -1405.469          37.000
R19  20331120.930 5 108757789.208 5      1895.875          31.000    20331125.281 5  84589401.418 5      1474.566          31.000
C05                                                                  39617665.617 5 159523922.221 5         8.554          34.000
C29  21602295.141 8 112488915.666 8      -533.391          51.000
C30  24528309.383 5 127725323.787 5     -2601.344          33.000
E01  24681826.664 8 129703868.131 8     -2112.930          51.000    24681829.367 8  99383480.489 8     -1619.001          51.000
E12  24933739.008 7 131027680.312 7      2607.719          44.000    24933740.148 7 100397835.226 7      1997.946          43.000
E26  23434653.750 8 123149913.754 8     -1771.859          51.000    23434657.367 8  94361661.781 8     -1357.673          51.000
E31  23790716.797 6 125021051.379 6       678.832          40.000    23790715.367 5  95795350.846 5       519.755          33.000
E33  23567270.781 8 123846863.544 8       756.934          51.000    23567272.266 8  94895678.680 8       580.021          51.000
> 2020 05 08 13 50  0.0000000  0 17        .000000000000
G18  20354189.195 8 106962021.522 8      -401.223          51.000    20354189.453 8  83347009.489 8      -312.641          51.000
G20  23259859.609 7 122231398.418 7      3171.246          47.000    23259862.289 7  95245229.649 7      2471.104          45.000
G21  20744325.344 8 109012161.265 8      -613.082          51.000    20744323.547 8  84944534.442 8      -477.726          51.000
G26  20356898.961 8 106976217.469 8       705.191          48.000    20356900.922 7  83358106.862 7       549.500          47.000
G29  22601146.500 5 118769813.319 5     -2580.148          33.000    22601154.859 5  92547919.713 5     -2010.502          31.000
G31  23015325.539 7 120946334.855 7     -3002.855          45.000    23015329.719 7  94243907.420 7     -2339.887          44.000
R15  22701171.719 5 121308166.135 5     -4387.977          32.000    22701174.078 4  94350796.435 4     -3412.871          28.000
R16  19593469.891 7 104664805.140 7     -1588.281          47.000    19593472.461 7  81405961.095 7     -1235.333          44.000
R17  22590719.344 5 120887461.156 5     -3516.180          33.000
R18  19604590.391 5 104650637.012 5     -1412.094          33.000    19604599.156 4  81394945.986 4     -1098.292          29.000
C05                                                                  39617596.609 5 159523644.575 5        13.825          35.000
C29  21605389.617 8 112505029.293 8      -535.824          51.000
E01  24693912.695 8 129767381.960 8     -2116.188          51.000    24693915.492 8  99432146.888 8     -1621.479          51.000
E12  24918862.617 7 130949505.071 7      2608.883          44.000    24918864.820 7 100337934.790 7      1999.275          43.000
E26  23444783.570 8 123203145.896 8     -1771.828          51.000    23444786.969 8  94402450.036 8     -1357.614          51.000
E31  23786873.711 6 125000859.233 6       672.914          40.000    23786875.617 5  95779878.942 5       515.370          35.000
E33  23562974.953 8 123824288.884 8       753.160          51.000    23562976.328 8  94878381.216 8       577.121          51.000
> 2020 05 08 13 50 30.0000000  0 14        .000000000000
G18  20356582.930 8 106974600.758 8      -427.281          51.000    20356583.250 8  83356811.503 8      -332.943          51.000
G20  23241823.875 7 122136622.522 7      3157.461          46.000    23241827.172 7  95171378.324 7      2460.362          45.000
G21  20747918.609 8 109031043.816 8      -635.641          51.000    20747916.727 8  84959248.136 8      -495.304          50.000
G26  20352970.289 8 106955572.410 8       681.191          48.000    20352971.984 8  83342019.811 8       530.798          48.000
G31  23032542.883 8 121036809.823 8     -3018.707          48.000    23032546.156 7  94314407.324 7     -2352.239          47.000
R16  19602511.477 7 104713102.190 7     -1621.285          47.000    19602513.922 7  81443525.443 7     -1261.003          44.000
R17  22610484.922 6 120993230.347 6     -3525.070          36.000    22610488.180 4  94105887.218 4     -2741.718          27.000
R18  19612616.781 5 104693483.345 5     -1433.539          34.000    19612619.938 4  81428270.827 4     -1114.978          26.000
C29  21608553.359 8 112521503.411 8      -552.480          51.000
E01  24706073.359 8 129831286.966 8     -2133.918          51.000    24706076.117 8  99481113.028 8     -1635.113          51.000
E12  24904033.625 7 130871579.014 7      2596.047          44.000    24904037.234 7 100278225.293 7      1989.322          42.000
E26  23454968.906 8 123256670.228 8     -1786.297          51.000    23454972.148 8  94443462.181 8     -1368.730          51.000
E31  23783119.719 6 124981132.035 6       652.641          41.000    23783124.797 6  95764763.223 6       499.991          37.000
E33  23558756.594 8 123802119.957 8       734.988          51.000    23558757.391 8  94861394.640 8       563.119          51.000
> 2020 05 08 13 51  0.0000000  0 17        .000000000000
G18  20359068.422 8 106987662.492 8      -445.016          51.000    20359068.570 8  83366989.482 8      -346.765          51.000
G20  23223809.781 7 122041959.909 7      3152.105          45.000    23223813.586 7  95097615.269 7      2456.189          45.000
G21  20751583.375 8 109050302.451 8      -649.801          50.000    20751581.078 8  84974254.872 8      -506.338          50.000
G26  20349121.734 8 106935348.427 8       665.430          48.000    20349123.336 8  83326260.863 8       518.517          48.000
G29  22630728.430 5 118925279.944 5     -2596.574          34.000
G31  23049795.078 8 121127467.221 8     -3026.496          48.000    23049796.992 8  94385049.374 8     -2358.312          48.000
R15  22750603.852 5 121572310.689 5     -4407.914          30.000    22750607.664 4  94556271.118 4     -3428.378          29.000
R16  19611681.531 7 104762084.976 7     -1645.734          46.000    19611683.727 7  81481623.141 7     -1280.016          44.000
R17  22630245.328 5 121098970.579 5     -3525.918          35.000    22630252.695 5  94188129.586 5     -2742.381          31.000
R19  20299616.914 4 108589263.184 4      1849.719          29.000    20299616.742 4  84458315.145 4      1438.676          26.000
C05                                                                  39617484.906 5 159523194.486 5         7.983          35.000
C29  21611756.203 8 112538180.782 8      -560.867          51.000
E01  24718278.398 8 129895424.361 8     -2143.328          51.000    24718280.930 8  99530257.242 8     -1642.201          51.000
E12  24889222.047 7 130793744.839 7      2591.406          44.000    24889226.961 7 100218586.164 7      1985.617          42.000
E26  23465179.523 8 123310327.535 8     -1792.262          51.000    23465182.836 8  94484576.203 8     -1373.244          51.000
E31  23779424.406 6 124961712.855 6       640.723          41.000    23779430.516 6  95749883.563 6       491.087          36.000
E33  23554585.141 8 123780198.462 8       725.148          51.000    23554585.273 8  94844597.649 8       555.621          51.000
> 2020 05 08 13 51 30.0000000  0 17        .000000000000
G18  20361663.320 8 107001298.806 8      -462.324          51.000    20361663.539 8  83377615.183 8      -360.253          51.000
G20  23205835.648 7 121947506.423 7      3146.645          45.000    23205839.914 7  95024015.195 7      2451.931          45.000
G21  20755337.234 8 109070029.228 8      -663.543          49.000    20755334.852 8  84989626.389 8      -517.046          49.000
G26  20345371.242 8 106915639.850 8       650.102          48.000    20345373.094 8  83310903.526 8       506.573          48.000
G29  22645564.672 6 119003250.601 6     -2599.949          37.000    22645588.000 4  92729862.537 4     -2025.941          27.000
G31  23067099.219 7 121218396.860 7     -3033.734          47.000    23067099.531 7  94455903.578 7     -2363.952          47.000
R16  19620997.398 7 104811845.823 7     -1669.930          45.000    19620999.023 7  81520326.026 7     -1298.837          45.000
R17  22650016.883 4 121204814.075 4     -3526.410          28.000    22650024.875 5  94270421.958 5     -2742.760          30.000
R18  19628881.117 5 104780292.168 5     -1459.395          34.000    19628893.234 5  81495825.193 5     -1135.085          31.000
C05                                                                  39617429.734 5 159522972.347 5         8.385          35.000
C29  21615015.617 8 112555152.901 8      -568.875          51.000
C30  24588364.562 5 128038056.529 5     -2609.055          32.000
E01  24730545.367 8 129959886.436 8     -2152.387          51.000    24730547.656 8  99579650.255 8     -1649.306          51.000
E12  24874445.734 7 130716096.268 7      2587.023          44.000    24874451.398 6 100159089.240 6      1982.157          41.000
E26  23475432.898 8 123364209.577 8     -1798.008          51.000    23475436.422 8  94525862.447 8     -1377.823          51.000
E31  23775805.469 6 124942695.787 6       628.820          40.000    23775809.523 5  95735312.077 5       481.728          35.000
E33  23550478.086 8 123758617.198 8       715.387          50.000    23550478.109 8  94828061.363 8       548.127          51.000
> 2020 05 08 13 52  0.0000000  0 14        .000000000000
G18  20364358.070 8 107015459.780 8      -479.961          51.000    20364358.336 8  83388649.712 8      -373.996          51.000
G20  23187892.922 7 121853216.286 7      3141.141          46.000    23187897.094 7  94950542.395 7      2447.642          45.000
G21  20759170.438 8 109090173.858 8      -677.508          48.000    20759168.391 8  85005323.517 8      -527.928          48.000
G26  20341709.805 8 106896399.074 8       634.395          48.000    20341711.984 8  83295910.714 8       494.333          48.000
G31  23084445.539 7 121309547.462 7     -3041.117          44.000    23084444.078 7  94526929.959 7     -2369.705          44.000
R16  19630449.039 7 104862333.679 7     -1694.359          46.000    19630450.836 7  81559594.361 7     -1317.835          45.000
C05                                                                  39617371.883 5 159522738.524 5         8.409          35.000
C29  21618322.094 8 112572370.620 8      -577.180          51.000
C30  24603409.719 4 128116373.151 4     -2609.914          29.000
E01  24742864.797 8 130024623.508 8     -2161.656          51.000    24742866.922 8  99629253.964 8     -1656.298          51.000
E12  24859695.547 7 130638585.024 7      2582.375          44.000    24859701.102 6 100099697.531 6      1978.547          41.000
E26  23485719.516 8 123418266.266 8     -1803.922          51.000    23485723.109 8  94567282.482 8     -1382.250          51.000
E31  23772253.531 6 124924032.988 6       616.941          40.000    23772255.875 6  95721012.020 6       472.796          36.000
E33  23546426.422 8 123737326.894 8       705.703          51.000    23546426.594 8  94811748.013 8       540.695          51.000
> 2020 05 08 13 52 30.0000000  0 15        .000000000000
G18  20367164.336 8 107030206.620 8      -499.043          51.000    20367164.320 8  83400140.753 8      -388.865          51.000
G20  23169993.805 7 121759154.815 7      3133.867          46.000    23169997.070 7  94877247.785 7      2441.974          43.000
G21  20763094.812 8 109110797.126 8      -693.145          49.000    20763092.789 8  85021393.592 8      -540.113          49.000
G26  20338149.500 8 106877689.590 8       617.023          48.000    20338152.008 8  83281331.867 8       480.797          48.000
G29  22675313.195 5 119159581.679 5     -2609.801          32.000    22675337.422 5  92851681.734 5     -2033.623          33.000
G31  23101844.680 6 121400978.238 6     -3050.312          40.000    23101842.219 6  94598174.714 6     -2376.867          39.000
R16  19640048.516 7 104913610.258 7     -1720.176          46.000    19640050.219 7  81599476.160 7     -1337.911          45.000
R18  19645457.258 5 104868793.982 5     -1487.422          35.000    19645461.148 5  81564636.296 5     -1156.884          31.000
C05                                                                  39617323.031 5 159522541.735 5         7.394          35.000
C29  21621687.461 8 112589894.876 8      -587.102          51.000
E01  24755248.164 8 130089697.036 8     -2172.504          51.000    24755250.711 8  99679115.472 8     -1664.709          51.000
E12  24844983.477 7 130561274.004 7      2575.836          43.000    24844987.555 6 100040459.288 6      1973.660          40.000
E26  23496051.000 8 123472558.506 8     -1811.500          51.000    23496054.414 8  94608883.020 8     -1388.026          51.000
E31  23768779.938 6 124905787.767 6       603.082          39.000    23768783.188 6  95707031.857 6       462.281          37.000
E33  23542442.336 8 123716389.501 8       694.211          51.000    23542442.469 8  94795705.071 8       531.892          51.000
> 2020 05 08 13 53  0.0000000  0 17        .000000000000
G18  20370056.945 8 107045407.319 8      -517.785          51.000    20370056.984 8  83411985.463 8      -403.469          51.000
G20  23152113.703 7 121665193.690 7      3126.855          45.000    23152115.203 6  94804031.364 6      2436.511          41.000
G21  20767084.945 7 109131766.655 7      -708.199          47.000    20767083.133 7  85037733.479 7      -551.844          47.000
G26  20334665.633 8 106859381.688 8       599.992          49.000    20334668.289 8  83267065.948 8       467.526          49.000
G29  22690213.766 5 119237883.360 5     -2614.430          35.000    22690235.617 5  92912695.829 5     -2037.227          32.000
G31  23119269.461 5 121492555.394 5     -3058.234          31.000    23119269.188 5  94669533.572 5     -2383.034          30.000
R16  19649769.781 7 104965540.688 7     -1745.484          44.000    19649771.852 7  81639866.470 7     -1357.599          44.000
R17  22709360.906 5 121522341.060 5     -3530.211          33.000    22709363.320 5  94517391.868 5     -2745.723          31.000
R18  19653843.039 5 104913560.588 5     -1500.840          33.000    19653844.539 4  81599454.915 4     -1167.311          29.000
C05  39617255.242 5 206297439.771 5         8.770          34.000    39617258.172 5 159522280.638 5         7.201          35.000
C29  21625086.883 8 112607595.238 8      -596.414          51.000
C30  24633519.617 4 128273200.232 4     -2615.781          28.000
E01  24767670.109 8 130154975.261 8     -2182.930          51.000    24767673.422 8  99729133.825 8     -1672.596          51.000
E12  24830284.688 7 130484032.896 7      2569.855          43.000    24830285.812 6  99981274.643 6      1969.146          39.000
E26  23506402.188 8 123526954.179 8     -1818.422          51.000    23506405.352 8  94650562.801 8     -1393.330          51.000
E31  23765361.398 6 124887830.092 6       590.309          41.000    23765365.344 6  95693272.072 6       452.377          37.000
E33  23538500.594 8 123695673.751 8       683.258          51.000    23538500.773 8  94779831.968 8       523.526          51.000
> 2020 05 08 13 53 30.0000000  0 14        .000000000000
G18  20373059.836 8 107061188.770 8      -535.031          51.000    20373060.109 8  83424282.701 8      -416.907          50.000
G20  23134277.289 7 121571464.041 7      3121.023          43.000    23134276.695 6  94730995.336 6      2431.966          40.000
G21  20771164.969 8 109153209.117 8      -721.930          48.000    20771163.648 8  85054441.900 8      -562.543          48.000
G26  20331282.781 8 106841604.475 8       584.285          50.000    20331285.336 8  83253213.578 8       455.287          50.000
R16  19659637.000 7 105018253.332 7     -1769.539          44.000    19659639.570 7  81680865.173 7     -1376.308          43.000
R17  22729155.211 5 121628239.853 5     -3530.152          31.000    22729154.312 5  94599757.482 5     -2745.686          32.000
R18  19662312.008 6 104958765.347 6     -1513.320          38.000    19662308.305 4  81634573.114 4     -1177.027          29.000
C05  39617198.133 5 206297145.576 5         9.680          34.000    39617201.531 5 159522053.395 5         7.624          35.000
C29  21628544.219 8 112625597.792 8      -604.465          51.000
E01  24780154.820 8 130220585.336 8     -2191.840          51.000    24780159.047 8  99779406.448 8     -1679.438          51.000
E12  24815623.680 7 130406990.337 7      2565.262          43.000    24815621.734 6  99922242.108 6      1965.698          40.000
E26  23516797.242 8 123581579.939 8     -1824.020          51.000    23516800.250 8  94692418.886 8     -1397.580          51.000
E31  23762023.156 7 124870288.940 7       578.445          42.000    23762026.164 6  95679831.445 6       443.260          37.000
E33  23534624.875 8 123675307.271 8       673.758          51.000    23534625.539 8  94764226.491 8       516.229          51.000
> 2020 05 08 13 54  0.0000000  0 16        .000000000000
G18  20376170.977 8 107077538.786 8      -544.039          50.000    20376170.914 8  83437022.966 8      -423.927          50.000
G20  23116483.328 7 121477957.752 7      3123.430          42.000    23116481.273 6  94658133.400 6      2433.841          38.000
G21  20775332.844 8 109175112.061 8      -727.352          49.000    20775331.719 8  85071509.122 8      -566.764          49.000
G26  20327999.070 8 106824348.145 8       576.746          50.000    20328001.570 8  83239767.087 8       449.413          50.000
G31  23154273.719 6 121676512.480 6     -3063.898          37.000    23154283.398 6  94812888.379 6     -2387.456          36.000
R15  22899767.688 5 122369394.591 5     -4437.383          30.000    22899765.883 5  95176193.784 5     -3451.298          32.000
R16  19669647.867 7 105071735.093 7     -1784.938          44.000    19669651.266 7  81722462.077 7     -1388.288          42.000
R18  19670858.445 5 105004394.408 5     -1517.324          35.000    19670861.758 5  81670062.439 5     -1180.135          35.000
C05                                                                  39617151.234 5 159521850.495 5        14.432          35.000
C29  21632057.109 8 112643890.831 8      -604.301          51.000
C30  24663687.680 5 128430296.856 5     -2609.414          30.000
E01  24792700.445 8 130286515.329 8     -2192.559          51.000    24792705.172 8  99829924.196 8     -1680.018          51.000
E12  24800998.383 7 130330135.795 7      2569.262          42.000    24800995.094 6  99863353.643 6      1968.631          41.000
E26  23527233.750 8 123636423.457 8     -1821.234          51.000    23527236.750 8  94734441.831 8     -1395.560          51.000
E31  23758762.945 7 124853154.235 7       574.809          43.000    23758765.000 6  95666702.287 6       440.471          38.000
E33  23530813.234 8 123655278.671 8       672.441          51.000    23530814.281 8  94748879.897 8       515.238          51.000
> 2020 05 08 13 54 30.0000000  0 16        .000000000000
G18  20379375.406 8 107094378.932 8      -572.660          49.000    20379375.422 8  83450145.164 8      -446.226          49.000
G20  23098718.312 7 121384600.564 7      3106.215          43.000    23098715.906 6  94585387.609 6      2420.430          37.000
G21  20779573.422 8 109197396.639 8      -752.293          50.000    20779572.234 8  85088873.742 8      -586.202          50.000
G26  20324800.055 8 106807536.593 8       549.836          51.000    20324802.469 8  83226667.169 8       428.444          51.000
G31  23171835.273 6 121768796.638 6     -3081.984          40.000    23171847.812 6  94884798.053 6     -2401.549          40.000
R15  22924744.156 4 122502861.954 4     -4453.910          29.000    22924743.227 5  95280001.556 5     -3464.161          31.000
R16  19679788.258 7 105125905.705 7     -1820.398          45.000    19679791.867 7  81764594.722 7     -1415.865          42.000
R17  22768744.586 4 121840122.779 4     -3533.168          29.000    22768747.406 5  94764562.168 5     -2748.023          32.000
R18  19679470.859 6 105050367.374 6     -1541.477          37.000    19679478.445 5  81705819.161 5     -1198.926          35.000
C05  39617089.008 5 206296578.519 5         8.027          33.000    39617092.180 5 159521613.762 5         5.881          35.000
C29  21635610.992 8 112662397.068 8      -623.504          51.000
E01  24805292.547 8 130352687.090 8     -2212.859          51.000    24805296.922 8  99880627.194 8     -1695.600          51.000
E12  24786394.391 7 130253392.694 7      2552.871          43.000    24786391.516 7  99804550.521 7      1956.201          43.000
E26  23537696.680 8 123691406.221 8     -1838.238          51.000    23537699.852 8  94776571.466 8     -1408.550          51.000
E31  23755565.508 7 124836349.650 7       551.453          43.000    23755567.828 6  95653826.045 6       422.554          40.000
E33  23527051.305 8 123635510.284 8       651.430          51.000    23527052.523 8  94733732.686 8       499.162          51.000
> 2020 05 08 13 55  0.0000000  0 16        .000000000000
G18  20382682.375 8 107111757.348 8      -587.625          50.000    20382682.625 8  83463686.798 8      -457.890          50.000
G20  23080991.906 7 121291444.606 7      3102.324          45.000    23080989.969 6  94512798.613 6      2417.395          40.000
G21  20783895.922 8 109220111.053 8      -763.590          50.000    20783894.703 8  85106573.291 8      -595.005          50.000
G26  20321695.172 8 106791220.239 8       536.227          51.000    20321697.625 8  83213953.137 8       417.839          51.000
G31  23189440.102 6 121861304.566 6     -3086.469          41.000    23189453.727 6  94956882.114 6     -2405.044          41.000
R15  22949753.953 5 122636508.328 5     -4457.449          32.000    22949753.555 5  95383948.446 5     -3466.914          31.000
R16  19690067.156 7 105180813.292 7     -1842.035          46.000    19690070.453 7  81807300.580 7     -1432.697          43.000
R17  22788541.273 5 121946073.979 5     -3531.434          34.000    22788547.328 5  94846968.553 5     -2746.671          32.000
R18  19688155.555 5 105096731.689 5     -1551.477          35.000    19688162.508 5  81741880.299 5     -1206.701          32.000
C05  39617031.023 5 206296276.541 5        10.520          34.000    39617034.250 5 159521379.953 5         8.334          35.000
C29  21639215.039 8 112681164.614 8      -629.363          51.000
E01  24817940.227 8 130419149.048 8     -2219.688          51.000    24817943.586 8  99931552.537 8     -1700.770          51.000
E12  24771821.297 7 130176810.811 7      2550.664          43.000    24771819.539 7  99745870.949 7      1954.378          44.000
E26  23548195.102 8 123746576.208 8     -1841.566          51.000    23548198.562 8  94818844.553 8     -1411.049          50.000
E31  23752440.219 7 124819925.514 7       541.742          42.000    23752443.398 6  95641241.307 6       414.954          40.000
E33  23523348.234 8 123616050.998 8       644.109          51.000    23523349.891 8  94718822.338 8       493.529          51.000
> 2020 05 08 13 55 30.0000000  0 16        .000000000000
G18  20386089.602 8 107129662.398 8      -605.680          49.000    20386089.500 8  83477638.779 8      -471.958          49.000
G20  23063302.359 7 121198482.436 7      3095.398          47.000    23063300.586 6  94440360.603 6      2411.999          40.000
G21  20788297.914 8 109243243.139 8      -778.152          50.000    20788296.766 8  85124598.319 8      -606.349          50.000
G26  20318682.641 8 106775389.753 8       519.523          51.000    20318685.305 8  83201617.683 8       404.823          51.000
G31  23207084.750 7 121954023.246 7     -3093.977          44.000    23207099.352 7  95029130.417 7     -2410.891          44.000
R15  22974793.695 5 122770319.051 5     -4463.312          35.000    22974794.922 5  95488023.260 5     -3471.471          31.000
R16  19700482.047 7 105236445.264 7     -1866.566          47.000    19700485.031 7  81850569.872 7     -1451.777          44.000
R17  22808342.906 5 122052035.998 5     -3532.105          35.000    22808349.109 5  94929383.372 5     -2747.196          31.000
R18  19696911.422 6 105143474.632 6     -1564.445          37.000    19696914.922 5  81778235.877 5     -1216.794          31.000
C05  39616972.219 5 206295970.299 5        10.059          34.000    39616975.477 5 159521143.147 5         7.693          35.000
C29  21642866.938 8 112700182.311 8      -638.125          51.000
E01  24830641.156 8 130485889.851 8     -2229.406          51.000    24830642.945 8  99982691.549 8     -1708.213          51.000
E12  24757277.273 7 130100380.341 7      2544.992          43.000    24757276.500 7  99687307.398 7      1950.179          45.000
E26  23558726.859 8 123801921.675 8     -1847.840          51.000    23558730.438 8  94861252.119 8     -1415.919          50.000
E31  23749385.648 7 124803872.207 7       528.871          42.000    23749388.633 6  95628940.699 6       405.221          40.000
E33  23519701.984 8 123596889.938 8       633.652          51.000    23519704.000 8  94704140.506 8       485.523          51.000
> 2020 05 08 13 56  0.0000000  0 16        .000000000000
G18  20389592.281 8 107148069.663 8      -625.445          50.000    20389592.344 8  83491982.113 8      -487.360          50.000
G20  23045645.766 8 121105693.749 8      3086.473          48.000    23045643.773 6  94368057.753 6      2405.044          41.000
G21  20792774.641 8 109266768.311 8      -794.199          50.000    20792773.484 8  85142929.622 8      -618.857          50.000
G26  20315758.383 8 106760023.077 8       501.035          51.000    20315761.062 8  83189643.634 8       390.417          51.000
G31  23224764.289 7 122046926.687 7     -3103.672          43.000    23224779.523 7  95101522.701 7     -2418.446          43.000
R15  22999859.906 5 122904267.456 5     -4470.805          33.000    22999862.617 5  95592205.207 5     -3477.299          31.000
R16  19711027.539 7 105292776.235 7     -1892.832          46.000    19711030.820 7  81894382.823 7     -1472.206          45.000
R17  22828141.477 4 122157983.211 4     -3535.133          28.000    22828148.016 5  95011786.710 5     -2749.551          32.000
R18  19705734.008 6 105190570.518 6     -1579.156          37.000    19705736.609 5  81814865.952 5     -1228.236          34.000
C05  39616908.148 5 206295636.304 5         8.027          34.000    39616911.109 5 159520884.447 5         6.549          34.000
C29  21646562.359 8 112719426.464 8      -648.684          51.000
E01  24843390.391 8 130552885.415 8     -2241.004          51.000    24843391.117 8 100034025.773 8     -1717.166          50.000
E12  24742757.883 7 130024078.665 7      2537.746          44.000    24742757.828 7  99628842.527 7      1944.381          46.000
E26  23569287.391 8 123857418.165 8     -1855.934          51.000    23569290.828 8  94903775.393 8     -1422.109          50.000
E31  23746397.570 7 124788167.482 7       514.191          44.000    23746399.641 6  95616907.211 6       393.934          40.000
E33  23516108.125 8 123578003.546 8       621.418          51.000    23516110.000 8  94689669.139 8       476.119          51.000
> 2020 05 08 13 56 30.0000000  0 15        .000000000000
G18  20393228.836 8 107167179.556 8      -641.254          50.000    20393229.219 8  83506872.938 8      -499.678          49.000
G20  23028060.742 8 121013283.088 8      3081.422          48.000    23028059.312 7  94296049.506 7      2401.111          43.000
G21  20797364.203 8 109290886.656 8      -806.430          50.000    20797363.203 8  85161723.141 8      -628.384          50.000
G26  20312960.992 8 106745322.883 8       486.195          51.000    20312963.898 8  83178188.937 8       378.850          51.000
G31  23242516.266 7 122140213.405 7     -3108.469          42.000    23242531.312 6  95174213.653 6     -2422.186          41.000
R15  23024989.078 5 123038555.102 5     -4474.707          30.000    23024992.883 5  95696650.947 5     -3480.334          32.000
R16  19721741.633 7 105350009.092 7     -1915.129          46.000    19721745.266 7  81938897.231 7     -1489.548          44.000
R18  19714659.859 5 105238221.644 5     -1590.195          34.000    19714665.414 5  81851928.038 5     -1236.819          34.000
C05                                                                  39616879.711 5 159520757.482 5         7.551          34.000
C29  21650339.750 8 112739096.082 8      -655.363          51.000
E01  24856225.891 8 130620336.454 8     -2248.531          51.000    24856226.438 8 100085708.991 8     -1722.910          51.000
E12  24728301.469 7 129948107.908 7      2534.277          43.000    24728302.023 7  99570631.209 7      1941.834          46.000
E26  23579914.875 8 123913265.967 8     -1860.031          51.000    23579918.195 8  94946567.865 8     -1425.174          50.000
E31  23743514.562 7 124773013.817 7       503.395          45.000    23743516.422 7  95605295.971 7       385.652          42.000
E33  23512604.859 8 123559593.004 8       613.156          51.000    23512606.219 8  94675562.389 8       469.827          51.000
> 2020 05 08 13 57  0.0000000  0 15        .000000000000
G18  20396928.297 8 107186620.231 8      -658.289          50.000    20396928.578 8  83522021.514 8      -512.953          50.000
G20  23010477.484 8 120920882.693 8      3075.184          48.000    23010476.836 7  94224049.233 7      2396.247          45.000
G21  20801995.797 8 109315226.125 8      -819.738          50.000    20801995.102 8  85180688.960 8      -638.757          50.000
G26  20310220.211 8 106730919.641 8       470.434          51.000    20310223.312 8  83166965.618 8       366.572          51.000
G31  23260270.016 6 122233509.865 6     -3114.551          41.000    23260279.133 6  95246912.274 6     -2426.920          41.000
R16  19732553.727 7 105407764.947 7     -1938.797          46.000    19732557.516 7  81983818.414 7     -1507.956          45.000
R17  22867768.023 4 122370044.955 4     -3532.320          27.000    22867779.016 4  95176726.888 4     -2747.360          29.000
R18  19723620.547 6 105286049.323 6     -1601.883          36.000    19723622.984 5  81889127.244 5     -1245.915          32.000
C05                                                                  39616810.797 5 159520480.209 5         8.334          35.000
C29  21654128.203 8 112758823.193 8      -663.219          51.000
E01  24869077.133 8 130687871.452 8     -2257.383          51.000    24869077.477 8 100137456.541 8     -1729.722          50.000
E12  24713837.336 7 129872098.015 7      2529.457          43.000    24713838.484 7  99512389.899 7      1938.152          45.000
E26  23590538.477 8 123969093.211 8     -1865.320          50.000    23590541.852 8  94989344.578 8     -1429.295          50.000
E31  23740665.898 7 124758041.582 7       491.246          45.000    23740667.930 7  95593823.718 7       376.367          43.000
E33  23509121.555 8 123541287.291 8       603.621          51.000    23509122.516 8  94661535.947 8       462.515          51.000
> 2020 05 08 13 57 30.0000000  0 15        .000000000000
G18  20400744.555 8 107206674.096 8      -674.969          51.000    20400744.812 8  83537647.896 8      -525.950          51.000
G20  22992950.578 8 120828779.126 8      3068.742          48.000    22992951.047 7  94152280.259 7      2391.231          46.000
G21  20806723.117 8 109340068.702 8      -832.785          50.000    20806722.523 8  85200046.806 8      -648.923          50.000
G26  20307590.141 8 106717098.131 8       454.648          51.000    20307592.992 8  83156195.613 8       354.272          51.000
G31  23278079.242 6 122327097.282 6     -3120.750          40.000    23278081.398 6  95319837.510 6     -2431.753          41.000
R16  19743517.391 7 105466330.523 7     -1961.863          46.000    19743521.109 7  82029369.416 7     -1525.894          44.000
R17  22887586.461 5 122476093.670 5     -3532.242          32.000    22887594.977 4  95259200.337 4     -2747.303          25.000
R18  19732666.117 5 105334339.627 5     -1613.852          32.000    19732668.570 5  81926686.354 5     -1255.221          34.000
C05  39616755.711 5 206294842.687 5        11.871          34.000    39616758.477 5 159520269.028 5         8.871          35.000
C29  21657981.414 8 112778888.161 8      -670.809          51.000
E01  24881998.117 8 130755773.143 8     -2265.867          51.000    24881998.117 8 100189485.089 8     -1736.175          50.000
E12  24699419.742 7 129796333.262 7      2525.152          43.000    24699421.414 7  99454336.440 7      1934.785          46.000
E26  23601211.664 8 124025182.339 8     -1870.355          50.000    23601215.344 8  95032321.945 8     -1433.025          49.000
E31  23737905.367 7 124743535.293 7       479.508          44.000    23737907.727 7  95582708.513 7       367.355          43.000
E33  23505712.086 8 123523369.662 8       594.465          51.000    23505712.938 8  94647806.865 8       455.499          51.000
> 2020 05 08 13 58  0.0000000  0 14        .000000000000
G18  20404654.516 8 107227220.284 8      -694.477          51.000    20404654.961 8  83553657.927 8      -541.151          51.000
G20  22975458.008 7 120736855.903 7      3059.602          47.000    22975459.523 7  94080651.814 7      2384.105          47.000
G21  20811523.156 8 109365293.601 8      -848.492          50.000    20811522.688 8  85219702.561 8      -661.163          50.000
G26  20305048.102 8 106703739.803 8       436.180          51.000    20305050.750 8  83145786.526 8       339.880          51.000
G31  23295920.789 6 122420852.857 6     -3129.480          39.000    23295919.000 6  95392893.702 6     -2438.559          40.000
R16  19754609.422 7 105525581.923 7     -1987.965          46.000    19754613.102 7  82075453.818 7     -1546.195          44.000
R17  22907402.656 5 122582111.538 5     -3534.758          33.000
C05  39616696.945 5 206294537.079 5         9.594          34.000    39616699.617 5 159520032.311 5         7.098          34.000
C29  21661876.586 8 112799171.709 8      -681.062          51.000
E01  24894966.070 8 130823921.003 8     -2277.090          51.000    24894966.406 8 100241702.261 8     -1744.801          51.000
E12  24685026.359 7 129720694.627 7      2517.770          44.000    24685028.156 7  99396379.605 7      1929.167          47.000
E26  23611911.727 8 124081412.430 8     -1878.051          49.000    23611915.516 8  95075407.345 8     -1439.086          49.000
E31  23735210.539 7 124729376.280 7       464.918          45.000    23735213.547 7  95571859.387 7       356.062          44.000
E33  23502353.773 8 123505720.089 8       582.398          51.000    23502354.281 8  94634283.182 8       446.265          51.000
> 2020 05 08 13 58 30.0000000  0 16        .000000000000
G18  20408662.039 8 107248279.046 8      -716.840          51.000    20408662.406 8  83570067.364 8      -558.577          51.000
G20  22958003.938 7 120645137.113 7      3047.422          45.000    22958006.500 7  94009182.687 7      2374.617          45.000
G21  20816399.766 8 109390920.626 8      -867.219          49.000    20816399.523 8  85239671.661 8      -675.755          49.000
G26  20302598.477 8 106690867.249 8       414.551          51.000    20302601.227 8  83135755.955 8       323.027          51.000
G31  23313798.859 6 122514795.204 6     -3140.516          38.000    23313794.219 6  95466095.423 6     -2447.155          38.000
R16  19765833.727 7 105585539.051 7     -2016.871          47.000    19765836.844 7  82122087.105 7     -1568.678          44.000
R17  22927215.312 5 122688123.412 5     -3539.707          32.000    22927223.250 4  95424158.454 4     -2753.102          25.000
R18  19750950.195 6 105431914.523 6     -1645.035          37.000    19750946.859 4  82002584.406 4     -1279.475          29.000
C05  39616636.055 5 206294218.777 5         3.984          34.000    39616638.461 5 159519786.502 5         3.274          34.000
C29  21665817.844 8 112819694.440 8      -694.418          51.000
C30  24799807.672 5 129139023.931 5     -2636.730          34.000
E01  24907985.148 8 130892335.624 8     -2291.375          51.000    24907986.016 8 100294123.842 8     -1755.738          51.000
E12  24670661.172 7 129645204.195 7      2507.387          44.000    24670662.727 7  99338536.316 7      1921.250          47.000
E26  23622642.688 8 124137803.779 8     -1888.770          50.000    23622646.336 8  95118616.299 8     -1447.317          49.000
E31  23732586.156 7 124715586.913 7       447.145          46.000    23732589.398 7  95561293.497 7       342.471          44.000
E33  23499050.430 8 123488359.682 8       567.352          51.000    23499050.508 8  94620981.058 8       434.736          51.000
> 2020 05 08 13 59  0.0000000  0 16        .000000000000
G18  20412785.031 8 107269944.944 8      -729.586          51.000    20412785.141 8  83586949.872 8      -568.509          51.000
G20  22940607.375 7 120553721.943 7      3044.984          43.000    22940610.922 7  93937950.119 7      2372.718          43.000
G21  20821370.812 8 109417044.164 8      -876.387          49.000    20821370.680 8  85260027.677 8      -682.899          49.000
G26  20300259.758 8 106678577.335 8       402.758          51.000    20300262.555 8  83126179.391 8       313.837          51.000
G31  23331730.719 6 122609017.238 6     -3142.371          38.000    23331723.805 6  95539515.094 6     -2448.604          36.000
R16  19777207.930 8 105646296.803 8     -2035.816          48.000    19777210.688 7  82169343.079 7     -1583.416          44.000
R17  22947045.172 5 122794225.699 5     -3534.879          30.000
R18  19760212.570 5 105481355.210 5     -1652.914          33.000    19760216.570 5  82041037.678 5     -1285.597          35.000
C05  39616591.109 5 206293985.617 5         9.496          34.000    39616593.398 5 159519605.050 5         7.307          34.000
C29  21669823.344 8 112840550.589 8      -698.070          51.000
C30  24814985.172 5 129218059.371 5     -2634.445          32.000
E01  24921073.453 8 130961111.958 8     -2295.898          51.000    24921074.406 8 100346822.560 8     -1759.240          51.000
E12  24656342.336 7 129569958.253 7      2506.816          43.000    24656343.594 7  99280880.400 7      1920.700          47.000
E26  23633422.398 8 124194450.973 8     -1889.746          50.000    23633426.055 8  95162021.280 8     -1448.062          48.000
E31  23730050.789 7 124702263.938 7       438.898          46.000    23730053.789 7  95551084.950 7       336.436          44.000
E33  23495820.023 8 123471383.829 8       562.078          51.000    23495819.938 8  94607973.582 8       430.710          51.000
> 2020 05 08 13 59 30.0000000  0 17        .000000000000
G18  20416983.234 8 107292006.352 8      -751.316          51.000    20416983.508 8  83604140.600 8      -585.441          51.000
G20  22923229.070 7 120462403.070 7      3032.941          42.000    22923233.227 7  93866792.551 7      2363.328          42.000
G21  20826396.164 8 109443452.470 8      -894.422          50.000    20826395.727 8  85280605.570 8      -696.952          50.000
G26  20297992.094 8 106666660.798 8       381.590          51.000    20297994.914 8  83116893.768 8       297.343          51.000
G29  22886181.484 5 120267690.622 5     -2671.754          33.000    22886191.109 5  93715117.576 5     -2081.895          32.000
G31  23349675.883 6 122703306.182 6     -3153.480          38.000    23349666.555 6  95612986.880 6     -2457.261          36.000
R16  19788691.820 8 105707639.833 8     -2064.133          48.000    19788694.273 7  82217054.297 7     -1605.437          44.000
R17  22966849.414 5 122900202.354 5     -3540.082          30.000
R18  19769520.766 6 105531033.105 6     -1669.277          37.000    19769526.688 5  82079676.176 5     -1298.327          34.000
C05                                                                  39616524.445 5 159519326.893 5         4.250          34.000
C29  21673852.656 8 112861531.026 8      -710.730          51.000
C30  24830152.359 4 129297100.824 4     -2639.398          29.000
E01  24934190.523 8 131030038.723 8     -2309.445          51.000    24934190.969 8 100399636.539 8     -1769.566          51.000
E12  24642029.930 7 129494747.082 7      2497.230          43.000    24642030.977 7  99223251.146 7      1913.429          46.000
E26  23644210.555 8 124251142.452 8     -1899.789          49.000    23644214.383 8  95205460.188 8     -1455.718          48.000
E31  23727564.484 7 124689197.872 7       421.914          47.000    23727567.336 7  95541073.299 7       323.243          45.000
E33  23492622.594 8 123454581.802 8       547.773          51.000    23492622.719 8  94595099.304 8       419.728          51.000
