     3.04           OBSERVATION DATA    M (MIXED)           RINEX VERSION / TYPE
Convert 2.6.2       NovAtel             20200515 160616 UTC PGM / RUN BY / DATE 
Rinex Version 3.04 Observation File                         COMMENT             
                                                            MARKER NAME         
                                                            MARKER NUMBER       
                                                            MARKER TYPE         
                                                            OBSERVER / AGENCY   
                    NovAtel GPSCard                         REC # / TYPE / VERS 
                                                            ANT # / TYPE        
        0.0000        0.0000        0.0000                  APPROX POSITION XYZ 
        0.0000        0.0000        0.0000                  ANTENNA: DELTA H/E/N
G    8 C1C L1C D1C S1C C2W L2W D2W S2W                      SYS / # / OBS TYPES 
R    8 C1C L1C D1C S1C C2P L2P D2P S2P                      SYS / # / OBS TYPES 
E    8 C1C L1C D1C S1C C7Q L7Q D7Q S7Q                      SYS / # / OBS TYPES 
C    8 C2I L2I D2I S2I C7I L7I D7I S7I                      SYS / # / OBS TYPES 
DBHZ                                                        SIGNAL STRENGTH UNIT
    30.000                                                  INTERVAL            
  2020    05    11    22    00    0.0000000     GPS         TIME OF FIRST OBS   
  2020    05    11    22    59   30.0000000     GPS         TIME OF LAST OBS    
G L1C  0.00000  08 G09 G17 G03 G04 G01 G31 G22 G19          SYS / PHASE SHIFT   
G L2W  0.00000  08 G09 G17 G03 G04 G01 G31 G22 G19          SYS / PHASE SHIFT   
R L1C  0.00000  08 R17 R02 R03 R11 R18 R04 R12 R13          SYS / PHASE SHIFT   
R L2P  0.25000  08 R17 R02 R03 R11 R18 R04 R12 R13          SYS / PHASE SHIFT   
E L1C  0.50000  04 E05 E36 E09 E03                          SYS / PHASE SHIFT   
E L7Q -0.25000  04 E05 E36 E09 E03                          SYS / PHASE SHIFT   
C L2I  0.00000  05 C19 C29 C20 C30 C23                      SYS / PHASE SHIFT   
C L7I  0.00000  01 C05                                      SYS / PHASE SHIFT   
  8 R17  4 R02 -4 R03  5 R11  0 R18 -3 R04  6 R12 -1 R13 -2 GLONASS SLOT / FRQ #
 C1C  -71.950 C2C  -71.950 C2P  -71.950                     GLONASS COD/PHS/BIS 
    18    18  1929     7GPS                                 LEAP SECONDS        
                                                            END OF HEADER       
> 2020 05 11 22 00  0.0000000  0 17      -0.000000000000
G09  22156714.281 8 116434412.782 8      2932.152          48.000    22156716.422 8  90728099.008 8      2284.795          48.000  
G17  22259312.711 5 116973475.811 5     -1181.066          34.000    22259319.688 5  91148180.339 5      -920.309          31.000  
G03  20721674.820 8 108893133.978 8     -1190.395          51.000    20721676.445 8  84851836.972 8      -927.580          51.000  
G04  20413270.883 8 107272456.617 8       993.051          51.000    20413270.867 8  83588945.511 8       773.806          51.000  
G01  22653064.859 8 119042645.341 8     -3180.238          51.000    22653068.758 8  92760508.154 8     -2478.112          51.000  
G31  23592212.945 5 123977921.211 5     -1441.664          33.000    23592215.648 5  96606175.467 5     -1123.369          31.000  
R17  20115664.352 8 107642623.240 8     -2934.746          49.000    20115667.453 8  83722016.610 8     -2282.581          48.000  
R02  19684860.078 6 105041802.026 6     -1528.012          39.000    19684863.172 6  81699163.951 6     -1188.451          37.000  
R03  20396304.984 4 109182598.293 4      1812.727          28.000    20396295.219 4  84919779.91024      1409.899          25.000  
R11  22973655.672 6 122763867.825 6       876.520          36.000    22973658.164 4  95483017.594 4       681.731          29.000  
E05  23913196.844 8 125664685.288 8      1222.766          51.000    23913197.734 8  96288565.311 8       936.919          51.000  
E36  23963492.953 8 125929014.937 8     -1912.719          50.000    23963496.352 8  96491066.063 8     -1465.588          51.000  
E09  22048633.141 8 115866431.180 8     -1326.203          51.000    22048635.023 8  88780784.939 8     -1016.266          51.000  
C19  23088549.008 4 120228137.778 4      1908.387          29.000                                                                  
C29  22868404.828 8 119081782.025 8     -1996.344          50.000                                                                  
C05                                                                  39731977.555 5 159984208.29725       -21.842          34.000  
C20  21986000.227 8 114486957.974 8      -541.500          51.000                                                                  
> 2020 05 11 22 00 30.0000000  0 15      -0.000000000000
G09  22140051.867 8 116346850.189 8      2918.316          50.000    22140053.109 8  90659868.438 8      2274.017          50.000  
G17  22266155.109 5 117009430.502 5     -1202.551          34.000                                                                  
G03  20728544.266 8 108929232.900 8     -1203.023          51.000    20728545.859 8  84879966.010 8      -937.421          51.000  
G04  20407696.992 8 107243168.149 8       972.656          50.000    20407697.430 8  83566123.330 8       757.914          50.000  
G01  22671292.766 8 119138430.738 8     -3192.559          50.000    22671295.945 8  92835146.088 8     -2487.712          49.000  
R17  20132221.477 8 107731228.905 8     -2958.988          48.000    20132225.344 8  83790932.125 8     -2301.436          48.000  
R02  19693529.633 7 105088060.822 7     -1542.969          42.000    19693533.906 5  81735143.015 5     -1200.090          34.000  
R11  22968850.484 5 122738185.047 5       848.879          32.000    22968850.648 5  95463042.198 5       660.242          31.000  
E05  23906288.508 8 125628382.756 8      1210.465          51.000    23906289.953 8  96260749.103 8       927.470          51.000  
E36  23974490.289 8 125986808.324 8     -1927.211          49.000    23974493.773 8  96535349.313 8     -1476.782          51.000  
E09  22056271.633 8 115906570.983 8     -1336.691          51.000    22056273.438 8  88811541.419 8     -1024.308          51.000  
C19  23077618.328 5 120171245.242 5      1898.344          33.000                                                                  
C29  22879992.117 8 119142116.256 8     -2013.133          50.000                                                                  
C05                                                                  39732183.781 5 159985038.408 5       -23.865          34.000  
C20  21989190.125 8 114503568.521 8      -552.930          51.000                                                                  
> 2020 05 11 22 01  0.0000000  0 14      -0.000000000000
G09  22123416.211 8 116259426.238 8      2907.758          50.000    22123416.445 8  90591745.903 8      2265.786          50.000  
G22  22401141.391 6 117718810.980 6     -2184.840          37.000                                                                  
G03  20735433.227 8 108965434.339 8     -1212.648          51.000    20735434.750 8  84908174.925 8      -944.921          51.000  
G04  20402187.211 8 107214215.913 8       955.277          50.000    20402187.883 8  83543563.136 8       744.372          50.000  
G01  22689537.242 8 119234305.045 8     -3201.418          49.000    22689539.805 8  92909853.289 8     -2494.612          49.000  
R17  20148862.164 8 107820279.517 8     -2980.062          50.000    20148866.438 7  83860193.694 7     -2317.827          47.000  
R02  19702228.625 6 105134480.311 6     -1554.414          41.000    19702231.641 5  81771246.999 5     -1208.992          35.000  
R11  22964142.633 5 122713035.891 5       825.039          34.000    22964144.828 5  95443481.848 5       641.700          32.000  
E05  23899396.602 8 125592168.854 8      1201.453          51.000    23899399.344 8  96233000.811 8       920.580          51.000  
E36  23985517.617 8 126044756.108 8     -1938.410          51.000    23985520.742 8  96579750.845 8     -1485.297          51.000  
E09  22063916.609 8 115946745.278 8     -1343.922          51.000    22063918.266 8  88842324.316 8     -1029.777          51.000  
C29  22891623.789 8 119202681.012 8     -2026.723          50.000                                                                  
C20  21992393.047 8 114520246.447 8      -561.203          51.000                                                                  
C30  25830245.078 4 134504858.23824     -3493.703          28.000                                                                  
> 2020 05 11 22 01 30.0000000  0 15      -0.000000000000
G09  22106848.422 8 116172359.648 8      2896.484          50.000    22106848.617 8  90523901.853 8      2257.005          50.000  
G22  22413630.578 6 117784439.235 6     -2190.738          38.000    22413630.250 4  91780067.075 4     -1707.075          29.000  
G03  20742382.945 8 109001955.099 8     -1222.461          51.000    20742384.422 8  84936632.642 8      -952.567          51.000  
G04  20396783.094 8 107185817.286 8       937.695          50.000    20396783.836 8  83521434.342 8       730.672          51.000  
G01  22707838.859 7 119330483.810 7     -3210.578          45.000    22707841.609 7  92984797.744 7     -2501.750          45.000  
G31  23617463.039 6 124110612.270 6     -1501.723          36.000    23617465.117 6  96709571.800 6     -1170.174          37.000  
R17  20165627.867 8 107909992.943 8     -3001.219          51.000    20165631.367 7  83929970.787 7     -2334.282          45.000  
R02  19710998.633 6 105181279.207 6     -1566.023          39.000    19711001.914 5  81807646.178 5     -1218.018          35.000  
R11  22959578.016 5 122688642.922 5       800.965          35.000    22959580.586 5  95424509.621 5       622.973          32.000  
E05  23892562.867 8 125556260.697 8      1192.203          51.000    23892566.875 8  96205486.784 8       913.507          51.000  
E36  23996615.844 8 126103074.572 8     -1949.898          51.000    23996618.492 8  96624436.400 8     -1494.037          51.000  
E09  22071609.234 8 115987170.141 8     -1351.348          51.000    22071610.695 8  88873299.204 8     -1035.416          51.000  
C29  22903340.438 8 119263689.744 8     -2040.730          51.000                                                                  
C20  21995650.000 8 114537206.417 8      -569.793          51.000                                                                  
C30  25850378.305 5 134609668.664 5     -3494.555          32.000                                                                  
> 2020 05 11 22 02  0.0000000  0 17      -0.000000000000
G09  22090373.609 8 116085782.351 8      2876.055          50.000    22090373.820 8  90456439.062 8      2241.082          50.000  
G22  22426184.516 6 117850412.472 6     -2206.191          37.000    22426180.594 4  91831466.968 4     -1719.102          27.000  
G17  22287210.984 6 117120108.225 6     -1263.727          37.000    22287208.477 6  91262389.881 6      -984.722          36.000  
G03  20749418.141 8 109038925.120 8     -1241.375          51.000    20749419.586 8  84965440.451 8      -967.305          51.000  
G04  20391509.242 8 107158102.817 8       910.867          51.000    20391510.289 8  83499838.687 8       709.770          51.000  
G01  22726222.453 7 119427095.805 7     -3229.113          43.000    22726225.297 7  93060079.790 7     -2516.196          43.000  
G31  23626117.320 6 124156086.173 6     -1529.199          38.000    23626117.961 6  96745006.020 6     -1191.584          38.000  
R17  20182541.672 8 108000498.588 8     -3031.688          51.000    20182543.977 7  84000364.079 7     -2357.980          44.000  
R02  19719864.398 6 105228587.979 6     -1586.992          38.000    19719866.422 5  81844441.870 5     -1234.321          34.000  
R03  20356360.828 5 108968779.40625      1747.641          32.000                                                                  
R11  22955180.203 5 122665140.772 5       766.973          35.000    22955183.555 5  95406230.096 5       596.531          31.000  
E05  23885812.688 8 125520788.640 8      1173.551          51.000    23885816.875 8  96178306.906 8       899.224          51.000  
E36  24007809.328 8 126161893.350 8     -1970.566          51.000    24007811.570 8  96669505.322 8     -1509.808          51.000  
E09  22079374.109 8 116027974.865 8     -1368.008          51.000    22079375.547 8  88904565.161 8     -1048.193          51.000  
C19  23045006.070 5 120001379.257 5      1868.441          34.000                                                                  
C29  22915165.914 8 119325269.832 8     -2063.770          48.000                                                                  
C20  21998985.641 8 114554576.987 8      -587.418          51.000                                                                  
> 2020 05 11 22 02 30.0000000  0 17      -0.000000000000
G09  22073924.531 8 115999341.347 8      2881.992          49.000    22073924.664 8  90389082.487 8      2245.709          48.000  
G22  22438736.625 5 117916375.645 5     -2195.383          35.000                                                                  
G17  22294414.656 6 117157961.393 6     -1264.480          36.000    22294413.242 5  91291898.918 5      -985.316          34.000  
G03  20756471.203 8 109075989.473 8     -1234.238          51.000    20756472.688 8  84994321.759 8      -961.744          51.000  
G04  20386298.312 8 107130718.178 8       910.184          50.000    20386299.133 8  83478500.014 8       709.234          50.000  
G01  22744620.844 7 119523784.896 7     -3221.328          43.000    22744623.164 7  93135421.885 7     -2510.126          43.000  
G31  23634841.492 6 124201926.738 6     -1531.465          38.000    23634841.281 6  96780725.924 6     -1193.350          38.000  
R17  20199534.898 8 108091432.343 8     -3035.293          51.000    20199537.242 7  84071090.320 7     -2360.787          44.000  
R02  19728757.625 6 105276044.383 6     -1581.680          38.000    19728760.258 5  81881352.484 5     -1230.193          35.000  
R03  20346539.727 5 108916230.973 5      1752.203          33.000                                                                  
R11  22950881.352 6 122642170.208 6       759.828          37.000    22950884.984 5  95388364.138 5       590.978          31.000  
E05  23879078.242 8 125485398.070 8      1181.293          51.000    23879081.766 8  96151189.488 8       905.150          51.000  
E36  24019030.180 8 126220857.024 8     -1964.871          51.000    24019032.492 8  96714685.287 8     -1505.471          51.000  
E09  22087143.609 8 116068803.897 8     -1358.418          51.000    22087145.227 8  88935849.734 8     -1040.788          51.000  
C29  22927031.797 7 119387068.143 7     -2060.656          47.000                                                                  
C20  22002332.688 8 114572006.264 8      -579.004          51.000                                                                  
C30  25890663.469 5 134819457.283 5     -3487.246          32.000                                                                  
> 2020 05 11 22 03  0.0000000  0 17      -0.000000000000
G09  22057547.625 7 115913282.723 7      2861.578          47.000    22057548.734 7  90322023.827 7      2229.802          47.000  
G22  22451334.000 6 117982572.629 6     -2211.199          40.000    22451334.695 5  91934460.950 5     -1723.013          31.000  
G17  22301726.961 5 117196383.318 5     -1291.230          34.000    22301719.938 5  91321838.090 5     -1006.160          34.000  
G03  20763588.641 8 109113392.244 8     -1253.031          51.000    20763590.031 8  85023466.753 8      -976.388          51.000  
G04  20381196.445 8 107103907.990 8       883.371          50.000    20381197.156 8  83457608.960 8       688.341          50.000  
G01  22763080.875 7 119620793.936 7     -3239.559          45.000    22763083.188 7  93211013.317 7     -2524.332          45.000  
G31  23643680.781 6 124248376.879 6     -1559.270          40.000    23643680.266 6  96816920.872 6     -1215.016          39.000  
R17  20216654.453 8 108183039.807 8     -3065.547          51.000    20216656.523 7  84142340.523 7     -2384.318          44.000  
R02  19737725.492 6 105323895.678 6     -1602.227          39.000    19737729.445 5  81918570.139 5     -1246.177          34.000  
R03  20336803.477 5 108864114.51125      1728.781          31.000                                                                  
R11  22946729.945 6 122619981.968 6       726.035          36.000    22946732.352 5  95371106.630 5       564.697          34.000  
E05  23872405.867 8 125450333.456 8      1162.684          51.000    23872408.766 8  96124321.828 8       890.891          51.000  
E36  24030324.680 8 126280209.317 8     -1985.602          51.000    24030327.469 8  96760163.030 8     -1521.442          51.000  
E09  22094963.992 8 116109900.632 8     -1375.047          51.000    22094965.773 8  88967339.441 8     -1053.665          51.000  
C29  22938986.117 7 119449325.204 7     -2083.539          46.000                                                                  
C20  22005737.594 8 114589735.966 8      -596.742          51.000                                                                  
C30  25910802.703 5 134924313.084 5     -3496.871          32.000                                                                  
> 2020 05 11 22 03 30.0000000  0 16      -0.000000000000
G09  22041236.977 7 115827574.731 7      2851.492          46.000    22041239.719 7  90255238.359 7      2221.943          46.000  
G22  22463969.242 6 118048970.051 6     -2216.305          36.000                                                                  
G17  22309141.633 5 117235338.942 5     -1306.980          35.000    22309130.641 5  91352193.118 5     -1018.430          35.000  
G03  20770764.109 8 109151099.833 8     -1261.488          51.000    20770765.195 8  85052849.276 8      -982.978          51.000  
G04  20376197.602 8 107077639.156 8       867.047          49.000    20376198.688 8  83437139.761 8       675.621          49.000  
G01  22781595.648 7 119718088.077 7     -3247.215          46.000    22781598.875 7  93286826.899 7     -2530.298          46.000  
G31  23652629.367 6 124295401.775 6     -1576.703          38.000    23652628.688 6  96853563.717 6     -1228.597          38.000  
R17  20233893.125 8 108275283.684 8     -3084.836          51.000    20233893.945 7  84214085.706 7     -2399.320          44.000  
R02  19746759.945 6 105372105.353 6     -1612.340          37.000    19746764.414 5  81956066.557 5     -1254.042          32.000  
R11  22942717.898 5 122598543.620 5       702.480          35.000    22942721.023 5  95354432.438 5       546.377          35.000  
E05  23865789.305 8 125415561.466 8      1154.789          51.000    23865792.141 8  96097678.363 8       884.812          51.000  
E36  24041686.016 8 126339916.121 8     -1995.660          49.000    24041689.367 8  96805912.382 8     -1529.107          51.000  
E09  22102828.711 8 116151230.762 8     -1380.957          51.000    22102830.445 8  88999007.970 8     -1058.178          51.000  
C29  22951023.664 8 119512006.300 8     -2095.836          48.000                                                                  
C20  22009193.633 8 114607732.549 8      -603.688          51.000                                                                  
C30  25930944.203 5 135029191.397 5     -3495.684          30.000                                                                  
> 2020 05 11 22 04  0.0000000  0 17      -0.000000000000
G09  22024991.414 8 115742204.153 8      2841.770          49.000    22024994.594 8  90188715.831 8      2214.366          49.000  
G22  22476639.508 6 118115553.203 6     -2220.633          39.000                                                                  
G17  22316654.016 6 117274811.912 6     -1322.957          36.000    22316646.367 5  91382951.165 5     -1030.876          34.000  
G03  20777994.742 8 109189097.163 8     -1269.699          51.000    20777995.414 8  85082457.579 8      -989.376          51.000  
G04  20371298.766 8 107051897.100 8       851.051          48.000    20371300.008 8  83417081.018 8       663.157          48.000  
G01  22800161.500 7 119815650.941 7     -3254.672          45.000    22800165.953 7  93362849.896 7     -2536.109          45.000  
G31  23661684.359 6 124342985.043 6     -1593.121          36.000    23661683.711 6  96890641.637 6     -1241.393          37.000  
R17  20251246.711 8 108368145.739 8     -3103.895          51.000    20251246.969 7  84286311.698 7     -2414.141          45.000  
R02  19755858.828 6 105420657.206 6     -1622.125          37.000    19755862.203 5  81993829.079 5     -1261.656          31.000  
R11  22938842.945 6 122577842.047 6       679.484          37.000    22938847.180 5  95338331.201 5       528.488          32.000  
E05  23859225.492 8 125381067.344 8      1146.902          51.000    23859228.758 8  96071247.790 8       878.808          51.000  
E36  24053111.266 8 126399961.901 8     -2005.445          48.000    24053114.969 8  96851921.470 8     -1536.704          51.000  
E09  22110734.875 8 116192778.574 8     -1386.793          51.000    22110736.406 8  89030843.292 8     -1062.662          51.000  
C19  23002043.625 5 119777666.290 5      1851.613          32.000                                                                  
C29  22963140.227 8 119575095.066 8     -2107.961          50.000                                                                  
C20  22012697.805 8 114625980.889 8      -610.738          51.000                                                                  
C30  25951084.250 4 135134105.68524     -3495.172          29.000                                                                  
> 2020 05 11 22 04 30.0000000  0 17      -0.000000000000
G09  22008802.320 8 115657127.484 8      2828.449          50.000    22008804.922 8  90122422.369 8      2203.990          50.000  
G22  22489336.930 6 118182276.316 6     -2229.410          38.000                                                                  
G17  22324255.656 5 117314754.48225     -1341.668          31.000    22324251.195 4  91414076.01724     -1045.456          29.000  
G03  20785271.938 8 109227338.831 8     -1281.176          51.000    20785272.391 8  85112256.269 8      -998.319          51.000  
G04  20366491.695 8 107026636.958 8       831.512          49.000    20366492.711 8  83397397.779 8       647.934          49.000  
G01  22818769.266 7 119913435.954 7     -3265.715          45.000    22818774.641 7  93439046.031 7     -2544.714          45.000  
G31  23670836.312 5 124391080.539 5     -1613.777          32.000    23670836.375 5  96928118.656 5     -1257.492          31.000  
R17  20268706.227 8 108461576.647 8     -3126.367          51.000    20268706.562 7  84358980.159 7     -2431.619          45.000  
R02  19765012.805 6 105469503.523 6     -1635.887          37.000    19765016.891 4  82031820.631 4     -1272.354          29.000  
R11  22935097.906 6 122557833.021 6       652.512          36.000    22935102.133 5  95322768.594 5       507.509          31.000  
E05  23852705.789 8 125346806.021 8      1135.668          51.000    23852709.352 8  96044995.588 8       870.110          51.000  
E36  24064592.672 8 126460300.778 8     -2018.570          49.000    24064596.320 8  96898155.135 8     -1546.787          51.000  
E09  22118673.812 8 116234498.005 8     -1395.988          51.000    22118675.164 8  89062810.126 8     -1069.717          51.000  
C19  22991404.359 5 119722228.323 5      1842.816          32.000                                                                  
C29  22975326.414 8 119638545.129 8     -2123.336          50.000                                                                  
C20  22016241.578 8 114644435.796 8      -621.016          51.000                                                                  
C30  25971219.469 4 135238949.078 4     -3497.477          29.000                                                                  
> 2020 05 11 22 05  0.0000000  0 16      -0.000000000000
G09  21992691.844 8 115572463.890 8      2819.023          50.000    21992692.648 8  90056450.795 8      2196.642          50.000  
G22  22502083.391 5 118249245.724 5     -2232.582          33.000                                                                  
G03  20792617.930 8 109265942.090 8     -1289.055          51.000    20792618.414 8  85142336.709 8     -1004.462          51.000  
G04  20361799.078 8 107001976.354 8       815.969          50.000    20361799.984 8  83378181.744 8       635.820          49.000  
G01  22837441.516 7 120011559.038 7     -3272.594          45.000    22837447.117 7  93515505.604 7     -2550.074          45.000  
R17  20286293.555 8 108555692.947 8     -3144.656          49.000    20286294.469 7  84432181.730 7     -2445.844          45.000  
R02  19774243.648 6 105518761.859 6     -1644.828          36.000    19774249.227 4  82070132.690 4     -1279.314          29.000  
R11  22931504.383 5 122538637.580 5       629.961          34.000    22931510.023 5  95307838.807 5       489.970          32.000  
E05  23846252.836 8 125312894.972 8      1128.453          51.000    23846255.859 8  96019011.774 8       864.647          51.000  
E03  27652172.930 6 145313165.253 6      2618.285          41.000                                                                  
E36  24076152.836 8 126521049.455 8     -2027.879          51.000    24076155.922 8  96944702.819 8     -1553.866          51.000  
E09  22126667.562 8 116276505.573 8     -1401.172          51.000    22126668.961 8  89094997.743 8     -1073.635          51.000  
C19  22980813.484 5 119667123.389 5      1838.320          31.000                                                                  
C29  22987603.906 8 119702471.115 8     -2134.977          51.000                                                                  
C20  22019847.391 8 114663213.225 8      -627.492          51.000                                                                  
C30  25991368.094 4 135343874.228 4     -3494.980          29.000                                                                  
> 2020 05 11 22 05 30.0000000  0 16      -0.000000000000
G09  21976645.805 8 115488142.966 8      2807.914          48.000    21976645.938 7  89990746.183 7      2187.986          47.000  
G22  22514865.289 5 118316414.74025     -2238.535          31.000                                                                  
G03  20800018.945 8 109304834.541 8     -1298.406          51.000    20800019.406 8  85172642.499 8     -1011.745          51.000  
G04  20357206.805 8 106977843.446 8       798.457          50.000    20357207.523 8  83359376.902 8       622.174          48.000  
G01  22856164.398 7 120109946.640 7     -3281.211          47.000    22856169.773 7  93592171.254 7     -2556.789          47.000  
R17  20303994.250 8 108650418.028 8     -3164.730          48.000    20303996.336 7  84505856.805 7     -2461.458          44.000  
R02  19783538.266 6 105568357.289 6     -1655.891          37.000    19783543.844 4  82108707.008 4     -1287.909          28.000  
R03  20289257.086 4 108609595.05624      1666.332          29.000                                                                  
R11  22928050.141 5 122520184.485 5       605.812          31.000    22928056.727 5  95293486.343 5       471.182          31.000  
E05  23839852.906 8 125279262.204 8      1119.262          51.000    23839855.156 8  95993241.213 8       857.605          51.000  
E03  27637250.750 6 145234755.772 6      2614.566          41.000                                                                  
E36  24087777.703 8 126582135.139 8     -2039.020          51.000    24087779.617 8  96991508.717 8     -1562.337          51.000  
E09  22134702.117 8 116318728.287 8     -1408.168          51.000    22134703.781 8  89127350.212 8     -1078.998          51.000  
C29  22999958.414 8 119766799.934 8     -2148.172          51.000                                                                  
C20  22023501.633 8 114682241.335 8      -635.609          51.000                                                                  
C30  26011513.477 5 135448790.708 5     -3495.188          30.000                                                                  
> 2020 05 11 22 06  0.0000000  0 15      -0.000000000000
G09  21960650.906 8 115404092.302 8      2797.137          49.000    21960652.516 8  89925252.157 8      2179.588          49.000  
G22  22527671.414 5 118383713.568 5     -2243.988          34.000                                                                  
G17  22347667.602 5 117437784.418 5     -1390.500          30.000    22347670.234 5  91509959.339 5     -1083.510          32.000  
G03  20807460.930 8 109343942.045 8     -1307.141          51.000    20807461.398 8  85203115.869 8     -1018.551          51.000  
G04  20352700.773 8 106954164.451 8       781.805          49.000    20352701.188 8  83340925.749 8       609.199          48.000  
G01  22874923.492 7 120208523.343 7     -3288.965          47.000    22874928.148 7  93668984.239 7     -2562.831          47.000  
R17  20321794.805 8 108745673.168 8     -3183.922          50.000    20321797.219 7  84579944.100 7     -2476.387          44.000  
R02  19792881.797 6 105618213.212 6     -1666.238          37.000    19792875.617 4  82147484.76424     -1295.963          29.000  
R11  22924721.547 5 122502399.965 5       581.547          32.000    22924729.281 5  95279653.915 5       452.314          31.000  
E05  23833491.680 8 125245833.804 8      1110.781          51.000    23833493.492 8  95967627.252 8       851.137          51.000  
E03  27622337.102 6 145156387.877 6      2611.652          41.000    27622332.266 5 111223683.265 5      2001.066          34.000  
E36  24099452.750 8 126643483.139 8     -2049.355          51.000    24099453.594 8  97038515.621 8     -1570.307          51.000  
E09  22142763.461 8 116361091.271 8     -1414.410          51.000    22142765.320 8  89159810.164 8     -1083.781          51.000  
C29  23012375.000 8 119831456.538 8     -2160.684          50.000                                                                  
C20  22027189.992 8 114701446.375 8      -643.125          51.000                                                                  
> 2020 05 11 22 06 30.0000000  0 14      -0.000000000000
G09  21944721.234 8 115320381.078 8      2785.297          51.000    21944723.664 8  89860022.629 8      2170.362          50.000  
G17  22355657.562 5 117479768.411 5     -1407.156          34.000    22355658.688 5  91542674.080 5     -1096.489          34.000  
G03  20814956.695 8 109383331.962 8     -1316.996          51.000    20814957.117 8  85233809.302 8     -1026.231          51.000  
G04  20348294.070 8 106931007.200 8       763.977          50.000    20348294.281 8  83322881.148 8       595.307          48.000  
G01  22893731.211 8 120307355.152 8     -3297.887          49.000    22893735.461 8  93745996.008 8     -2569.783          49.000  
R17  20339707.242 8 108841523.833 8     -3204.195          51.000    20339709.094 7  84654494.568 7     -2492.156          44.000  
R02  19802285.734 6 105668395.944 6     -1677.441          40.000    19802285.359 5  82186515.785 5     -1304.677          34.000  
R11  22921532.094 5 122485354.420 5       556.691          34.000    22921539.445 5  95266396.258 5       432.985          32.000  
E05  23827182.031 8 125212677.458 8      1101.359          51.000    23827183.773 8  95942221.762 8       843.839          51.000  
E03  27607444.023 7 145078129.889 7      2607.523          42.000    27607441.766 5 111163719.383 5      1997.737          35.000  
E36  24111190.219 8 126705160.310 8     -2060.762          51.000    24111190.625 8  97085774.736 8     -1579.059          51.000  
E09  22150864.289 8 116403661.264 8     -1421.770          51.000    22150866.266 8  89192428.736 8     -1089.483          51.000  
C29  23024865.773 7 119896506.184 7     -2174.242          47.000                                                                  
C20  22030924.984 8 114720894.925 8      -651.633          51.000                                                                  
> 2020 05 11 22 07  0.0000000  0 14      -0.000000000000
G09  21928851.680 8 115236984.778 8      2774.254          49.000    21928853.859 8  89795038.494 8      2161.757          48.000  
G17  22363738.242 6 117522228.548 6     -1423.680          37.000    22363739.109 6  91575759.948 6     -1109.361          38.000  
G03  20822501.062 8 109422977.889 8     -1326.301          51.000    20822501.516 8  85264702.225 8     -1033.481          51.000  
G04  20343981.789 8 106908345.632 8       746.633          50.000    20343981.922 8  83305222.798 8       581.792          49.000  
G01  22912582.336 8 120406414.418 8     -3306.172          49.000    22912585.297 8  93823185.019 8     -2576.239          49.000  
R17  20357725.406 8 108937940.272 8     -3223.703          51.000    20357726.875 7  84729485.100 7     -2507.325          46.000  
R02  19811745.922 6 105718877.450 6     -1688.047          38.000    19811746.703 5  82225779.219 5     -1312.923          34.000  
R11  22918476.773 5 122469022.405 5       532.008          31.000    22918482.758 5  95253693.661 5       413.781          32.000  
E05  23820919.070 8 125179766.952 8      1092.527          51.000    23820920.984 8  95917004.644 8       837.159          51.000  
E03  27592567.094 7 144999956.366 7      2603.875          43.000    27592567.562 6 111103820.190 6      1995.163          38.000  
E36  24122984.555 8 126767139.710 8     -2071.309          51.000    24122985.398 8  97133265.429 8     -1587.128          51.000  
E09  22158999.367 8 116446411.172 8     -1428.402          51.000    22159001.492 8  89225185.154 8     -1094.452          51.000  
C29  23037425.820 7 119961921.170 7     -2187.078          47.000                                                                  
C20  22034701.570 8 114740560.617 8      -659.484          51.000                                                                  
> 2020 05 11 22 07 30.0000000  0 14      -0.000000000000
G09  21913054.781 8 115153970.531 8      2762.562          50.000    21913056.414 8  89730352.096 8      2152.647          50.000  
G17  22371921.609 6 117565228.022 6     -1440.363          38.000    22371921.344 6  91609266.037 6     -1122.364          37.000  
G03  20830106.508 8 109462945.082 8     -1335.789          51.000    20830107.023 8  85295845.490 8     -1040.875          51.000  
G04  20339776.336 8 106886245.416 8       729.109          51.000    20339776.594 8  83288001.854 8       568.137          50.000  
G01  22931488.750 8 120505765.080 8     -3314.734          49.000    22931490.086 8  93900601.088 8     -2582.914          49.000  
R17  20375860.852 8 109034985.831 8     -3243.473          50.000    20375862.633 8  84804964.956 8     -2522.701          48.000  
R02  19821273.625 6 105769722.987 6     -1698.977          36.000    19821273.836 5  82265325.756 5     -1321.430          34.000  
E05  23814715.422 8 125147167.932 8      1083.227          51.000    23814717.727 8  95892026.192 8       829.969          51.000  
E03  27577719.094 7 144921933.528 7      2600.047          43.000    27577721.898 6 111044036.479 6      1992.062          38.000  
E36  24134848.250 8 126829486.156 8     -2082.555          51.000    24134850.250 8  97181037.326 8     -1595.674          51.000  
E09  22167180.883 8 116489405.640 8     -1435.359          51.000    22167183.234 8  89258128.971 8     -1099.887          51.000  
C19  22928374.133 5 119394035.486 5      1804.809          32.000                                                                  
C29  23050070.141 8 120027764.801 8     -2200.086          50.000                                                                  
C20  22038532.430 8 114760507.969 8      -667.746          51.000                                                                  
> 2020 05 11 22 08  0.0000000  0 17      -0.000000000000
G09  21897311.766 8 115071238.827 8      2754.887          50.000    21897313.062 8  89665885.877 8      2146.669          50.000  
G22  22579204.750 5 118654520.88225     -2265.590          31.000                                                                  
G17  22380187.953 6 117608664.349 6     -1453.266          40.000    22380188.289 6  91643112.516 6     -1132.415          39.000  
G03  20837753.828 8 109503132.209 8     -1341.391          50.000    20837754.406 8  85327160.134 8     -1045.240          50.000  
G04  20335658.648 8 106864605.614 8       715.652          51.000    20335659.055 8  83271139.674 8       557.651          51.000  
G01  22950430.742 8 120605304.553 8     -3319.227          48.000    22950429.992 8  93978164.274 8     -2586.414          48.000  
R17  20394094.117 8 109132554.014 8     -3258.984          50.000    20394096.531 8  84880851.331 8     -2534.766          49.000  
R02  19830849.062 6 105820827.782 6     -1705.609          38.000    19830853.703 5  82305073.929 5     -1326.585          35.000  
R03  20243497.992 4 108364653.625 4      1604.480          28.000    20243511.000 4  84283657.472 4      1247.923          24.000  
R11  22912786.422 5 122438587.693 5       486.031          31.000    22912790.148 5  95230024.410 5       378.030          33.000  
E05  23808551.797 8 125114779.365 8      1077.984          51.000    23808554.531 8  95867208.973 8       825.974          51.000  
E03  27562880.875 7 144843961.041 7      2600.133          43.000    27562885.625 6 110984291.295 6      1992.424          40.000  
E36  24146762.695 8 126892097.710 8     -2089.641          51.000    24146765.320 8  97229012.374 8     -1601.157          51.000  
E09  22175389.547 8 116532542.633 8     -1438.375          51.000    22175392.070 8  89291182.005 8     -1102.189          51.000  
C19  22917987.977 5 119339973.974 5      1801.898          31.000                                                                  
C29  23062778.359 8 120093935.153 8     -2209.176          51.000                                                                  
C20  22042398.305 8 114780636.400 8      -672.051          51.000                                                                  
> 2020 05 11 22 08 30.0000000  0 16      -0.000000000000
G09  21881626.203 8 114988809.475 8      2739.270          51.000    21881627.828 8  89601655.259 8      2134.496          51.000  
G17  22388540.383 6 117652553.741 6     -1473.941          40.000    22388538.867 6  91677311.992 6     -1148.529          40.000  
G03  20845446.359 8 109543557.316 8     -1354.934          50.000    20845447.172 8  85358660.216 8     -1055.793          50.000  
G04  20331632.094 8 106843444.571 8       694.023          51.000    20331632.531 8  83254650.556 8       540.798          51.000  
G01  22969411.242 7 120705049.526 7     -3331.570          45.000    22969409.977 7  94055887.607 7     -2596.033          46.000  
G19  22184078.062 5 116578123.794 5      -475.914          35.000                                                                  
R18  19807980.523 6 105735948.657 6       713.348          36.000    19807981.992 5  82239076.113 5       554.829          30.000  
R17  20412427.602 8 109230660.153 8     -3282.555          49.000    20412430.523 8  84957156.137 8     -2553.099          48.000  
R02  19840477.812 6 105872209.054 6     -1720.719          37.000    19840481.281 5  82345037.148 5     -1338.340          30.000  
R11  22910129.062 4 122424419.202 4       457.434          28.000    22910139.078 5  95219004.521 5       355.782          30.000  
E05  23802431.914 8 125082619.472 8      1064.824          51.000    23802434.844 8  95842567.000 8       815.908          51.000  
E03  27548055.984 7 144766057.834 7      2592.148          42.000    27548062.062 6 110924599.242 6      1986.142          40.000  
E36  24158731.406 8 126954991.799 8     -2104.559          51.000    24158734.039 8  97277203.909 8     -1612.600          51.000  
E09  22183628.758 8 116575839.501 8     -1449.305          51.000    22183631.203 8  89324357.523 8     -1110.489          51.000  
C29  23075552.312 8 120160448.489 8     -2226.215          51.000                                                                  
C20  22046302.219 8 114800963.549 8      -684.234          51.000                                                                  
> 2020 05 11 22 09  0.0000000  0 16      -0.000000000000
G09  21866022.562 8 114906812.037 8      2727.543          50.000    21866024.586 8  89537761.165 8      2125.359          50.000  
G17  22397002.422 6 117697022.367 6     -1490.203          38.000    22396997.453 6  91711962.839 6     -1161.198          38.000  
G03  20853208.516 8 109584348.084 8     -1364.348          50.000    20853209.680 8  85390445.238 8     -1063.125          50.000  
G04  20327720.836 8 106822890.273 8       676.562          51.000    20327721.258 8  83238634.224 8       527.192          51.000  
G01  22988454.227 7 120805126.432 7     -3340.047          44.000    22988454.047 7  94133869.595 7     -2602.635          44.000  
G19  22186858.086 5 116592724.464 5      -497.355          33.000                                                                  
R18  19804048.078 5 105714968.035 5       686.176          32.000    19804053.305 4  82222757.751 4       533.689          29.000  
R17  20430884.891 8 109329430.894 8     -3301.953          49.000    20430888.258 7  85033977.861 7     -2568.186          47.000  
R02  19850181.930 6 105923994.764 6     -1731.258          36.000    19850179.375 4  82385311.82824     -1346.534          28.000  
E05  23796380.203 8 125050816.162 8      1055.688          51.000    23796383.242 8  95818198.267 8       808.910          51.000  
E03  27533268.711 7 144688352.477 7      2588.285          42.000    27533275.398 6 110865058.745 6      1983.349          41.000  
E36  24170778.281 8 127018295.552 8     -2115.418          51.000    24170780.789 8  97325709.343 8     -1620.834          51.000  
E09  22191922.609 8 116619423.275 8     -1456.059          51.000    22191924.688 8  89357752.882 8     -1115.637          51.000  
C19  22897348.438 5 119232527.225 5      1784.469          30.000                                                                  
C29  23088415.594 8 120227429.778 8     -2239.051          50.000                                                                  
C20  22050268.227 8 114821615.740 8      -692.367          51.000                                                                  
> 2020 05 11 22 09 30.0000000  0 16      -0.000000000000
G09  21850480.188 8 114825137.629 8      2717.520          50.000    21850481.875 8  89474118.761 8      2117.548          50.000  
G17  22405552.547 6 117741958.524 6     -1505.207          38.000    22405545.633 6  91746978.017 6     -1172.892          39.000  
G03  20861019.305 8 109625393.886 8     -1372.004          50.000    20861020.625 8  85422428.971 8     -1069.094          50.000  
G04  20323904.000 8 106802832.385 8       660.637          51.000    20323904.570 8  83223004.718 8       514.785          51.000  
G01  23007539.062 7 120905423.267 7     -3346.309          44.000    23007540.914 7  94212022.945 7     -2607.514          44.000  
G19  22189753.836 5 116607947.614 5      -517.441          31.000                                                                  
R18  19800268.750 5 105694785.465 5       660.258          35.000    19800271.797 4  82207060.318 4       513.537          26.000  
R17  20449444.672 8 109428750.719 8     -3319.457          49.000    20449447.961 7  85111226.623 7     -2581.803          45.000  
R02  19859940.148 5 105976071.187 5     -1741.062          32.000    19859946.805 5  82425827.669 5     -1354.160          31.000  
R03  20216906.102 5 108222291.304 5      1562.504          31.000                                                                  
E05  23790375.602 8 125019259.106 8      1048.148          51.000    23790378.680 8  95794018.202 8       803.115          51.000  
E03  27518498.188 7 144610735.203 7      2586.199          42.000    27518504.664 6 110805585.755 6      1981.613          41.000  
E36  24182881.680 8 127081897.760 8     -2124.629          51.000    24182884.188 8  97374443.468 8     -1627.957          51.000  
E09  22200249.859 8 116663182.640 8     -1461.188          51.000    22200251.430 8  89391282.780 8     -1119.600          51.000  
C29  23101346.852 8 120294767.820 8     -2250.230          49.000                                                                  
C20  22054275.281 8 114842483.135 8      -698.766          51.000                                                                  
> 2020 05 11 22 10  0.0000000  0 16      -0.000000000000
G09  21835012.492 8 114743854.826 8      2705.496          51.000    21835013.297 8  89410781.531 8      2108.179          51.000  
G17  22414205.133 6 117787427.395 6     -1521.676          41.000    22414198.039 6  91782408.330 6     -1185.722          40.000  
G03  20868891.312 8 109666761.456 8     -1381.582          49.000    20868892.555 8  85454663.437 8     -1076.558          49.000  
G04  20320194.344 8 106783337.963 8       643.230          51.000    20320194.836 8  83207814.284 8       501.219          51.000  
G01  23026678.656 7 121006005.575 7     -3354.867          45.000    23026682.062 7  94290398.725 7     -2614.183          44.000  
R18  19796649.805 6 105675470.771 6       632.133          37.000                                                                  
R17  20468119.445 8 109528684.056 8     -3338.578          50.000    20468122.016 7  85188952.536 7     -2596.676          44.000  
R02  19869766.398 6 106028504.426 6     -1751.062          36.000    19869770.211 5  82466609.162 5     -1361.938          30.000  
R03  20208200.336 5 108175685.157 5      1548.988          32.000                                                                  
E05  23784430.633 8 124988015.347 8      1038.891          51.000    23784433.570 8  95770078.180 8       796.019          51.000  
E03  27503757.555 7 144533273.750 7      2582.270          44.000    27503763.008 6 110746232.200 6      1978.626          41.000  
E36  24195053.953 8 127145864.679 8     -2135.637          51.000    24195056.773 8  97423457.078 8     -1636.407          51.000  
E09  22208623.070 8 116707183.737 8     -1468.109          51.000    22208624.203 8  89424997.912 8     -1124.865          51.000  
C19  22876857.383 5 119125794.944 5      1771.938          33.000                                                                  
C29  23114359.547 8 120362527.236 8     -2262.957          50.000                                                                  
C20  22058336.398 8 114863631.739 8      -707.004          51.000                                                                  
> 2020 05 11 22 10 30.0000000  0 16      -0.000000000000
G09  21819596.234 8 114662841.852 8      2694.492          51.000    21819596.195 8  89347654.556 8      2099.608          51.000  
G17  22422935.633 7 117833303.719 7     -1537.273          42.000    22422928.031 7  91818156.105 7     -1197.876          42.000  
G03  20876801.055 8 109708327.318 8     -1390.105          48.000    20876802.117 8  85487052.420 8     -1083.199          48.000  
G04  20316568.445 8 106764283.810 8       626.461          51.000    20316568.672 8  83192966.892 8       488.155          51.000  
G01  23045849.492 7 121106748.376 7     -3362.039          47.000    23045853.500 7  94368899.581 7     -2619.771          47.000  
R18  19793169.148 4 105656900.194 4       605.543          28.000    19793171.922 4  82177598.97624       470.981          27.000  
R17  20486885.172 8 109629102.160 8     -3356.625          51.000    20486887.188 7  85267055.489 7     -2610.709          45.000  
R02  19879636.766 5 106081168.317 5     -1760.887          34.000    19879635.953 5  82507569.847 5     -1369.582          31.000  
R03  20199553.766 6 108129388.597 6      1536.820          37.000                                                                  
E05  23778521.648 8 124956961.582 8      1030.660          51.000    23778524.164 8  95746283.735 8       789.667          51.000  
E03  27489023.617 7 144455845.565 7      2579.012          45.000    27489027.773 7 110686904.151 7      1975.801          42.000  
E36  24207270.969 8 127210072.149 8     -2145.578          48.000    24207275.148 8  97472655.045 8     -1644.141          51.000  
E09  22217018.641 8 116751302.354 8     -1473.941          51.000    22217019.516 8  89458803.110 8     -1129.426          51.000  
C19  22866664.766 5 119072713.311 5      1766.047          32.000                                                                  
C29  23127429.672 8 120430584.045 8     -2274.746          50.000                                                                  
C20  22062428.320 8 114884938.985 8      -714.180          51.000                                                                  
> 2020 05 11 22 11  0.0000000  0 16      -0.000000000000
G09  21804241.648 8 114582151.801 8      2683.594          51.000    21804241.383 8  89284779.202 8      2091.113          51.000  
G17  22431753.305 6 117879637.425 6     -1552.934          41.000    22431746.164 6  91854260.286 6     -1210.078          40.000  
G03  20884758.312 8 109750142.765 8     -1398.641          48.000    20884759.000 8  85519635.880 8     -1089.850          48.000  
G04  20313036.141 8 106745721.452 8       609.883          51.000    20313036.438 8  83178502.725 8       475.233          51.000  
G01  23065060.625 7 121207701.729 7     -3369.285          47.000    23065064.477 7  94447564.505 7     -2625.418          47.000  
G19  22199168.750 5 116657424.622 5      -580.613          31.000                                                                  
R18  19789839.508 5 105639115.07525       578.258          30.000    19789841.125 4  82163766.72124       449.756          28.000  
R17  20505750.703 8 109730053.866 8     -3374.609          51.000    20505752.648 7  85345573.458 7     -2624.697          46.000  
R02  19889558.094 4 106134112.867 4     -1769.543          29.000    19889558.836 5  82548749.018 5     -1376.302          33.000  
R03  20190975.609 5 108083454.059 5      1524.398          32.000                                                                  
E05  23772658.336 8 124926149.367 8      1022.289          51.000    23772660.477 8  95722674.363 8       783.358          51.000  
E03  27474306.141 7 144378502.805 7      2576.031          46.000    27474309.430 7 110627641.535 7      1973.768          43.000  
E36  24219542.734 7 127274570.892 7     -2155.547          46.000    24219549.062 8  97522076.197 8     -1651.633          51.000  
E09  22225446.180 8 116795589.168 8     -1479.742          51.000    22225446.930 8  89492737.166 8     -1133.808          51.000  
C29  23140566.125 8 120498987.534 8     -2286.590          50.000                                                                  
C20  22066560.469 8 114906455.536 8      -721.477          51.000                                                                  
> 2020 05 11 22 11 30.0000000  0 15      -0.000000000000
G09  21788965.742 8 114501875.187 8      2669.398          51.000    21788965.969 8  89222226.013 8      2080.054          50.000  
G17  22440674.273 6 117926515.305 6     -1571.078          38.000    22440668.180 6  91890788.480 6     -1224.217          39.000  
G03  20892779.922 7 109792296.555 7     -1410.344          47.000    20892780.289 7  85552482.988 7     -1098.969          47.000  
G04  20309614.414 8 106727739.865 8       590.125          51.000    20309614.398 8  83164491.109 8       459.841          51.000  
G01  23084328.594 8 121308953.048 8     -3379.570          48.000    23084331.266 7  94526461.631 7     -2633.432          47.000  
G19  22202558.031 5 116675217.038 5      -604.570          33.000                                                                  
R17  20524732.320 8 109831626.523 8     -3395.617          51.000    20524734.250 7  85424574.393 7     -2641.039          47.000  
R02  19899550.180 6 106187422.098 6     -1783.059          36.000    19899549.766 5  82590215.728 5     -1386.827          35.000  
E05  23766857.922 8 124895667.649 8      1011.020          51.000    23766859.648 8  95699318.242 8       774.681          51.000  
E03  27459622.031 7 144301335.157 7      2569.871          46.000    27459625.320 7 110568513.119 7      1969.075          44.000  
E36  24231887.750 7 127339449.083 7     -2168.445          47.000    24231895.031 8  97571788.087 8     -1661.507          51.000  
E09  22233922.398 8 116840132.257 8     -1488.562          51.000    22233923.039 8  89526867.587 8     -1140.564          51.000  
C19  22846399.742 5 118967202.043 5      1752.109          32.000                                                                  
C29  23153785.320 8 120567824.032 8     -2301.227          50.000                                                                  
C20  22070749.453 8 114928269.117 8      -731.621          51.000                                                                  
> 2020 05 11 22 12  0.0000000  0 16      -0.000000000000
G09  21773749.828 7 114421917.120 7      2662.590          47.000    21773750.766 7  89159921.036 7      2074.746          47.000  
G17  22449678.492 5 117973839.609 5     -1582.086          34.000    22449674.875 5  91927664.599 5     -1232.795          34.000  
G03  20900847.562 7 109834692.054 7     -1414.504          47.000    20900847.938 7  85585518.433 7     -1102.214          47.000  
G04  20306284.867 8 106710242.645 8       577.867          51.000    20306284.250 8  83150856.913 8       450.286          51.000  
G01  23103634.625 8 121410404.332 8     -3382.219          48.000    23103637.062 8  94605514.536 8     -2635.496          48.000  
R18  19783664.547 5 105606150.968 5       525.672          33.000    19783663.883 5  82138113.815 5       408.862          30.000  
R17  20543810.977 8 109933718.126 8     -3408.910          51.000    20543812.875 7  85503978.952 7     -2651.375          47.000  
R02  19909592.922 6 106241006.451 6     -1787.879          38.000    19909592.352 6  82631892.339 6     -1390.576          37.000  
R11  22895555.500 6 122346492.087 6       287.969          37.000    22895558.633 4  95158414.772 4       223.979          28.000  
E05  23761102.094 8 124865420.022 8      1007.145          51.000    23761103.367 8  95676141.485 8       771.697          51.000  
E03  27444952.883 7 144224246.922 7      2571.016          46.000    27444956.859 7 110509445.524 7      1970.027          46.000  
E36  24244287.648 8 127404609.436 8     -2173.977          50.000    24244294.820 8  97621716.162 8     -1665.733          51.000  
E09  22242428.805 8 116884834.299 8     -1489.949          51.000    22242429.359 8  89561119.796 8     -1141.605          51.000  
C19  22836315.453 4 118914700.814 4      1749.824          29.000                                                                  
C29  23167068.562 8 120636996.098 8     -2308.703          49.000                                                                  
C20  22074976.875 8 114950283.769 8      -734.449          51.000                                                                  
> 2020 05 11 22 12 30.0000000  0 17      -0.000000000000
G09  21758592.586 7 114342272.616 7      2647.586          44.000    21758595.094 7  89097860.346 7      2063.052          44.000  
G17  22458765.305 4 118021607.32524     -1602.000          28.000    22458764.797 4  91964886.42324     -1248.318          26.000  
G03  20908959.961 8 109877322.477 8     -1426.773          48.000    20908960.633 8  85618736.949 8     -1111.772          48.000  
G04  20303046.297 8 106693223.196 8       557.383          51.000    20303045.406 8  83137595.019 8       434.324          51.000  
G01  23122976.953 8 121512047.480 8     -3393.289          48.000    23122979.695 8  94684716.957 8     -2644.122          48.000  
R18  19780801.047 6 105590851.242 6       494.656          38.000    19780800.234 5  82126213.940 5       384.733          31.000  
R17  20562984.477 8 110036318.820 8     -3430.379          51.000    20562986.234 7  85583779.471 7     -2668.073          47.000  
R02  19919684.172 5 106294852.489 5     -1801.336          35.000    19919684.469 6  82673772.524 6     -1401.039          39.000  
R03  20165695.688 4 107948171.08524      1485.355          29.000    20165685.625 4  83959639.15024      1155.277          28.000  
R11  22894020.969 6 122338291.652 6       259.867          36.000    22894024.203 5  95152036.622 5       202.119          30.000  
E05  23755389.195 8 124835399.913 8       994.887          51.000    23755390.242 8  95653139.070 8       762.313          51.000  
E03  27430297.336 7 144147232.168 7      2563.883          45.000    27430302.375 7 110450434.211 7      1964.433          46.000  
E36  24256740.438 8 127470044.556 8     -2187.793          51.000    24256746.961 8  97671854.783 8     -1676.389          51.000  
E09  22250963.969 8 116929687.879 8     -1499.609          51.000    22250964.805 8  89595488.128 8     -1149.124          51.000  
C19  22826266.273 5 118862378.351 5      1739.324          34.000                                                                  
C29  23180414.672 8 120706495.447 8     -2324.000          49.000                                                                  
C20  22079241.688 8 114972492.627 8      -745.395          51.000                                                                  
> 2020 05 11 22 13  0.0000000  0 16      -0.000000000000
G09  21743509.086 7 114263010.013 7      2636.133          47.000    21743512.156 8  89036097.282 8      2054.130          48.000  
G03  20917129.719 7 109920254.531 7     -1435.688          46.000    20917130.391 7  85652190.508 7     -1118.718          46.000  
G04  20299911.172 8 106676748.432 8       540.449          51.000    20299910.508 8  83124757.558 8       421.129          51.000  
G01  23142367.664 7 121613947.893 7     -3400.652          46.000    23142371.273 7  94764119.858 7     -2649.860          46.000  
G31  23842139.250 5 125291287.38025     -1913.500          32.000                                                                  
R18  19778098.188 6 105576409.269 6       467.660          37.000    19778093.086 4  82114981.333 4       363.739          29.000  
R17  20582264.461 8 110139493.117 8     -3448.262          51.000    20582266.586 7  85664026.134 7     -2681.985          46.000  
R02  19929835.031 5 106349026.368 5     -1810.699          33.000    19929838.500 6  82715907.887 6     -1408.313          39.000  
R03  20157387.688 5 107903698.71725      1472.039          30.000    20157397.305 4  83925124.69724      1144.920          29.000  
R11  22892629.820 6 122330870.220 6       234.652          36.000    22892634.523 4  95146264.455 4       182.507          25.000  
E05  23749731.836 8 124805674.292 8       986.266          50.000    23749733.164 8  95630362.289 8       755.719          51.000  
E03  27415668.414 7 144070358.533 7      2560.516          44.000    27415674.273 7 110391531.002 7      1961.904          47.000  
E36  24269258.344 8 127535820.454 8     -2197.867          51.000    24269263.883 8  97722254.518 8     -1684.087          51.000  
E09  22259540.609 8 116974759.076 8     -1505.672          51.000    22259541.945 8  89630023.197 8     -1153.661          51.000  
C29  23193836.148 8 120776386.557 8     -2335.957          48.000                                                                  
C20  22083556.602 8 114994961.644 8      -753.008          51.000                                                                  
> 2020 05 11 22 13 30.0000000  0 15      -0.000000000000
G09  21728501.438 8 114184140.955 8      2624.359          51.000    21728504.273 8  88974640.924 8      2044.956          51.000  
G17  22477233.430 4 118118657.97724     -1631.902          29.000    22477230.141 5  92040499.22325     -1271.613          30.000  
G03  20925358.727 7 109963498.221 7     -1444.879          46.000    20925359.250 7  85685886.889 7     -1125.880          46.000  
G04  20296881.555 8 106660828.489 8       523.336          51.000    20296880.906 8  83112352.394 8       407.794          51.000  
G01  23161808.695 7 121716114.076 7     -3408.031          45.000    23161813.016 7  94843729.859 7     -2655.610          45.000  
R18  19775554.031 5 105562836.856 5       440.480          34.000    19775548.992 5  82104426.031 5       342.596          31.000  
R17  20601653.258 8 110243247.719 8     -3466.117          51.000    20601655.453 7  85744724.107 7     -2695.869          46.000  
R02  19940051.250 5 106403603.500 5     -1819.914          30.000    19940052.227 6  82758333.450 6     -1415.495          36.000  
R11  22891388.805 6 122324239.060 6       210.062          37.000    22891391.648 5  95141103.863 5       163.382          31.000  
E05  23744132.609 8 124776253.360 8       977.504          50.000    23744134.312 8  95607818.952 8       749.030          51.000  
E03  27401068.664 7 143993636.819 7      2556.922          46.000    27401074.555 8 110332744.227 8      1959.108          48.000  
E36  24281842.672 8 127601946.503 8     -2208.109          51.000    24281847.258 8  97772922.533 8     -1691.944          51.000  
E09  22268160.516 8 117020057.161 8     -1511.773          51.000    22268162.242 8  89664732.114 8     -1158.375          51.000  
C29  23207334.867 8 120846677.613 8     -2347.719          48.000                                                                  
C20  22087923.406 8 115017700.480 8      -760.504          51.000                                                                  
> 2020 05 11 22 14  0.0000000  0 15      -0.000000000000
G09  21713558.039 8 114105608.211 8      2612.223          51.000    21713560.289 8  88913446.622 8      2035.502          51.000  
G17  22486598.422 5 118167872.295 5     -1648.125          32.000    22486597.898 4  92078858.156 4     -1284.257          28.000  
G03  20933635.641 7 110006994.457 7     -1453.863          45.000    20933636.258 7  85719780.058 7     -1132.881          45.000  
G04  20293946.305 8 106645404.421 8       505.984          51.000    20293945.539 8  83100333.630 8       394.274          51.000  
G01  23181288.781 7 121818485.728 7     -3415.684          44.000    23181292.742 7  94923499.983 7     -2661.573          44.000  
R18  19773160.078 5 105550075.683 5       411.805          32.000    19773160.703 5  82094500.618 5       320.290          34.000  
R17  20621139.281 8 110347519.328 8     -3484.172          51.000    20621140.930 7  85825824.215 7     -2709.912          45.000  
R02  19950320.766 6 106458389.966 6     -1830.602          37.000    19950316.000 5  82800945.109 5     -1423.795          33.000  
R11  22890285.031 5 122318339.337 5       184.148          35.000    22890288.625 6  95136515.242 6       143.230          36.000  
E05  23738580.734 8 124747078.227 8       968.586          51.000    23738582.555 8  95585463.986 8       742.149          51.000  
E03  27386487.070 7 143917008.897 7      2552.844          47.000    27386492.203 7 110274029.350 7      1956.106          47.000  
E36  24294481.750 8 127668363.015 8     -2218.598          51.000    24294485.734 8  97823813.107 8     -1699.948          51.000  
E09  22276812.250 8 117065522.486 8     -1518.188          51.000    22276814.172 8  89699569.177 8     -1163.284          51.000  
C29  23220899.367 8 120917308.567 8     -2359.867          49.000                                                                  
C20  22092330.812 8 115040650.487 8      -768.430          51.000                                                                  
> 2020 05 11 22 14 30.0000000  0 16      -0.000000000000
G09  21698680.398 8 114027422.126 8      2600.586          51.000    21698682.000 8  88852522.421 8      2026.431          51.000  
G17  22496053.188 5 118217557.113 5     -1663.188          35.000    22496052.742 5  92117573.520 5     -1295.994          35.000  
G03  20941962.203 7 110050751.885 7     -1462.660          43.000    20941962.906 7  85753876.777 7     -1139.735          43.000  
G04  20291107.133 8 106630485.003 8       489.051          51.000    20291106.641 8  83088708.114 8       381.079          51.000  
G01  23200809.797 7 121921070.020 7     -3422.871          45.000    23200813.102 7  95003435.795 7     -2667.173          45.000  
R18  19770922.953 6 105538135.720 6       384.379          37.000    19770925.367 6  82085213.971 6       298.964          36.000  
R17  20640722.852 8 110452313.237 8     -3501.699          51.000    20640724.305 7  85907330.582 7     -2723.544          45.000  
R02  19960639.898 6 106513459.357 6     -1840.309          39.000    19960641.523 5  82843776.799 5     -1431.354          34.000  
R03  20132981.586 5 107773042.285 5      1433.480          31.000    20132976.953 4  83823461.638 4      1114.929          26.000  
R11  22889320.117 5 122313180.974 5       158.988          34.000    22889324.070 6  95132503.340 6       123.661          37.000  
E05  23733077.344 8 124718157.706 8       959.930          50.000    23733079.281 8  95563304.116 8       735.561          51.000  
E03  27371925.336 8 143840484.263 8      2549.336          48.000    27371929.273 8 110215393.630 8      1953.344          48.000  
E36  24307177.070 8 127735077.918 8     -2228.594          51.000    24307180.844 8  97874932.289 8     -1707.538          51.000  
E09  22285497.375 8 117111162.988 8     -1524.117          51.000    22285499.312 8  89734540.472 8     -1167.786          51.000  
C29  23234530.719 8 120988286.274 8     -2371.551          49.000                                                                  
C20  22096780.336 8 115063820.003 8      -775.797          51.000                                                                  
> 2020 05 11 22 15  0.0000000  0 18      -0.000000000000
G09  21683868.328 8 113949583.435 8      2589.719          50.000    21683869.805 8  88791868.898 8      2017.963          50.000  
G17  22505594.312 6 118267696.859 6     -1677.785          37.000    22505593.602 6  92156643.420 6     -1307.365          36.000  
G03  20950338.359 7 110094769.669 7     -1470.922          44.000    20950339.016 7  85788176.351 7     -1146.173          44.000  
G04  20288363.977 8 106616069.481 8       472.836          51.000    20288363.375 8  83077475.241 8       368.444          51.000  
G01  23220371.211 7 122023864.718 7     -3429.227          45.000    23220373.484 7  95083535.508 7     -2672.128          45.000  
G19  22229588.961 5 116817272.886 5      -749.199          34.000                                                                  
R18  19768840.461 5 105527017.703 5       357.809          34.000    19768843.398 5  82076566.676 5       278.296          33.000  
R17  20660402.578 8 110557625.232 8     -3518.227          50.000    20660404.898 7  85989239.924 7     -2736.399          46.000  
R02  19971011.125 6 106568809.132 6     -1849.117          36.000    19971018.703 5  82886826.634 5     -1438.203          34.000  
R03  20124972.352 5 107730221.880 5      1421.422          32.000                                                                  
R11  22888495.148 5 122308764.492 5       135.520          35.000    22888497.547 5  95129068.331 5       105.404          34.000  
E05  23727622.070 8 124689491.090 8       952.035          50.000    23727624.320 8  95541338.820 8       729.500          51.000  
E03  27357383.250 7 143764062.930 7      2546.453          47.000    27357386.094 8 110156837.075 8      1951.239          48.000  
E36  24319928.859 8 127802089.630 8     -2237.871          51.000    24319932.062 8  97926278.913 8     -1714.698          51.000  
E09  22294215.609 8 117156977.113 8     -1529.273          51.000    22294217.562 8  89769644.812 8     -1171.797          51.000  
C19  22776646.125 5 118603952.827 5      1707.547          33.000                                                                  
C29  23248227.547 8 121059608.167 8     -2382.375          48.000                                                                  
C20  22101271.812 8 115087207.974 8      -782.504          51.000                                                                  
> 2020 05 11 22 15 30.0000000  0 19      -0.000000000000
G09  21669124.016 8 113872104.090 8      2577.430          49.000    21669125.922 8  88731495.380 8      2008.387          49.000  
G22  22777051.836 4 119694214.38224     -2350.992          29.000                                                                  
G17  22515223.523 5 118318299.838 5     -1693.449          32.000    22515221.023 5  92196074.389 5     -1319.571          32.000  
G03  20958766.352 7 110139057.984 7     -1479.820          46.000    20958766.641 7  85822686.744 7     -1153.107          45.000  
G04  20285718.766 8 106602168.188 8       455.617          51.000    20285717.992 8  83066643.067 8       355.026          51.000  
G01  23239974.562 7 122126878.724 7     -3436.508          45.000    23239975.539 7  95163806.086 7     -2677.802          45.000  
G19  22233934.320 5 116840099.634 5      -770.906          33.000                                                                  
R18  19766914.055 5 105516733.517 5       329.805          35.000    19766916.641 6  82068567.907 6       256.518          36.000  
R17  20680179.891 8 110663462.285 8     -3535.629          48.000    20680183.789 7  86071557.668 7     -2749.934          46.000  
R02  19981436.641 6 106624448.458 6     -1858.629          37.000    19981444.867 5  82930101.750 5     -1445.598          32.000  
R03  20117043.430 5 107687787.090 5      1409.137          35.000                                                                  
R11  22887811.492 5 122305101.244 5       110.457          32.000    22887811.070 5  95126219.096 5        85.908          30.000  
E05  23722217.289 8 124661088.867 8       943.277          51.000    23722219.711 8  95519576.088 8       722.735          51.000  
E03  27342862.688 7 143687755.997 7      2542.516          46.000    27342865.102 8 110098368.180 8      1948.204          48.000  
E36  24332739.141 8 127869407.750 8     -2248.129          51.000    24332741.359 8  97977860.338 8     -1722.569          51.000  
E09  22302968.773 8 117202974.500 8     -1535.340          51.000    22302970.781 8  89804889.561 8     -1176.427          51.000  
C19  22766832.945 5 118552845.507 5      1701.672          34.000                                                                  
C29  23261991.367 8 121131282.659 8     -2394.082          48.000                                                                  
C20  22105807.156 8 115110824.371 8      -790.078          51.000                                                                  
> 2020 05 11 22 16  0.0000000  0 14      -0.000000000000
G09  21654465.633 8 113795076.852 8      2564.141          49.000    21654467.594 8  88671474.164 8      1998.032          49.000  
G17  22524958.516 6 118369455.846 6     -1710.590          36.000    22524955.672 5  92235936.231 5     -1332.928          34.000  
G03  20967263.344 8 110183707.998 8     -1490.277          48.000    20967263.430 7  85857478.985 7     -1161.255          47.000  
G04  20283188.664 8 106588872.268 8       437.117          51.000    20283188.062 8  83056282.626 8       340.614          51.000  
G01  23259636.516 7 122230201.712 7     -3445.234          45.000    23259637.109 7  95244317.415 7     -2684.599          45.000  
R17  20700071.938 7 110769913.798 7     -3554.477          47.000    20700077.188 7  86154353.288 7     -2764.594          45.000  
R02  19991934.000 6 106680468.902 6     -1869.867          39.000    19991939.164 5  82973673.077 5     -1454.341          32.000  
R03  20109206.219 5 107645830.616 5      1394.934          32.000    20109214.141 4  83724517.532 4      1084.949          28.000  
E05  23716880.383 8 124633042.317 8       933.133          51.000    23716883.047 8  95498085.878 8       714.977          51.000  
E03  27328380.891 7 143611655.455 7      2537.297          44.000    27328383.742 8 110040057.412 8      1944.188          48.000  
E36  24345625.000 8 127937122.690 8     -2259.691          51.000    24345626.492 8  98029745.818 8     -1731.432          51.000  
E09  22311774.031 8 117249245.603 8     -1542.832          51.000    22311776.086 8  89840344.045 8     -1182.117          51.000  
C29  23275839.883 8 121203398.384 8     -2407.180          48.000                                                                  
C20  22110403.555 8 115134759.332 8      -799.078          51.000                                                                  
> 2020 05 11 22 16 30.0000000  0 14      -0.000000000000
G09  21639854.984 8 113718297.220 8      2551.949          51.000    21639855.828 8  88611645.906 8      1988.536          51.000  
G17  22534759.273 6 118420956.907 6     -1725.508          40.000    22534757.344 6  92276066.892 6     -1344.549          40.000  
G03  20975789.969 7 110228513.539 7     -1499.227          47.000    20975790.039 8  85892392.386 8     -1168.229          48.000  
G04  20280734.555 8 106575975.675 8       420.105          51.000    20280734.117 8  83046233.330 8       327.355          51.000  
G01  23279317.617 7 122333626.145 7     -3452.105          45.000    23279319.336 7  95324907.846 7     -2689.953          45.000  
R17  20720040.117 8 110876766.521 8     -3571.602          48.000    20720044.523 7  86237460.937 7     -2777.916          43.000  
R02  20002463.430 5 106736659.323 5     -1878.906          34.000    20002468.406 5  83017376.702 5     -1461.372          34.000  
E05  23711572.016 8 124605145.458 8       924.258          51.000    23711575.211 8  95476710.377 8       708.219          51.000  
E03  27313898.750 6 143535556.047 6      2533.602          41.000    27313902.672 8 109981747.494 8      1941.299          48.000  
E36  24358547.102 8 128005027.591 8     -2269.762          51.000    24358548.680 8  98081776.854 8     -1739.175          51.000  
E09  22320591.875 8 117295583.580 8     -1548.797          51.000    22320594.023 8  89875849.773 8     -1186.753          51.000  
C19  22747316.203 5 118451236.564 5      1687.039          32.000                                                                  
C29  23289734.328 8 121275749.400 8     -2418.812          50.000                                                                  
C20  22115021.719 8 115158808.367 8      -806.590          51.000                                                                  
> 2020 05 11 22 17  0.0000000  0 14      -0.000000000000
G09  21625321.336 8 113641920.891 8      2539.539          51.000    21625321.117 8  88552131.917 8      1978.862          51.000  
G17  22544654.320 6 118472955.309 6     -1741.062          39.000    22544654.188 6  92316585.107 6     -1356.672          39.000  
G03  20984375.320 7 110273628.753 7     -1508.590          47.000    20984375.422 7  85927547.067 7     -1175.525          47.000  
G04  20278385.602 8 106563632.526 8       402.594          51.000    20278385.523 8  83036615.304 8       313.710          51.000  
G01  23299046.828 7 122437304.721 7     -3459.680          43.000    23299050.148 7  95405696.365 7     -2695.855          44.000  
R18  19762087.516 5 105490988.51825       244.496          32.000    19762089.125 5  82048546.16425       190.164          30.000  
R17  20740112.523 8 110984173.692 8     -3589.031          48.000    20740113.758 6  86320999.779 6     -2791.472          41.000  
R02  20013054.867 6 106793174.811 6     -1888.742          38.000    20013060.859 6  83061333.182 6     -1469.019          36.000  
E05  23706321.406 8 124577552.596 8       915.109          51.000    23706325.250 8  95455567.820 8       701.185          51.000  
E03  27299446.422 6 143459612.771 6      2529.180          41.000    27299451.125 8 109923557.205 8      1937.974          48.000  
E36  24371534.586 8 128073275.843 8     -2280.195          51.000    24371536.461 8  98134070.972 8     -1747.146          51.000  
E09  22329451.609 8 117342141.926 8     -1555.133          51.000    22329453.680 8  89911524.348 8     -1191.629          51.000  
C29  23303703.500 8 121348486.697 8     -2430.605          51.000                                                                  
C20  22119691.125 8 115183124.047 8      -814.566          51.000                                                                  
> 2020 05 11 22 17 30.0000000  0 17      -0.000000000000
G09  21610842.266 8 113565833.546 8      2529.453          50.000    21610842.805 8  88492843.106 8      1971.003          50.000  
G17  22554621.422 6 118525333.279 6     -1753.930          37.000    22554622.305 6  92357399.106 6     -1366.702          37.000  
G03  20992997.258 7 110318937.568 7     -1515.648          45.000    20992997.680 7  85962852.626 7     -1181.025          45.000  
G04  20276119.953 8 106551726.835 8       387.508          51.000    20276120.164 8  83027338.148 8       301.954          51.000  
G01  23318801.836 7 122541120.104 7     -3464.781          44.000    23318806.484 7  95486591.483 7     -2699.830          44.000  
G19  22252517.750 6 116937745.031 6      -853.234          37.000    22252513.242 5  91120324.304 5      -664.858          31.000  
R18  19760776.562 5 105483989.826 5       218.164          33.000    19760779.484 5  82043102.279 5       169.683          32.000  
R17  20760265.594 8 111092013.911 8     -3604.000          48.000    20760265.406 7  86404875.482 7     -2803.112          43.000  
R02  20023685.188 6 106849896.063 6     -1896.320          39.000    20023692.531 6  83105449.689 6     -1474.916          36.000  
R03  20086066.859 4 107521928.98024      1358.418          29.000                                                                  
R11  22886465.734 5 122297947.61025         9.840          30.000    22886468.797 4  95120638.44024         7.653          28.000  
E05  23701106.555 8 124550147.848 8       908.480          51.000    23701110.570 8  95434569.390 8       696.136          51.000  
E03  27285002.336 7 143383710.344 7      2527.363          42.000    27285007.172 8 109865398.243 8      1936.582          48.000  
E36  24384565.086 8 128141750.728 8     -2288.195          51.000    24384566.969 8  98186538.747 8     -1753.252          51.000  
E09  22338331.133 8 117388803.975 8     -1559.043          51.000    22338332.984 8  89947278.378 8     -1194.574          51.000  
C29  23317724.273 8 121421493.561 8     -2440.016          51.000                                                                  
C20  22124389.797 8 115207591.206 8      -820.078          51.000                                                                  
> 2020 05 11 22 18  0.0000000  0 19      -0.000000000000
G09  21596441.789 8 113490161.820 8      2519.090          49.000    21596444.023 8  88433878.119 8      1962.928          49.000  
G17  22564684.375 6 118578214.095 6     -1767.430          37.000    22564685.180 6  92398604.981 6     -1377.218          37.000  
G03  21001679.438 7 110364564.973 7     -1522.352          44.000    21001680.258 7  85998406.438 7     -1186.248          44.000  
G04  20273961.445 8 106540383.553 8       372.375          51.000    20273961.891 8  83018499.240 8       290.162          51.000  
G01  23338606.680 7 122645195.810 7     -3470.141          45.000    23338611.883 7  95567689.459 7     -2704.007          45.000  
G31  23956260.297 5 125890982.24325     -2079.375          32.000                                                                  
G19  22257451.953 5 116963692.775 5      -872.410          35.000    22257454.047 5  91140552.415 5      -679.800          32.000  
R18  19759633.070 5 105477879.930 5       192.234          35.000    19759638.523 6  82038350.079 6       149.513          36.000  
R17  20780522.078 8 111200411.025 8     -3618.777          48.000    20780522.789 7  86489184.355 7     -2814.605          45.000  
R02  20034376.898 6 106906949.131 6     -1903.723          39.000    20034384.344 5  83149824.297 5     -1480.673          33.000  
R03  20078499.070 5 107481409.269 5      1346.391          32.000                                                                  
R11  22886503.695 5 122298167.500 5       -13.297          32.000    22886506.953 5  95120785.060 5       -10.339          33.000  
E05  23695951.477 8 124523056.372 8       901.477          51.000    23695954.789 8  95413810.995 8       690.712          51.000  
E03  27270590.492 7 143307974.671 7      2525.453          44.000    27270594.945 8 109807367.055 8      1935.005          49.000  
E36  24397662.125 8 128210576.502 8     -2296.418          51.000    24397664.102 8  98239275.378 8     -1759.597          51.000  
E09  22347254.188 8 117435694.087 8     -1563.223          51.000    22347255.820 8  89983207.149 8     -1197.747          51.000  
C19  22718322.344 5 118300238.870 5      1670.422          33.000                                                                  
C29  23331819.828 8 121494892.114 8     -2449.551          51.000                                                                  
C20  22129141.484 8 115232333.572 8      -825.688          51.000                                                                  
> 2020 05 11 22 18 30.0000000  0 19      -0.000000000000
G09  21582112.898 8 113414864.182 8      2504.805          51.000    21582116.117 8  88375204.647 8      1951.797          51.000  
G22  22858202.344 5 120120667.554 5     -2384.098          35.000                                                                  
G17  22574834.602 7 118631552.587 7     -1784.602          42.000    22574834.555 6  92440167.410 6     -1390.599          41.000  
G03  21010413.992 7 110410467.911 7     -1533.723          45.000    21010414.961 7  86034174.929 7     -1195.112          45.000  
G04  20271901.875 8 106529559.632 8       353.234          51.000    20271902.352 8  83010065.032 8       275.248          51.000  
G01  23358452.789 7 122749487.339 7     -3478.848          46.000    23358457.883 7  95648955.604 7     -2710.791          46.000  
G31  23968193.859 5 125953705.939 5     -2098.355          34.000    23968194.336 5  98145736.074 5     -1635.083          33.000  
G19  22262508.570 5 116990269.655 5      -895.973          35.000    22262515.453 5  91161277.563 5      -698.161          35.000  
R18  19758646.969 5 105472616.463 5       162.395          33.000    19758653.094 5  82034256.320 5       126.310          34.000  
R17  20800873.789 8 111309317.502 8     -3637.500          50.000    20800875.688 7  86573889.374 7     -2829.167          47.000  
R02  20045121.688 6 106964288.568 6     -1914.715          40.000    20045126.195 5  83194421.632 5     -1489.223          33.000  
R03  20070998.867 5 107441281.188 5      1332.383          33.000                                                                  
R11  22886667.367 5 122299036.474 5       -40.223          33.000    22886668.094 5  95121461.006 5       -31.284          30.000  
E05  23690847.844 8 124496235.228 8       890.578          51.000    23690850.109 8  95393259.738 8       682.415          51.000  
E03  27256202.586 7 143232363.475 7      2519.367          45.000    27256206.555 8 109749431.255 8      1930.449          48.000  
E36  24410817.539 8 128279709.332 8     -2308.461          51.000    24410819.555 8  98292247.286 8     -1768.864          51.000  
E09  22356212.281 8 117482768.490 8     -1571.164          51.000    22356213.891 8  90019277.130 8     -1203.892          51.000  
C29  23345981.781 8 121568637.939 8     -2462.941          51.000                                                                  
C20  22133937.828 8 115257308.264 8      -835.328          51.000                                                                  
> 2020 05 11 22 19  0.0000000  0 19      -0.000000000000
G09  21567857.094 8 113339946.955 8      2491.895          51.000    21567859.859 8  88316827.625 8      1941.737          51.000  
G17  22585072.531 6 118685351.667 6     -1799.988          40.000    22585071.805 6  92482088.769 6     -1402.592          40.000  
G03  21019202.117 7 110456651.082 7     -1543.160          46.000    21019202.562 7  86070161.779 7     -1202.463          46.000  
G04  20269941.969 8 106519259.750 8       335.512          51.000    20269942.453 8  83002039.165 8       261.438          51.000  
G01  23378340.844 7 122853998.042 7     -3486.500          46.000    23378345.516 7  95730392.513 7     -2716.754          46.000  
G31  23980226.156 5 126016937.145 5     -2115.379          35.000    23980226.688 5  98195007.150 5     -1648.348          34.000  
G19  22267685.891 6 117017479.217 6      -917.191          37.000                                                                  
R18  19757819.484 5 105468205.170 5       133.844          33.000    19757826.930 6  82030825.290 6       104.095          37.000  
R17  20821321.531 8 111418734.841 8     -3654.719          51.000    20821323.984 7  86658991.724 7     -2842.560          47.000  
R02  20055921.766 6 107021917.731 6     -1924.953          41.000    20055925.141 6  83239244.293 6     -1497.186          36.000  
R03  20063574.789 5 107401549.972 5      1318.957          31.000                                                                  
R11  22886976.484 5 122300638.628 5       -66.086          32.000    22886974.867 5  95122719.767 5       -51.400          30.000  
E05  23685796.367 8 124469689.286 8       881.266          51.000    23685798.078 8  95372919.352 8       675.274          51.000  
E03  27241839.492 7 143156882.363 7      2514.848          45.000    27241843.250 8 109691595.112 8      1926.983          48.000  
E36  24424032.172 8 128349153.201 8     -2318.949          51.000    24424034.273 8  98345457.508 8     -1776.813          51.000  
E09  22365206.070 8 117530031.270 8     -1577.543          51.000    22365207.805 8  90055491.455 8     -1208.755          51.000  
C19  22699207.125 5 118200735.14625      1653.688          31.000                                                                  
C29  23360210.930 8 121642733.927 8     -2474.715          50.000                                                                  
C20  22138779.430 8 115282519.794 8      -843.391          51.000                                                                  
> 2020 05 11 22 19 30.0000000  0 16      -0.000000000000
G09  21553674.352 8 113265412.236 8      2478.719          51.000    21553675.906 8  88258748.689 8      1931.473          51.000  
G17  22595397.680 6 118739609.939 6     -1815.531          39.000    22595396.812 6  92524367.930 6     -1414.697          40.000  
G03  21028043.930 7 110503115.007 7     -1552.762          47.000    21028044.297 7  86106367.394 7     -1209.945          47.000  
G04  20268081.859 8 106509484.353 8       317.707          51.000    20268082.438 8  82994421.998 8       247.564          51.000  
G01  23398270.547 7 122958727.009 7     -3493.941          47.000    23398274.375 7  95811999.477 7     -2722.552          47.000  
G31  23992355.281 5 126080674.721 5     -2132.762          32.000    23992356.086 4  98244672.756 4     -1661.890          29.000  
R18  19757153.602 6 105464647.585 6       105.258          38.000    19757160.922 6  82028058.303 6        81.870          36.000  
R17  20841864.156 8 111528659.959 8     -3671.883          50.000    20841867.117 7  86744489.003 7     -2855.909          47.000  
R02  20066776.078 6 107079835.994 6     -1934.527          38.000    20066780.414 6  83284291.829 6     -1504.633          38.000  
E05  23680797.383 8 124443419.227 8       871.801          51.000    23680799.016 8  95352790.356 8       667.989          51.000  
E03  27227501.125 7 143081532.660 7      2510.289          45.000    27227505.344 8 109633859.650 8      1923.362          48.000  
E36  24437306.008 8 128418907.872 8     -2329.621          51.000    24437308.281 8  98398905.875 8     -1785.032          51.000  
E09  22374235.578 8 117577482.342 8     -1584.109          51.000    22374237.398 8  90091850.056 8     -1213.832          51.000  
C19  22689692.414 6 118151241.782 6      1647.047          36.000                                                                  
C29  23374506.516 8 121717178.845 8     -2486.617          48.000                                                                  
C20  22143666.383 8 115307968.497 8      -851.551          51.000                                                                  
> 2020 05 11 22 20  0.0000000  0 16      -0.000000000000
G09  21539563.141 8 113191255.008 8      2467.418          51.000    21539563.906 8  88200963.894 8      1922.667          51.000  
G17  22605808.484 6 118794319.007 6     -1829.273          40.000    22605808.180 6  92566998.347 6     -1425.408          40.000  
G03  21036937.984 7 110549853.123 7     -1560.816          46.000    21036939.188 7  86142786.675 7     -1216.221          46.000  
G04  20266320.211 8 106500226.833 8       301.703          51.000    20266320.742 8  82987208.353 8       235.093          51.000  
G01  23418240.344 8 123063666.216 8     -3499.582          48.000    23418243.016 8  95893770.273 8     -2726.951          48.000  
R18  19756646.922 6 105461938.093 6        77.730          38.000    19756652.633 5  82025950.988 5        60.460          35.000  
R17  20862499.391 8 111639082.540 8     -3687.309          49.000    20862502.945 7  86830373.233 7     -2867.907          46.000  
R02  20077682.281 6 107138035.314 6     -1942.953          38.000    20077688.469 6  83329558.082 6     -1511.186          40.000  
R11  22887998.945 4 122306145.57924      -115.793          29.000                                                                  
E05  23675849.828 8 124417418.592 8       863.957          51.000    23675851.383 8  95332867.804 8       661.981          51.000  
E03  27213186.438 7 143006308.633 7      2507.156          44.000    27213191.500 8 109576220.485 8      1921.036          49.000  
E36  24450637.734 8 128488965.983 8     -2338.664          51.000    24450639.906 8  98452586.745 8     -1791.932          50.000  
E09  22383299.516 8 117625114.463 8     -1589.012          51.000    22383301.391 8  90128347.396 8     -1217.567          51.000  
C19  22680220.773 5 118101954.759 5      1641.305          33.000                                                                  
C29  23388867.211 8 121791964.381 8     -2496.844          48.000                                                                  
C20  22148597.734 8 115333647.651 8      -858.098          51.000                                                                  
> 2020 05 11 22 20 30.0000000  0 18      -0.000000000000
G09  21525505.477 8 113117382.914 8      2458.016          49.000    21525506.570 8  88143401.247 8      1915.340          49.000  
G22  22912928.188 5 120408249.059 5     -2403.367          33.000                                                                  
G17  22616287.047 7 118849383.360 7     -1840.906          42.000    22616286.734 7  92609905.589 7     -1434.473          42.000  
G03  21045866.203 7 110596771.465 7     -1566.426          46.000    21045867.805 7  86179346.390 7     -1220.592          46.000  
G04  20264639.062 8 106491393.098 8       287.871          51.000    20264639.719 8  82980324.935 8       224.315          51.000  
G01  23438232.000 8 123168720.246 8     -3503.211          48.000    23438233.945 8  95975630.516 8     -2729.779          48.000  
G19  22283922.594 5 117102802.68525      -974.426          32.000                                                                  
R18  19756279.484 5 105459982.218 5        52.930          33.000    19756285.797 5  82024429.743 5        41.168          31.000  
R17  20883208.148 8 111749903.589 8     -3700.168          48.000    20883212.414 7  86916567.399 7     -2877.906          43.000  
R02  20088623.336 6 107196418.672 6     -1948.547          41.000    20088630.375 6  83374967.387 6     -1515.534          40.000  
R11  22888735.688 5 122310068.45325      -138.758          35.000    22888737.102 4  95130060.92624      -107.923          26.000  
E05  23670935.625 8 124391593.534 8       858.328          51.000    23670937.016 8  95313079.780 8       657.650          51.000  
E03  27198877.891 7 142931117.110 7      2506.293          45.000    27198883.680 8 109518606.205 8      1920.407          48.000  
E36  24464009.188 8 128559232.769 8     -2345.305          51.000    24464010.828 8  98506427.496 8     -1797.032          49.000  
E09  22392379.883 8 117672832.995 8     -1591.625          51.000    22392381.867 8  90164910.950 8     -1219.573          51.000  
C19  22670774.281 5 118052781.258 5      1637.980          32.000                                                                  
C29  23403276.469 8 121866995.682 8     -2504.566          50.000                                                                  
C20  22153555.500 8 115359464.045 8      -862.395          51.000                                                                  
> 2020 05 11 22 21  0.0000000  0 16      -0.000000000000
G09  21511529.758 8 113043944.696 8      2441.926          49.000    21511531.805 8  88086176.652 8      1902.797          49.000  
G17  22626861.047 7 118904948.099 7     -1859.074          43.000    22626859.945 7  92653202.760 7     -1448.630          43.000  
G03  21054856.727 7 110644017.206 7     -1579.062          45.000    21054857.914 7  86216161.241 7     -1230.439          45.000  
G04  20263066.617 8 106483130.316 8       267.184          51.000    20263067.648 8  82973886.408 8       208.195          51.000  
G01  23458273.203 7 123274034.882 7     -3513.629          47.000    23458274.547 7  96057693.817 7     -2737.896          47.000  
R18  19756081.945 6 105458930.415 6        21.172          36.000    19756085.555 4  82023621.20924        16.470          29.000  
R17  20904019.109 8 111861269.218 8     -3719.848          50.000    20904022.875 7  87003185.074 7     -2893.219          43.000  
R02  20099626.789 6 107255134.857 6     -1961.191          39.000    20099632.883 6  83420635.499 6     -1525.371          38.000  
R11  22889614.469 6 122314758.932 6      -167.789          38.000    22889611.836 4  95133707.76224      -130.503          27.000  
R04  23592131.117 5 126334403.197 5      3205.719          35.000    23592126.430 4  98260072.99124      2493.334          25.000  
E05  23666082.539 8 124366091.414 8       845.871          51.000    23666083.922 8  95293539.196 8       648.162          51.000  
E03  27184603.938 7 142856106.143 7      2498.531          47.000    27184609.836 7 109461130.299 7      1914.487          47.000  
E36  24477448.273 8 128629854.683 8     -2358.719          51.000    24477449.133 8  98560540.357 8     -1807.397          49.000  
E09  22401504.664 8 117720784.555 8     -1600.992          51.000    22401506.680 8  90201653.056 8     -1226.834          51.000  
C29  23417761.531 8 121942416.873 8     -2519.301          51.000                                                                  
C20  22158567.500 8 115385563.340 8      -873.398          51.000                                                                  
> 2020 05 11 22 21 30.0000000  0 19      -0.000000000000
G09  21497617.305 8 112970835.837 8      2429.523          51.000    21497619.617 8  88029208.700 8      1893.136          51.000  
G22  22940458.266 5 120552948.698 5     -2418.285          34.000                                                                  
G17  22637509.750 7 118960905.048 7     -1873.840          46.000    22637507.406 7  92696805.529 7     -1460.135          46.000  
G03  21063889.391 7 110691484.312 7     -1587.746          47.000    21063890.234 7  86253148.574 7     -1237.205          46.000  
G04  20261582.602 8 106475332.257 8       250.301          51.000    20261583.773 8  82967809.994 8       195.040          51.000  
G01  23478343.289 7 123379502.620 7     -3520.102          46.000    23478344.164 7  96139876.444 7     -2742.937          47.000  
G19  22295326.695 5 117162735.893 5     -1019.430          34.000                                                                  
R18  19756034.109 5 105458675.780 5        -6.781          34.000    19756037.812 5  82023422.600 5        -5.277          31.000  
R17  20924911.523 8 111973068.092 8     -3735.840          49.000    20924914.914 7  87090139.709 7     -2905.657          43.000  
R02  20110671.945 6 107314074.587 6     -1970.203          40.000    20110675.523 6  83466477.456 6     -1532.384          38.000  
R03  20027526.062 5 107208528.032 5      1254.883          31.000                                                                  
R11  22890621.008 5 122320097.604 5      -193.809          32.000    22890621.008 5  95137880.747 5      -150.740          30.000  
R04  23574181.633 6 126238275.774 6      3200.914          36.000    23574176.039 4  98185308.231 4      2489.603          28.000  
E05  23661270.727 8 124340806.269 8       837.352          51.000    23661272.094 8  95274164.873 8       641.595          51.000  
E03  27170344.461 8 142781170.449 8      2494.809          48.000    27170349.844 7 109403712.086 7      1911.536          46.000  
E36  24490934.398 8 128700724.868 8     -2368.332          51.000    24490934.656 8  98614843.453 8     -1814.703          49.000  
E09  22410653.531 8 117768862.440 8     -1606.645          51.000    22410655.445 8  90238491.950 8     -1231.066          51.000  
C29  23432300.680 8 122018121.048 8     -2530.027          51.000                                                                  
C20  22163613.609 8 115411840.318 8      -880.719          51.000                                                                  
> 2020 05 11 22 22  0.0000000  0 17      -0.000000000000
G09  21483781.867 8 112898128.090 8      2418.789          51.000    21483783.500 8  87972553.327 8      1884.771          51.000  
G17  22648245.977 7 119017322.875 7     -1886.520          45.000    22648243.445 7  92740767.465 7     -1470.019          45.000  
G03  21072977.570 7 110739243.064 7     -1595.086          46.000    21072979.258 7  86290363.140 7     -1242.924          46.000  
G04  20260200.367 8 106468069.044 8       235.004          51.000    20260201.398 8  82962150.339 8       183.120          51.000  
G01  23498454.953 7 123485192.297 7     -3524.832          45.000    23498456.086 7  96222232.028 7     -2746.623          45.000  
G19  22301200.602 4 117193603.152 4     -1037.508          29.000                                                                  
R18  19756149.750 5 105459290.729 5       -33.574          35.000    19756152.727 5  82023900.855 5       -26.113          30.000  
R17  20945897.242 7 112085368.224 7     -3749.734          47.000    20945901.016 7  87177484.242 7     -2916.461          44.000  
R02  20121772.031 6 107373307.734 6     -1977.285          39.000    20121775.195 6  83512547.673 6     -1537.889          39.000  
R11  22891775.617 5 122326287.70525      -217.387          33.000    22891776.711 5  95142684.36725      -169.079          32.000  
R04  23556265.945 6 126142331.599 6      3196.773          36.000                                                                  
E05  23656513.727 8 124315808.522 8       830.332          51.000    23656514.969 8  95255010.757 8       636.268          51.000  
E03  27156112.867 7 142706381.184 7      2492.344          47.000    27156117.469 7 109346406.064 7      1909.791          46.000  
E36  24504480.602 8 128771912.786 8     -2376.281          51.000    24504481.336 8  98669390.012 8     -1820.782          50.000  
E09  22419839.766 8 117817136.294 8     -1610.586          51.000    22419841.531 8  90275481.005 8     -1233.999          51.000  
C29  23446906.711 8 122094176.024 8     -2539.191          51.000                                                                  
C20  22168707.375 8 115438364.440 8      -886.414          51.000                                                                  
> 2020 05 11 22 22 30.0000000  0 17      -0.000000000000
G09  21470023.750 8 112825825.627 8      2406.863          51.000    21470024.344 8  87916213.779 8      1875.478          51.000  
G22  22968126.797 5 120698322.609 5     -2426.219          34.000                                                                  
G17  22659069.789 7 119074201.950 7     -1900.113          45.000    22659068.234 7  92785088.852 7     -1480.605          45.000  
G03  21082121.828 7 110787296.020 7     -1603.035          46.000    21082124.062 7  86327806.972 7     -1249.122          46.000  
G04  20258920.508 8 106461343.219 8       218.754          51.000    20258921.406 8  82956909.421 8       170.458          51.000  
G01  23518608.414 7 123591105.042 7     -3530.605          44.000    23518610.758 7  96304761.419 7     -2751.122          44.000  
R18  19756428.438 6 105460778.353 6       -60.773          36.000    19756431.984 5  82025057.880 5       -47.268          32.000  
R17  20966975.297 7 112198168.346 7     -3764.691          45.000    20966980.734 7  87265217.676 7     -2928.094          45.000  
R02  20132927.008 6 107432782.71826     -1985.328          40.000    20132934.438 6  83558847.73426     -1544.144          39.000  
R11  22893076.984 5 122333240.082 5      -240.938          35.000    22893081.852 5  95148107.511 5      -187.396          32.000  
R04  23538384.008 6 126046576.273 6      3192.812          36.000    23538371.883 4  98036192.89824      2483.299          27.000  
E05  23651811.734 8 124291100.890 8       822.215          51.000    23651813.062 8  95236078.952 8       630.027          51.000  
E03  27141909.461 7 142631741.721 7      2488.984          47.000    27141913.727 7 109289214.838 7      1907.049          45.000  
E36  24518087.414 8 128843420.279 8     -2385.406          50.000    24518089.422 8  98724181.459 8     -1827.798          51.000  
E09  22429063.680 8 117865608.103 8     -1615.500          51.000    22429065.461 8  90312621.743 8     -1237.869          51.000  
C29  23461579.875 8 122170582.570 8     -2549.203          51.000                                                                  
C20  22173849.023 8 115465138.157 8      -893.145          51.000                                                                  
> 2020 05 11 22 23  0.0000000  0 17      -0.000000000000
G09  21456332.578 8 112753876.809 8      2391.863          50.000    21456332.570 8  87860149.792 8      1863.790          50.000  
G22  22982007.898 5 120771258.352 5     -2434.047          33.000                                                                  
G17  22669970.766 7 119131487.371 7     -1916.805          46.000    22669969.961 7  92829726.876 7     -1493.615          46.000  
G03  21091311.898 7 110835590.088 7     -1614.445          45.000    21091314.078 7  86365438.675 7     -1258.013          45.000  
G04  20257732.656 8 106455101.381 8       199.336          51.000    20257733.406 8  82952045.657 8       155.327          51.000  
G01  23538794.672 7 123697186.257 7     -3539.465          47.000    23538797.836 7  96387422.101 7     -2758.022          47.000  
R18  19756860.516 6 105463085.585 6       -91.391          37.000    19756864.484 5  82026852.428 5       -71.082          34.000  
R17  20988136.328 7 112311410.906 7     -3782.785          46.000    20988142.383 7  87353295.222 7     -2942.167          44.000  
R02  20144129.391 7 107492550.318 7     -1996.766          45.000    20144131.094 6  83605333.136 6     -1553.043          36.000  
R04  23520528.734 5 125950966.704 5      3184.383          34.000                                                                  
E05  23647154.695 8 124266630.315 8       811.156          51.000    23647156.367 8  95217328.789 8       621.503          51.000  
E03  27127724.078 7 142557199.736 7      2482.516          47.000    27127728.961 7 109232098.296 7      1902.123          46.000  
E36  24531744.867 8 128915193.314 8     -2397.562          50.000    24531748.281 8  98779176.381 8     -1837.058          51.000  
E09  22438314.961 8 117914224.047 8     -1623.609          51.000    22438316.844 8  90349872.923 8     -1244.044          51.000  
C19  22624180.961 5 117810072.689 5      1600.062          31.000                                                                  
C29  23476309.844 8 122247286.186 8     -2562.371          51.000                                                                  
C20  22179028.258 8 115492108.613 8      -902.945          51.000                                                                  
> 2020 05 11 22 23 30.0000000  0 19      -0.000000000000
G09  21442716.195 8 112682324.372 8      2379.781          49.000    21442716.438 8  87804394.640 8      1854.376          49.000  
G22  22995918.992 5 120844373.269 5     -2438.324          31.000                                                                  
G17  22680956.961 7 119189218.383 7     -1930.406          47.000    22680955.766 7  92874712.080 7     -1504.216          47.000  
G03  21100555.672 7 110884166.381 7     -1622.324          45.000    21100557.250 7  86403290.316 7     -1264.149          45.000  
G04  20256644.719 8 106449384.560 8       183.102          51.000    20256645.039 8  82947590.991 8       142.677          51.000  
G01  23559021.062 7 123803475.680 7     -3545.020          47.000    23559024.602 7  96470245.036 7     -2762.354          47.000  
R18  19757454.180 6 105466254.919 6      -118.922          39.000    19757457.594 5  82029317.474 5       -92.492          34.000  
R17  21009388.531 8 112425134.423 8     -3797.406          48.000    21009393.820 7  87441746.800 7     -2953.539          45.000  
R02  20155382.609 7 107552597.860 7     -2004.902          44.000    20155381.695 6  83652036.684 6     -1559.372          36.000  
R03  19999967.688 5 107061002.735 5      1204.105          33.000                                                                  
R04  23502706.148 5 125855523.675 5      3179.492          34.000    23502705.109 4  97887637.52324      2472.939          27.000  
E05  23642550.812 8 124242438.143 8       803.137          51.000    23642552.938 8  95198791.920 8       615.316          51.000  
E03  27113564.734 7 142482797.207 7      2479.082          46.000    27113571.328 7 109175088.581 7      1899.519          46.000  
E36  24545461.008 8 128987272.279 8     -2406.402          51.000    24545465.148 8  98834405.707 8     -1843.910          51.000  
E09  22447601.422 8 117963024.721 8     -1628.469          51.000    22447603.188 8  90387265.638 8     -1247.786          51.000  
C19  22614976.758 5 117762163.042 5      1594.363          33.000                                                                  
C29  23491104.164 8 122324325.846 8     -2572.242          51.000                                                                  
C20  22184253.070 8 115519316.460 8      -909.562          51.000                                                                  
C23  25793980.039 6 134316019.392 6      -492.617          37.000                                                                  
> 2020 05 11 22 24  0.0000000  0 20      -0.000000000000
G09  21429158.008 8 112611075.565 8      2366.516          51.000    21429158.766 8  87748876.094 8      1844.039          51.000  
G22  23009846.719 5 120917561.185 5     -2444.695          32.000                                                                  
G17  22692009.641 8 119247298.610 8     -1945.074          48.000    22692007.242 8  92919969.376 8     -1515.646          48.000  
G03  21109835.305 7 110932930.775 7     -1631.688          44.000    21109837.109 7  86441288.506 7     -1271.445          44.000  
G04  20255638.812 8 106444098.404 8       165.629          51.000    20255638.938 8  82943471.909 8       129.062          51.000  
G01  23579268.672 7 123909877.713 7     -3551.859          47.000    23579272.672 7  96553155.684 7     -2767.687          47.000  
G19  22325862.195 5 117323204.151 5     -1120.566          33.000                                                                  
R18  19758192.641 6 105470191.343 6      -147.602          41.000    19758194.477 5  82032379.108 5      -114.801          35.000  
R17  21030712.180 8 112539239.125 8     -3813.254          49.000    21030717.195 7  87530494.875 7     -2965.868          46.000  
R02  20166667.914 7 107612815.002 7     -2014.004          42.000    20166671.367 6  83698867.59326     -1566.448          37.000  
R11  22897813.188 6 122358537.229 6      -319.926          38.000    22897818.523 5  95167788.074 5      -248.828          32.000  
R04  23484893.633 4 125760137.181 4      3174.199          29.000    23484896.773 5  97813441.476 5      2468.822          30.000  
E05  23637982.141 8 124218430.257 8       793.875          51.000    23637984.688 8  95180396.250 8       608.327          51.000  
E03  27099414.328 7 142408440.739 7      2474.371          46.000    27099422.930 7 109118114.125 7      1896.029          46.000  
E36  24559217.570 8 129059562.166 8     -2416.391          51.000    24559221.508 8  98889796.650 8     -1851.509          51.000  
E09  22456904.992 8 118011915.321 8     -1634.445          51.000    22456906.469 8  90424727.256 8     -1252.323          51.000  
C19  22605800.961 5 117714378.298 5      1587.473          31.000                                                                  
C29  23505944.625 8 122401606.469 8     -2583.348          51.000                                                                  
C20  22189505.578 8 115546668.234 8      -917.375          51.000                                                                  
C23  25796854.805 5 134330995.476 5      -509.664          35.000                                                                  
> 2020 05 11 22 24 30.0000000  0 19      -0.000000000000
G09  21415666.852 8 112540177.659 8      2355.855          51.000    21415668.078 8  87693630.993 8      1835.732          51.000  
G22  23023801.906 5 120990891.792 5     -2448.285          35.000                                                                  
G17  22703136.734 7 119305772.008 7     -1957.023          47.000    22703133.680 7  92965533.029 7     -1524.954          47.000  
G03  21119159.336 7 110981928.998 7     -1638.824          43.000    21119160.945 7  86479468.881 7     -1277.009          43.000  
G04  20254723.391 8 106439288.538 8       150.730          51.000    20254723.727 8  82939723.973 8       117.452          51.000  
G01  23599546.055 7 124016436.726 7     -3556.117          46.000    23599550.336 7  96636188.667 7     -2771.001          46.000  
G19  22332300.102 5 117357031.176 5     -1138.605          35.000                                                                  
R18  19759084.000 7 105474942.257 7      -173.660          42.000    19759084.094 5  82036074.217 5      -135.069          35.000  
R17  21052115.562 8 112653768.359 8     -3826.352          50.000    21052120.023 7  87619573.138 7     -2976.055          46.000  
R02  20177998.000 7 107673293.595 7     -2020.785          44.000    20178000.477 6  83745893.22026     -1571.722          38.000  
R11  22899662.312 6 122368417.562 6      -343.125          37.000                                                                  
R04  23467103.766 5 125664901.013 5      3170.852          33.000    23467114.383 5  97739368.909 5      2466.218          31.000  
E05  23633457.445 8 124194652.633 8       787.199          51.000    23633460.086 8  95162177.033 8       603.176          51.000  
E03  27085282.312 7 142334177.003 7      2472.383          46.000    27085292.055 7 109061210.749 7      1894.349          47.000  
E36  24573022.898 8 129132108.056 8     -2423.980          51.000    24573025.938 8  98945383.731 8     -1857.325          51.000  
E09  22466234.320 8 118060941.109 8     -1638.027          51.000    22466235.648 8  90462292.451 8     -1255.122          51.000  
C29  23520839.688 8 122479171.597 8     -2591.762          51.000                                                                  
C20  22194794.555 8 115574209.282 8      -922.742          51.000                                                                  
C23  25799818.258 5 134346425.766 5      -523.949          30.000                                                                  
> 2020 05 11 22 25  0.0000000  0 17      -0.000000000000
G09  21402281.711 8 112469838.134 8      2340.922          51.000    21402283.398 8  87638820.994 8      1824.096          51.000  
G17  22714377.133 7 119364842.841 7     -1973.426          46.000    22714375.062 7  93011562.233 7     -1537.735          46.000  
G03  21128567.141 7 111031367.261 7     -1649.781          44.000    21128568.578 7  86517992.192 7     -1285.544          43.000  
G04  20253937.898 8 106435160.700 8       131.797          51.000    20253938.109 8  82936507.474 8       102.702          51.000  
G01  23619891.914 7 124123357.191 7     -3564.539          45.000    23619896.422 7  96719503.337 7     -2777.564          45.000  
R18  19760166.312 6 105480716.962 6      -203.926          40.000    19760166.125 6  82040565.640 6      -158.606          36.000  
R17  21073637.055 8 112768927.950 8     -3843.512          50.000    21073640.336 7  87709141.701 7     -2989.399          47.000  
R02  20189410.703 7 107734182.293 7     -2031.395          44.000    20189413.523 6  83793258.574 6     -1579.971          39.000  
R11  22901687.219 5 122379237.144 5      -370.219          35.000                                                                  
R04  23449380.391 4 125570005.032 4      3162.734          28.000    23449394.266 5  97665560.889 5      2459.902          31.000  
E05  23629015.984 8 124171311.284 8       776.316          51.000    23629018.352 8  95144292.117 8       594.873          51.000  
E03  27071207.742 7 142260212.726 7      2466.023          47.000    27071217.297 7 109004536.842 7      1889.516          46.000  
E36  24586915.820 8 129205114.994 8     -2435.680          51.000    24586917.758 8  99001324.088 8     -1866.286          51.000  
E09  22475628.398 8 118110307.387 8     -1645.695          51.000    22475629.992 8  90500118.546 8     -1260.952          51.000  
C29  23535828.133 8 122557223.513 8     -2604.344          49.000                                                                  
C20  22200159.266 8 115602143.471 8      -932.148          51.000                                                                  
C23  25802906.812 4 134362510.372 4      -541.980          29.000                                                                  
> 2020 05 11 22 25 30.0000000  0 19      -0.000000000000
G09  21388943.352 8 112399746.248 8      2331.734          51.000    21388944.922 8  87584203.954 8      1816.936          51.000  
G22  23051847.844 5 121138288.196 5     -2456.688          33.000                                                                  
G17  22725671.367 8 119424196.280 8     -1983.703          48.000    22725670.461 7  93057811.682 7     -1545.740          47.000  
G03  21137999.094 6 111080933.263 6     -1654.707          40.000    21138000.570 6  86556615.018 6     -1289.382          39.000  
G04  20253222.695 8 106431402.442 8       118.508          51.000    20253222.766 8  82933578.961 8        92.347          51.000  
G01  23640246.727 7 124230325.424 7     -3567.016          44.000    23640251.281 7  96802855.239 7     -2779.494          45.000  
G19  22345562.617 4 117426723.79324     -1177.512          29.000                                                                  
R18  19761381.203 7 105487199.113 7      -228.648          42.000    19761380.188 5  82045607.323 5      -177.835          34.000  
R17  21095215.609 8 112884396.302 8     -3854.637          50.000    21095218.062 7  87798950.397 7     -2998.051          47.000  
R02  20200845.242 7 107795196.297 7     -2036.391          45.000    20200846.820 6  83840713.909 6     -1583.860          40.000  
R03  19973537.617 5 106919561.873 5      1156.164          30.000    19973533.992 4  83159628.982 4       899.242          29.000  
R11  22903830.328 6 122390716.968 6      -392.332          36.000    22903830.609 5  95192789.68425      -305.147          31.000  
E05  23624598.320 8 124148094.104 8       771.262          51.000    23624600.023 8  95126502.355 8       591.018          51.000  
E03  27057131.125 7 142186236.480 7      2465.469          47.000    27057139.039 7 108947853.786 7      1889.201          47.000  
E36  24600836.875 8 129278269.960 8     -2441.555          51.000    24600838.156 8  99057377.862 8     -1870.740          51.000  
E09  22485027.727 8 118159701.344 8     -1647.539          51.000    22485029.773 8  90537965.860 8     -1262.320          51.000  
C29  23550850.664 8 122635450.968 8     -2611.121          50.000                                                                  
C20  22205540.141 8 115630161.335 8      -935.938          51.000                                                                  
C23  25806063.906 4 134378945.00324      -554.996          27.000                                                                  
> 2020 05 11 22 26  0.0000000  0 18      -0.000000000000
G09  21375702.750 8 112330169.997 8      2317.379          49.000    21375703.688 8  87529988.725 8      1805.750          49.000  
G17  22737069.852 8 119484097.075 8     -1999.051          48.000    22737069.820 7  93104487.582 7     -1557.705          47.000  
G03  21147506.344 6 111130893.548 6     -1665.227          40.000    21147507.547 6  86595545.049 6     -1297.580          41.000  
G04  20252628.508 8 106428279.986 8       100.254          51.000    20252628.789 8  82931145.902 8        78.123          51.000  
G01  23660661.430 7 124337606.473 7     -3574.477          45.000    23660665.914 7  96886450.865 7     -2785.307          45.000  
R18  19762778.422 6 105494659.766 6      -258.078          40.000    19762777.078 5  82051410.084 5      -200.724          32.000  
R17  21116902.133 8 113000441.361 8     -3870.824          51.000    21116903.422 7  87889207.632 7     -3010.642          46.000  
R02  20212351.320 7 107856597.822 7     -2046.141          43.000    20212353.891 6  83888470.673 6     -1591.443          39.000  
R03  19967127.133 4 106885208.58524      1142.852          29.000                                                                  
R11  22906143.008 5 122402991.23425      -417.875          30.000    22906138.070 5  95202371.78225      -325.014          33.000  
R04  23414000.562 5 125380523.61625      3154.656          30.000    23414001.523 4  97518188.41924      2453.622          26.000  
E05  23620254.992 8 124125267.749 8       761.117          51.000    23620255.961 8  95109012.035 8       583.194          51.000  
E03  27043102.914 7 142112515.589 7      2459.852          47.000    27043108.391 7 108891366.426 7      1884.876          46.000  
E36  24614836.547 8 129351838.568 8     -2452.359          50.000    24614837.797 8  99113748.590 8     -1879.094          51.000  
E09  22494482.945 8 118209388.874 8     -1654.414          51.000    22494485.352 8  90576038.121 8     -1267.609          51.000  
C19  22569536.422 5 117525482.042 5      1562.453          32.000                                                                  
C29  23565957.695 8 122714116.204 8     -2622.699          49.000                                                                  
C20  22210987.578 8 115658526.791 8      -944.648          51.000                                                                  
> 2020 05 11 22 26 30.0000000  0 16      -0.000000000000
G09  21362517.258 8 112260882.041 8      2303.180          50.000    21362517.781 8  87475998.144 8      1794.689          50.000  
G17  22748528.969 8 119544314.398 8     -2014.176          48.000    22748528.555 8  93151410.124 8     -1569.491          48.000  
G03  21157045.117 6 111181019.206 6     -1675.566          37.000    21157046.219 6  86634604.038 6     -1305.637          36.000  
G04  20252111.781 8 106425564.359 8        82.066          51.000    20252112.125 8  82929029.841 8        63.948          51.000  
G01  23681092.414 7 124444970.073 7     -3581.777          46.000    23681096.336 7  96970110.821 7     -2790.996          47.000  
R12  22534176.969 5 120373153.950 5      2613.812          32.000                                                                  
R18  19764314.758 6 105502867.067 6      -287.703          41.000    19764313.547 5  82057793.534 5      -223.769          33.000  
R17  21138652.414 8 113116826.597 8     -3886.797          51.000    21138652.398 7  87979729.444 7     -3023.065          45.000  
R02  20223885.977 7 107918153.382 7     -2056.242          43.000    20223889.148 6  83936347.248 6     -1599.300          38.000  
R03  19960772.648 5 106851146.69125      1127.977          32.000    19960760.969 4  83106433.44424       877.315          25.000  
E05  23615942.211 8 124102603.502 8       751.105          51.000    23615943.078 8  95091645.928 8       575.511          51.000  
E03  27029079.680 7 142038822.102 7      2454.270          47.000    27029082.898 7 108834900.063 7      1880.575          46.000  
E36  24628871.211 8 129425591.231 8     -2463.121          50.000    24628873.031 8  99170260.367 8     -1887.343          51.000  
E09  22503950.469 8 118259140.656 8     -1661.145          51.000    22503952.984 8  90614159.610 8     -1272.802          51.000  
C29  23581104.891 8 122792990.702 8     -2634.125          48.000                                                                  
C20  22216458.023 8 115687013.033 8      -953.203          51.000                                                                  
> 2020 05 11 22 27  0.0000000  0 18      -0.000000000000
G09  21349395.141 8 112191923.462 8      2289.734          51.000    21349395.914 8  87422264.218 8      1784.209          51.000  
G17  22760055.398 8 119604885.933 8     -2028.277          49.000    22760054.148 8  93198608.672 8     -1580.476          49.000  
G04  20251679.922 8 106423294.910 8        64.871          51.000    20251680.273 8  82927261.449 8        50.549          51.000  
G01  23701546.375 7 124552454.488 7     -3588.000          47.000    23701549.430 7  97053864.893 7     -2795.845          46.000  
G19  22366288.086 5 117535630.289 5     -1239.527          34.000                                                                  
R12  22519542.273 5 120294956.618 5      2595.469          33.000                                                                  
R18  19765998.531 6 105511861.675 6      -316.184          41.000    19765998.039 5  82064789.259 5      -245.924          34.000  
R17  21160472.500 8 113233588.596 8     -3901.637          51.000    21160471.617 7  88070544.284 7     -3034.610          45.000  
R02  20235457.469 7 107979901.577 7     -2064.707          43.000    20235460.930 6  83984373.621 6     -1605.884          37.000  
R11  22911127.398 4 122429689.172 4      -472.340          29.000    22911133.875 5  95223081.342 5      -367.372          32.000  
R04  23378728.484 4 125191642.78424      3142.184          28.000    23378722.586 4  97371252.26024      2443.921          26.000  
E05  23611667.695 8 124080141.119 8       742.184          51.000    23611669.172 8  95074434.514 8       568.666          51.000  
E03  27015069.234 7 141965196.484 7      2449.773          47.000    27015071.109 7 108778485.674 7      1877.073          45.000  
E36  24642948.336 8 129499566.730 8     -2472.789          51.000    24642950.945 8  99226942.894 8     -1894.754          51.000  
E09  22513437.656 8 118308995.755 8     -1666.867          51.000    22513440.094 8  90652360.266 8     -1277.205          51.000  
C29  23596299.414 7 122872111.828 7     -2644.699          47.000                                                                  
C20  22221959.219 8 115715659.285 8      -960.824          51.000                                                                  
C23  25816119.938 5 134431290.721 5      -606.117          30.000                                                                  
> 2020 05 11 22 27 30.0000000  0 18      -0.000000000000
G09  21336347.258 8 112123353.585 8      2268.848          51.000    21336348.141 8  87368833.162 8      1767.937          51.000  
G17  22771659.641 8 119665867.230 8     -2049.777          49.000    22771658.453 8  93246126.546 8     -1597.230          49.000  
G04  20251343.820 8 106421529.315 8        40.246          51.000    20251344.469 8  82925885.670 8        31.361          51.000  
G01  23722034.094 7 124660116.165 7     -3601.867          46.000    23722034.742 7  97137757.078 7     -2806.651          46.000  
G19  22373409.570 5 117573059.857 5     -1267.699          31.000                                                                  
R18  19767842.023 7 105521702.768 7      -352.613          43.000    19767842.516 6  82072443.450 6      -274.255          36.000  
R17  21182372.836 8 113350782.570 8     -3924.148          49.000    21182372.180 7  88161695.139 7     -3052.116          46.000  
R02  20247076.320 7 108041900.458 7     -2081.188          42.000    20247080.180 6  84032594.953 6     -1618.705          36.000  
R03  19948238.773 5 106784092.216 5      1094.789          30.000    19948231.500 4  83054264.81624       851.503          27.000  
R11  22913838.539 5 122444185.643 5      -505.105          35.000    22913842.984 4  95234387.81024      -392.863          28.000  
E05  23607442.805 8 124057938.656 8       725.414          51.000    23607444.664 8  95057422.260 8       555.819          51.000  
E03  27001082.836 7 141891697.403 7      2437.402          47.000    27001084.383 7 108722168.231 7      1867.750          45.000  
E36  24657078.781 8 129573822.162 8     -2490.117          51.000    24657081.664 8  99283839.909 8     -1908.064          51.000  
E09  22522955.336 8 118359011.483 8     -1680.223          51.000    22522957.531 8  90690683.997 8     -1287.450          51.000  
C19  22542710.273 5 117385812.323 5      1532.637          34.000                                                                  
C29  23611551.750 8 122951535.176 8     -2662.656          48.000                                                                  
C20  22227502.242 8 115744522.772 8      -975.949          51.000                                                                  
C23  25819644.656 5 134449638.811 5      -630.070          30.000                                                                  
> 2020 05 11 22 28  0.0000000  0 19      -0.000000000000
G09  21323365.875 8 112055134.601 8      2258.676          51.000    21323366.672 8  87315675.525 8      1760.008          51.000  
G22  23122428.844 5 121509188.871 5     -2492.266          32.000                                                                  
G17  22783334.141 8 119727217.172 8     -2060.527          49.000    22783333.875 8  93293931.696 8     -1605.609          49.000  
G04  20251096.195 8 106420227.981 8        26.324          50.000    20251096.938 8  82924871.647 8        20.512          50.000  
G01  23742547.859 7 124767914.319 7     -3604.797          46.000    23742545.102 7  97221755.552 7     -2808.937          46.000  
G19  22380638.523 5 117611043.756 5     -1284.840          32.000                                                                  
R18  19769837.344 7 105532350.803 7      -377.859          43.000    19769838.773 6  82080725.254 6      -293.891          38.000  
R17  21204345.070 8 113468364.905 8     -3935.418          48.000    21204345.914 7  88253148.091 7     -3060.881          46.000  
R02  20258734.781 7 108104108.907 7     -2086.668          43.000    20258737.367 5  84080979.282 5     -1622.961          35.000  
R03  19942082.203 5 106751094.331 5      1084.992          32.000    19942068.695 4  83028599.828 4       843.880          28.000  
R11  22916678.977 6 122459397.061 6      -527.461          37.000    22916683.594 5  95246210.87025      -410.244          33.000  
R04  23343544.438 5 125003233.46825      3125.879          31.000                                                                  
E05  23603259.898 8 124035956.889 8       719.523          51.000    23603261.500 8  95040579.098 8       551.285          51.000  
E03  26987113.023 7 141818286.328 7      2436.172          46.000    26987115.172 7 108665918.261 7      1866.564          46.000  
E36  24671254.805 8 129648317.319 8     -2496.695          51.000    24671257.695 8  99340920.604 8     -1913.068          51.000  
E09  22532495.977 8 118409147.973 8     -1682.641          51.000    22532497.906 8  90729100.268 8     -1289.408          51.000  
C19  22533834.867 4 117339589.59024      1529.664          28.000                                                                  
C29  23626854.453 8 123031219.973 8     -2669.875          48.000                                                                  
C20  22233079.469 8 115773564.500 8      -980.285          51.000                                                                  
> 2020 05 11 22 28 30.0000000  0 15      -0.000000000000
G09  21310509.422 8 111987575.265 8      2253.293          50.000    21310510.398 8  87263031.883 8      1755.813          50.000  
G17  22795136.820 8 119789241.065 8     -2066.484          49.000    22795137.484 8  93342261.938 8     -1610.251          49.000  
G03  21195691.820 6 111384103.357 6     -1707.844          36.000    21195693.383 5  86792817.070 5     -1330.785          35.000  
G04  20250995.312 8 106419697.892 8        17.117          51.000    20250995.781 8  82924458.586 8        13.341          51.000  
G01  23763145.672 7 124876154.824 7     -3603.184          47.000    23763143.734 7  97306098.739 7     -2807.679          46.000  
R18  19772042.305 7 105544118.118 7      -398.590          42.000    19772044.516 6  82089877.610 6      -310.014          39.000  
R17  21226448.055 8 113586645.094 8     -3941.766          50.000    21226449.875 7  88345143.810 7     -3065.818          45.000  
R02  20270490.289 6 108166838.234 6     -2087.426          41.000    20270491.977 5  84129768.687 5     -1623.554          35.000  
R11  22919709.727 5 122475592.90825      -544.742          34.000    22919715.078 5  95258810.90625      -423.688          34.000  
E05  23599177.094 8 124014503.227 8       718.617          51.000    23599178.453 8  95024140.570 8       550.674          51.000  
E03  26973218.594 7 141745271.495 7      2439.473          47.000    26973221.734 7 108609971.878 7      1869.234          47.000  
E36  24685534.477 8 129723358.661 8     -2498.188          51.000    24685537.289 8  99398419.812 8     -1914.203          51.000  
E09  22542117.984 8 118459711.999 8     -1680.293          51.000    22542119.805 8  90767844.128 8     -1287.507          51.000  
C29  23642265.547 8 123111468.857 8     -2672.199          49.000                                                                  
C20  22238749.336 8 115803088.900 8      -980.016          51.000                                                                  
> 2020 05 11 22 29  0.0000000  0 18      -0.000000000000
G09  21297677.828 8 111920147.050 8      2240.723          50.000    21297679.133 8  87210490.427 8      1746.018          50.000  
G22  23150900.805 5 121658788.613 5     -2494.973          33.000                                                                  
G17  22806966.648 8 119851407.178 8     -2079.102          49.000    22806967.078 8  93390703.033 8     -1620.083          49.000  
G03  21205464.016 6 111435453.629 6     -1716.359          37.000    21205464.859 6  86832830.263 6     -1337.423          37.000  
G04  20250940.375 8 106419408.873 8         1.062          51.000    20250940.523 8  82924233.369 8         0.828          51.000  
G01  23783726.391 7 124984306.315 7     -3608.348          47.000    23783726.938 7  97390372.602 7     -2811.700          46.000  
R18  19774355.211 7 105556466.867 7      -426.168          42.000    19774357.898 6  82099482.176 6      -331.464          39.000  
R17  21248580.352 8 113705079.579 8     -3955.145          51.000    21248582.477 7  88437259.515 7     -3076.224          45.000  
R02  20282241.172 5 108229548.115 5     -2094.645          35.000    20282243.422 6  84178543.143 6     -1629.162          36.000  
R03  19930013.305 5 106686554.880 5      1067.730          32.000    19930008.031 4  82978408.588 4       830.457          28.000  
R11  22922839.180 5 122492265.175 5      -570.535          35.000    22922841.508 5  95271800.10325      -443.753          34.000  
E05  23595093.898 8 123993047.895 8       710.449          51.000    23595095.609 8  95007700.780 8       544.394          51.000  
E03  26959298.953 7 141672123.733 7      2435.750          47.000    26959302.922 8 108553923.668 8      1866.340          48.000  
E36  24699816.711 8 129798415.426 8     -2506.777          50.000    24699819.570 8  99455930.837 8     -1920.823          51.000  
E09  22551720.492 8 118510173.089 8     -1684.984          51.000    22551722.250 8  90806509.133 8     -1291.138          51.000  
C19  22516239.750 5 117247947.978 5      1523.305          31.000                                                                  
C29  23657683.852 8 123191754.892 8     -2681.418          50.000                                                                  
C20  22244410.992 8 115832570.778 8      -986.668          51.000                                                                  
> 2020 05 11 22 29 30.0000000  0 20      -0.000000000000
G09  21284907.930 8 111853040.778 8      2229.617          51.000    21284909.531 8  87158199.861 8      1737.365          51.000  
G17  22818858.992 8 119913902.110 8     -2090.590          49.000    22818858.797 8  93439400.354 8     -1629.031          49.000  
G03  21215272.070 6 111486994.681 6     -1723.348          40.000    21215272.953 6  86872992.155 6     -1342.866          40.000  
G04  20250967.352 8 106419550.027 8       -13.867          51.000    20250967.469 8  82924343.363 8       -10.806          51.000  
G01  23804325.602 7 125092556.731 7     -3611.781          46.000    23804328.312 7  97474723.595 7     -2814.376          46.000  
G31  24253824.492 5 127454684.723 5     -2439.691          34.000    24253823.383 5  99315335.008 5     -1901.059          35.000  
R12  22447866.203 5 119912069.040 5      2509.637          31.000    22447873.758 4  93264985.23324      1951.943          24.000  
R18  19776813.422 7 105569589.475 7      -452.371          42.000    19776815.391 6  82109688.661 6      -351.841          37.000  
R17  21270776.930 8 113823857.795 8     -3966.852          50.000    21270778.977 7  88529642.535 7     -3085.333          43.000  
R02  20294025.383 6 108292430.865 6     -2100.883          40.000    20294028.070 6  84227451.939 6     -1634.020          37.000  
R03  19924041.836 5 106654630.626 5      1057.039          31.000    19924042.523 4  82953578.622 4       822.145          27.000  
R11  22926094.609 5 122509691.207 5      -593.461          35.000    22926097.430 5  95285328.52325      -461.581          33.000  
E05  23591046.789 8 123971780.430 8       703.828          51.000    23591048.969 8  94991404.934 8       539.342          51.000  
E03  26945390.352 7 141599033.223 7      2433.555          47.000    26945394.812 8 108497919.308 8      1864.664          48.000  
E36  24714137.414 8 129873676.181 8     -2513.988          48.000    24714140.742 8  99513598.153 8     -1926.265          51.000  
E09  22561339.328 8 118560720.139 8     -1688.191          51.000    22561341.117 8  90845239.988 8     -1293.523          51.000  
C19  22507474.531 5 117202271.545 5      1518.121          34.000                                                                  
C29  23673144.742 8 123272263.919 8     -2689.250          50.000                                                                  
C20  22250100.609 8 115862197.779 8      -991.863          51.000                                                                  
C23  25834677.984 5 134527944.799 5      -682.184          30.000                                                                  
> 2020 05 11 22 30  0.0000000  0 23      -0.000000000000
G09  21272242.984 8 111786485.331 8      2212.699          51.000    21272244.711 8  87106338.504 8      1724.182          51.000  
G22  23179450.234 5 121808854.072 5     -2506.930          35.000    23179434.836 5  94915933.784 5     -1953.452          30.000  
G17  22830856.766 8 119976951.566 8     -2107.488          49.000    22830856.125 8  93488529.791 8     -1642.199          48.000  
G03  21225159.602 6 111538954.023 6     -1735.613          40.000    21225160.438 6  86913479.967 6     -1352.423          39.000  
G04  20251119.430 8 106420348.385 8       -34.191          51.000    20251119.438 8  82924965.468 8       -26.643          51.000  
G01  23824986.352 7 125201132.114 7     -3621.145          44.000    23824990.703 7  97559327.826 7     -2821.672          44.000  
G31  24267822.062 5 127528242.703 5     -2459.133          34.000    24267820.078 5  99372652.815 5     -1916.214          35.000  
G19  22410729.359 6 117769184.829 6     -1356.594          36.000                                                                  
R12  22433855.859 5 119837193.467 5      2487.766          33.000    22433865.367 4  93206771.211 4      1934.929          27.000  
R18  19779460.078 7 105583716.977 7      -484.152          43.000    19779461.664 6  82120676.738 6      -376.563          38.000  
R17  21293080.297 8 113943207.605 8     -3984.348          49.000    21293081.047 6  88622470.078 6     -3098.941          41.000  
R02  20305885.383 6 108355715.336 6     -2113.031          41.000    20305888.234 5  84276673.188 5     -1643.472          35.000  
R03  19918175.711 5 106623244.914 5      1040.875          34.000    19918179.641 4  82929167.506 4       809.573          25.000  
R11  22929520.453 5 122528004.844 5      -622.539          30.000    22929522.898 5  95299577.916 5      -484.200          31.000  
R04  23273615.266 5 124628740.466 5      3110.770          30.000                                                                  
E05  23587078.875 8 123950928.316 8       691.516          51.000    23587081.156 8  94975427.352 8       529.920          51.000  
E03  26931536.266 8 141526228.238 8      2425.551          48.000    26931540.609 8 108442133.747 8      1858.438          48.000  
E36  24728539.906 7 129949367.493 7     -2526.883          46.000    24728544.328 8  99571595.379 8     -1936.157          51.000  
E09  22571017.570 8 118611580.032 8     -1697.098          51.000    22571019.609 8  90884210.555 8     -1300.344          51.000  
C19  22498770.461 4 117156954.088 4      1507.984          29.000                                                                  
C29  23688690.664 8 123353219.397 8     -2702.531          49.000                                                                  
C20  22255861.289 8 115892195.143 8     -1002.699          51.000                                                                  
C23  25838673.133 4 134548749.88724      -701.254          29.000                                                                  
> 2020 05 11 22 30 30.0000000  0 20      -0.000000000000
G09  21259647.555 8 111720295.236 8      2201.109          51.000    21259649.000 8  87054761.837 8      1715.151          51.000  
G17  22842924.156 8 120040366.735 8     -2119.090          49.000    22842923.766 8  93537944.170 8     -1651.242          49.000  
G03  21235091.445 7 111591144.890 7     -1742.871          42.000    21235091.586 7  86954148.201 7     -1358.082          42.000  
G04  20251360.945 8 106421616.868 8       -49.270          51.000    20251360.672 8  82925953.900 8       -38.389          51.000  
G01  23845673.203 7 125309844.139 7     -3624.988          45.000    23845678.273 7  97644038.521 7     -2824.667          45.000  
G31  24281899.273 5 127602217.293 5     -2471.918          34.000    24281895.383 5  99430295.311 5     -1926.173          32.000  
G19  22418528.305 5 117810164.520 5     -1373.773          34.000                                                                  
R18  19782259.180 7 105598659.944 7      -510.613          44.000    19782261.320 6  82132298.955 6      -397.144          38.000  
R17  21315454.227 8 114062935.062 8     -3996.277          50.000    21315453.898 7  88715591.388 7     -3108.219          42.000  
R02  20317785.125 6 108419211.569 6     -2118.781          38.000    20317786.195 5  84326059.140 5     -1647.938          34.000  
R03  19912376.547 5 106592207.350 5      1029.676          34.000                                                                  
R11  22933085.234 5 122547056.021 5      -645.465          31.000    22933089.492 4  95314401.548 4      -502.022          28.000  
R04  23256212.719 5 124535521.584 5      3105.984          32.000                                                                  
E05  23583154.305 8 123930304.865 8       684.586          51.000    23583156.445 8  94959624.977 8       524.544          51.000  
E03  26917701.102 8 141453522.774 8      2422.648          48.000    26917704.867 7 108386424.413 7      1856.361          47.000  
E36  24742988.633 7 130025301.649 7     -2534.238          45.000    24742994.586 8  99629778.686 8     -1941.913          51.000  
E09  22580719.688 8 118662565.428 8     -1700.680          51.000    22580721.930 8  90923277.271 8     -1303.167          50.000  
C19  22490097.945 4 117111848.031 4      1501.906          29.000                                                                  
C29  23704286.273 8 123434434.363 8     -2710.605          48.000                                                                  
C20  22261657.461 8 115922377.717 8     -1008.281          51.000                                                                  
> 2020 05 11 22 31  0.0000000  0 21      -0.000000000000
G09  21247125.859 8 111654492.811 8      2183.770          51.000    21247126.992 8  87003487.236 8      1701.639          51.000  
G22  23208134.430 5 121959583.579 5     -2520.551          31.000                                                                  
G17  22855064.797 8 120104166.237 8     -2136.293          49.000    22855064.773 8  93587658.024 8     -1664.647          50.000  
G03  21245071.219 7 111643588.223 7     -1755.395          45.000    21245071.047 7  86995013.133 7     -1367.837          45.000  
G04  20251695.703 8 106423375.960 8       -70.031          51.000    20251695.492 8  82927324.631 8       -54.570          51.000  
G01  23866390.172 7 125418712.257 7     -3634.750          45.000    23866395.211 7  97728870.825 7     -2832.271          45.000  
G31  24296059.453 5 127676627.484 5     -2491.109          32.000    24296055.742 5  99488277.316 5     -1941.116          31.000  
R12  22406115.766 4 119689040.830 4      2448.348          26.000                                                                  
R18  19785215.688 7 105614439.635 7      -543.191          45.000    19785217.844 6  82144572.048 6      -422.482          39.000  
R17  21337902.055 8 114183057.969 8     -4013.809          49.000    21337902.172 7  88809020.291 7     -3121.852          44.000  
R02  20329727.109 6 108482939.305 6     -2131.023          36.000    20329728.781 5  84375625.099 5     -1657.466          35.000  
R03  19906646.359 5 106561539.123 5      1012.906          33.000                                                                  
R11  22936786.172 4 122566847.44824      -675.371          29.000                                                                  
R04  23238839.320 4 124442544.35724      3096.223          28.000                                                                  
E05  23579277.148 8 123909931.090 8       671.789          51.000    23579279.203 8  94944013.903 8       514.769          51.000  
E03  26903888.883 8 141380938.500 8      2414.293          48.000    26903892.125 7 108330807.934 7      1849.989          47.000  
E36  24757488.164 7 130101498.660 7     -2547.375          46.000    24757495.062 8  99688163.405 8     -1951.832          51.000  
E09  22590449.594 8 118713696.669 8     -1710.035          51.000    22590451.859 8  90962455.743 8     -1310.108          50.000  
C19  22481485.328 4 117066909.687 4      1490.773          27.000                                                                  
C29  23719935.758 8 123515927.703 8     -2724.316          48.000                                                                  
C20  22267493.070 8 115952766.126 8     -1019.547          51.000                                                                  
> 2020 05 11 22 31 30.0000000  0 17      -0.000000000000
G09  21234705.773 8 111589223.816 8      2174.812          51.000    21234706.734 8  86952628.278 8      1694.660          51.000  
G17  22867305.781 8 120168492.418 8     -2144.793          49.000    22867305.820 8  93637782.277 8     -1671.268          49.000  
G03  21255126.375 7 111696428.423 7     -1759.879          42.000    21255126.898 7  87036187.337 7     -1371.335          42.000  
G04  20252151.180 8 106425769.734 8       -82.281          51.000    20252151.102 8  82929189.924 8       -64.115          51.000  
G01  23887164.203 7 125527879.438 7     -3635.812          45.000    23887168.922 7  97813936.162 7     -2833.102          45.000  
R18  19788356.250 7 105631202.844 7      -566.969          45.000    19788359.070 6  82157610.083 6      -440.976          40.000  
R17  21360450.688 7 114303719.430 7     -4022.645          47.000    21360451.523 7  88902868.088 7     -3128.724          44.000  
R02  20341739.602 6 108547043.614 6     -2135.223          37.000    20341742.328 5  84425484.092 5     -1660.726          34.000  
R03  19901014.977 5 106531387.512 5      1004.910          35.000    19901026.375 4  82857729.762 4       781.594          26.000  
R11  22940658.203 5 122587535.589 5      -696.461          35.000                                                                  
R04  23221517.859 5 124349793.283 5      3094.605          31.000                                                                  
E05  23575475.141 8 123889951.497 8       667.520          51.000    23575477.125 8  94928704.862 8       511.470          51.000  
E03  26890127.281 7 141308620.652 7      2414.223          47.000    26890130.508 8 108275395.585 8      1849.929          48.000  
E36  24772066.125 8 130178102.039 8     -2552.109          50.000    24772072.984 8  99746859.506 8     -1955.433          51.000  
E09  22600234.633 8 118765117.597 8     -1710.719          51.000    22600236.836 8  91001856.190 8     -1310.698          49.000  
C29  23735665.789 7 123597840.577 7     -2729.301          46.000                                                                  
C20  22273395.648 8 115983503.358 8     -1022.375          51.000                                                                  
> 2020 05 11 22 32  0.0000000  0 18      -0.000000000000
G09  21222335.445 8 111524216.364 8      2159.711          51.000    21222336.742 8  86901973.111 8      1682.892          51.000  
G17  22879594.500 8 120233069.799 8     -2159.562          49.000    22879594.375 8  93688102.284 8     -1682.776          49.000  
G03  21265205.219 7 111749392.414 7     -1770.234          42.000    21265205.906 7  87077457.944 7     -1379.401          42.000  
G04  20252675.312 8 106428524.491 8      -100.641          51.000    20252675.328 8  82931336.490 8       -78.421          51.000  
G01  23907942.914 7 125637070.969 7     -3642.820          44.000    23907947.078 7  97899020.422 7     -2838.565          44.000  
R12  22378838.609 5 119543360.62825      2411.680          30.000                                                                  
R18  19791629.164 7 105648671.551 7      -597.000          47.000    19791631.555 6  82171196.858 6      -464.333          41.000  
R17  21383046.625 7 114424637.510 7     -4037.602          47.000    21383048.320 7  88996915.506 7     -3140.357          44.000  
R02  20353771.328 6 108611246.454 6     -2144.590          39.000    20353775.258 5  84475419.635 5     -1668.018          32.000  
R11  22944647.227 5 122608841.845 5      -723.391          35.000                                                                  
R04  23204201.922 5 124257073.314 5      3087.945          33.000                                                                  
E05  23571696.234 8 123870092.864 8       657.148          51.000    23571698.008 8  94913488.526 8       503.509          51.000  
E03  26876364.555 7 141236296.718 7      2408.070          47.000    26876368.148 8 108219978.579 8      1845.122          49.000  
E36  24786669.766 8 130254837.647 8     -2562.766          51.000    24786675.812 8  99805656.934 8     -1963.733          51.000  
E09  22610022.773 8 118816554.464 8     -1717.633          51.000    22610024.734 8  91041268.856 8     -1316.088          49.000  
C19  22464353.633 5 116977800.765 5      1479.910          30.000                                                                  
C29  23751424.219 7 123679900.280 7     -2740.457          45.000                                                                  
C20  22279313.320 8 116014318.640 8     -1031.188          51.000                                                                  
> 2020 05 11 22 32 30.0000000  0 17      -0.000000000000
G09  21210036.453 8 111459585.008 8      2147.027          51.000    21210038.234 8  86851611.020 8      1673.009          51.000  
G17  22891951.914 7 120298009.782 7     -2171.668          47.000    22891951.641 7  93738704.862 7     -1692.212          47.000  
G03  21275329.102 7 111802593.313 7     -1778.320          43.000    21275329.469 7  87118913.205 7     -1385.702          44.000  
G04  20253289.570 8 106431753.095 8      -116.598          51.000    20253289.672 8  82933852.289 8       -90.855          51.000  
G01  23928747.789 7 125746398.582 7     -3647.645          44.000    23928751.266 7  97984210.730 7     -2842.321          44.000  
R18  19795055.688 7 105666961.190 7      -624.348          46.000    19795057.734 6  82185422.104 6      -485.604          41.000  
R17  21405711.758 8 114545923.875 8     -4050.027          48.000    21405713.812 7  89091249.342 7     -3150.022          43.000  
R02  20365844.719 6 108675685.319 6     -2151.480          38.000    20365843.219 4  84525526.054 4     -1673.374          28.000  
R03  19889908.141 5 106471810.634 5       978.355          33.000    19889925.977 4  82811467.034 4       760.943          28.000  
R11  22948773.398 6 122630877.612 6      -747.844          36.000    22948774.672 4  95379588.835 4      -581.665          26.000  
E05  23567961.844 8 123850468.529 8       649.266          51.000    23567963.391 8  94898451.724 8       497.487          51.000  
E03  26862622.406 8 141164080.724 8      2404.289          48.000    26862626.336 8 108164644.288 8      1842.290          49.000  
E36  24801320.000 8 130331817.815 8     -2571.051          51.000    24801325.008 8  99864641.736 8     -1970.105          51.000  
E09  22619835.469 8 118868119.966 8     -1721.977          51.000    22619836.969 8  91080780.076 8     -1319.497          49.000  
C19  22455832.383 5 116933409.300 5      1474.453          31.000                                                                  
C29  23767233.352 8 123762217.172 8     -2749.113          48.000                                                                  
C20  22285267.570 8 116045324.056 8     -1037.672          51.000                                                                  
> 2020 05 11 22 33  0.0000000  0 21      -0.000000000000
G09  21197817.398 8 111395374.938 8      2137.840          51.000    21197819.227 8  86801577.213 8      1665.850          51.000  
G17  22904386.305 8 120363353.547 8     -2180.234          49.000    22904385.820 8  93789622.063 8     -1698.884          49.000  
G03  21285506.023 6 111856075.133 6     -1782.941          40.000    21285506.609 6  87160587.363 6     -1389.305          40.000  
G04  20254002.305 8 106435498.973 8      -128.910          51.000    20254002.406 8  82936771.157 8      -100.450          50.000  
G01  23949586.734 7 125855904.587 7     -3648.535          43.000    23949589.734 7  98069540.062 7     -2843.015          43.000  
G31  24353542.281 5 127978728.34825     -2541.863          30.000                                                                  
G19  22459180.609 5 118023797.03825     -1467.066          32.000                                                                  
R12  22351945.219 4 119399707.59324      2377.512          29.000                                                                  
R18  19798644.109 7 105686115.945 7      -648.312          46.000    19798645.547 6  82200320.259 6      -504.243          41.000  
R17  21428454.039 8 114667619.576 8     -4058.781          49.000    21428455.586 6  89185901.525 6     -3156.831          41.000  
R02  20377964.828 6 108740356.066 6     -2155.242          39.000    20377966.594 4  84575825.519 4     -1676.297          28.000  
R03  19884468.078 5 106442649.502 5       970.141          34.000                                                                  
R11  22953043.164 5 122653718.268 5      -769.301          34.000    22953047.297 5  95397341.603 5      -598.345          30.000  
R04  23169656.531 5 124072055.40425      3080.523          33.000                                                                  
E05  23564280.375 8 123831122.455 8       644.793          51.000    23564281.742 8  94883628.117 8       494.059          51.000  
E03  26848909.164 8 141092017.276 8      2404.293          48.000    26848913.359 8 108109426.894 8      1842.123          49.000  
E36  24816024.430 8 130409085.498 8     -2575.797          51.000    24816028.781 8  99923846.842 8     -1973.664          51.000  
E09  22629680.953 8 118919857.448 8     -1722.895          51.000    22629682.047 8  91120423.054 8     -1320.072          49.000  
C19  22447354.430 4 116889269.800 4      1471.695          29.000                                                                  
C29  23783100.469 8 123844832.869 8     -2754.293          50.000                                                                  
C20  22291266.672 8 116076563.011 8     -1040.688          51.000                                                                  
> 2020 05 11 22 33 30.0000000  0 17      -0.000000000000
G09  21185669.406 8 111331537.671 8      2121.047          51.000    21185670.633 8  86751833.892 8      1652.764          51.000  
G17  22916888.000 8 120429049.247 8     -2196.332          50.000    22916887.023 8  93840813.516 8     -1711.428          50.000  
G03  21295726.703 6 111909788.069 6     -1794.840          40.000    21295727.414 6  87202441.567 6     -1398.574          39.000  
G04  20254803.953 8 106439711.818 8      -148.863          51.000    20254803.961 8  82940053.907 8      -115.997          50.000  
G01  23970449.781 7 125965537.728 7     -3657.105          42.000    23970452.344 7  98154968.460 7     -2849.693          42.000  
G19  22467628.250 5 118068192.101 5     -1489.094          30.000                                                                  
R18  19802385.000 7 105706085.057 7      -679.832          45.000    19802386.867 7  82215851.789 7      -528.755          42.000  
R17  21451262.531 7 114789669.906 7     -4074.773          47.000    21451263.375 6  89280829.529 6     -3169.269          40.000  
R02  20390121.016 6 108805230.648 6     -2166.629          36.000    20390123.836 4  84626283.573 4     -1685.156          29.000  
R03  19879086.562 5 106413835.902 5       953.867          30.000    19879108.008 4  82766466.81324       741.897          25.000  
R04  23152437.523 5 123979872.08925      3071.621          33.000                                                                  
E05  23560642.359 8 123812004.864 8       632.910          51.000    23560643.859 8  94868979.563 8       484.960          51.000  
E03  26835215.461 8 141020057.325 8      2396.301          48.000    26835219.742 8 108054288.787 8      1836.205          48.000  
E36  24830773.445 8 130486589.894 8     -2587.922          51.000    24830777.117 8  99983233.314 8     -1982.954          51.000  
E09  22639549.602 8 118971716.527 8     -1731.246          51.000    22639550.531 8  91160159.213 8     -1326.522          49.000  
C29  23799014.617 8 123927696.074 8     -2766.762          51.000                                                                  
C20  22297301.039 8 116107986.075 8     -1051.082          51.000                                                                  
> 2020 05 11 22 34  0.0000000  0 17      -0.000000000000
G09  21173607.031 8 111268149.162 8      2108.664          51.000    21173607.547 8  86702440.256 8      1643.118          51.000  
G22  23294897.203 5 122415519.40125     -2547.312          30.000                                                                  
G17  22929470.555 8 120495169.458 8     -2207.945          50.000    22929469.266 8  93892335.726 8     -1720.480          50.000  
G03  21306005.961 6 111963806.775 6     -1802.137          38.000    21306006.727 6  87244534.101 6     -1404.263          38.000  
G04  20255708.594 8 106444465.875 8      -164.191          51.000    20255708.555 8  82943758.375 8      -127.941          50.000  
G01  23991350.258 6 126075371.169 6     -3661.133          38.000    23991353.203 6  98240552.944 6     -2852.835          37.000  
R18  19806292.398 7 105726943.951 7      -706.828          45.000    19806295.266 7  82232075.381 7      -549.755          43.000  
R17  21474150.438 7 114912147.392 7     -4086.422          45.000    21474150.859 6  89376089.769 6     -3178.332          37.000  
R02  20402329.664 5 108870384.019 5     -2173.516          30.000    20402335.539 4  84676958.483 4     -1690.512          28.000  
R04  23135255.008 5 123887854.732 5      3066.531          30.000                                                                  
E05  23557062.094 8 123793190.516 8       625.340          51.000    23557064.008 8  94854563.376 8       479.127          51.000  
E03  26821555.719 7 140948276.347 7      2392.867          47.000    26821559.711 8 107999287.811 8      1833.467          48.000  
E36  24845581.328 8 130564404.756 8     -2595.715          51.000    24845584.062 8 100042857.682 8     -1988.991          51.000  
E09  22649455.328 8 119023771.379 8     -1735.281          49.000    22649456.383 8  91200045.395 8     -1329.632          49.000  
C19  22430518.008 4 116801584.200 4      1455.746          29.000                                                                  
C29  23814989.508 8 124010878.819 8     -2774.887          51.000                                                                  
C20  22303384.953 8 116139667.225 8     -1057.184          51.000                                                                  
> 2020 05 11 22 34 30.0000000  0 19      -0.000000000000
G09  21161602.273 8 111205062.787 8      2094.145          51.000    21161602.383 8  86653282.064 8      1631.801          51.000  
G22  23309448.109 5 122491971.174 5     -2552.605          35.000    23309455.750 5  95448323.571 5     -1989.044          32.000  
G17  22942105.164 8 120561564.024 8     -2221.488          50.000    22942103.695 8  93944071.704 8     -1731.033          50.000  
G03  21316315.445 6 112017983.440 6     -1812.141          38.000    21316316.547 6  87286749.708 6     -1412.055          38.000  
G04  20256688.023 8 106449612.805 8      -181.852          51.000    20256688.195 8  82947768.982 8      -141.703          51.000  
G01  24012258.875 5 126185255.446 5     -3667.266          30.000    24012263.969 4  98326177.170 4     -2857.604          29.000  
R18  19810338.148 7 105748542.423 7      -736.035          44.000    19810341.938 7  82248874.196 7      -572.472          42.000  
R17  21497088.711 7 115034897.700 7     -4100.023          45.000    21497088.336 5  89471562.166 5     -3188.911          34.000  
R02  20414562.961 5 108935694.606 5     -2181.988          33.000    20414564.844 4  84727735.181 4     -1697.115          26.000  
R03  19868528.414 5 106357338.510 5       928.750          30.000                                                                  
R11  22966685.445 5 122726556.920 5      -848.258          34.000                                                                  
R04  23118080.938 4 123795907.197 4      3059.363          29.000                                                                  
E05  23553511.438 8 123774531.553 8       615.566          51.000    23553513.820 8  94840266.255 8       471.665          51.000  
E03  26807902.094 8 140876527.167 8      2387.453          48.000    26807905.266 8 107944311.200 8      1829.324          48.000  
E36  24860419.773 8 130642381.228 8     -2605.676          51.000    24860421.648 8 100102605.872 8     -1996.552          51.000  
E09  22659369.852 8 119075873.555 8     -1741.250          48.000    22659371.297 8  91239967.829 8     -1334.187          49.000  
C19  22422146.805 4 116757990.507 4      1447.410          28.000                                                                  
C29  23830996.492 8 124094232.626 8     -2785.074          51.000                                                                  
C20  22309490.328 8 116171459.787 8     -1065.375          51.000                                                                  
> 2020 05 11 22 35  0.0000000  0 17      -0.000000000000
G09  21149695.703 8 111142492.296 8      2080.340          51.000    21149695.633 8  86604525.871 8      1621.045          51.000  
G22  23324046.273 5 122568689.111 5     -2558.742          35.000                                                                  
G17  22954831.852 8 120628443.108 8     -2234.172          49.000    22954830.250 8  93996185.238 8     -1740.917          48.000  
G03  21326694.859 5 112072530.493 5     -1821.113          32.000    21326695.969 5  87329254.019 5     -1419.050          34.000  
G04  20257782.523 8 106455364.523 8      -198.512          51.000    20257782.773 8  82952250.863 8      -154.681          50.000  
G01  24033227.211 5 126295447.62825     -3672.570          33.000    24033225.594 5  98412040.46225     -2861.744          34.000  
R18  19814563.117 7 105771095.867 7      -764.410          45.000    19814566.211 6  82266415.747 6      -594.544          39.000  
R17  21520117.664 7 115158133.462 7     -4112.609          43.000    21520117.414 5  89567412.126 5     -3198.697          34.000  
R02  20426860.125 6 109001317.563 6     -2189.926          37.000    20426861.852 4  84778760.81424     -1703.276          26.000  
R03  19863363.555 5 106329752.210 5       915.387          31.000    19863369.203 4  82700930.588 4       711.968          26.000  
R04  23100960.422 4 123704247.132 4      3053.758          29.000                                                                  
E05  23550030.852 8 123756240.481 8       606.859          51.000    23550033.312 8  94826251.021 8       464.966          51.000  
E03  26794295.219 7 140805022.962 7      2382.629          47.000    26794297.055 8 107889522.319 8      1825.673          48.000  
E36  24875329.039 8 130720730.809 8     -2614.602          51.000    24875330.336 8 100162639.959 8     -2003.361          51.000  
E09  22669333.625 7 119128234.964 7     -1746.387          47.000    22669335.594 8  91280088.923 8     -1338.150          49.000  
C29  23847075.914 8 124177966.077 8     -2794.125          50.000                                                                  
C20  22315657.625 8 116203574.230 8     -1072.590          51.000                                                                  
> 2020 05 11 22 35 30.0000000  0 14      -0.000000000000
G09  21137854.625 8 111080267.290 8      2066.891          51.000    21137854.766 8  86556038.850 8      1610.565          51.000  
G17  22967617.305 7 120695632.880 7     -2246.168          46.000    22967616.062 7  94048540.885 7     -1750.261          45.000  
G03  21337112.430 6 112127276.503 6     -1829.355          36.000    21337114.023 6  87371913.236 6     -1425.472          36.000  
G04  20258959.250 8 106461548.843 8      -214.762          51.000    20258959.164 8  82957069.829 8      -167.344          50.000  
G01  24054202.750 6 126405682.666 6     -3677.293          37.000    24054202.758 6  98497937.850 6     -2865.427          37.000  
R18  19818934.211 7 105794429.354 7      -792.211          45.000    19818936.125 6  82284563.999 6      -616.164          39.000  
R17  21543204.305 7 115281675.949 7     -4124.535          43.000    21543205.188 5  89663500.719 5     -3207.972          35.000  
R02  20439191.680 6 109067107.183 6     -2196.812          36.000                                                                  
E05  23546587.672 8 123738145.656 8       598.500          51.000    23546589.750 8  94812386.148 8       458.561          51.000  
E03  26780702.562 7 140733592.830 7      2378.285          47.000    26780703.000 7 107834790.185 7      1822.255          47.000  
E36  24890276.383 8 130799280.891 8     -2623.121          51.000    24890277.109 8 100222827.676 8     -2009.937          50.000  
E09  22679314.078 7 119180683.410 7     -1751.133          47.000    22679316.328 8  91320276.705 8     -1341.733          49.000  
C29  23863195.086 8 124261907.134 8     -2802.801          49.000                                                                  
C20  22321854.078 8 116235840.368 8     -1079.484          51.000                                                                  
> 2020 05 11 22 36  0.0000000  0 15      -0.000000000000
G09  21126088.336 8 111018436.471 8      2054.039          51.000    21126089.250 8  86507858.987 8      1600.550          51.000  
G17  22980470.422 7 120763178.386 7     -2257.695          46.000    22980469.867 7  94101173.742 7     -1759.244          46.000  
G03  21347577.219 6 112182268.738 6     -1837.344          41.000    21347579.000 6  87414764.462 6     -1431.694          41.000  
G04  20260227.328 8 106468212.780 8      -230.395          51.000    20260227.109 8  82962262.515 8      -179.525          50.000  
G01  24075203.062 6 126516052.411 6     -3681.391          38.000    24075205.484 6  98583940.177 6     -2868.620          38.000  
R18  19823460.383 7 105818591.006 7      -819.387          45.000    19823463.141 7  82303356.338 7      -637.301          42.000  
R17  21566356.531 7 115405569.706 7     -4135.816          42.000    21566357.969 5  89759862.501 5     -3216.747          33.000  
R02  20451562.250 5 109133110.751 5     -2204.027          33.000    20451553.062 4  84881251.03024     -1714.247          26.000  
E05  23543190.781 8 123720294.614 8       590.699          51.000    23543192.641 8  94798708.073 8       452.650          51.000  
E03  26767133.031 7 140662284.998 7      2374.648          47.000    26767132.664 7 107780151.738 7      1819.504          47.000  
E36  24905270.641 8 130878077.972 8     -2630.973          50.000    24905270.945 8 100283204.653 8     -2015.947          50.000  
E09  22689320.258 7 119233265.895 7     -1755.258          47.000    22689322.453 8  91360567.195 8     -1344.876          49.000  
C19  22397302.750 5 116628636.88125      1427.805          31.000                                                                  
C29  23879362.812 7 124346100.917 7     -2811.051          47.000                                                                  
C20  22328088.594 8 116268305.183 8     -1085.742          51.000                                                                  
> 2020 05 11 22 36 30.0000000  0 14      -0.000000000000
G09  21114398.750 8 110957007.873 8      2041.789          51.000    21114400.383 8  86459992.566 8      1591.008          51.000  
G17  22993392.477 8 120831084.260 8     -2268.641          49.000    22993392.422 8  94154087.378 8     -1767.776          48.000  
G03  21358090.766 7 112237514.168 7     -1844.918          42.000    21358092.445 7  87457812.937 7     -1437.596          42.000  
G04  20261587.883 8 106475362.612 8      -245.480          51.000    20261587.820 8  82967833.837 8      -191.284          50.000  
G01  24096230.391 6 126626562.125 6     -3684.820          40.000    24096234.703 6  98670051.594 6     -2871.289          40.000  
R18  19828142.867 7 105843586.902 7      -846.160          46.000    19828146.602 7  82322797.597 7      -658.125          43.000  
R17  21589575.445 6 115529818.225 6     -4146.816          40.000    21589573.570 5  89856500.145 5     -3225.302          30.000  
E05  23539841.516 8 123702694.225 8       583.391          51.000    23539843.594 8  94785222.078 8       447.050          51.000  
E03  26753588.172 7 140591107.031 7      2371.336          47.000    26753587.750 7 107725612.788 7      1817.011          47.000  
E36  24920312.727 8 130957127.882 8     -2638.195          49.000    24920313.383 8 100343775.353 8     -2021.505          50.000  
E09  22699353.344 7 119285988.719 7     -1758.773          47.000    22699355.172 8  91400965.193 8     -1347.701          49.000  
C19  22389097.188 5 116585898.475 5      1421.828          32.000                                                                  
C29  23895579.984 7 124430552.202 7     -2818.359          46.000                                                                  
C20  22334362.516 8 116300975.377 8     -1091.512          51.000                                                                  
> 2020 05 11 22 37  0.0000000  0 17      -0.000000000000
G09  21102783.984 8 110895972.193 8      2028.816          51.000    21102785.867 8  86412432.323 8      1580.899          51.000  
G17  23006380.969 8 120899337.784 8     -2279.879          50.000    23006381.039 8  94207271.937 8     -1776.530          50.000  
G03  21368650.469 6 112293002.280 6     -1852.691          41.000    21368652.359 6  87501050.461 6     -1443.656          41.000  
G04  20263038.695 8 106482987.204 8      -261.102          51.000    20263038.352 8  82973775.109 8      -203.453          49.000  
G01  24117283.102 6 126737199.797 6     -3689.246          39.000    24117288.555 6  98756262.727 6     -2874.738          38.000  
R12  22248812.938 5 118848750.47925      2217.977          32.000                                                                  
R18  19832979.773 7 105869406.071 7      -873.426          46.000    19832983.562 7  82342879.235 7      -679.328          42.000  
R17  21612857.227 6 115654406.501 6     -4157.680          41.000    21612855.484 5  89953402.164 5     -3233.751          33.000  
R02  20476420.117 5 109265717.30925     -2217.602          30.000    20476411.781 4  84984435.55024     -1724.796          27.000  
R03  19843367.188 4 106222689.952 4       868.910          29.000                                                                  
E05  23536538.117 8 123685333.987 8       575.473          51.000    23536540.281 8  94771920.097 8       440.947          51.000  
E03  26740066.195 7 140520049.057 7      2367.402          47.000    26740066.195 7 107671165.799 7      1813.982          47.000  
E36  24935400.570 8 131036419.083 8     -2646.145          48.000    24935402.070 8 100404530.940 8     -2027.620          50.000  
E09  22709411.047 7 119338840.797 7     -1763.082          47.000    22709412.594 8  91441462.234 8     -1350.970          49.000  
C19  22380926.570 5 116543352.365 5      1415.355          31.000                                                                  
C29  23911844.812 7 124515248.562 7     -2826.387          44.000                                                                  
C20  22340673.797 8 116333840.432 8     -1097.848          51.000                                                                  
> 2020 05 11 22 37 30.0000000  0 17      -0.000000000000
G09  21091239.469 8 110835306.801 8      2013.082          50.000    21091241.492 8  86365160.593 8      1568.636          50.000  
G22  23397408.492 5 122954223.964 5     -2583.762          31.000                                                                  
G17  23019430.484 8 120967912.787 8     -2294.312          50.000    23019430.516 8  94260706.964 8     -1787.780          50.000  
G03  21379251.500 6 112348709.274 6     -1863.680          41.000    21379252.992 6  87544458.496 6     -1452.218          40.000  
G04  20264575.305 8 106491062.128 8      -279.703          51.000    20264574.578 8  82980067.268 8      -217.948          50.000  
G01  24138355.438 6 126847940.026 6     -3696.250          38.000    24138361.883 6  98842553.773 6     -2880.196          38.000  
G19  22539062.984 5 118443572.73025     -1638.852          35.000                                                                  
R12  22236413.414 5 118782529.818 5      2194.434          34.000                                                                  
R18  19837966.234 7 105896023.661 7      -903.637          46.000    19837969.312 7  82363581.838 7      -702.829          42.000  
R17  21636198.906 7 115779306.947 7     -4171.617          45.000    21636199.172 5  90050546.943 5     -3244.592          35.000  
E05  23533275.945 8 123668190.016 8       564.781          51.000    23533277.844 8  94758783.812 8       432.767          51.000  
E03  26726562.781 8 140449087.940 8      2360.637          48.000    26726563.227 8 107616793.032 8      1808.798          48.000  
E36  24950530.023 8 131115926.671 8     -2656.984          49.000    24950532.188 8 100465452.345 8     -2035.860          51.000  
E09  22719488.734 7 119391797.712 7     -1770.125          47.000    22719490.070 8  91482039.613 8     -1356.291          48.000  
C19  22372788.945 5 116500974.898 5      1407.121          34.000                                                                  
C29  23928152.539 7 124600164.392 7     -2837.199          43.000                                                                  
C20  22347017.977 8 116366876.629 8     -1107.078          51.000                                                                  
> 2020 05 11 22 38  0.0000000  0 17      -0.000000000000
G09  21079787.656 8 110775127.746 8      2000.254          51.000    21079789.312 8  86318267.813 8      1558.640          51.000  
G17  23032562.461 8 121036921.592 8     -2305.074          49.000    23032562.367 8  94314480.047 8     -1796.159          50.000  
G03  21389915.727 7 112404749.845 7     -1870.973          42.000    21389917.047 7  87588126.508 7     -1457.898          42.000  
G04  20266219.297 8 106499701.665 8      -294.918          51.000    20266218.914 8  82986799.393 8      -229.806          51.000  
G01  24159469.391 6 126958896.069 6     -3699.895          38.000    24159475.852 6  98929013.023 6     -2883.036          39.000  
G19  22548471.461 5 118493022.734 5     -1655.988          34.000                                                                  
R12  22224147.656 6 118717004.802 6      2174.832          37.000    22224147.484 5  92335439.620 5      1691.536          32.000  
R18  19843124.109 7 105923555.768 7      -930.320          47.000    19843126.281 6  82384995.721 6      -723.580          40.000  
R17  21659620.852 7 115904632.670 7     -4182.109          46.000    21659621.578 6  90148022.467 6     -3252.755          36.000  
R02  20501441.172 5 109399242.539 5     -2232.793          34.000    20501443.008 5  85088309.895 5     -1736.623          31.000  
E05  23530076.570 8 123651377.190 8       557.422          51.000    23530078.367 8  94745901.264 8       427.101          51.000  
E03  26713099.812 8 140378339.269 8      2357.223          48.000    26713100.656 8 107562583.057 8      1806.206          48.000  
E36  24965723.023 8 131195764.572 8     -2664.281          49.000    24965725.672 8 100526626.821 8     -2041.496          51.000  
E09  22729607.914 7 119444973.831 7     -1773.746          45.000    22729609.203 8  91522784.946 8     -1359.120          48.000  
C19  22364708.156 5 116458880.647 5      1400.883          35.000                                                                  
C29  23944523.594 7 124685411.526 7     -2844.434          43.000                                                                  
C20  22353416.969 8 116400197.721 8     -1112.938          51.000                                                                  
> 2020 05 11 22 38 30.0000000  0 17      -0.000000000000
G09  21068398.547 8 110715276.636 8      1987.465          51.000    21068400.141 8  86271630.592 8      1548.677          51.000  
G22  23426954.484 5 123109436.104 5     -2592.441          35.000                                                                  
G17  23045746.078 8 121106202.643 8     -2315.992          48.000    23045746.070 8  94368465.267 8     -1804.670          49.000  
G03  21400612.992 6 112460964.612 6     -1878.895          41.000    21400613.992 6  87631930.218 6     -1464.074          41.000  
G04  20267940.406 8 106508745.681 8      -310.430          51.000    20267940.203 8  82993846.686 8      -241.893          51.000  
G01  24180593.953 6 127069906.882 6     -3703.707          38.000    24180600.273 6  99015514.947 6     -2886.006          38.000  
R12  22211982.641 5 118652017.072 5      2154.219          30.000                                                                  
R18  19848422.344 7 105951839.609 7      -957.410          46.000    19848424.203 6  82406994.248 6      -744.652          40.000  
R17  21683091.328 7 116030217.454 7     -4192.734          45.000    21683091.273 5  90245699.456 5     -3261.016          35.000  
R02  20514006.406 6 109466289.918 6     -2239.227          37.000    20514006.961 5  85140457.856 5     -1741.621          31.000  
E05  23526909.641 8 123634736.057 8       549.562          51.000    23526911.641 8  94733150.275 8       421.141          51.000  
E03  26699646.977 7 140307644.226 7      2353.332          47.000    26699648.258 8 107508414.177 8      1803.189          48.000  
E36  24980948.516 8 131275772.231 8     -2671.918          50.000    24980951.602 8 100587931.379 8     -2047.336          51.000  
E09  22739738.047 7 119498209.111 7     -1777.742          45.000    22739739.344 7  91563575.605 7     -1362.185          47.000  
C19  22356649.258 5 116416912.001 5      1393.965          30.000                                                                  
C29  23960926.969 7 124770829.946 7     -2852.336          44.000                                                                  
C20  22359840.336 8 116433645.600 8     -1119.262          51.000                                                                  
> 2020 05 11 22 39  0.0000000  0 16      -0.000000000000
G09  21057097.633 8 110655888.713 8      1975.387          51.000    21057099.320 8  86225354.314 8      1539.266          51.000  
G22  23441772.484 5 123187308.345 5     -2595.828          31.000                                                                  
G17  23059006.742 8 121175887.582 8     -2326.117          49.000    23059006.633 8  94422765.214 8     -1812.559          49.000  
G03  21411368.711 6 112517487.627 6     -1885.738          40.000    21411370.375 6  87675974.140 6     -1469.407          40.000  
G04  20269763.922 8 106518327.607 8      -324.793          51.000    20269763.672 8  83001313.134 8      -253.086          51.000  
G01  24201754.125 6 127181105.034 6     -3705.938          38.000    24201761.109 6  99102162.878 6     -2887.741          38.000  
G19  22567564.961 5 118593333.304 5     -1689.953          35.000                                                                  
R18  19853887.164 7 105981010.719 7      -983.598          47.000    19853889.102 6  82429682.891 6      -765.021          41.000  
R17  21706634.945 7 116156193.813 7     -4202.164          43.000    21706634.406 5  90343681.014 5     -3268.351          35.000  
R02  20526622.000 6 109533607.354 6     -2244.973          38.000    20526622.406 5  85192815.835 5     -1746.087          31.000  
E05  23523801.023 8 123618400.657 8       543.066          51.000    23523803.047 8  94720633.541 8       416.098          51.000  
E03  26686229.992 8 140237137.587 8      2350.672          48.000    26686231.938 8 107454389.647 8      1801.123          49.000  
E36  24996231.273 8 131356082.659 8     -2678.449          49.000    24996235.000 8 100649467.927 8     -2052.257          51.000  
E09  22749904.875 7 119551637.067 7     -1780.531          44.000    22749905.984 7  91604513.889 7     -1364.178          46.000  
C29  23977389.258 7 124856550.497 7     -2858.762          47.000                                                                  
C20  22366313.539 8 116467353.005 8     -1124.379          51.000                                                                  
> 2020 05 11 22 39 30.0000000  0 18      -0.000000000000
G09  21045861.055 8 110596840.176 8      1962.227          51.000    21045862.789 8  86179342.495 8      1529.008          51.000  
G17  23072320.070 8 121245849.050 8     -2337.262          49.000    23072319.359 8  94477280.627 8     -1821.243          49.000  
G03  21422159.062 6 112574193.894 6     -1894.051          38.000    21422161.195 6  87720160.909 6     -1475.881          38.000  
G04  20271665.852 8 106528321.946 8      -340.441          51.000    20271665.859 8  83009100.940 8      -265.279          51.000  
G01  24222925.875 6 127292364.201 6     -3710.230          38.000    24222933.898 6  99188858.372 6     -2891.090          38.000  
G19  22577270.109 6 118644312.578 6     -1707.520          38.000                                                                  
R18  19859494.070 7 106010941.605 7     -1010.797          46.000    19859496.711 7  82452962.441 7      -786.175          43.000  
R17  21730226.445 6 116282430.834 6     -4212.641          37.000    21730226.758 5  90441865.274 5     -3276.505          34.000  
R02  20539264.039 6 109601067.405 6     -2251.590          40.000    20539266.508 5  85245284.750 5     -1751.240          32.000  
R03  19819907.297 5 106097134.211 5       809.008          32.000                                                                  
R11  23021251.359 5 123018183.676 5     -1093.594          35.000                                                                  
R04  22948213.039 5 122886252.662 5      3005.207          33.000    22948213.289 4  95578192.954 4      2337.387          27.000  
E05  23520726.906 8 123602246.059 8       535.109          51.000    23520728.875 8  94708255.351 8       410.004          51.000  
E03  26672825.211 7 140166695.148 7      2346.621          47.000    26672828.086 8 107400414.287 8      1798.088          49.000  
E36  25011547.195 8 131436569.886 8     -2686.223          49.000    25011551.656 8 100711139.956 8     -2058.261          51.000  
E09  22760084.523 7 119605132.278 7     -1784.805          43.000    22760085.461 7  91645503.731 7     -1367.516          45.000  
C29  23993886.453 8 124942447.425 8     -2866.801          48.000                                                                  
C20  22372812.812 8 116501196.082 8     -1130.793          51.000                                                                  
> 2020 05 11 22 40  0.0000000  0 18      -0.000000000000
G09  21034714.812 8 110538267.453 8      1947.164          51.000    21034716.367 8  86133701.436 8      1517.271          51.000  
G17  23085711.344 8 121316220.082 8     -2349.852          50.000    23085709.805 8  94532115.177 8     -1831.054          50.000  
G03  21433009.766 5 112631218.903 5     -1903.594          35.000    21433011.430 5  87764595.918 5     -1483.323          35.000  
G04  20273671.906 8 106538863.275 8      -357.891          51.000    20273671.922 8  83017314.975 8      -278.876          51.000  
G01  24244135.164 6 127403817.922 6     -3715.684          39.000    24244143.398 6  99275705.440 6     -2895.336          38.000  
G19  22587091.281 6 118695896.948 6     -1727.301          36.000                                                                  
R18  19865269.195 8 106041768.642 8     -1039.867          48.000    19865272.289 7  82476939.017 7      -808.783          43.000  
R17  21753894.086 6 116409062.671 6     -4224.723          37.000    21753892.070 5  90540356.597 5     -3285.899          30.000  
R02  20551958.773 6 109668806.316 6     -2260.086          37.000    20551959.047 5  85297970.529 5     -1757.848          32.000  
R11  23027476.352 5 123051445.963 5     -1120.047          31.000                                                                  
R04  22931406.922 5 122796263.021 5      2997.426          32.000    22931410.469 5  95508201.060 5      2331.332          30.000  
E05  23517712.828 8 123586407.518 8       525.324          51.000    23517714.961 8  94696119.348 8       402.503          51.000  
E03  26659458.297 7 140096452.800 7      2340.723          47.000    26659461.945 8 107346592.260 8      1793.611          49.000  
E36  25026922.375 8 131517368.178 8     -2695.832          50.000    25026927.039 8 100773050.338 8     -2065.636          51.000  
E09  22770302.844 7 119658829.488 7     -1790.480          42.000    22770303.484 7  91686648.360 7     -1372.089          45.000  
C19  22332720.969 5 116292341.970 5      1374.734          33.000                                                                  
C29  24010442.969 8 125028652.737 8     -2876.008          50.000                                                                  
C20  22379363.883 8 116535308.797 8     -1138.953          51.000                                                                  
> 2020 05 11 22 40 30.0000000  0 16      -0.000000000000
G09  21023650.656 8 110480126.647 8      1937.070          50.000    21023652.391 8  86088396.918 8      1509.406          50.000  
G17  23099171.375 8 121386952.823 8     -2357.648          48.000    23099169.484 8  94587231.563 8     -1837.132          48.000  
G03  21443913.164 6 112688517.337 6     -1908.203          36.000    21443914.875 6  87809244.111 6     -1486.912          36.000  
G04  20275773.336 8 106549905.916 8      -370.285          51.000    20275773.320 8  83025919.638 8      -288.534          51.000  
G01  24265372.961 6 127515419.783 6     -3716.520          41.000    24265381.000 6  99362667.933 6     -2895.990          41.000  
R18  19871203.281 7 106073445.136 7     -1063.750          47.000    19871206.445 7  82501576.288 7      -827.361          43.000  
R17  21777625.703 6 116536039.310 6     -4231.973          41.000    21777619.688 4  90639116.124 4     -3291.538          27.000  
R02  20564696.906 5 109736776.963 5     -2263.516          31.000    20564696.727 5  85350836.602 5     -1760.512          34.000  
R11  23033844.516 5 123085469.771 5     -1140.191          32.000                                                                  
E05  23514750.359 8 123570840.022 8       520.609          51.000    23514752.703 8  94684191.014 8       398.927          51.000  
E03  26646121.125 8 140026366.241 8      2339.727          48.000    26646124.906 8 107292889.585 8      1792.883          48.000  
E36  25042348.469 8 131598431.434 8     -2700.324          51.000    25042352.586 8 100835163.746 8     -2069.066          51.000  
E09  22780551.188 6 119712683.130 6     -1791.383          39.000    22780551.375 7  91727912.856 7     -1372.670          45.000  
C19  22324828.156 4 116251237.29224      1371.438          26.000                                                                  
C29  24027049.078 8 125115119.807 8     -2880.438          49.000                                                                  
C20  22385958.195 8 116569646.502 8     -1142.250          51.000                                                                  
> 2020 05 11 22 41  0.0000000  0 18      -0.000000000000
G09  21012642.781 8 110422282.162 8      1918.926          49.000    21012644.758 8  86043323.287 8      1495.267          49.000  
G22  23501295.742 4 123500173.43024     -2617.574          28.000                                                                  
G17  23112673.695 7 121457908.634 7     -2373.156          47.000    23112672.062 7  94642521.764 7     -1849.213          47.000  
G03  21454843.281 6 112745952.888 6     -1921.344          37.000    21454844.906 6  87853998.997 6     -1497.151          38.000  
G04  20277943.945 8 106561312.525 8      -390.684          51.000    20277944.023 8  83034807.915 8      -304.426          51.000  
G01  24286612.984 6 127627031.309 6     -3724.980          41.000    24286619.242 6  99449637.863 6     -2902.589          38.000  
R12  22152932.812 5 118336576.324 5      2049.625          34.000                                                                  
R18  19877270.258 8 106105832.033 8     -1095.652          48.000    19877273.367 7  82526766.083 7      -852.174          44.000  
R17  21801393.070 7 116663217.877 7     -4246.938          44.000    21801384.578 4  90738032.612 4     -3303.180          28.000  
R02  20577452.430 6 109804840.314 6     -2274.840          41.000    20577453.219 5  85403774.746 5     -1769.320          34.000  
R11  23040323.352 4 123120115.280 4     -1169.582          28.000    23040333.969 4  95760134.86424      -909.663          24.000  
E05  23511813.539 8 123555406.891 8       507.922          51.000    23511816.039 8  94672365.636 8       389.190          51.000  
E03  26632787.672 7 139956299.444 7      2330.922          47.000    26632791.180 8 107239202.069 8      1786.056          48.000  
E36  25057799.102 8 131679621.919 8     -2712.789          51.000    25057802.438 8 100897374.621 8     -2078.614          51.000  
E09  22790802.625 6 119766556.040 6     -1800.363          37.000    22790803.188 7  91769192.130 7     -1379.383          44.000  
C19  22316960.070 4 116210257.803 4      1360.324          29.000                                                                  
C29  24043678.391 8 125201711.191 8     -2892.738          48.000                                                                  
C20  22392569.711 8 116604073.677 8     -1153.379          51.000                                                                  
> 2020 05 11 22 41 30.0000000  0 16      -0.000000000000
G09  21001726.516 8 110364916.006 8      1906.387          51.000    21001728.320 8  85998622.371 8      1485.497          51.000  
G17  23126252.453 7 121529266.047 7     -2383.145          46.000    23126251.344 7  94698124.943 7     -1856.996          46.000  
G03  21465833.422 5 112803705.969 5     -1927.805          33.000    21465834.711 5  87899001.462 5     -1502.183          32.000  
G04  20280218.188 8 106573263.304 8      -405.160          51.000    20280218.258 8  83044120.205 8      -315.709          51.000  
G01  24307888.891 6 127738832.050 6     -3727.555          39.000    24307892.305 6  99536755.180 6     -2904.592          39.000  
R12  22141478.328 5 118275428.47625      2029.387          31.000    22141481.531 4  91992002.83724      1578.412          28.000  
R18  19883504.781 8 106139111.329 8     -1122.004          48.000    19883507.188 7  82552650.000 7      -872.670          44.000  
R17  21825230.453 7 116790778.871 7     -4256.195          45.000    21825222.180 4  90837246.658 4     -3310.375          28.000  
R02  20590259.352 6 109873178.643 6     -2280.465          38.000    20590260.039 5  85456926.753 5     -1773.698          33.000  
R11  23046955.742 6 123155557.818 6     -1192.914          36.000    23046962.203 4  95787692.819 4      -927.816          28.000  
E05  23508936.641 8 123540288.968 8       500.906          51.000    23508939.227 8  94660781.786 8       383.820          51.000  
E03  26619492.352 7 139886433.986 7      2327.664          46.000    26619495.531 8 107185668.847 8      1783.590          48.000  
E36  25073308.305 8 131761119.460 8     -2719.438          51.000    25073310.820 8 100959820.773 8     -2083.768          51.000  
E09  22801091.867 6 119820628.607 6     -1803.461          38.000    22801093.117 7  91810624.373 7     -1381.933          44.000  
C29  24060365.141 7 125288604.102 7     -2899.422          46.000                                                                  
C20  22399232.828 8 116638769.499 8     -1158.863          51.000                                                                  
> 2020 05 11 22 42  0.0000000  0 16      -0.000000000000
G09  20990884.992 8 110307940.221 8      1892.090          51.000    20990886.281 8  85954225.659 8      1474.356          51.000  
G17  23139890.430 8 121600933.744 8     -2394.691          49.000    23139889.625 8  94753969.885 8     -1865.994          49.000  
G03  21476869.023 5 112861703.178 5     -1937.418          34.000    21476869.414 5  87944189.351 5     -1509.671          33.000  
G04  20282578.820 8 106585668.529 8      -421.770          51.000    20282579.031 8  83053786.623 8      -328.652          51.000  
G01  24329183.562 6 127850731.287 6     -3732.223          40.000    24329186.859 6  99623949.363 6     -2908.226          40.000  
R18  19889889.328 7 106173191.908 7     -1149.898          47.000    19889891.961 7  82579157.101 7      -894.366          44.000  
R17  21849120.586 7 116918627.599 7     -4267.121          45.000    21849115.805 5  90936684.501 5     -3318.873          31.000  
R02  20603099.867 6 109941700.447 6     -2287.789          36.000    20603100.117 5  85510221.506 5     -1779.392          32.000  
R11  23053724.375 5 123191721.813 5     -1217.852          35.000    23053728.727 4  95815820.527 4      -947.215          27.000  
R04  22864481.734 5 122437906.821 5      2974.234          31.000                                                                  
E05  23506102.727 8 123525397.242 8       491.918          51.000    23506105.289 8  94649371.257 8       376.909          51.000  
E03  26606218.523 7 139816681.532 7      2322.324          46.000    26606221.500 8 107132222.240 8      1779.471          48.000  
E36  25088858.766 8 131842833.999 8     -2728.129          51.000    25088860.570 8 101022433.185 8     -2090.329          51.000  
E09  22811402.406 6 119874811.330 6     -1808.586          38.000    22811403.812 7  91852141.005 7     -1385.732          43.000  
C29  24077091.953 7 125375708.346 7     -2907.770          42.000                                                                  
C20  22405930.570 8 116673645.706 8     -1166.160          51.000                                                                  
> 2020 05 11 22 42 30.0000000  0 15      -0.000000000000
G09  20980123.773 8 110251386.887 8      1875.031          51.000    20980124.531 8  85910158.156 8      1461.064          51.000  
G22  23546243.703 5 123736348.680 5     -2634.469          33.000                                                                  
G17  23153593.156 8 121672939.936 8     -2408.859          51.000    23153591.945 8  94810078.586 8     -1877.034          51.000  
G04  20285031.719 8 106598558.497 8      -440.926          51.000    20285031.773 8  83063830.761 8      -343.579          51.000  
G01  24350502.500 6 127962758.585 6     -3739.332          40.000    24350505.930 6  99711243.391 6     -2913.763          39.000  
G19  22637644.953 5 118961630.43525     -1818.695          31.000                                                                  
R18  19896429.641 7 106208104.530 7     -1180.715          47.000    19896432.820 7  82606311.326 7      -918.337          44.000  
R17  21873069.555 7 117046792.125 7     -4280.496          44.000    21873068.328 5  91036368.024 5     -3329.275          30.000  
R02  20615980.055 6 110010436.151 6     -2297.871          38.000    20615982.555 5  85563682.554 5     -1787.233          33.000  
E05  23503317.836 8 123510762.679 8       480.379          51.000    23503320.219 8  94638157.764 8       368.113          51.000  
E03  26592972.414 7 139747073.763 7      2314.730          46.000    26592975.391 8 107078886.488 8      1773.611          49.000  
E36  25104455.852 8 131924795.432 8     -2739.312          51.000    25104457.523 8 101085234.783 8     -2098.901          51.000  
E09  22821739.867 6 119929134.662 6     -1816.324          38.000    22821741.422 7  91893765.387 7     -1391.607          43.000  
C29  24093865.148 6 125463052.644 6     -2918.672          37.000                                                                  
C20  22412668.766 8 116708732.975 8     -1176.191          51.000                                                                  
> 2020 05 11 22 43  0.0000000  0 16      -0.000000000000
G09  20969447.258 8 110195281.213 8      1864.754          51.000    20969447.953 8  85866439.455 8      1453.055          51.000  
G17  23167364.508 8 121745306.568 8     -2416.145          50.000    23167362.711 8  94866468.115 8     -1882.714          50.000  
G03  21499093.586 5 112978498.99725     -1953.719          33.000                                                                  
G04  20287581.227 8 106611956.603 8      -453.004          51.000    20287581.352 8  83074270.849 8      -352.990          51.000  
G01  24371849.711 6 128074936.400 6     -3739.391          38.000    24371853.148 6  99798654.674 6     -2913.812          39.000  
G19  22648066.570 6 119016390.081 6     -1832.680          36.000    22648062.844 5  92740019.726 5     -1428.062          34.000  
R18  19903130.320 8 106243872.181 8     -1204.375          50.000    19903133.289 7  82634130.624 7      -936.736          44.000  
R17  21897080.648 6 117175292.913 6     -4286.727          41.000    21897081.859 4  91136313.090 4     -3334.118          28.000  
R02  20628905.141 5 110079409.697 5     -2301.094          34.000    20628908.117 5  85617328.625 5     -1789.746          33.000  
R03  19789946.523 4 105936747.17424       721.785          29.000                                                                  
E05  23500586.531 8 123496409.386 8       475.891          51.000    23500588.570 8  94627159.797 8       364.626          51.000  
E03  26579758.492 7 139677635.413 7      2313.977          44.000    26579762.062 8 107025680.503 8      1772.979          49.000  
E36  25120103.531 8 132007026.779 8     -2743.480          49.000    25120105.961 8 101148243.213 8     -2102.146          51.000  
E09  22832108.422 6 119983622.226 6     -1816.945          38.000    22832110.328 7  91935515.613 7     -1392.206          42.000  
C29  24110696.359 5 125550658.935 5     -2922.586          35.000                                                                  
C20  22419451.883 8 116744055.209 8     -1179.266          51.000                                                                  
> 2020 05 11 22 43 30.0000000  0 17      -0.000000000000
G09  20958834.352 8 110139510.730 8      1851.883          51.000    20958835.055 8  85822981.918 8      1443.026          51.000  
G22  23576347.414 5 123894559.544 5     -2639.449          34.000                                                                  
G17  23181182.141 8 121817917.715 8     -2425.938          48.000    23181180.070 8  94923048.198 8     -1890.341          48.000  
G04  20290205.648 8 106625748.628 8      -467.797          51.000    20290206.086 8  83085017.889 8      -364.517          51.000  
G01  24393203.219 6 128187149.690 6     -3742.406          38.000    24393206.586 6  99886093.593 6     -2916.158          38.000  
G19  22658572.109 6 119071592.204 6     -1848.883          40.000    22658575.734 4  92783057.351 4     -1440.679          29.000  
R12  22096861.305 5 118037064.705 5      1943.516          32.000    22096868.883 5  91806633.516 5      1511.624          31.000  
R18  19909969.797 8 106280378.719 8     -1230.664          50.000    19909972.141 7  82662524.637 7      -957.183          45.000  
R17  21921132.680 7 117304010.789 7     -4295.602          42.000    21921134.781 4  91236471.965 4     -3341.024          25.000  
R02  20641853.023 6 110148504.368 6     -2306.773          38.000    20641857.305 5  85671068.937 5     -1794.157          33.000  
R04  22814637.219 5 122170944.76125      2957.820          31.000                                                                  
E05  23497887.094 8 123482223.823 8       468.496          51.000    23497888.711 8  94616290.345 8       359.002          51.000  
E03  26566555.312 7 139608253.734 7      2310.152          44.000    26566559.773 8 106972517.938 8      1770.154          50.000  
E36  25135779.570 7 132089413.427 7     -2750.262          47.000    25135783.789 8 101211370.684 8     -2107.438          50.000  
E09  22842486.570 6 120038160.041 6     -1820.297          39.000    22842488.539 6  91977304.368 6     -1394.807          41.000  
C29  24127555.273 6 125638412.512 6     -2928.887          37.000                                                                  
C20  22426258.383 8 116779499.786 8     -1185.000          51.000                                                                  
> 2020 05 11 22 44  0.0000000  0 16      -0.000000000000
G09  20948310.102 8 110084207.068 8      1833.711          50.000    20948311.000 8  85779888.169 8      1428.866          50.000  
G17  23195070.438 7 121890901.698 7     -2441.016          45.000    23195068.359 7  94979918.832 7     -1902.091          46.000  
G04  20292929.766 8 106640064.433 8      -487.875          51.000    20292930.141 8  83096173.054 8      -380.165          51.000  
G01  24414587.805 6 128299527.540 6     -3750.535          37.000    24414590.633 6  99973660.801 6     -2922.490          37.000  
G19  22669185.195 6 119127364.963 6     -1870.488          40.000    22669187.781 4  92826516.601 4     -1457.524          29.000  
R18  19916971.914 8 106317755.837 8     -1262.352          49.000    19916974.406 7  82691595.708 7      -981.829          46.000  
R17  21945250.719 7 117433074.844 7     -4309.891          44.000    21945245.625 4  91336814.964 4     -3352.141          26.000  
R02  20654847.836 6 110217852.032 6     -2317.754          36.000    20654852.477 5  85725006.025 5     -1802.692          32.000  
R04  22798090.797 5 122082339.596 5      2947.574          35.000    22798102.188 4  94952964.048 4      2292.561          27.000  
E05  23495244.461 8 123468336.609 8       456.000          51.000    23495245.773 8  94605649.503 8       349.397          51.000  
E03  26553388.008 7 139539059.899 7      2301.438          45.000    26553392.734 8 106919499.332 8      1763.410          50.000  
E36  25151509.867 7 132172084.962 7     -2762.254          47.000    25151515.750 8 101274716.423 8     -2116.557          50.000  
E09  22852899.164 6 120092878.249 6     -1828.824          38.000    22852900.828 6  92019231.306 6     -1401.260          41.000  
C19  22270625.273 5 115968998.223 5      1317.000          31.000                                                                  
C29  24144460.398 6 125726440.841 6     -2940.781          40.000                                                                  
C20  22433113.297 8 116815196.139 8     -1195.980          51.000                                                                  
> 2020 05 11 22 44 30.0000000  0 17      -0.000000000000
G09  20937861.141 8 110029300.838 8      1823.801          50.000    20937862.508 8  85737104.138 8      1421.144          50.000  
G17  23209015.781 7 121964185.477 7     -2447.594          46.000    23209013.586 7  95037023.065 7     -1907.216          46.000  
G03  21532755.227 6 113155390.686 6     -1977.816          37.000    21532754.758 6  88173011.827 6     -1541.153          37.000  
G04  20295739.945 8 106654832.835 8      -499.590          51.000    20295740.414 8  83107680.902 8      -389.291          51.000  
G01  24435989.828 6 128411997.962 6     -3750.613          37.000    24435992.422 6 100061300.161 6     -2922.560          36.000  
G19  22679892.188 6 119183636.119 6     -1883.359          40.000    22679893.930 6  92870364.287 6     -1467.547          36.000  
R18  19924123.062 8 106355930.550 8     -1285.555          48.000    19924126.023 7  82721287.172 7      -999.876          46.000  
R17  21969420.312 7 117562409.592 7     -4315.441          45.000    21969419.266 4  91437408.531 4     -3356.458          29.000  
R02  20667878.016 5 110287380.548 5     -2320.137          33.000    20667881.297 5  85779083.776 5     -1804.554          31.000  
R04  22781567.641 5 121993917.393 5      2945.684          34.000    22781589.438 4  94884186.107 4      2291.085          26.000  
E05  23492645.211 8 123454677.301 8       451.695          51.000    23492646.531 8  94595183.278 8       346.158          51.000  
E03  26540243.484 7 139469984.198 7      2300.758          45.000    26540247.703 8 106866571.245 8      1762.973          50.000  
E36  25167281.742 8 132254969.932 8     -2766.199          48.000    25167288.367 8 101338225.696 8     -2119.521          51.000  
E09  22863333.109 6 120147705.979 6     -1829.324          40.000    22863333.953 6  92061242.121 6     -1401.532          39.000  
C19  22263036.359 5 115929489.790 5      1314.480          30.000                                                                  
C29  24161402.352 6 125814672.106 6     -2943.832          40.000                                                                  
C20  22440003.344 8 116851074.462 8     -1198.680          51.000                                                                  
> 2020 05 11 22 45  0.0000000  0 17      -0.000000000000
G09  20927492.289 8 109974812.907 8      1810.055          51.000    20927494.016 8  85694646.024 8      1410.433          51.000  
G17  23223021.586 7 122037786.616 7     -2457.832          47.000    23223019.648 7  95094374.560 7     -1915.197          47.000  
G03  21544074.914 6 113214868.894 6     -1986.121          39.000    21544072.031 6  88219358.527 6     -1547.624          40.000  
G04  20298639.906 8 106670072.874 8      -514.965          51.000    20298640.539 8  83119556.261 8      -401.271          51.000  
G01  24457412.695 6 128524579.166 6     -3753.711          36.000    24457415.898 6 100149025.762 6     -2924.970          36.000  
G19  22690697.195 6 119240422.537 6     -1900.570          40.000    22690700.531 5  92914613.345 5     -1480.964          34.000  
R18  19931426.867 8 106394921.909 8     -1312.477          48.000    19931430.898 7  82751613.788 7     -1020.818          47.000  
R17  21993643.766 7 117692031.400 7     -4324.641          44.000    21993644.688 4  91538225.387 4     -3363.613          28.000  
R02  20680946.508 6 110357108.592 6     -2327.160          37.000    20680946.688 5  85833316.695 5     -1810.014          30.000  
R11  23097186.555 5 123423968.52825     -1362.832          30.000                                                                  
E05  23490093.008 8 123441265.645 8       443.766          51.000    23490094.523 8  94584906.826 8       339.995          51.000  
E03  26527125.680 7 139401047.088 7      2296.328          47.000    26527129.031 8 106813749.366 8      1759.519          50.000  
E36  25183098.430 8 132338086.978 8     -2773.746          49.000    25183105.086 8 101401912.797 8     -2125.318          51.000  
E09  22873791.445 6 120202662.465 6     -1833.305          40.000    22873791.289 6  92103351.638 6     -1404.732          39.000  
C19  22255485.094 4 115890158.968 4      1307.930          29.000                                                                  
C29  24178385.523 6 125903123.972 6     -2951.188          40.000                                                                  
C20  22446932.234 8 116887154.314 8     -1205.176          51.000                                                                  
> 2020 05 11 22 45 30.0000000  0 16      -0.000000000000
G09  20917200.789 8 109920729.961 8      1794.848          51.000    20917202.562 8  85652503.482 8      1398.583          51.000  
G17  23237084.391 7 122111688.326 7     -2469.461          45.000    23237083.297 7  95151960.262 7     -1924.256          45.000  
G03  21555437.555 6 113274583.358 6     -1995.660          37.000    21555437.961 6  88265889.266 6     -1555.060          37.000  
G04  20301626.883 8 106685769.549 8      -531.938          51.000    20301627.406 8  83131787.425 8      -414.497          51.000  
G01  24478854.172 6 128637255.481 6     -3758.590          38.000    24478857.508 6 100236825.468 6     -2928.775          38.000  
G19  22701597.383 6 119297707.964 6     -1918.750          38.000    22701601.211 4  92959251.397 4     -1495.118          26.000  
R18  19938881.352 8 106434714.104 8     -1340.801          50.000    19938886.008 7  82782563.224 7     -1042.848          47.000  
R17  22017917.266 7 117821922.019 7     -4335.113          44.000    22017917.625 4  91639251.374 4     -3371.759          29.000  
R02  20694048.828 6 110427021.012 6     -2334.512          39.000    20694048.570 5  85887693.054 5     -1815.729          30.000  
E05  23487585.008 8 123428087.366 8       434.406          51.000    23487586.719 8  94574809.184 8       332.872          51.000  
E03  26514031.711 7 139332234.946 7      2290.566          47.000    26514034.008 8 106761023.223 8      1755.185          49.000  
E36  25198956.703 8 132421420.704 8     -2782.480          49.000    25198962.977 8 101465765.916 8     -2131.951          51.000  
E09  22884271.211 6 120257733.033 6     -1838.668          40.000    22884270.477 6  92145548.529 6     -1408.749          38.000  
C19  22247979.359 5 115851052.372 5      1298.918          35.000                                                                  
C29  24195407.297 6 125991780.267 6     -2959.781          40.000                                                                  
C20  22453897.023 8 116923421.595 8     -1213.062          50.000                                                                  
> 2020 05 11 22 46  0.0000000  0 16      -0.000000000000
G09  20906986.039 8 109867049.832 8      1781.199          51.000    20906987.391 8  85610674.825 8      1387.948          51.000  
G17  23251202.992 7 122185884.641 7     -2479.336          43.000    23251203.242 7  95209775.577 7     -1931.948          43.000  
G03  21566844.555 6 113334530.848 6     -2003.500          40.000    21566847.906 6  88312601.507 6     -1561.169          39.000  
G04  20304699.906 8 106701918.799 8      -547.285          51.000    20304700.508 8  83144371.266 8      -426.456          51.000  
G01  24500313.219 6 128750021.891 6     -3761.520          38.000    24500316.484 6 100324695.378 6     -2931.055          38.000  
G19  22712590.852 5 119355487.056 5     -1935.160          34.000                                                                  
R18  19946485.227 8 106475302.536 8     -1367.711          51.000    19946489.953 7  82814131.956 7     -1063.775          46.000  
R17  22042240.055 7 117952074.304 7     -4344.078          44.000    22042240.422 4  91740480.853 4     -3378.728          29.000  
R04  22732215.992 4 121729603.087 4      2926.098          29.000    22732253.547 4  94678662.898 4      2275.857          26.000  
E05  23485120.773 8 123415139.243 8       426.316          51.000    23485122.633 8  94564887.887 8       326.589          51.000  
E03  26500960.711 7 139263545.233 7      2286.297          46.000    26500962.156 8 106708390.873 8      1751.746          49.000  
E36  25214855.484 8 132504966.877 8     -2789.840          49.000    25214861.180 8 101529781.817 8     -2137.680          51.000  
E09  22894771.656 6 120312913.943 6     -1842.559          39.000    22894771.484 6  92187830.006 6     -1411.831          38.000  
C19  22240504.742 4 115812137.195 4      1292.391          29.000                                                                  
C29  24212468.328 6 126080635.726 6     -2966.625          40.000                                                                  
C20  22460897.047 8 116959873.022 8     -1219.570          50.000                                                                  
> 2020 05 11 22 46 30.0000000  0 16      -0.000000000000
G09  20896855.664 8 109813813.026 8      1768.090          51.000    20896856.500 8  85569191.595 8      1377.733          51.000  
G17  23265384.742 7 122260412.691 7     -2488.840          43.000    23265386.156 7  95267849.418 7     -1939.353          43.000  
G03  21578304.031 7 113394750.821 7     -2011.148          42.000    21578305.031 6  88359526.188 6     -1567.126          39.000  
G04  20307866.531 8 106718559.387 8      -561.887          51.000    20307867.133 8  83157337.964 8      -437.834          51.000  
G01  24521796.812 6 128862916.509 6     -3764.406          38.000    24521799.641 6 100412665.220 6     -2933.304          39.000  
G19  22723686.094 5 119413797.035 5     -1950.887          35.000                                                                  
R18  19954245.094 8 106516726.076 8     -1393.707          49.000    19954249.703 7  82846350.243 7     -1083.998          46.000  
R17  22066618.750 7 118082524.715 7     -4352.320          44.000    22066618.094 5  91841942.205 5     -3385.142          30.000  
R02  20720360.539 6 110567434.738 6     -2346.500          37.000    20720369.320 5  85996919.649 5     -1825.053          33.000  
R04  22715843.547 5 121641879.622 5      2921.367          33.000                                                                  
E05  23482708.180 8 123402460.724 8       419.090          51.000    23482710.070 8  94555173.169 8       321.115          51.000  
E03  26487920.438 7 139195018.149 7      2282.473          47.000    26487921.609 8 106655883.121 8      1748.924          49.000  
E36  25230801.844 8 132588763.806 8     -2796.484          49.000    25230806.719 8 101593989.853 8     -2142.798          50.000  
E09  22905300.180 6 120368244.250 6     -1845.961          37.000    22905301.453 6  92230225.975 6     -1414.265          38.000  
C29  24229576.133 6 126169727.501 6     -2972.715          40.000                                                                  
C20  22467939.969 8 116996547.723 8     -1225.219          49.000                                                                  
> 2020 05 11 22 47  0.0000000  0 17      -0.000000000000
G09  20886797.852 8 109760957.215 8      1752.930          51.000    20886798.414 8  85528005.247 8      1365.920          51.000  
G17  23279617.633 7 122335207.079 7     -2500.203          47.000    23279619.328 7  95326130.766 7     -1948.214          47.000  
G03  21589803.383 7 113455179.950 7     -2020.270          42.000    21589805.844 6  88406613.839 6     -1574.240          39.000  
G04  20311114.461 8 106735627.235 8      -578.531          51.000    20311114.953 8  83170637.575 8      -450.804          51.000  
G01  24543292.547 6 128975874.384 6     -3768.684          40.000    24543295.320 6 100500684.367 6     -2936.637          40.000  
G19  22734871.125 6 119472572.566 6     -1969.477          39.000    22734879.359 5  93095528.772 5     -1534.657          30.000  
R12  22023514.062 5 117645343.478 5      1786.488          32.000                                                                  
R18  19962149.016 8 106558918.928 8     -1421.746          50.000    19962153.398 7  82879166.908 7     -1105.803          46.000  
R17  22091040.477 7 118213204.899 7     -4362.434          42.000    22091039.891 5  91943582.244 5     -3393.008          34.000  
R02  20733568.984 6 110637901.163 6     -2354.016          37.000    20733567.086 5  86051726.762 5     -1830.904          32.000  
R04  22699495.891 5 121554298.356 5      2914.672          35.000    22699481.141 4  94542242.13824      2266.968          26.000  
E05  23480335.016 8 123389988.477 8       409.836          51.000    23480336.977 8  94545616.523 8       314.009          51.000  
E03  26474899.133 7 139126590.988 7      2276.625          47.000    26474900.625 8 106603451.959 8      1744.440          49.000  
E36  25246783.477 8 132672747.135 8     -2804.977          48.000    25246787.383 8 101658340.706 8     -2149.341          50.000  
E09  22915845.109 5 120423660.265 5     -1851.168          33.000    22915848.172 6  92272687.613 6     -1418.467          38.000  
C29  24246718.016 6 126258990.836 6     -2980.801          38.000                                                                  
C20  22475013.750 8 117033382.995 8     -1232.977          49.000                                                                  
> 2020 05 11 22 47 30.0000000  0 17      -0.000000000000
G09  20876825.375 8 109708549.400 8      1741.191          51.000    20876826.086 8  85487167.995 8      1356.773          51.000  
G17  23293913.547 8 122410331.214 8     -2507.836          48.000    23293914.750 8  95384669.044 8     -1954.158          48.000  
G03  21601354.898 6 113515884.498 6     -2026.418          41.000    21601358.750 6  88453916.080 6     -1579.024          40.000  
G04  20314456.156 8 106753187.592 8      -591.785          51.000    20314456.523 8  83184320.963 8      -461.131          51.000  
G01  24564812.414 6 129088960.114 6     -3770.137          40.000    24564815.836 6 100588803.114 6     -2937.770          40.000  
G19  22746157.000 6 119531877.055 6     -1983.809          40.000                                                                  
R12  22013543.945 5 117592018.01125      1765.770          35.000                                                                  
R18  19970209.562 8 106601946.883 8     -1446.457          50.000    19970213.219 7  82912633.101 7     -1125.019          46.000  
R17  22115517.508 7 118344178.384 7     -4368.949          42.000    22115515.719 5  92045450.459 5     -3398.075          34.000  
R02  20746813.555 6 110708588.260 6     -2358.016          37.000    20746814.016 5  86106705.514 5     -1834.016          33.000  
E05  23478013.578 8 123377788.578 8       403.801          51.000    23478015.695 8  94536268.552 8       309.439          51.000  
E03  26461909.531 7 139058330.420 7      2274.258          47.000    26461911.305 8 106551148.471 8      1742.614          49.000  
E36  25262812.828 8 132756981.823 8     -2810.359          48.000    25262815.891 8 101722884.142 8     -2153.343          50.000  
E09  22926418.828 5 120479143.578 5     -1853.496          33.000    22926424.148 6  92315265.159 6     -1419.664          38.000  
C19  22218323.836 5 115696641.643 5      1273.926          31.000                                                                  
C29  24263904.164 5 126348489.202 5     -2985.367          35.000                                                                  
C20  22482130.883 8 117070444.299 8     -1237.457          49.000                                                                  
> 2020 05 11 22 48  0.0000000  0 18      -0.000000000000
G09  20866925.453 8 109656524.475 8      1727.223          51.000    20866926.648 8  85446629.100 8      1345.888          51.000  
G17  23308259.109 7 122485716.643 7     -2517.812          47.000    23308259.039 7  95443410.885 7     -1961.932          47.000  
G03  21612946.562 7 113576798.128 7     -2034.574          45.000    21612952.430 7  88501381.321 7     -1585.383          42.000  
G04  20317878.836 8 106771173.518 8      -607.281          51.000    20317879.172 8  83198335.976 8      -473.206          51.000  
G01  24586343.719 6 129202105.965 6     -3773.301          39.000    24586347.641 6 100676968.700 6     -2940.238          39.000  
G19  22757530.383 6 119591642.253 6     -2000.398          41.000    22757543.422 4  93188350.486 4     -1558.731          24.000  
R18  19978413.602 8 106645741.120 8     -1473.199          50.000    19978416.922 7  82946695.315 7     -1145.822          46.000  
R17  22140036.344 6 118475374.261 6     -4377.383          39.000    22140033.438 6  92147491.632 6     -3404.632          36.000  
R02  20760089.125 5 110779427.704 5     -2364.332          35.000    20760089.555 5  86161802.840 5     -1838.922          30.000  
R03  19752861.289 5 105738244.44525       602.332          30.000    19752862.367 4  82240845.38224       468.481          26.000  
R11  23145520.898 4 123682260.94024     -1506.098          28.000                                                                  
E05  23475731.234 8 123365794.866 8       395.719          51.000    23475733.523 8  94527078.571 8       303.210          51.000  
E03  26448939.344 7 138990171.078 7      2269.734          47.000    26448941.461 8 106498922.529 8      1739.169          49.000  
E36  25278877.523 8 132841400.627 8     -2817.586          49.000    25278879.727 8 101787568.663 8     -2158.940          50.000  
E09  22937008.578 5 120534792.482 5     -1856.664          33.000    22937015.984 6  92357907.665 6     -1422.759          36.000  
C19  22211009.242 5 115658531.266 5      1266.484          31.000                                                                  
C29  24281120.898 5 126438154.958 5     -2993.109          30.000                                                                  
C20  22489278.766 8 117107666.081 8     -1244.117          48.000                                                                  
> 2020 05 11 22 48 30.0000000  0 18      -0.000000000000
G09  20857105.328 8 109604920.776 8      1712.922          51.000    20857107.016 8  85406418.433 8      1334.745          51.000  
G17  23322660.906 7 122561398.114 7     -2527.902          46.000    23322658.359 7  95502383.408 7     -1969.795          46.000  
G03  21624585.195 7 113637958.389 7     -2042.867          42.000    21624596.164 6  88549038.557 6     -1591.848          38.000  
G04  20321389.500 8 106789621.595 8      -622.922          51.000    20321389.672 8  83212711.099 8      -485.394          51.000  
G01  24607893.016 6 129315347.753 6     -3776.387          40.000    24607897.391 6 100765209.087 6     -2942.637          40.000  
G19  22768998.070 6 119651903.161 6     -2017.293          41.000                                                                  
R12  21993962.352 5 117487410.833 5      1720.047          33.000    21993981.203 4  91379161.991 4      1337.818          28.000  
R18  19986767.648 8 106690338.336 8     -1500.176          49.000    19986771.266 7  82981382.074 7     -1166.804          45.000  
R17  22164602.812 5 118606826.360 5     -4385.965          34.000    22164598.391 5  92249732.091 5     -3411.310          34.000  
R02  20773398.523 6 110850456.623 6     -2370.898          36.000    20773393.984 4  86216997.65424     -1844.029          27.000  
R04  22650618.805 5 121292667.972 5      2897.656          33.000    22650631.305 5  94338760.31325      2253.730          31.000  
E05  23473495.211 8 123354044.727 8       387.434          51.000    23473497.531 8  94518075.229 8       296.856          51.000  
E03  26435995.570 7 138922150.989 7      2264.762          46.000    26435998.398 8 106446803.306 8      1735.356          50.000  
E36  25294984.344 8 132926039.873 8     -2825.176          50.000    25294985.680 8 101852422.091 8     -2164.731          50.000  
E09  22947621.742 5 120590565.300 5     -1861.316          34.000    22947630.930 5  92400643.455 5     -1426.219          33.000  
C19  22203734.367 5 115620628.444 5      1259.613          32.000                                                                  
C29  24298377.898 5 126528023.088 5     -2999.098          34.000                                                                  
C20  22496464.578 8 117145085.395 8     -1250.824          48.000                                                                  
> 2020 05 11 22 49  0.0000000  0 18      -0.000000000000
G09  20847365.828 8 109553741.852 8      1698.027          51.000    20847367.922 8  85366538.782 8      1323.142          51.000  
G17  23337119.055 7 122637375.740 7     -2538.199          45.000    23337114.875 7  95561586.731 7     -1977.818          45.000  
G03  21636271.133 6 113699367.905 6     -2051.965          41.000    21636278.258 6  88596890.387 6     -1598.934          41.000  
G04  20324988.367 8 106808533.590 8      -638.898          51.000    20324988.445 8  83227447.722 8      -497.843          51.000  
G01  24629460.375 6 129428686.606 6     -3780.359          38.000    24629465.688 6 100853525.101 6     -2945.732          38.000  
G19  22780559.812 6 119712660.013 6     -2034.160          39.000    22780557.359 4  93282562.283 4     -1585.054          29.000  
R12  21984383.438 4 117436247.116 4      1695.656          28.000                                                                  
R18  19995272.547 8 106735739.594 8     -1527.496          49.000    19995275.938 7  83016694.149 7     -1188.056          43.000  
R17  22189213.836 5 118738533.731 5     -4395.164          32.000    22189209.648 5  92352171.271 5     -3418.458          33.000  
R02  20786744.812 6 110921676.969 6     -2377.879          38.000    20786749.820 4  86272391.328 4     -1849.459          29.000  
R04  22634427.406 5 121205871.913 5      2890.852          32.000    22634408.609 4  94271228.879 4      2248.435          25.000  
E05  23471305.992 8 123342540.723 8       378.617          51.000    23471308.117 8  94509260.469 8       290.115          51.000  
E03  26423078.914 7 138854273.420 7      2259.320          45.000    26423081.945 8 106394793.256 8      1731.234          49.000  
E36  25311133.320 8 133010901.013 8     -2833.094          51.000    25311134.281 8 101917445.545 8     -2170.828          51.000  
E09  22958259.344 6 120646462.927 6     -1865.918          37.000    22958269.164 4  92443436.155 4     -1430.479          29.000  
C19  22196497.719 5 115582936.425 5      1251.645          33.000                                                                  
C29  24315676.398 6 126618094.390 6     -3006.496          37.000                                                                  
C20  22503689.086 8 117182704.868 8     -1258.078          49.000                                                                  
> 2020 05 11 22 49 30.0000000  0 17      -0.000000000000
G09  20837711.367 8 109503009.844 8      1685.199          51.000    20837713.766 8  85327007.380 8      1313.143          51.000  
G17  23351637.016 7 122713668.283 7     -2546.664          46.000    23351633.102 7  95621035.428 7     -1984.417          46.000  
G03  21648008.570 6 113761047.911 6     -2058.680          39.000    21648015.391 6  88644952.670 6     -1604.170          38.000  
G04  20328679.344 8 106827929.911 8      -652.898          51.000    20328679.469 8  83242561.750 8      -508.749          51.000  
G01  24651049.633 6 129542142.164 6     -3782.297          37.000    24651057.008 5 100941932.190 5     -2947.239          33.000  
G19  22792219.203 6 119773931.856 6     -2049.113          37.000    22792217.336 5  93330306.622 5     -1596.709          31.000  
R12  21974907.117 5 117385634.087 5      1674.949          34.000    21974927.609 4  91299997.603 4      1302.735          29.000  
R18  20003932.117 8 106781964.914 8     -1552.758          50.000    20003934.695 7  83052647.166 7     -1207.701          43.000  
R17  22213872.047 5 118870514.437 5     -4401.918          32.000    22213872.820 5  92454822.931 5     -3423.718          32.000  
R02  20800131.773 6 110993109.583 6     -2382.816          36.000    20800135.141 4  86327949.951 4     -1853.305          29.000  
R04  22618221.727 5 121119174.27825      2886.445          32.000                                                                  
E05  23469167.688 8 123331304.077 8       371.910          51.000    23469169.680 8  94500650.573 8       284.946          51.000  
E03  26410193.102 7 138786560.228 7      2256.156          43.000    26410196.336 8 106342909.143 8      1728.762          49.000  
E36  25327328.125 8 133096004.168 8     -2838.922          51.000    25327329.203 8 101982654.433 8     -2175.339          51.000  
E09  22968924.242 6 120702505.245 6     -1868.586          36.000                                                                  
C29  24333017.562 6 126708387.776 6     -3011.699          39.000                                                                  
C20  22510956.312 8 117220545.553 8     -1263.320          49.000                                                                  
> 2020 05 11 22 50  0.0000000  0 18      -0.000000000000
G09  20828131.508 8 109452668.447 8      1670.188          51.000    20828134.195 8  85287780.317 8      1301.445          51.000  
G17  23366203.508 7 122790216.060 7     -2557.156          47.000    23366201.031 7  95680682.968 7     -1992.590          47.000  
G03  21659787.070 5 113822947.75925     -2067.797          33.000    21659790.320 5  88693181.74525     -1611.274          32.000  
G04  20332451.414 8 106847752.420 8      -669.152          51.000    20332451.445 8  83258007.851 8      -521.418          51.000  
G01  24672649.562 6 129655655.626 6     -3786.102          36.000    24672658.898 5 101030384.444 5     -2950.210          32.000  
G19  22803965.000 6 119835659.137 6     -2066.730          38.000    22803961.820 5  93378405.780 5     -1610.437          31.000  
R18  20012734.781 8 106828954.396 8     -1580.395          49.000    20012737.648 7  83089194.500 7     -1229.196          44.000  
R17  22238573.492 5 119002706.181 5     -4411.004          35.000    22238575.695 5  92557638.678 5     -3430.781          30.000  
R02  20813546.461 5 111064695.354 5     -2390.098          35.000    20813548.656 4  86383627.702 4     -1858.962          29.000  
R03  19739905.648 5 105668872.001 5       554.160          31.000                                                                  
R04  22602068.453 5 121032676.842 5      2879.484          31.000                                                                  
E05  23467069.391 8 123320277.457 8       362.754          51.000    23467071.617 8  94492201.615 8       277.981          51.000  
E03  26397327.523 7 138718954.789 7      2250.336          42.000    26397331.305 8 106291107.603 8      1724.341          49.000  
E36  25343557.508 8 133181290.940 8     -2847.281          50.000    25343559.094 8 102048004.019 8     -2181.663          51.000  
E09  22979605.258 6 120758634.600 6     -1873.934          37.000                                                                  
C19  22182155.836 4 115508244.97124      1237.844          29.000                                                                  
C29  24350390.203 6 126798844.382 6     -3019.344          41.000                                                                  
C20  22518255.102 8 117258550.661 8     -1270.766          49.000                                                                  
> 2020 05 11 22 50 30.0000000  0 16      -0.000000000000
G09  20818634.164 8 109402759.068 8      1655.844          51.000    20818637.047 8  85248889.908 8      1290.271          51.000  
G17  23380825.922 8 122867057.000 8     -2566.773          48.000    23380824.883 8  95740558.962 8     -2000.087          48.000  
G03  21671620.656 5 113885134.91225     -2078.078          31.000    21671615.914 5  88741643.13025     -1619.282          31.000  
G04  20336311.984 8 106868040.780 8      -684.570          50.000    20336312.234 8  83273816.977 8      -533.429          51.000  
G01  24694268.523 5 129769265.998 5     -3789.238          35.000    24694277.992 5 101118912.229 5     -2952.645          35.000  
G19  22815804.945 6 119897879.822 6     -2082.621          39.000    22815800.867 5  93426889.451 5     -1622.822          32.000  
R18  20021687.672 8 106876747.770 8     -1607.160          48.000    20021691.031 7  83126367.076 7     -1250.014          44.000  
R17  22263322.719 6 119135146.669 6     -4419.285          37.000    22263325.547 4  92660647.880 4     -3437.226          26.000  
R02  20826997.445 6 111136474.615 6     -2396.555          37.000    20826995.781 5  86439466.061 5     -1863.987          30.000  
E05  23465018.773 8 123309501.391 8       354.594          51.000    23465021.375 8  94483944.635 8       271.690          51.000  
E03  26384490.562 6 138651498.255 6      2245.703          41.000    26384494.609 8 106239420.173 8      1720.585          49.000  
E36  25359828.789 8 133266800.693 8     -2854.508          50.000    25359831.250 8 102113524.475 8     -2187.242          51.000  
E09  22990309.984 6 120814890.992 6     -1877.367          38.000                                                                  
C19  22175030.484 5 115471177.462 5      1231.035          33.000                                                                  
C29  24367802.070 7 126889502.371 7     -3025.680          42.000                                                                  
C20  22525593.047 8 117296760.439 8     -1277.676          50.000                                                                  
> 2020 05 11 22 51  0.0000000  0 18      -0.000000000000
G09  20809214.656 8 109353257.843 8      1643.699          51.000    20809216.703 8  85210317.548 8      1280.805          51.000  
G17  23395499.047 7 122944163.769 7     -2574.105          47.000    23395498.969 7  95800642.146 7     -2005.797          47.000  
G04  20340256.500 8 106888769.388 8      -697.805          51.000    20340256.883 8  83289969.133 8      -543.744          51.000  
G01  24715902.352 5 129882946.982 5     -3789.961          31.000                                                                  
G19  22827734.031 5 119960566.932 5     -2096.535          35.000    22827731.898 5  93475736.513 5     -1633.673          33.000  
R12  21947291.305 5 117238088.064 5      1604.930          32.000                                                                  
R18  20030786.102 8 106925317.855 8     -1631.523          49.000    20030789.859 7  83164143.808 7     -1268.963          44.000  
R17  22288114.023 6 119267806.737 6     -4424.984          39.000                                                                  
R02  20840479.992 5 111208421.533 5     -2400.480          34.000    20840479.773 5  86495424.743 5     -1867.041          31.000  
R11  23198663.422 5 123966238.20225     -1647.512          32.000                                                                  
R13  23394434.695 6 124924581.389 6      4010.664          37.000    23394432.758 4  97163566.71924      3119.403          26.000  
E05  23463011.125 8 123298951.061 8       348.367          51.000    23463013.781 8  94475860.612 8       266.976          51.000  
E03  26371677.750 7 138584166.501 7      2242.906          42.000    26371681.602 8 106187828.344 8      1718.517          49.000  
E36  25376137.500 8 133352507.514 8     -2859.684          50.000    25376140.852 8 102179195.945 8     -2191.184          51.000  
E09  23001034.352 6 120871249.381 6     -1879.672          37.000                                                                  
C19  22167933.781 4 115434247.69224      1226.074          28.000                                                                  
C29  24385247.781 7 126980335.146 7     -3030.184          44.000                                                                  
C20  22532965.445 8 117335150.262 8     -1282.129          50.000                                                                  
> 2020 05 11 22 51 30.0000000  0 18      -0.000000000000
G09  20799874.258 8 109304172.253 8      1628.027          51.000    20799874.531 8  85172069.047 8      1268.593          51.000  
G17  23410223.406 7 123021540.671 7     -2584.625          45.000    23410224.070 7  95860935.816 7     -2013.997          45.000  
G03  21695395.820 6 114010087.524 6     -2092.109          38.000    21695398.961 6  88839026.586 6     -1630.219          39.000  
G04  20344285.914 8 106909943.951 8      -714.449          51.000    20344286.227 8  83306468.788 8      -556.714          51.000  
G19  22839752.797 5 120023724.604 5     -2114.199          30.000    22839751.602 4  93524950.272 4     -1647.441          25.000  
R12  21938341.406 5 117190305.78025      1580.105          32.000                                                                  
R18  20040031.352 8 106974669.783 8     -1659.219          49.000    20040035.695 7  83202528.662 7     -1290.504          45.000  
R17  22312948.219 6 119400689.248 6     -4434.406          39.000                                                                  
R02  20853995.039 6 111280541.944 6     -2407.902          37.000    20853995.211 5  86551518.344 5     -1872.816          31.000  
R04  22553820.016 5 120774279.773 5      2861.344          34.000    22553824.539 4  93935582.194 4      2225.493          27.000  
R13  23371917.859 6 124804340.058 6      4005.125          37.000                                                                  
E05  23461047.688 8 123288633.035 8       338.898          51.000    23461050.141 8  94467954.588 8       259.661          51.000  
E03  26358889.766 6 138516966.760 6      2236.816          41.000    26358893.984 8 106136337.700 8      1713.841          49.000  
E36  25392485.414 8 133438416.918 8     -2868.121          51.000    25392489.164 8 102245022.631 8     -2197.637          51.000  
E09  23011779.844 5 120927715.851 5     -1885.293          35.000                                                                  
C19  22160892.922 4 115397577.959 4      1217.812          29.000                                                                  
C29  24402727.766 7 127071347.209 7     -3037.809          45.000                                                                  
C20  22540373.758 8 117373726.781 8     -1290.195          49.000                                                                  
> 2020 05 11 22 52  0.0000000  0 17      -0.000000000000
G09  20790615.109 8 109255515.014 8      1614.211          51.000    20790615.125 8  85134154.312 8      1257.827          51.000  
G17  23425000.727 7 123099197.099 7     -2593.719          42.000    23425002.234 7  95921447.284 7     -2021.080          42.000  
G03  21707357.820 7 114072946.752 7     -2099.949          42.000    21707360.688 7  88888007.817 7     -1636.322          42.000  
G04  20348402.219 8 106931575.340 8      -729.047          51.000    20348402.609 8  83323324.422 8      -568.092          51.000  
G01  24759213.102 5 130110531.81725     -3796.477          32.000                                                                  
R18  20049425.344 8 107024813.933 8     -1685.031          50.000    20049429.469 7  83241529.653 7     -1310.580          44.000  
R17  22337826.219 6 119533802.679 6     -4441.363          39.000                                                                  
R02  20867544.977 5 111352846.666 5     -2413.504          33.000    20867545.945 5  86607755.361 5     -1877.170          31.000  
R04  22537800.023 5 120688508.82725      2855.094          31.000                                                                  
R13  23349426.906 6 124684239.099 6      4000.770          37.000    23349422.133 4  96976619.99024      3111.713          27.000  
E05  23459130.656 8 123278559.081 8       331.375          51.000    23459133.094 8  94460235.588 8       253.860          51.000  
E03  26346129.375 6 138449911.538 6      2232.254          40.000    26346134.453 8 106084957.757 8      1710.402          49.000  
E36  25408874.523 8 133524539.568 8     -2874.758          51.000    25408878.359 8 102311012.707 8     -2202.711          51.000  
E09  23022548.930 5 120984309.794 5     -1888.793          35.000                                                                  
C19  22153885.250 4 115361116.024 4      1211.793          29.000                                                                  
C29  24420243.836 7 127162548.225 7     -3043.496          45.000                                                                  
C20  22547820.141 8 117412501.633 8     -1296.285          50.000                                                                  
> 2020 05 11 22 52 30.0000000  0 17      -0.000000000000
G09  20781437.531 8 109207287.227 8      1601.480          51.000    20781438.578 8  85096574.221 8      1247.907          51.000  
G17  23439830.695 6 123177130.837 6     -2601.176          40.000    23439833.109 6  95982174.847 6     -2026.891          41.000  
G03  21719367.211 6 114136053.808 6     -2106.637          41.000    21719368.906 6  88937182.137 6     -1641.539          41.000  
G04  20352605.359 8 106953663.031 8      -742.762          50.000    20352605.812 8  83340535.602 8      -578.776          50.000  
G01  24780890.508 5 130224458.710 5     -3796.918          32.000    24780897.641 5 101473654.185 5     -2958.638          31.000  
G19  22864063.320 6 120151461.194 6     -2144.133          36.000    22864060.945 5  93624510.722 5     -1670.750          33.000  
R12  21920849.172 5 117096834.664 5      1534.781          31.000                                                                  
R18  20058967.625 8 107075748.912 8     -1709.875          50.000    20058970.867 7  83281145.705 7     -1329.903          43.000  
R17  22362746.180 6 119667143.611 6     -4447.227          39.000    22362748.906 4  93074491.46824     -3458.955          26.000  
R03  19725188.664 5 105590103.15325       495.980          31.000                                                                  
R13  23326962.391 5 124564282.670 5      3997.250          35.000    23326961.055 5  96883325.561 5      3108.973          31.000  
E05  23457260.055 8 123268729.491 8       324.707          51.000    23457262.719 8  94452703.824 8       248.859          51.000  
E03  26333396.016 6 138383001.727 6      2229.168          37.000    26333402.586 8 106033689.205 8      1707.990          48.000  
E36  25425304.227 8 133610874.612 8     -2880.250          51.000    25425307.984 8 102377165.524 8     -2206.913          51.000  
E09  23033340.398 5 121041015.193 5     -1890.984          34.000    23033372.570 5  92745776.054 5     -1448.913          35.000  
C29  24437795.547 7 127253936.463 7     -3048.242          45.000                                                                  
C20  22555304.742 8 117451475.213 8     -1301.344          50.000                                                                  
> 2020 05 11 22 53  0.0000000  0 16      -0.000000000000
G09  20772339.867 8 109159479.216 8      1586.656          51.000    20772341.750 8  85059321.220 8      1236.356          51.000  
G17  23454711.297 7 123255328.893 7     -2610.723          43.000    23454713.883 7  96043108.383 7     -2034.330          43.000  
G03  21731421.406 7 114199398.129 7     -2115.430          44.000    21731422.242 7  88986541.318 7     -1648.387          44.000  
G04  20356893.000 8 106976195.497 8      -758.348          50.000    20356893.523 8  83358093.368 8      -590.920          50.000  
G01  24802582.492 5 130338458.140 5     -3801.176          32.000    24802589.773 5 101562484.968 5     -2961.956          33.000  
G19  22876353.359 6 120216040.995 6     -2160.066          39.000    22876350.391 6  93674832.572 6     -1683.169          36.000  
R18  20068655.648 8 107127461.817 8     -1736.598          51.000    20068657.469 7  83321366.805 7     -1350.687          43.000  
R17  22387705.273 6 119800697.335 6     -4455.320          38.000    22387708.047 4  93178366.450 4     -3465.250          29.000  
R13  23304524.586 5 124444465.459 5      3991.059          35.000    23304524.180 5  96790134.410 5      3104.157          33.000  
E05  23455434.008 8 123259133.642 8       315.895          51.000    23455436.711 8  94445351.167 8       242.064          51.000  
E03  26320688.922 6 138316227.430 6      2223.770          39.000    26320696.234 8 105982524.461 8      1703.785          48.000  
E36  25441771.844 8 133697410.269 8     -2887.824          51.000    25441775.391 8 102443472.058 8     -2212.801          51.000  
E09  23044151.750 5 121097834.156 5     -1895.789          33.000    23044177.883 5  92789308.755 5     -1452.577          35.000  
C19  22140000.727 5 115288788.219 5      1197.551          30.000                                                                  
C29  24455380.422 7 127345499.427 7     -3054.961          45.000                                                                  
C20  22562825.383 8 117490637.038 8     -1308.449          50.000                                                                  
> 2020 05 11 22 53 30.0000000  0 16      -0.000000000000
G09  20763316.805 8 109112063.305 8      1572.762          51.000    20763318.867 8  85022373.785 8      1225.529          51.000  
G17  23469636.328 7 123333759.602 7     -2619.629          45.000    23469638.156 7  96104223.191 7     -2041.270          45.000  
G03  21743515.328 7 114262951.166 7     -2123.102          44.000    21743515.539 7  89036063.118 7     -1654.368          43.000  
G04  20361259.734 8 106999143.359 8      -772.949          49.000    20361260.445 8  83375974.815 8      -602.298          50.000  
G19  22888725.773 6 120281054.788 6     -2175.289          38.000    22888723.227 5  93725492.706 5     -1695.034          33.000  
R18  20078483.453 8 107179921.734 8     -1762.363          51.000    20078484.797 7  83362168.934 7     -1370.727          45.000  
R17  22412696.617 6 119934430.972 6     -4462.000          37.000    22412697.836 4  93282381.408 4     -3470.448          29.000  
R04  22489960.820 5 120432332.36525      2838.117          33.000    22489957.148 4  93669575.71424      2207.425          27.000  
R13  23282108.344 5 124324762.886 5      3987.074          34.000    23282108.180 5  96697032.389 5      3101.058          35.000  
E05  23453647.156 8 123249742.973 8       308.398          51.000    23453649.516 8  94438155.715 8       236.293          51.000  
E03  26308003.312 6 138249560.685 6      2219.059          41.000    26308010.016 7 105931442.163 7      1700.384          47.000  
E36  25458271.562 8 133784116.925 8     -2894.270          51.000    25458274.734 8 102509909.608 8     -2217.652          51.000  
E09                                                                  23055002.727 5  92832902.398 5     -1455.070          35.000  
C19  22133120.172 5 115252917.720 5      1191.965          35.000                                                                  
C29  24472993.078 7 127437206.791 7     -3060.332          43.000                                                                  
C20  22570376.602 8 117529958.912 8     -1314.633          49.000                                                                  
> 2020 05 11 22 54  0.0000000  0 18      -0.000000000000
G09  20754378.750 8 109065093.267 8      1558.406          51.000    20754380.711 8  84985773.785 8      1214.343          51.000  
G17  23484615.289 7 123412473.606 7     -2628.406          44.000    23484615.625 7  96165558.778 7     -2048.113          45.000  
G03  21755658.945 7 114326765.938 7     -2131.332          42.000    21755656.461 5  89085788.907 5     -1660.782          35.000  
G04  20365715.492 8 107022558.645 8      -788.172          49.000    20365716.469 8  83394220.490 8      -614.160          50.000  
G01  24846001.289 5 130566618.385 5     -3806.156          32.000    24846009.352 5 101740285.530 5     -2965.837          34.000  
G19  22901190.055 6 120346552.800 6     -2191.172          38.000    22901188.500 5  93776530.135 5     -1707.413          30.000  
R12  21895592.609 5 116961950.611 5      1462.477          32.000                                                                  
R18  20088461.156 8 107233180.644 8     -1788.480          51.000    20088462.570 7  83403592.537 7     -1391.041          46.000  
R17  22437730.484 5 120068394.735 5     -4469.273          33.000    22437731.977 4  93386575.366 4     -3476.102          28.000  
R02  20922069.016 5 111643771.203 5     -2436.910          35.000    20922064.367 4  86834044.80524     -1895.378          27.000  
R13  23259724.398 5 124205234.826 5      3982.086          35.000    23259725.531 5  96604066.096 5      3097.176          35.000  
E05  23451909.391 8 123240610.401 8       300.227          51.000    23451911.484 8  94431158.032 8       230.035          51.000  
E03  26295348.914 7 138183055.076 7      2214.285          43.000    26295353.844 7 105880483.379 7      1696.523          46.000  
E36  25474813.375 8 133871046.361 8     -2901.332          51.000    25474816.133 8 102576517.873 8     -2223.076          49.000  
E09  23065830.914 5 121211758.244 5     -1903.156          31.000    23065854.828 5  92876597.293 5     -1457.910          32.000  
C19  22126278.953 6 115217275.685 6      1184.426          36.000                                                                  
C29  24490642.562 6 127529109.089 6     -3066.547          41.000                                                                  
C20  22577968.555 8 117569493.374 8     -1321.270          50.000                                                                  
> 2020 05 11 22 54 30.0000000  0 17      -0.000000000000
G09  20745522.562 8 109018552.718 8      1545.016          51.000    20745524.703 8  84949508.414 8      1203.909          51.000  
G17  23499644.180 7 123491451.603 7     -2636.094          43.000    23499643.398 7  96227100.029 7     -2054.103          42.000  
G03  21767848.789 6 114390825.254 6     -2138.551          40.000    21767844.562 5  89135705.097 5     -1666.404          31.000  
G04  20370256.688 8 107046423.098 8      -802.105          50.000    20370257.734 8  83412816.178 8      -625.017          50.000  
G01  24867734.789 5 130680827.98025     -3807.301          30.000    24867743.242 5 101829280.87625     -2966.729          30.000  
G19  22913742.805 6 120412515.504 6     -2205.789          39.000    22913741.586 5  93827929.664 5     -1718.794          32.000  
R18  20098584.703 8 107287219.092 8     -1813.426          51.000    20098586.367 7  83445622.463 7     -1410.440          46.000  
R17  22462803.359 4 120202567.432 4     -4475.016          28.000    22462805.758 5  93490931.811 5     -3480.572          30.000  
R02  20935784.148 5 111716977.681 5     -2441.398          33.000    20935787.359 5  86890991.404 5     -1898.869          31.000  
R04  22458221.328 5 120262369.25425      2826.531          30.000                                                                  
R13  23237370.273 5 124085867.891 5      3977.078          34.000    23237372.414 5  96511225.063 5      3093.281          33.000  
E05  23450217.477 8 123231718.630 8       293.238          51.000    23450219.484 8  94424344.861 8       224.725          51.000  
E03  26282721.828 7 138116693.957 7      2210.684          44.000    26282724.750 7 105829635.294 7      1693.797          45.000  
E36  25491394.070 8 133958180.155 8     -2906.902          51.000    25491396.227 8 102643282.695 8     -2227.368          48.000  
C19  22119475.836 6 115181845.578 6      1178.500          37.000                                                                  
C29  24508325.188 6 127621187.036 6     -3071.273          41.000                                                                  
C20  22585598.242 8 117609223.319 8     -1326.750          50.000                                                                  
> 2020 05 11 22 55  0.0000000  0 15      -0.000000000000
G09  20736740.648 8 108972403.255 8      1530.918          51.000    20736743.312 8  84913547.790 8      1192.923          51.000  
G17  23514715.305 7 123570651.813 7     -2644.398          42.000    23514714.336 7  96288814.412 7     -2060.571          43.000  
G03  21780077.633 6 114455089.888 6     -2146.355          37.000    21780075.719 5  89185781.315 5     -1672.482          31.000  
G04  20374875.844 8 107070696.694 8      -816.785          50.000    20374876.844 8  83431730.660 8      -636.456          50.000  
G01  24889476.977 5 130795083.852 5     -3809.418          33.000    24889485.945 5 101918286.914 5     -2968.366          32.000  
G19  22926376.492 6 120478901.349 6     -2220.688          40.000    22926372.180 5  93879658.802 5     -1730.400          31.000  
R18  20108845.430 8 107341995.310 8     -1839.055          50.000    20108847.609 7  83488226.199 7     -1430.376          46.000  
R02  20949525.969 5 111790293.493 5     -2447.344          31.000    20949526.508 5  86948014.731 5     -1903.490          30.000  
R13  23215039.281 5 123966627.192 5      3971.914          33.000    23215042.492 5  96418482.220 5      3089.264          33.000  
E05  23448563.992 8 123223028.477 8       285.340          51.000    23448565.914 8  94417686.178 8       218.646          51.000  
E03  26270114.766 7 138050438.852 7      2205.727          45.000    26270116.367 7 105778868.419 7      1690.157          45.000  
E36  25508006.266 8 134045478.044 8     -2913.617          51.000    25508007.539 7 102710173.230 7     -2232.540          46.000  
C19  22112705.734 6 115146589.269 6      1170.949          36.000                                                                  
C29  24526032.844 6 127713399.855 6     -3076.996          40.000                                                                  
C20  22593258.141 8 117649109.983 8     -1333.094          50.000                                                                  
> 2020 05 11 22 55 30.0000000  0 17      -0.000000000000
G09  20728038.820 8 108926674.342 8      1516.996          51.000    20728041.539 8  84877914.881 8      1182.075          51.000  
G17  23529833.539 6 123650099.815 6     -2652.055          41.000    23529833.438 6  96350721.924 6     -2066.537          41.000  
G03  21792350.945 5 114519588.415 5     -2153.898          34.000    21792350.430 5  89236039.900 5     -1678.345          32.000  
G04  20379578.062 8 107095407.077 8      -831.133          49.000    20379579.148 8  83450985.494 8      -647.636          49.000  
G01  24911227.969 5 130909390.000 5     -3811.172          33.000    24911240.938 4 102007356.592 4     -2969.745          25.000  
G19  22939095.266 6 120545736.211 6     -2235.633          40.000    22939087.281 5  93931737.929 5     -1742.058          33.000  
R12  21871562.852 5 116833505.042 5      1391.633          31.000                                                                  
R18  20119249.883 8 107397536.148 8     -1864.355          51.000    20119252.359 7  83531424.587 7     -1450.055          47.000  
R02  20963300.734 5 111863774.806 5     -2452.465          35.000    20963292.797 4  87005149.938 4     -1907.470          29.000  
R03  19709699.195 5 105507143.16325       426.051          31.000                                                                  
R13  23192737.945 5 123847546.934 5      3966.148          33.000    23192742.062 5  96325864.210 5      3084.783          32.000  
E05  23446954.188 8 123214568.516 8       278.016          51.000    23446956.016 8  94411203.878 8       213.076          51.000  
E03  26257533.469 7 137984318.982 7      2201.512          45.000    26257534.211 7 105728205.156 7      1686.990          45.000  
E36  25524655.023 8 134132967.433 8     -2919.645          50.000    25524655.367 7 102777210.480 7     -2237.084          46.000  
C19  22105972.422 6 115111535.478 6      1164.867          37.000                                                                  
C29  24543770.719 6 127805773.911 6     -3082.211          40.000                                                                  
C20  22600953.594 8 117689181.861 8     -1338.930          49.000                                                                  
> 2020 05 11 22 56  0.0000000  0 14      -0.000000000000
G09  20719429.375 8 108881430.196 8      1502.637          51.000    20719431.328 8  84842659.701 8      1170.886          51.000  
G17  23545010.945 7 123729856.869 7     -2661.312          43.000    23545012.008 7  96412870.294 7     -2073.751          43.000  
G04  20384375.234 8 107120616.724 8      -846.098          49.000    20384376.375 8  83470629.375 8      -659.297          49.000  
G01  24933003.680 5 131023819.434 5     -3813.453          32.000                                                                  
G19  22951910.133 6 120613081.092 6     -2250.832          38.000    22951901.727 4  93984214.424 4     -1753.893          29.000  
R18  20129809.859 8 107453904.339 8     -1890.188          51.000    20129812.398 7  83575266.505 7     -1470.146          47.000  
R04  22410890.898 5 120008900.539 5      2808.164          31.000                                                                  
R13  23170480.117 5 123728696.469 5      3960.047          32.000    23170484.094 5  96233424.934 5      3080.040          34.000  
E05  23445400.164 8 123206402.145 8       269.887          51.000    23445401.906 8  94404946.533 8       206.796          51.000  
E03  26244989.844 7 137918398.362 7      2196.629          45.000    26244990.484 7 105677694.598 7      1683.195          45.000  
E36  25541351.734 8 134220710.563 8     -2926.348          48.000    25541351.945 7 102844442.171 7     -2242.265          46.000  
C19  22099291.180 6 115076747.815 6      1157.457          38.000                                                                  
C29  24561551.477 6 127898369.937 6     -3087.629          39.000                                                                  
C20  22608696.523 8 117729501.783 8     -1345.629          50.000                                                                  
> 2020 05 11 22 56 30.0000000  0 15      -0.000000000000
G09  20710891.250 8 108836561.548 8      1489.883          51.000    20710892.305 8  84807697.145 8      1160.948          51.000  
G17  23560225.969 7 123809810.366 7     -2667.793          46.000    23560227.953 7  96475171.694 7     -2078.800          46.000  
G04  20389246.375 8 107146214.723 8      -859.129          49.000    20389247.555 8  83490575.854 8      -669.451          49.000  
G01  24954783.852 5 131138257.469 5     -3814.547          32.000                                                                  
G19  22964799.820 5 120680823.223 5     -2264.527          32.000    22964793.172 5  94037000.534 5     -1764.570          30.000  
R18  20140503.086 8 107510985.779 8     -1913.902          51.000    20140506.227 7  83619663.197 7     -1488.591          47.000  
R02  20990940.312 5 112011296.710 5     -2461.629          31.000    20990947.695 5  87119920.450 5     -1914.610          32.000  
R03  19705067.836 5 105482381.004 5       404.020          33.000                                                                  
R13  23148246.609 5 123609969.458 5      3956.016          35.000    23148250.484 6  96141081.740 6      3076.902          36.000  
E05  23443880.984 8 123198419.333 8       263.602          51.000    23443882.836 8  94398829.837 8       201.906          51.000  
E03  26232463.047 7 137852567.638 7      2193.320          44.000    26232463.703 7 105627252.945 7      1680.624          44.000  
E36  25558075.070 7 134308596.261 7     -2931.285          45.000    25558076.883 8 102911783.143 8     -2246.126          48.000  
C19  22092640.328 6 115042117.859 6      1152.207          38.000                                                                  
C29  24579353.047 6 127991076.961 6     -3091.176          39.000                                                                  
C20  22616466.195 8 117769960.788 8     -1350.320          49.000                                                                  
> 2020 05 11 22 57  0.0000000  0 15      -0.000000000000
G09  20702422.461 8 108792058.141 8      1476.410          51.000    20702423.430 8  84773019.187 8      1150.450          51.000  
G17  23575475.820 8 123889946.857 8     -2675.129          48.000    23575478.227 8  96537615.691 8     -2084.517          48.000  
G03  21829447.758 6 114714537.871 6     -2175.902          37.000    21829447.172 5  89387951.774 5     -1695.509          34.000  
G04  20394189.227 8 107172189.050 8      -873.000          49.000    20394190.336 8  83510815.585 8      -680.260          49.000  
G19  22977762.578 5 120748949.054 5     -2278.316          35.000    22977758.195 5  94090085.565 5     -1775.309          33.000  
R18  20151327.992 8 107568767.109 8     -1938.547          51.000    20151330.539 7  83664604.215 7     -1507.759          47.000  
R02  21004810.875 6 112085265.515 6     -2467.391          38.000    21004799.664 5  87177424.826 5     -1919.076          30.000  
R11  23319001.680 5 124609210.081 5     -1919.375          33.000                                                                  
R13  23126035.320 6 123491358.928 6      3950.703          37.000    23126039.023 6  96048829.087 6      3072.770          38.000  
E05  23442394.656 8 123190608.970 8       256.527          51.000    23442396.766 8  94392845.277 8       196.572          51.000  
E03  26219950.836 7 137786816.331 7      2189.395          45.000    26219951.609 7 105576872.168 7      1677.595          44.000  
E36  25574822.914 7 134396612.326 7     -2937.031          46.000    25574827.336 8 102979224.021 8     -2250.400          49.000  
C19  22086017.289 6 115007635.192 6      1146.012          36.000                                                                  
C29  24597174.250 6 128083881.982 6     -3096.035          39.000                                                                  
C20  22624260.547 8 117810548.060 8     -1355.895          49.000                                                                  
> 2020 05 11 22 57 30.0000000  0 18      -0.000000000000
G09  20694049.922 8 108748061.165 8      1459.168          51.000    20694051.164 8  84738735.847 8      1137.014          51.000  
G17  23590786.695 8 123970404.016 8     -2686.121          49.000    23590788.805 8  96600309.573 8     -2093.082          49.000  
G03  21841905.938 5 114780014.777 5     -2187.012          34.000    21841903.797 5  89438972.615 5     -1704.169          34.000  
G04  20399230.250 8 107198679.106 8      -890.477          49.000    20399231.078 8  83531457.199 8      -693.878          49.000  
G19  22990825.367 6 120817596.637 6     -2295.867          36.000    22990821.375 5  94143577.192 5     -1788.982          32.000  
R12  21841397.883 5 116672418.04725      1293.035          32.000                                                                  
R18  20162310.414 8 107627388.702 8     -1966.863          51.000    20162311.977 7  83710198.739 7     -1529.786          47.000  
R17  22613972.453 5 121011499.916 5     -4513.074          30.000    22613965.461 5  94120032.560 5     -3510.169          30.000  
R02  21018709.102 6 112159445.265 6     -2475.973          37.000    21018697.086 4  87235097.078 4     -1925.760          28.000  
R03  19700671.195 5 105458832.98325       378.477          32.000                                                                  
R11  23329858.320 5 124667234.665 5     -1945.848          31.000                                                                  
R13  23103873.109 6 123373012.870 6      3941.562          37.000    23103877.453 6  95956782.131 6      3065.660          38.000  
E05  23440967.945 8 123183111.422 8       245.867          51.000    23440970.148 8  94387100.407 8       188.374          51.000  
E03  26207480.188 7 137721285.564 7      2181.785          44.000    26207481.227 7 105526660.319 7      1671.794          44.000  
E36  25591622.789 7 134484898.008 7     -2946.281          47.000    25591629.250 8 103046871.491 8     -2257.521          50.000  
C19  22079449.141 5 114973439.575 5      1136.477          35.000                                                                  
C29  24615040.438 6 128176922.133 6     -3104.258          38.000                                                                  
C20  22632106.312 8 117851402.809 8     -1365.180          50.000                                                                  
> 2020 05 11 22 58  0.0000000  0 18      -0.000000000000
G09  20685758.312 8 108704490.847 8      1441.461          51.000    20685759.594 8  84704784.962 8      1123.217          51.000  
G17  23606142.719 8 124051099.078 8     -2697.648          48.000    23606143.984 8  96663188.817 8     -2102.067          48.000  
G03  21854410.023 6 114845728.141 6     -2197.934          37.000    21854407.047 6  89490177.718 6     -1712.685          36.000  
G04  20404353.797 8 107225603.419 8      -908.512          50.000    20404354.469 8  83552437.189 8      -707.928          50.000  
G19  23003971.953 6 120886682.658 6     -2313.914          37.000    23003967.453 5  94197400.363 5     -1803.057          34.000  
R12  21834205.664 4 116633989.598 4      1264.715          27.000                                                                  
R18  20173433.492 8 107686767.029 8     -1995.785          51.000    20173436.078 8  83756381.838 8     -1552.278          49.000  
R17  22639284.273 5 121146971.021 5     -4522.121          34.000    22639283.219 4  94225398.902 4     -3517.209          29.000  
R02  21032636.914 6 112233789.415 6     -2484.762          38.000    21032630.805 5  87292921.313 5     -1932.593          30.000  
R03  19698592.797 5 105447646.649 5       363.207          35.000    19698589.531 4  82014872.612 4       282.491          27.000  
R04  22348260.023 5 119673513.366 5      2778.715          30.000                                                                  
R13  23081746.133 6 123254854.840 6      3932.105          37.000    23081750.773 6  95864881.415 6      3058.302          38.000  
E05  23439585.391 8 123175846.125 8       234.562          51.000    23439587.469 8  94381533.503 8       179.736          51.000  
E03  26195035.844 7 137655895.395 7      2173.566          43.000    26195037.758 7 105476556.201 7      1665.455          45.000  
E36  25608459.227 8 134573371.595 8     -2955.941          48.000    25608466.484 8 103114662.954 8     -2265.012          50.000  
C19  22072920.555 5 114939451.677 5      1125.504          33.000                                                                  
C29  24632936.852 5 128270115.527 5     -3112.543          34.000                                                                  
C20  22639988.234 8 117892445.236 8     -1374.965          50.000                                                                  
> 2020 05 11 22 58 30.0000000  0 16      -0.000000000000
G09  20677546.953 8 108661342.100 8      1432.773          51.000    20677548.266 8  84671162.558 8      1116.447          51.000  
G17  23621542.398 8 124132023.350 8     -2699.641          48.000    23621542.305 8  96726246.641 8     -2103.620          48.000  
G03  21866958.602 6 114911671.910 6     -2200.555          37.000    21866960.820 6  89541562.504 6     -1714.722          36.000  
G04  20409558.750 8 107252955.180 8      -917.273          50.000    20409559.484 8  83573750.258 8      -714.759          50.000  
G19  23017200.094 6 120956198.982 6     -2322.793          38.000    23017197.961 4  94251568.997 4     -1809.969          28.000  
R12  21827145.875 5 116596296.208 5      1245.727          35.000    21827164.852 4  90686095.84324       968.905          25.000  
R18  20184696.102 8 107746893.464 8     -2015.086          51.000    20184700.688 8  83803146.880 8     -1567.289          49.000  
R17  22664629.844 5 121282606.851 5     -4522.191          30.000    22664628.398 4  94330925.83524     -3517.264          24.000  
R02  21046594.836 6 112308291.852 6     -2484.371          37.000    21046594.438 5  87350867.601 5     -1932.295          32.000  
R13  23059654.367 6 123136883.888 6      3930.473          38.000    23059658.617 6  95773126.214 6      3057.035          37.000  
E05  23438245.875 8 123168807.249 8       232.363          51.000    23438247.789 8  94376140.088 8       177.985          51.000  
E03  26182617.484 7 137590640.569 7      2174.297          43.000    26182620.461 7 105426555.791 7      1666.003          45.000  
E36  25625330.516 8 134662026.094 8     -2956.613          49.000    25625337.461 8 103182593.021 8     -2265.434          50.000  
C19  22066431.727 5 114905666.534 5      1123.914          34.000                                                                  
C29  24650859.344 5 128363454.523 5     -3111.480          32.000                                                                  
C20  22647905.188 8 117933669.712 8     -1375.660          50.000                                                                  
> 2020 05 11 22 59  0.0000000  0 18      -0.000000000000
G09  20669416.250 8 108618614.895 8      1416.922          51.000    20669417.523 8  84637868.650 8      1104.095          51.000  
G17  23636985.133 8 124213173.571 8     -2709.121          48.000    23636983.578 8  96789480.533 8     -2111.004          48.000  
G03  21879550.898 6 114977845.683 6     -2209.988          38.000    21879557.281 6  89593126.404 6     -1722.066          38.000  
G04  20414844.711 8 107280732.613 8      -933.234          50.000    20414845.484 8  83595395.027 8      -727.196          50.000  
G19  23030509.633 6 121026142.475 6     -2338.910          41.000    23030509.906 4  94306070.388 4     -1822.528          29.000  
R12  21820211.734 4 116559265.70924      1220.902          28.000                                                                  
R18  20196099.188 8 107807765.090 8     -2041.719          51.000    20196104.414 8  83850491.481 8     -1588.004          48.000  
R17  22690006.359 4 121418403.092 4     -4529.383          29.000                                                                  
R02  21060582.633 5 112382950.512 5     -2491.492          33.000    21060586.398 5  87408935.469 5     -1937.825          30.000  
R03  19694602.336 5 105426341.029 5       343.848          32.000                                                                  
R04  22317145.977 4 119506917.13624      2769.758          29.000                                                                  
R13  23037598.328 6 123019103.922 6      3922.348          38.000    23037601.570 6  95681519.586 6      3050.715          38.000  
E05  23436949.320 8 123161994.003 8       223.102          51.000    23436951.219 8  94370919.551 8       170.927          51.000  
E03  26170225.086 7 137525521.000 7      2168.133          42.000    26170228.375 7 105376658.971 7      1661.360          45.000  
E36  25642236.078 8 134750859.597 8     -2964.348          49.000    25642241.609 8 103250660.237 8     -2271.420          49.000  
C19  22059981.883 5 114872083.724 5      1115.699          33.000                                                                  
C29  24668810.711 6 128456936.196 6     -3118.434          36.000                                                                  
C20  22655856.789 8 117975075.549 8     -1383.488          49.000                                                                  
> 2020 05 11 22 59 30.0000000  0 14      -0.000000000000
G09  20661363.656 8 108576296.607 8      1403.277          51.000    20661364.578 8  84604893.373 8      1093.463          51.000  
G17  23652467.633 7 124294534.029 7     -2716.273          46.000    23652465.328 7  96852878.265 7     -2116.580          46.000  
G03  21892184.289 4 115044204.45924     -2217.285          27.000    21892189.047 4  89644859.66424     -1727.758          24.000  
G04  20420208.922 8 107308921.434 8      -947.098          50.000    20420209.586 8  83617360.332 8      -737.998          50.000  
G19  23043897.648 7 121096496.821 7     -2352.555          42.000    23043899.602 6  94360891.994 6     -1833.163          36.000  
R18  20207639.328 8 107869366.182 8     -2066.078          51.000    20207644.125 8  83898403.424 8     -1606.950          48.000  
R02  21074598.805 5 112457711.72425     -2496.188          30.000    21074600.703 5  87467117.03525     -1941.479          30.000  
R13  23015576.273 6 122901506.756 6      3916.434          39.000    23015578.812 6  95590055.117 6      3046.113          38.000  
E05  23435693.102 8 123155392.981 8       216.066          51.000    23435695.180 8  94365861.630 8       165.560          51.000  
E03  26157856.312 7 137460523.904 7      2164.035          42.000    26157859.055 7 105326856.009 7      1658.194          44.000  
E36  25659172.883 8 134839857.553 8     -2969.750          49.000    25659176.336 8 103318853.447 8     -2275.602          48.000  
C19  22053569.766 5 114838690.897 5      1108.996          34.000                                                                  
C29  24686788.188 7 128550545.263 7     -3123.082          42.000                                                                  
C20  22663840.531 8 118016649.610 8     -1389.066          49.000                                                                  
