     3.02           OBSERVATION DATA    M (MIXED)           RINEX VERSION / TYPE
SAVERINEX           SC600               20200512 215931 LCL PGM / RUN BY / DATE
       G = GPS       R = GLONASS       C = COMPASS          COMMENT
       S = SBAS      J = QZSS          E = GALILEO          COMMENT
BEAN                                                        MARKER NAME
1                                                           MARKER NUMBER
GEODETIC                                                    MARKER TYPE
Unige DICCA         GTER                                    OBSERVER / AGENCY
SC60291900056       SC600               2.12(191226)        REC # / TYPE / VERS
                    HEMA45          NONE                    ANT # / TYPE
  4509407.8091   693652.4678  4442337.6214                  APPROX POSITION XYZ
        0.0000        0.0000        0.0000                  ANTENNA: DELTA H/E/N
G    8 C1C L1C D1C S1C C2Y L2Y D2Y S2Y                      SYS / # / OBS TYPES
R    8 C1C L1C D1C S1C C2P L2P D2P S2P                      SYS / # / OBS TYPES
C    8 C1I L1I D1I S1I C7I L7I D7I S7I                      SYS / # / OBS TYPES
E    8 C1C L1C D1C S1C C7Q L7Q D7Q S7Q                      SYS / # / OBS TYPES
DBHZ                                                        COMMENT
     30.000                                                 INTERVAL
  2020    05    12    19    00    0.0000000     GPS         TIME OF FIRST OBS
  2020    05    12    19    59   30.0000000     GPS         TIME OF LAST OBS
     0                                                      RCV CLOCK OFFS APPL
G L1C  0.00000                                              SYS / PHASE SHIFT
G L2Y  0.00000                                              SYS / PHASE SHIFT
R L1C  0.00000                                              SYS / PHASE SHIFT
R L2P  0.25000                                              SYS / PHASE SHIFT
C L1I  0.00000                                              SYS / PHASE SHIFT
C L7I  0.00000                                              SYS / PHASE SHIFT
E L1C  0.50000                                              SYS / PHASE SHIFT
E L7Q -0.25000                                              SYS / PHASE SHIFT
 12 R01  1 R02 -4 R03  5 R08  6 R10 -5 R12 -1 R13 -2 R14 -7 GLONASS SLOT / FRQ #
    R15  0 R17  4 R22 -3 R23  3                             GLONASS SLOT / FRQ #
 C1C   71.950 C2C   71.950 C2P   71.950                     GLONASS COD/PHS/BIS
    18                                                      LEAP SECONDS
*** Above antenna height is from mark to ANTENNA BOTTOM.    COMMENT
    17     4        0.0000        ANT MEASURE TYPE/HEIGT    COMMENT
    0.0000    0.0000    0.0458    0.0405    0.0000          COMMENT
                    BASE STATION                            COMMENT
                                                            END OF HEADER
> 2020 05 12 19 00  0.0000000  0 17        .000000000000
G03  22190193.711 7 116610233.639 7      2747.426          47.000    22190194.562 7  90865135.774 7      2140.851          47.000
G08  21539900.625 8 113192944.114 8     -2584.258          51.000    21539902.680 8  88202277.973 8     -2013.707          51.000
G11  19875863.406 8 104448375.972 8      -366.137          49.000    19875862.258 8  81388322.078 8      -285.301          49.000
G14  21982223.094 5 115517382.350 5       697.547          32.000    21982224.047 5  90013529.677 5       543.573          30.000
G22  20932968.148 8 110003498.073 8      1204.539          51.000    20932964.898 8  85717004.221 8       938.602          51.000
G27  24006922.273 6 126157153.736 6     -3702.875          37.000    24006920.320 6  98304304.061 6     -2885.360          37.000
G32  22114580.930 5 116212941.480 5      -851.637          34.000    22114607.445 5  90555592.416 5      -663.598          35.000
R02  19239876.555 8 102667701.655 8      1194.027          51.000    19239877.523 7  79852660.253 7       928.688          46.000
R17  19215124.312 8 102824014.328 8       901.078          50.000    19215125.219 7  79974229.408 7       700.842          45.000
R24  20884867.984 8 111680743.393 8     -2660.977          51.000    20884869.742 7  86862841.659 7     -2069.648          45.000
C05                                                                  39665927.508 6 159718255.873 6       -23.418          37.000
C14  25220827.289 5 131331467.892 5     -3022.324          30.000    25220830.703 6 101553805.421 6     -2336.557          37.000
C27  21578960.852 8 112367332.117 8       616.117          51.000
C28  22891276.391 8 119200862.348 8     -2314.656          51.000
E19  26415542.688 7 138814589.176 7      2890.668          43.000    26415547.273 6 106364430.826 6      2214.796          40.000
E26  24397151.508 7 128207879.198 7     -1957.785          42.000    24397157.148 6  98237226.005 6     -1500.232          38.000
E33  23439656.836 8 123176221.154 8       185.996          51.000    23439657.789 8  94381769.785 8       142.561          51.000
> 2020 05 12 19 00 30.0000000  0 17        .000000000000
G03  22174541.312 7 116527982.239 7      2736.840          47.000    22174543.508 7  90801043.790 7      2132.602          46.000
G08  21554695.727 8 113270691.391 8     -2598.035          51.000    21554698.047 8  88262860.251 8     -2024.443          51.000
G11  19878008.281 8 104459646.945 8      -384.320          50.000    19878007.062 8  81397104.644 8      -299.470          49.000
G14  21978290.875 6 115496717.280 6       680.141          38.000    21978290.891 5  89997427.135 5       529.974          33.000
G22  20926132.484 8 109967575.554 8      1191.078          51.000    20926129.227 8  85689012.674 8       928.113          51.000
G27  24028076.031 5 126268317.235 5     -3707.906          34.000    24028074.797 5  98390924.867 5     -2889.281          34.000
G32  22119496.711 6 116238773.646 6      -870.391          38.000    22119520.688 6  90575721.661 6      -678.220          37.000
R02  19233234.992 8 102632264.105 8      1169.250          51.000    19233236.828 8  79825097.713 8       909.420          49.000
R17  19210126.172 8 102797268.506 8       882.742          50.000    19210127.023 7  79953427.109 7       686.577          45.000
R24  20899839.859 8 111760805.134 8     -2675.637          50.000    20899841.500 7  86925111.904 7     -2081.051          44.000
C05                                                                  39666105.391 6 159718972.228 6       -23.687          37.000
C14  25238251.609 5 131422193.807 5     -3025.684          32.000    25238253.773 6 101623960.504 6     -2339.675          36.000
C27  21575452.547 8 112349065.081 8       602.406          51.000
C28  22904645.383 8 119270473.912 8     -2325.312          51.000
E19  26399061.148 7 138727974.236 7      2884.473          45.000    26399065.133 6 106298063.574 6      2210.031          41.000
E26  24408349.070 6 128266717.786 6     -1964.059          39.000    24408352.523 5  98282310.036 5     -1504.850          34.000
E33  23438620.305 8 123170774.182 8       177.844          51.000    23438621.641 8  94377596.129 8       136.288          51.000
> 2020 05 12 19 01  0.0000000  0 18        .000000000000
G03  22158944.648 8 116446021.671 8      2727.113          48.000    22158947.172 8  90737178.460 8      2125.026          48.000
G08  21569564.422 8 113348828.226 8     -2611.113          50.000    21569567.219 8  88323746.087 8     -2034.634          50.000
G11  19880252.141 8 104471437.823 8      -401.773          50.000    19880250.625 8  81406292.338 8      -313.070          50.000
G14  21974459.789 6 115476580.130 6       662.348          36.000    21974457.930 5  89981735.811 5       516.112          34.000
G22  20919368.766 8 109932031.910 8      1178.387          51.000    20919365.453 8  85661316.338 8       918.223          51.000
G27  24049252.070 5 126379599.901 5     -3711.461          35.000    24049250.836 5  98477638.542 5     -2892.047          34.000
G32  22124518.109 6 116265161.881 6      -888.934          36.000    22124541.867 6  90596284.090 6      -692.669          36.000
R02  19226728.438 8 102597545.902 8      1145.309          51.000    19226731.555 8  79798094.690 8       890.796          50.000
R03  22387811.414 5 119843710.877 5      4097.008          33.000    22387805.172 4  93211773.004 4      3186.562          26.000
R17  19205226.898 8 102771052.210 8       865.004          50.000    19205227.992 7  79933036.653 7       672.781          46.000
R24  20914889.148 8 111841284.049 8     -2689.566          49.000    20914891.383 7  86987706.607 7     -2091.888          45.000
C05                                                                  39666281.328 6 159719680.803 6       -23.388          37.000
C14  25255693.781 5 131513015.959 5     -3028.871          34.000    25255695.359 6 101694189.969 6     -2342.402          37.000
C27  21572019.383 8 112331188.125 8       589.336          51.000
C28  22918070.344 8 119340379.429 8     -2335.133          51.000
E19  26382610.570 7 138641522.809 7      2878.965          46.000    26382613.922 7 106231821.595 7      2205.951          43.000
E26  24419576.844 5 128325721.783 5     -1969.801          35.000    24419577.664 5  98327519.838 5     -1509.193          31.000
E33  23437626.125 8 123165550.110 8       170.410          51.000    23437627.711 8  94373593.272 8       130.571          51.000
> 2020 05 12 19 01 30.0000000  0 18        .000000000000
G03  22143406.188 8 116364366.194 8      2716.926          48.000    22143408.336 8  90673550.864 8      2117.088          48.000
G08  21584509.094 8 113427365.611 8     -2624.355          50.000    21584512.289 8  88384944.033 8     -2044.952          50.000
G11  19882597.438 8 104483762.044 8      -419.410          50.000    19882595.539 8  81415895.620 8      -326.813          50.000
G14  21970731.312 5 115456985.096 5       643.844          35.000    21970730.227 5  89966467.001 5       501.709          34.000
G22  20912679.453 8 109896880.139 8      1165.336          51.000    20912676.109 8  85633925.336 8       908.051          51.000
G27  24070453.359 5 126491086.728 5     -3715.258          33.000    24070452.062 5  98564477.760 5     -2895.006          32.000
G32  22129647.969 6 116292084.221 6      -907.867          36.000    22129673.477 5  90617289.862 5      -707.411          35.000
R02  19220359.203 8 102563561.079 8      1120.820          51.000    19220363.180 8  79771662.046 8       871.752          49.000
R03  22364876.422 5 119720938.573 5      4088.348          34.000
R17  19200429.367 8 102745381.093 8       846.844          51.000    19200430.539 7  79913070.237 7       658.656          46.000
R24  20930018.805 8 111922192.467 8     -2703.984          49.000    20930021.797 7  87050635.353 7     -2103.099          45.000
C05                                                                  39666457.984 6 159720391.769 6       -23.696          38.000
C14  25273156.234 5 131603945.732 5     -3032.715          33.000    25273157.391 6 101764502.600 6     -2344.994          37.000
C27  21568664.031 8 112313715.514 8       575.875          51.000
C28  22931553.359 8 119410591.132 8     -2345.316          51.000
E19  26366193.531 7 138555249.698 7      2872.996          46.000    26366196.578 7 106165716.248 7      2201.357          44.000
E26  24430838.094 5 128384904.103 5     -1975.199          35.000    24430836.055 5  98372853.447 5     -1513.829          33.000
E33  23436677.023 8 123160562.922 8       162.488          51.000    23436678.703 8  94369771.922 8       124.525          51.000
> 2020 05 12 19 02  0.0000000  0 17        .000000000000
G03  22127928.109 8 116283028.568 8      2706.926          48.000    22127930.469 7  90610170.930 7      2109.296          47.000
G08  21599532.305 8 113506313.739 8     -2637.289          51.000    21599535.266 8  88446462.047 8     -2055.030          50.000
G11  19885046.539 8 104496631.757 8      -437.043          50.000    19885044.352 8  81425923.964 8      -340.553          50.000
G14  21967107.922 6 115437944.471 6       626.422          36.000    21967106.625 5  89951628.013 5       488.112          31.000
G22  20906067.227 8 109862131.858 8      1152.637          51.000    20906063.742 8  85606848.753 8       898.158          51.000
G32  22134888.359 6 116319619.716 6      -926.492          40.000    22134910.250 6  90638746.249 6      -721.939          40.000
R02  19214129.906 8 102530322.410 8      1096.652          51.000    19214134.602 8  79745809.778 8       852.952          49.000
R03  22341996.508 5 119598461.286 5      4078.730          35.000
R17  19195736.367 8 102720269.235 8       828.891          51.000    19195738.031 7  79893538.783 7       644.693          47.000
R24  20945231.344 8 112003541.458 8     -2717.832          50.000    20945234.352 7  87113906.757 7     -2113.869          45.000
C05                                                                  39666637.352 6 159721114.083 6       -23.340          38.000
C14  25290641.008 5 131694993.009 5     -3035.953          32.000    25290641.789 6 101834906.109 6     -2347.175          36.000
C27  21565388.719 8 112296659.983 8       562.598          51.000
C28  22945096.164 8 119481119.802 8     -2355.117          48.000
E19  26349812.531 7 138469168.073 7      2867.383          46.000    26349815.398 7 106099757.606 7      2196.972          44.000
E26  24442135.969 6 128444276.566 6     -1980.844          36.000    24442134.445 6  98418344.696 6     -1518.002          36.000
E33  23435775.359 8 123155825.051 8       154.883          51.000    23435777.195 8  94366141.600 8       118.655          51.000
> 2020 05 12 19 02 30.0000000  0 17        .000000000000
G03  22112504.383 7 116201976.500 7      2696.430          47.000    22112507.117 8  90547013.458 8      2101.114          48.000
G08  21614627.266 8 113585637.475 8     -2650.789          51.000    21614629.055 8  88508272.716 8     -2065.553          51.000
G11  19887593.117 8 104510013.894 8      -455.012          49.000    19887590.906 8  81436351.596 8      -354.555          49.000
G14  21963583.781 6 115419425.895 6       608.211          36.000    21963582.617 5  89937197.988 5       473.928          32.000
G22  20899525.547 8 109827754.055 8      1139.293          51.000    20899522.023 8  85580060.869 8       887.764          51.000
G32  22140232.273 6 116347700.062 6      -945.301          39.000    22140254.773 5  90660627.360 5      -736.571          33.000
R02  19208034.484 8 102497796.191 8      1071.910          51.000    19208039.117 8  79720511.628 8       833.708          48.000
R03  22319166.547 5 119476247.746 5      4069.238          32.000    22319176.695 4  92925983.903 4      3164.966          27.000
R17  19191142.180 8 102695685.058 8       810.312          51.000    19191144.094 7  79874417.763 7       630.243          47.000
R24  20960520.258 8 112085296.272 8     -2732.328          51.000    20960523.023 7  87177493.811 7     -2125.144          46.000
C05                                                                  39666813.172 6 159721822.213 6       -23.696          38.000
C14  25308141.125 5 131786122.985 5     -3038.953          31.000    25308142.789 5 101905373.558 5     -2349.902          35.000
C27  21562187.430 8 112279989.616 8       548.863          51.000
C28  22958693.117 7 119551931.554 7     -2365.602          45.000
E19  26333461.984 7 138383246.006 7      2860.887          47.000    26333464.453 7 106033921.219 7      2192.165          44.000
E26  24453463.922 6 128503806.000 6     -1987.391          39.000    24453464.484 6  98463958.100 6     -1522.872          39.000
E33  23434915.039 8 123151303.957 8       146.711          51.000    23434916.898 8  94362677.393 8       112.403          51.000
> 2020 05 12 19 03  0.0000000  0 17        .000000000000
G03  22097133.094 7 116121199.299 7      2699.160          47.000    22097136.070 7  90484070.191 7      2103.242          47.000
G08  21629791.141 8 113665323.076 8     -2650.891          50.000    21629791.609 8  88570365.340 8     -2065.629          50.000
G11  19890235.016 8 104523897.200 8      -459.816          49.000    19890232.867 8  81447169.754 8      -358.298          49.000
G14  21960157.086 6 115401418.479 6       602.801          40.000    21960157.594 6  89923166.307 6       469.718          36.000
G22  20893051.930 8 109793734.857 8      1139.301          51.000    20893048.461 8  85553552.421 8       887.767          51.000
G27  24134190.961 5 126826045.378 5     -3715.223          32.000
R02  19202070.352 8 102465971.105 8      1060.738          51.000    19202074.875 8  79695758.802 8       825.022          48.000
R03  22296383.562 5 119354289.164 5      4072.719          31.000    22296390.367 4  92831127.352 4      3167.673          29.000
R17  19186644.594 8 102671618.690 8       805.113          51.000    19186646.656 7  79855699.479 7       626.199          47.000
R24  20975882.430 8 112167443.902 8     -2733.270          50.000    20975885.305 7  87241386.353 7     -2125.879          47.000
C05                                                                  39666983.305 6 159722507.289 6       -13.816          37.000
C14  25325654.500 5 131877322.554 5     -3029.914          32.000    25325656.781 5 101975894.787 5     -2343.024          34.000
C27  21559058.055 8 112263694.025 8       548.129          51.000
C28  22972341.977 7 119623013.971 7     -2362.703          46.000
E19  26317140.289 8 138297473.643 8      2867.914          48.000    26317141.844 7 105968199.573 7      2197.490          43.000
E26  24464819.773 7 128563480.523 7     -1980.145          43.000    24464822.484 6  98509682.661 6     -1517.343          41.000
E33  23434093.977 8 123146988.716 8       151.676          51.000    23434095.547 8  94359370.908 8       116.225          51.000
> 2020 05 12 19 03 30.0000000  0 20        .000000000000
G03  22081787.203 8 116040556.192 8      2676.266          48.000    22081789.719 8  90421231.434 8      2085.405          48.000
G08  21644996.422 8 113745226.608 8     -2676.738          50.000    21644996.438 8  88632627.825 8     -2085.770          51.000
G11  19892945.414 8 104538140.348 8      -490.441          49.000    19892943.367 8  81458268.297 8      -382.162          49.000
G14  21956800.922 6 115383781.269 6       571.918          39.000    21956800.469 5  89909423.021 5       445.653          30.000
G22  20886619.602 8 109759932.349 8      1113.543          51.000    20886616.094 8  85527212.826 8       867.696          51.000
G27  24155446.594 5 126937727.896 5     -3731.773          31.000    24155444.906 5  98912510.691 5     -2907.875          31.000
G32  22151214.102 6 116405408.393 6      -982.605          38.000    22151207.250 6  90705499.298 6      -765.670          38.000
R01  21557183.836 5 115235503.084 5     -3544.043          31.000
R02  19196211.234 8 102434703.904 8      1023.168          51.000    19196215.305 8  79671439.874 8       795.797          48.000
R03  22273620.602 5 119232444.158 5      4049.910          33.000    22273629.445 5  92736359.144 5      3149.936          31.000
R17  19182217.180 8 102647927.934 8       773.543          51.000    19182219.453 7  79837273.341 7       601.645          47.000
R24  20991290.789 8 112249838.967 8     -2760.445          49.000    20991293.602 7  87305471.377 7     -2147.013          46.000
C05                                                                  39667120.648 6 159723060.632 6       -23.600          37.000
C14  25343153.750 5 131968449.197 5     -3045.766          32.000    25343156.711 5 102046359.709 5     -2355.300          33.000
C27  21555973.906 8 112247633.747 8       521.805          51.000
C28  22986015.984 7 119694225.725 7     -2385.410          45.000
E07  25788210.359 5 135517953.253 5     -1854.117          33.000
E19  26300820.461 8 138211710.440 8      2848.902          48.000    26300820.953 7 105902484.963 7      2183.018          43.000
E26  24476176.891 7 128623158.212 7     -1998.777          43.000    24476180.523 7  98555409.704 7     -1531.653          42.000
E33  23433285.164 8 123142738.273 8       130.934          51.000    23433286.422 8  94356114.080 8       100.317          51.000
> 2020 05 12 19 04  0.0000000  0 20        .000000000000
G03  22066551.141 8 115960490.269 8      2665.340          48.000    22066552.797 8  90358842.459 8      2076.888          48.000
G08  21660327.078 8 113825788.935 8     -2690.574          50.000    21660327.820 8  88695403.670 8     -2096.551          50.000
G11  19895808.484 8 104553185.656 8      -509.027          50.000    19895806.281 8  81469991.911 8      -396.645          49.000
G14  21953599.117 6 115366956.909 6       553.312          40.000    21953598.664 5  89896313.189 5       431.153          32.000
G22  20880312.562 8 109726788.556 8      1099.715          51.000    20880308.969 8  85501386.512 8       856.921          51.000
G27  24176774.984 5 127049808.622 5     -3735.871          31.000    24176771.625 5  98999846.031 5     -2911.078          30.000
G32  22156874.133 6 116435229.093 6     -1002.445          37.000    22156874.133 5  90728741.449 5      -781.129          35.000
R01  21577119.648 4 115342077.999 4     -3556.910          29.000
R02  19190540.406 8 102404443.508 8       997.879          50.000    19190544.164 7  79647904.020 7       776.125          47.000
R03  22250963.094 5 119111165.958 5      4039.664          32.000    22250975.203 4  92642031.828 4      3141.967          28.000
R17  19177944.656 8 102625065.263 8       754.227          51.000    19177947.055 8  79819491.256 8       586.621          48.000
R24  21006828.383 7 112332930.294 7     -2775.430          47.000    21006831.711 7  87370097.966 7     -2158.668          46.000
C05                                                                  39667309.414 6 159723821.006 6       -24.285          37.000
C14  25360723.438 5 132059939.610 5     -3050.527          33.000    25360727.258 5 102117105.865 5     -2358.529          32.000
C27  21553019.359 8 112232248.005 8       507.418          51.000
C28  22999801.062 8 119766004.024 8     -2396.277          48.000
E07  25798832.617 5 135573783.025 5     -1865.105          32.000
E19  26284586.609 8 138126400.346 8      2841.996          48.000    26284586.180 7 105837117.549 7      2177.642          43.000
E26  24487618.586 6 128683281.181 6     -2005.375          41.000    24487623.625 7  98601477.898 7     -1536.724          42.000
E33  23432572.898 8 123138995.474 8       122.215          51.000    23432574.039 8  94353246.227 8        93.630          51.000
> 2020 05 12 19 04 30.0000000  0 18        .000000000000
G03  22051376.812 7 115880749.319 7      2653.887          47.000    22051378.273 8  90296706.712 8      2067.964          48.000
G08  21675734.398 8 113906754.580 8     -2704.215          48.000    21675736.219 8  88758493.773 8     -2107.180          48.000
G11  19898776.164 8 104568780.381 8      -527.672          50.000    19898773.805 8  81482143.647 8      -411.173          50.000
G14  21950504.367 5 115350693.349 5       534.398          35.000    21950504.219 4  89883640.308 4       416.427          28.000
G22  20874082.297 8 109694050.347 8      1085.703          51.000    20874079.000 8  85475876.247 8       846.002          51.000
G27  24198127.344 5 127162021.342 5     -3741.180          35.000    24198124.984 5  99087284.338 5     -2915.208          35.000
R02  19185010.039 8 102374933.427 8       972.410          50.000    19185013.422 7  79624951.713 7       756.319          47.000
R03  22228362.398 5 118990199.779 5      4027.770          31.000    22228375.852 4  92547947.177 4      3132.713          25.000
R17  19173779.414 8 102602774.873 8       734.711          51.000    19173781.688 8  79802154.282 8       571.442          48.000
R24  21022447.938 8 112416459.192 8     -2790.332          48.000    21022452.000 7  87435064.894 7     -2170.261          46.000
C05                                                                  39667501.438 6 159724594.490 6       -25.188          38.000
C14  25378314.117 5 132151541.023 5     -3054.094          34.000    25378318.352 5 102187937.951 5     -2361.743          30.000
C27  21550146.359 8 112217286.999 8       492.879          51.000
C28  23013647.195 8 119838097.201 8     -2407.051          50.000
E07  25809515.695 5 135629920.326 5     -1875.992          33.000
E19  26268390.625 8 138041291.359 8      2834.855          48.000    26268390.008 7 105771904.213 7      2172.249          43.000
E26  24499097.266 6 128743596.174 6     -2012.426          40.000    24499101.992 6  98647693.227 6     -1541.974          40.000
E33  23431909.188 8 123135507.911 8       113.367          51.000    23431910.289 8  94350573.935 8        86.824          51.000
> 2020 05 12 19 05  0.0000000  0 17        .000000000000
G03  22036249.570 7 115801256.585 7      2644.281          47.000    22036251.602 7  90234764.331 7      2060.479          47.000
G08  21691203.141 8 113988043.905 8     -2716.367          48.000    21691205.766 8  88821836.066 8     -2116.653          48.000
G11  19901833.562 8 104584846.803 8      -544.887          51.000    19901831.242 8  81494662.935 8      -424.584          50.000
G14  21947501.367 6 115334913.327 6       516.379          36.000    21947501.250 5  89871344.240 5       402.364          31.000
G22  20867914.484 8 109661639.792 8      1073.457          51.000    20867911.422 8  85450621.270 8       836.460          51.000
G27  24219489.375 6 127274285.293 6     -3744.371          38.000    24219489.266 6  99174762.678 6     -2917.695          38.000
R02  19179605.695 8 102346094.723 8       948.730          51.000    19179608.742 7  79602521.617 7       737.901          46.000
R03  22205807.461 5 118869469.060 5      4018.746          34.000    22205819.375 5  92454045.661 5      3125.697          32.000
R17  19169706.766 8 102580979.885 8       716.809          51.000    19169708.750 8  79785202.624 8       557.518          48.000
R24  21038135.227 8 112500345.735 8     -2803.477          50.000    21038138.719 7  87500309.948 7     -2180.485          44.000
C05                                                                  39667682.016 6 159725321.446 6       -24.406          37.000
C14  25395911.375 5 132243174.725 5     -3056.699          33.000    25395912.008 5 102258807.956 5     -2363.329          30.000
C27  21547340.289 8 112202674.701 8       479.910          51.000
C28  23027538.547 8 119910427.208 8     -2416.344          51.000
E19  26252217.867 7 137956307.462 7      2829.398          46.000    26252218.047 7 105706786.709 7      2168.127          42.000
E26  24510596.867 5 128804025.263 5     -2017.418          35.000    24510600.820 6  98693995.957 6     -1545.751          38.000
E33  23431279.414 8 123132198.488 8       106.039          51.000    23431280.469 8  94348038.141 8        81.269          51.000
> 2020 05 12 19 05 30.0000000  0 16        .000000000000
G03  22021178.508 8 115722059.110 8      2635.082          48.000    22021180.695 8  90173052.035 8      2053.311          48.000
G08  21706742.078 8 114069700.880 8     -2728.113          50.000    21706744.984 8  88885464.858 8     -2125.803          50.000
G11  19904989.547 8 104601431.295 8      -561.594          51.000    19904987.453 8  81507585.902 8      -437.609          51.000
G22  20861818.188 8 109629603.531 8      1061.539          51.000    20861814.930 8  85425657.971 8       827.176          51.000
G27  24240869.766 6 127386644.741 6     -3746.891          37.000    24240871.086 6  99262315.431 6     -2919.658          37.000
R02  19174336.188 8 102317975.124 8       925.184          51.000    19174338.391 7  79580650.831 7       719.587          46.000
R03  22183307.594 6 118749023.849 6      4009.953          38.000    22183317.469 6  92360366.134 6      3118.852          36.000
R17  19165735.648 8 102559729.208 8       699.145          51.000    19165737.680 8  79768674.310 8       543.779          49.000
R24  21053898.398 8 112584635.481 8     -2816.500          51.000    21053900.758 7  87565868.595 7     -2190.611          44.000
C05                                                                  39667859.844 6 159726037.291 6       -23.784          37.000
C14  25413523.000 5 132334884.810 5     -3058.648          31.000    25413522.898 5 102329723.983 5     -2364.422          30.000
C27  21544610.289 8 112188457.934 8       467.219          51.000
C28  23041483.727 8 119983038.869 8     -2425.242          50.000
E19  26236077.344 7 137871496.260 7      2824.078          44.000    26236079.023 7 105641801.535 7      2163.850          42.000
E26                                                                  24522130.047 6  98740421.445 6     -1549.738          37.000
E33  23430692.516 8 123129114.136 8        98.918          51.000    23430693.695 8  94345674.793 8        75.812          51.000
> 2020 05 12 19 06  0.0000000  0 16        .000000000000
G03  22006169.172 8 115643183.650 8      2624.176          49.000    22006170.672 8  90111590.700 8      2044.815          49.000
G08  21722355.750 8 114151749.378 8     -2740.996          51.000    21722358.227 8  88949398.742 8     -2135.844          51.000
G11  19908249.203 8 104618560.257 8      -579.648          51.000    19908247.141 8  81520933.125 8      -451.674          50.000
G22  20855797.984 8 109597966.075 8      1048.246          51.000    20855794.320 8  85401005.424 8       816.815          50.000
G27  24262273.148 5 127499123.345 5     -3751.051          35.000    24262274.344 6  99349961.093 6     -2922.897          36.000
R02  19169206.477 8 102290600.055 8       900.477          51.000    19169208.422 7  79559359.132 7       700.374          47.000
R03  22160866.852 6 118628893.307 6      3999.250          40.000    22160875.539 6  92266931.333 6      3110.531          39.000
R17  19161871.469 8 102539051.119 8       680.020          51.000    19161873.406 8  79752591.348 8       528.904          49.000
R24  21069742.156 8 112669353.519 8     -2830.668          51.000    21069743.711 7  87631760.353 7     -2201.631          46.000
C05                                                                  39668039.758 6 159726761.727 6       -24.119          37.000
C14  25431154.172 4 132426693.009 4     -3061.652          29.000    25431152.172 5 102400717.603 5     -2367.953          31.000
C27  21541961.352 8 112174663.303 8       453.152          51.000
C28  23055486.672 8 120055956.872 8     -2435.340          48.000
E19  26219974.742 7 137786885.162 7      2817.398          44.000    26219977.672 6 105576969.685 6      2158.792          40.000
E26                                                                  24533694.094 5  98786989.376 5     -1554.820          32.000
E33  23430153.461 8 123126281.334 8        90.613          51.000    23430154.992 8  94343504.194 8        69.470          51.000
> 2020 05 12 19 06 30.0000000  0 17        .000000000000
G03  21991218.219 8 115564614.001 8      2611.992          49.000    21991220.078 8  90050367.665 8      2035.322          50.000
G08  21738040.375 8 114234170.596 8     -2755.391          51.000    21738042.164 8  89013623.036 8     -2147.058          51.000
G11  19911609.188 8 104636216.653 8      -599.199          51.000    19911606.773 8  81534691.358 8      -466.908          50.000
G14  21939110.352 6 115290823.315 6       460.789          36.000
G22  20849850.609 8 109566710.535 8      1033.613          51.000    20849846.523 8  85376650.476 8       805.413          50.000
G27  24283699.352 4 127611685.825 4     -3756.234          28.000    24283697.172 4  99437680.512 4     -2926.936          28.000
R02  19164212.836 8 102263952.862 8       874.289          51.000    19164214.641 7  79538633.554 7       680.003          47.000
R03  22138482.125 6 118509063.108 6      3987.473          37.000    22138490.234 6  92173730.113 6      3101.368          39.000
R17  19158111.492 8 102518930.612 8       659.484          51.000    19158113.383 8  79736942.067 8       512.932          49.000
R24  21085662.367 8 112754481.391 8     -2846.266          51.000    21085663.930 7  87697970.851 7     -2213.765          47.000
C05                                                                  39668218.578 6 159727481.695 6       -25.191          37.000
C14  25448800.727 4 132518582.909 4     -3066.598          28.000    25448798.594 5 102471774.138 5     -2370.940          31.000
C27  21539390.234 8 112161274.847 8       437.680          51.000
C28  23069544.156 7 120129163.333 7     -2446.922          47.000
E19  26203907.500 7 137702458.147 7      2809.266          44.000    26203909.242 6 105512278.922 6      2152.518          38.000
E26                                                                  24545288.945 5  98833709.619 5     -1560.294          33.000
E33  23429659.094 8 123123683.709 8        80.906          51.000    23429660.992 8  94341513.799 8        61.984          51.000
> 2020 05 12 19 07  0.0000000  0 17        .000000000000
G03  21976330.562 8 115486377.682 8      2604.844          48.000    21976333.320 8  89989404.309 8      2029.748          48.000
G08  21753800.688 8 114316988.901 8     -2764.688          51.000    21753801.891 8  89078156.752 8     -2154.305          51.000
G11  19915074.492 8 104654427.057 8      -613.879          51.000    19915071.977 8  81548881.269 8      -478.347          50.000
G14  21936524.273 6 115277238.448 6       445.930          38.000    21936527.977 5  89826415.793 5       347.481          31.000
G22  20843980.820 8 109535863.564 8      1023.898          51.000    20843976.453 8  85352613.911 8       797.843          50.000
R02  19159360.523 8 102238060.681 8       852.988          51.000    19159362.391 8  79518495.189 8       663.435          48.000
R03  22116158.109 5 118389563.110 5      3979.859          34.000    22116166.008 6  92080785.663 6      3095.443          38.000
R17  19154461.102 8 102499396.520 8       643.789          51.000    19154463.047 8  79721748.886 8       500.725          50.000
R24  21101663.742 8 112840045.002 8     -2856.852          51.000    21101665.164 7  87764520.284 7     -2221.993          46.000
C05                                                                  39668401.242 6 159728217.526 6       -22.739          37.000
C14                                                                  25466466.375 5 102542912.807 5     -2370.950          33.000
C27  21536902.195 8 112148319.877 8       427.020          51.000
C28  23083661.898 7 120202683.486 7     -2453.406          46.000
E07  25863741.320 5 135914880.049 5     -1922.613          34.000
E19  26187881.594 7 137618243.566 7      2805.945          45.000    26187880.000 6 105447750.937 6      2150.022          39.000
E26  24556920.523 6 129047481.203 6     -2038.965          37.000    24556923.773 5  98880556.280 5     -1562.189          35.000
E33  23429214.672 8 123121348.492 8        75.855          51.000    23429216.672 8  94339724.467 8        58.144          51.000
> 2020 05 12 19 07 30.0000000  0 17        .000000000000
G03  21961496.797 8 115408426.164 8      2592.883          48.000    21961500.281 8  89928662.845 8      2020.428          48.000
G08  21769626.555 8 114400152.729 8     -2778.543          51.000    21769627.328 8  89142959.713 8     -2165.098          51.000
G11  19918635.789 8 104673142.404 8      -632.871          50.000    19918633.383 8  81563464.646 8      -493.146          50.000
G14  21934038.195 6 115264172.356 6       426.289          40.000    21934042.047 5  89816234.519 5       332.176          34.000
G22  20838179.148 8 109505375.478 8      1009.684          51.000    20838174.750 8  85328856.977 8       786.763          50.000
R02  19154640.344 8 102212873.260 8       827.246          51.000    19154642.664 8  79498904.975 8       643.414          48.000
R03  22093887.586 6 118270345.637 6      3968.293          37.000    22093894.672 6  91988060.945 6      3086.450          38.000
R17  19150911.180 8 102480400.602 8       623.527          51.000    19150913.266 8  79706974.273 8       484.966          50.000
R24  21117736.312 8 112925992.582 8     -2871.906          51.000    21117737.812 7  87831368.424 7     -2233.705          47.000
C05                                                                  39668578.453 6 159728931.299 6       -24.038          37.000
C14                                                                  25484144.938 5 102614094.357 5     -2374.012          33.000
C27  21534488.305 8 112135750.400 8       411.957          51.000
C28  23097830.664 7 120276467.369 7     -2464.355          47.000
E07  25874752.945 5 135972743.955 5     -1934.203          32.000
E19  26171887.664 7 137534193.120 7      2798.242          46.000    26171884.781 6 105383348.712 6      2144.078          41.000
E26  24568582.406 5 129108765.553 5     -2045.641          35.000    24568586.258 5  98927514.444 5     -1567.765          35.000
E33  23428810.914 8 123119226.936 8        66.441          51.000    23428812.914 8  94338098.849 8        50.910          51.000
> 2020 05 12 19 08  0.0000000  0 16        .000000000000
G03  21946726.883 8 115330809.175 8      2583.566          50.000    21946729.398 8  89868182.126 8      2013.172          50.000
G08  21785526.859 8 114483709.119 8     -2789.879          51.000    21785527.750 8  89208068.565 8     -2173.935          51.000
G11  19922302.484 8 104692411.601 8      -649.707          50.000    19922300.133 8  81578479.598 8      -506.265          49.000
G14  21931660.062 6 115251674.317 6       408.895          40.000    21931660.375 5  89806495.802 5       318.619          34.000
G22  20832455.016 8 109475295.188 8       997.844          51.000    20832450.914 8  85305417.770 8       777.541          51.000
R02  19150061.555 8 102188440.078 8       803.797          51.000    19150064.391 8  79479901.422 8       625.175          48.000
R03  22071680.555 6 118151463.428 6      3959.125          40.000    22071686.562 6  91895597.102 6      3079.322          38.000
R17  19147471.664 8 102461994.526 8       605.602          51.000    19147473.633 8  79692658.434 8       471.023          49.000
R24  21133889.219 8 113012373.034 8     -2884.613          48.000    21133891.859 7  87898553.190 7     -2243.588          47.000
C05                                                                  39668759.469 6 159729660.485 6       -22.989          37.000
C14  25501842.281 4 132794784.546 4     -3071.926          28.000    25501843.555 5 102685354.978 5     -2375.045          32.000
C27  21532157.914 8 112123615.925 8       399.125          51.000
C28  23112060.312 8 120350562.711 8     -2473.148          49.000
E19  26155934.883 7 137450357.299 7      2792.824          47.000    26155932.633 7 105319110.911 7      2139.974          43.000
E26  24580279.906 5 129170244.469 5     -2050.402          35.000    24580285.938 6  98974621.548 6     -1571.474          36.000
E33  23428457.203 8 123117368.704 8        59.453          51.000    23428459.219 8  94336674.999 8        45.531          51.000
> 2020 05 12 19 08 30.0000000  0 17        .000000000000
G03  21932013.836 8 115253491.381 8      2571.859          50.000    21932015.359 8  89807934.562 8      2004.049          50.000
G08  21801494.406 8 114567619.640 8     -2803.297          51.000    21801495.828 8  89273453.358 8     -2184.387          51.000
G11  19926067.641 8 104712198.472 8      -668.598          49.000    19926065.375 8  81593897.938 8      -520.985          49.000
G14  21929383.109 6 115239708.591 6       389.746          36.000    21929383.375 5  89797171.910 5       303.701          33.000
G22  20826801.445 8 109445586.053 8       983.691          51.000    20826797.977 8  85282267.780 8       766.510          51.000
G32  22212665.492 6 116728344.895 6     -1168.137          36.000
R02  19145617.281 8 102164724.579 8       778.086          51.000    19145620.203 8  79461456.045 8       605.178          48.000
R03  22049530.461 7 118032882.532 7      3947.098          43.000    22049534.820 6  91803367.543 6      3069.968          38.000
R17  19144135.859 8 102444143.392 8       585.359          51.000    19144137.523 8  79678774.220 8       455.280          49.000
R24  21150115.961 8 113099148.286 8     -2899.410          49.000    21150119.117 7  87966045.069 7     -2255.094          45.000
C05                                                                  39668937.484 6 159730377.325 6       -23.950          37.000
C14                                                                  25519554.383 5 102756665.646 5     -2378.123          32.000
C27  21529904.422 8 112111881.466 8       384.070          51.000
C28  23126343.867 8 120424932.492 8     -2483.891          51.000
E19  26140016.477 8 137366701.481 8      2785.129          48.000    26140015.594 7 105255011.026 7      2134.057          45.000
E26  24592009.797 6 129231881.165 6     -2057.293          39.000    24592015.016 6  99021849.626 6     -1576.789          37.000
E33  23428146.891 8 123115738.216 8        50.148          51.000    23428148.719 8  94335425.645 8        38.464          51.000
> 2020 05 12 19 09  0.0000000  0 19        .000000000000
G03  21917366.578 8 115176520.782 8      2561.543          50.000    21917368.602 8  89747957.486 8      1996.008          50.000
G08  21817537.680 8 114651929.586 8     -2815.285          50.000    21817539.828 8  89339149.410 8     -2193.729          50.000
G11  19929940.289 8 104732550.347 8      -686.098          48.000    19929938.070 8  81609756.543 8      -534.622          48.000
G14  21927216.891 6 115228322.940 6       371.582          38.000    21927216.508 5  89788299.955 5       289.535          34.000
G22  20821227.383 8 109416294.916 8       971.207          51.000    20821224.492 8  85259443.534 8       756.785          51.000
G27  24391113.367 5 128176165.688 5     -3769.730          35.000
G32  22219389.359 6 116763695.026 6     -1185.973          38.000    22219383.180 4  90984711.559 4      -924.147          28.000
R02  19141316.531 8 102141774.926 8       753.895          51.000    19141319.797 8  79443606.340 8       586.362          49.000
R03  22027445.930 7 117914653.546 7      3936.762          45.000    22027448.891 6  91711411.687 6      3061.926          37.000
R17  19140912.891 8 102426897.147 8       566.504          51.000    19140914.391 8  79665360.475 8       440.614          49.000
R24  21166425.422 8 113186364.763 8     -2912.684          49.000    21166428.391 7  88033880.151 7     -2265.421          43.000
C05                                                                  39669121.500 6 159731117.857 6       -23.787          37.000
C14  25537283.523 4 132979336.364 4     -3076.738          28.000    25537285.898 5 102828061.073 5     -2379.905          30.000
C27  21527736.602 8 112100594.600 8       370.445          51.000
C28  23140688.984 8 120499622.324 8     -2493.266          51.000
E07  25908131.664 5 136148152.266 5     -1962.203          35.000
E19  26124141.352 8 137283273.947 8      2778.781          48.000    26124141.898 7 105191086.073 7      2129.151          46.000
E26  24603777.836 6 129293722.620 6     -2063.180          39.000    24603781.883 5  99069234.672 5     -1580.594          35.000
E33  23427889.031 8 123114383.179 8        42.289          51.000    23427890.672 8  94334387.358 8        32.418          51.000
> 2020 05 12 19 09 30.0000000  0 17        .000000000000
G03  21902768.852 8 115099809.390 8      2549.656          51.000    21902771.258 8  89688182.402 8      1986.745          51.000
G08  21833638.844 7 114736547.758 7     -2828.793          46.000    21833642.477 7  89405085.670 7     -2204.254          46.000
G11  19933903.609 8 104753378.510 8      -705.133          49.000    19933901.477 8  81625986.271 8      -549.454          49.000
G22  20815716.008 8 109387332.750 8       956.879          51.000    20815713.133 8  85236875.612 8       745.620          51.000
G27  24412637.562 6 128289289.233 6     -3774.555          36.000    24412636.039 5  99965665.530 5     -2941.214          35.000
G32  22226231.656 6 116799631.504 6     -1205.641          36.000    22226232.859 5  91012729.583 5      -939.469          34.000
R02  19137142.273 8 102119500.360 8       728.047          51.000    19137145.805 8  79426281.707 8       566.259          49.000
R03  22005410.328 7 117796689.244 7      3924.582          45.000    22005411.508 5  91619661.695 5      3052.453          35.000
R17  19137786.641 8 102410167.541 8       545.949          51.000    19137788.094 8  79652348.561 8       424.627          50.000
R24  21182800.641 8 113273931.109 8     -2927.742          50.000    21182803.281 7  88101987.262 7     -2277.136          44.000
C05                                                                  39669294.328 6 159731814.036 6       -24.723          37.000
C14                                                                  25555021.023 5 102899471.904 5     -2382.772          30.000
C27  21525638.102 8 112089668.347 8       355.223          51.000
C28  23155078.055 8 120574543.303 8     -2504.254          51.000
E19  26108292.758 8 137199987.487 8      2770.859          48.000    26108294.484 7 105127269.203 7      2123.201          47.000
E26  24615568.477 6 129355680.143 6     -2070.195          38.000    24615570.922 5  99116708.630 5     -1586.041          35.000
E33  23427666.898 8 123113215.558 8        32.934          51.000    23427668.453 8  94333492.675 8        25.187          51.000
> 2020 05 12 19 10  0.0000000  0 17        .000000000000
G03  21888234.461 8 115023430.121 8      2539.793          50.000    21888236.039 8  89628666.136 8      1979.062          50.000
G08  21849812.266 8 114821544.077 8     -2840.129          48.000    21849816.586 8  89471316.592 8     -2213.087          48.000
G11  19937971.273 8 104774755.045 8      -722.238          49.000    19937969.398 8  81642643.298 8      -562.786          49.000
G22  20810281.008 8 109358771.648 8       944.785          51.000    20810277.680 8  85214620.220 8       736.199          51.000
G27  24434187.602 5 128402530.056 5     -3776.762          35.000    24434183.938 5 100053905.041 5     -2942.931          35.000
G32  22233158.078 6 116836032.490 6     -1223.125          39.000    22233147.102 5  91041094.000 5      -953.075          34.000
R02  19133108.211 8 102097974.116 8       704.449          51.000    19133111.906 8  79409539.102 8       547.905          48.000
R03  21983437.711 7 117679065.657 7      3914.551          44.000    21983436.586 5  91528176.738 5      3044.654          31.000
R17  19134770.828 8 102394029.474 8       527.395          51.000    19134772.453 8  79639796.727 8       410.196          49.000
R24  21199255.219 8 113361919.341 8     -2940.551          50.000    21199257.586 7  88170422.422 7     -2287.098          43.000
C05                                                                  39669469.898 6 159732520.995 6       -24.122          37.000
C14  25572773.773 4 133164133.547 4     -3083.016          29.000    25572772.742 4 102970958.144 4     -2384.122          27.000
C27  21523622.773 8 112079175.001 8       341.953          51.000
C28  23169524.117 8 120649765.796 8     -2512.996          51.000
E19  26092484.508 7 137116915.589 7      2764.754          47.000    26092487.109 7 105063616.733 7      2118.606          47.000
E26  24627395.008 6 129417825.515 6     -2075.141          39.000    24627395.914 6  99164326.526 6     -1590.243          36.000
E33  23427494.266 8 123112308.086 8        25.270          51.000    23427495.953 8  94332797.320 8        19.392          51.000
> 2020 05 12 19 10 30.0000000  0 17        .000000000000
G03  21873769.461 8 114947416.053 8      2531.070          49.000    21873770.000 8  89569434.427 8      1972.263          49.000
G08  21866064.414 8 114906948.775 8     -2850.078          50.000    21866067.992 8  89537865.689 8     -2220.840          50.000
G11  19942149.586 8 104796712.244 8      -738.156          49.000    19942147.719 8  81659752.785 8      -575.187          50.000
G14  21921323.805 6 115197338.158 6       318.035          36.000    21921324.977 5  89764159.398 5       247.820          33.000
G22  20804928.305 8 109330643.267 8       933.828          51.000    20804924.852 8  85192702.031 8       727.661          51.000
G27  24455763.273 5 128515905.576 5     -3778.508          33.000    24455758.867 5 100142249.517 5     -2944.292          32.000
R02  19129220.297 8 102077228.420 8       682.055          51.000    19129223.969 8  79393403.575 8       530.487          49.000
R03  21961534.891 7 117561818.176 7      3905.508          43.000    21961529.273 5  91436984.304 5      3037.620          31.000
R17  19131871.938 8 102378517.863 8       510.156          50.000    19131873.602 8  79627732.130 8       396.788          49.000
R24  21215794.477 8 113450360.697 8     -2952.039          48.000    21215796.766 7  88239210.080 7     -2296.030          43.000
C05                                                                  39669654.211 6 159733263.434 6       -22.733          37.000
C14  25590548.664 4 133256698.614 4     -3083.012          28.000
C27  21521696.828 8 112069147.429 8       329.891          51.000
C28  23184033.820 8 120725320.661 8     -2520.555          51.000
E19  26076723.141 7 137034091.850 7      2760.109          46.000    26076726.352 7 105000154.423 7      2114.964          47.000
E26  24639263.273 6 129480190.764 6     -2079.121          41.000    24639264.633 6  99212112.780 6     -1592.883          37.000
E33  23427377.352 8 123111693.591 8        19.035          51.000    23427379.156 8  94332326.454 8        14.600          51.000
> 2020 05 12 19 11  0.0000000  0 18        .000000000000
G03  21859377.531 8 114871786.281 8      2511.180          50.000    21859378.320 8  89510502.151 8      1956.766          50.000
G08  21882397.883 8 114992778.148 8     -2871.445          51.000    21882400.055 8  89604745.674 8     -2237.493          51.000
G11  19946442.016 8 104819268.439 8      -765.312          50.000    19946439.953 8  81677329.037 8      -596.347          49.000
G14  21919590.812 6 115188220.992 6       290.328          39.000    21919590.266 4  89757059.202 4       226.233          29.000
G22  20799661.414 8 109302965.924 8       911.695          51.000    20799658.258 8  85171135.297 8       710.412          51.000
G27  24477365.641 5 128629431.944 5     -3790.281          33.000    24477363.289 5 100230711.507 5     -2953.475          32.000
G32  22247328.547 5 116910500.777 5     -1267.656          32.000    22247320.164 5  91099054.661 5      -987.787          31.000
R02  19125482.336 8 102057282.351 8       648.000          50.000    19125486.062 8  79377889.976 8       504.000          49.000
R03  21939706.023 6 117444968.502 6      3884.980          40.000    21939698.578 5  91346101.296 5      3021.655          34.000
R17  19129094.461 8 102363653.240 8       481.172          50.000    19129095.789 8  79616170.771 8       374.245          49.000
R24  21232421.328 8 113539272.678 8     -2975.082          49.000    21232423.844 7  88308363.849 7     -2313.953          44.000
C05                                                                  39669850.883 6 159734055.344 6       -29.967          37.000
C14  25608350.680 4 133349400.702 4     -3095.504          29.000
C27  21519864.211 8 112059604.637 8       306.652          51.000
C28  23198610.781 8 120801225.024 8     -2539.363          51.000
E19  26061012.656 7 136951535.815 7      2743.938          46.000    26061016.281 8 104936897.223 8      2102.486          48.000
E26  24651177.539 6 129542793.971 6     -2094.340          40.000    24651177.125 5  99260081.459 5     -1604.428          31.000
E33  23427319.797 8 123111391.088 8         1.383          51.000    23427321.562 8  94332094.659 8         1.066          51.000
> 2020 05 12 19 11 30.0000000  0 16        .000000000000
G03  21845032.258 8 114796401.016 8      2504.082          50.000    21845034.133 8  89451760.400 8      1951.233          50.000
G08  21898784.805 8 115078889.648 8     -2879.789          51.000    21898785.266 8  89671845.488 8     -2243.995          51.000
G11  19950821.625 8 104842282.949 8      -779.445          49.000    19950819.445 8  81695262.411 8      -607.363          50.000
G14  21917946.281 6 115179579.238 6       275.473          39.000    21917947.227 5  89750325.449 5       214.654          32.000
G22  20794453.430 8 109275598.608 8       902.398          51.000    20794450.336 8  85149810.115 8       703.168          51.000
G27  24498969.328 4 128742952.850 4     -3788.867          29.000    24498969.656 5 100319180.294 5     -2952.367          32.000
R02  19121867.195 8 102037992.461 8       627.207          50.000    19121870.727 8  79362886.740 8       487.828          48.000
R03  21917923.258 6 117328376.334 6      3877.234          36.000    21917918.578 6  91255418.518 6      3015.627          36.000
R17  19126411.023 8 102349294.230 8       465.387          49.000    19126412.398 8  79605002.654 8       361.967          49.000
R24  21249109.289 8 113628510.825 8     -2984.844          50.000    21249112.156 7  88377771.313 7     -2321.545          46.000
C05                                                                  39670033.102 6 159734788.979 6       -27.031          37.000
C27  21518098.031 8 112050408.233 8       296.070          51.000
C28  23213228.047 8 120877338.493 8     -2545.195          51.000
E19  26045326.891 7 136869108.474 7      2740.641          46.000    26045330.859 8 104873738.637 8      2100.067          48.000
E26  24663109.289 6 129605494.288 6     -2096.508          36.000
E33  23427295.148 8 123111260.595 8        -3.285          51.000    23427296.633 8  94331994.665 8        -2.517          51.000
> 2020 05 12 19 12  0.0000000  0 17        .000000000000
G01  20492095.547 6 107686720.775 6       972.066          36.000    20492102.234 6  83911718.534 6       757.454          36.000
G03  21830753.992 8 114721368.699 8      2497.387          50.000    21830756.656 8  89393293.663 8      1946.016          50.000
G08  21915244.812 8 115165388.353 8     -2887.629          49.000    21915244.891 8  89739247.011 8     -2250.103          49.000
G11  19955308.875 8 104865863.622 8      -793.367          50.000    19955306.656 8  81713636.950 8      -618.208          50.000
G14  21916413.078 6 115171520.690 6       261.148          40.000    21916411.914 5  89744046.125 5       203.489          33.000
G22  20789324.938 8 109248648.649 8       893.508          51.000    20789321.531 8  85128810.145 8       696.240          50.000
G32  22261951.930 6 116987354.673 6     -1295.246          37.000    22261955.531 6  91158961.581 6     -1009.283          37.000
R02  19118395.914 8 102019467.593 8       606.945          51.000    19118399.141 8  79348478.509 8       472.069          49.000
R03  21896207.297 6 117212153.926 6      3870.020          37.000    21896207.969 6  91165023.279 6      3010.015          38.000
R17  19123842.648 8 102335552.252 8       449.914          48.000    19123844.430 8  79594314.451 8       349.933          49.000
R24  21265879.094 8 113718183.403 8     -2994.148          51.000    21265881.836 7  88447516.605 7     -2328.782          47.000
C05                                                                  39670221.312 6 159735546.807 6       -24.134          37.000
C27  21516418.969 8 112041665.715 8       285.961          51.000
C28  23227905.656 8 120953766.658 8     -2550.656          51.000
E19  26029686.672 7 136786918.686 7      2737.750          46.000    26029690.945 8 104810762.061 8      2097.804          48.000
E26  24675078.773 5 129668399.239 5     -2098.285          35.000    24675083.516 5  99356325.719 5     -1607.765          32.000
E33  23427323.984 8 123111410.463 8        -7.516          51.000    23427324.977 8  94332109.515 8        -5.789          51.000
> 2020 05 12 19 12 30.0000000  0 15        .000000000000
G03  21816529.055 8 114646616.019 8      2486.930          51.000    21816531.398 8  89335044.814 8      1937.867          51.000
G08  21931763.703 7 115252198.191 7     -2899.109          47.000    21931764.664 7  89806890.976 7     -2259.046          47.000
G11  19959889.750 8 104889936.167 8      -810.879          50.000    19959887.617 8  81732394.763 8      -631.854          50.000
G14  21914976.812 6 115163971.659 6       242.898          41.000    21914974.117 4  89738163.763 4       189.272          25.000
G22  20784261.938 8 109222041.770 8       881.043          51.000    20784258.312 8  85108077.518 8       686.527          51.000
R02  19115053.750 8 102001632.853 8       582.777          51.000    19115056.852 8  79334607.063 8       453.271          48.000
R03  21874547.969 5 117096228.418 5      3859.016          35.000    21874552.656 6  91074859.050 6      3001.460          39.000
R17  19121376.156 8 102322353.914 8       430.695          48.000    19121377.961 8  79584049.086 8       334.985          48.000
R24  21282716.094 8 113808213.865 8     -3007.215          51.000    21282718.289 7  88517540.277 7     -2338.945          46.000
C05                                                                  39670401.320 6 159736271.930 6       -23.754          37.000
C27  21514813.461 8 112033304.481 8       272.164          51.000
C28  23242628.695 8 121030435.039 8     -2559.809          50.000
E19  26014078.195 7 136704893.727 7      2731.270          47.000    26014082.586 8 104747911.794 8      2092.725          49.000
E26  24687074.031 5 129731449.557 5     -2103.809          32.000
E33  23427392.141 8 123111767.154 8       -15.496          51.000    23427392.625 8  94332382.838 8       -11.901          51.000
> 2020 05 12 19 13  0.0000000  0 16        .000000000000
G01  20481128.523 6 107629056.388 6       948.824          37.000
G03  21802366.172 8 114572187.959 8      2475.094          51.000    21802367.508 8  89277048.955 8      1928.648          51.000
G08  21948350.133 8 115339361.137 8     -2911.652          48.000    21948351.906 8  89874810.147 8     -2268.817          48.000
G11  19964572.695 8 104914544.734 8      -829.535          50.000    19964570.539 8  81751570.270 8      -646.388          50.000
G14  21913646.023 6 115156976.504 6       223.691          37.000    21913644.945 6  89732713.029 6       174.311          36.000
G22  20779272.633 8 109195821.745 8       867.250          51.000    20779268.914 8  85087646.334 8       675.779          51.000
R02  19111849.414 8 101984532.560 8       557.520          51.000    19111852.266 8  79321306.854 8       433.629          48.000
R03  21852954.344 5 116980647.825 5      3846.562          33.000    21852960.789 6  90984963.070 6      2991.771          39.000
R17  19119019.898 7 102309745.829 7       410.062          47.000    19119021.758 8  79574242.834 8       318.938          48.000
R24  21299627.555 8 113898645.321 8     -3021.402          49.000    21299629.828 7  88587875.882 7     -2349.977          47.000
C05                                                                  39670581.578 6 159736998.222 6       -24.367          37.000
C27  21513289.805 8 112025369.259 8       257.031          51.000
C28  23257404.883 7 121107386.310 7     -2570.023          47.000
E19  25998510.031 7 136623079.440 7      2723.234          47.000    25998514.266 8 104685222.941 8      2086.640          48.000
E26  24699102.992 6 129794648.356 6     -2110.125          40.000
E33  23427507.969 8 123112375.553 8       -24.867          51.000    23427508.266 8  94332849.021 8       -19.045          51.000
> 2020 05 12 19 13 30.0000000  0 16        .000000000000
G01  20475741.727 5 107600747.528 5       936.715          35.000    20475740.031 5  83844735.870 5       729.905          35.000
G03  21788264.695 8 114498083.879 8      2463.770          51.000    21788265.992 8  89219305.558 8      1919.823          51.000
G08  21965003.359 8 115426873.745 8     -2923.715          49.000    21965005.203 8  89943001.796 8     -2278.219          49.000
G11  19969357.336 8 104939687.923 8      -847.805          50.000    19969355.141 8  81771162.361 8      -660.627          50.000
G14  21912420.492 5 115150534.277 5       204.672          34.000    21912420.289 5  89727693.108 5       159.485          30.000
G22  20774356.516 8 109169987.139 8       853.859          51.000    20774352.977 8  85067515.466 8       665.345          51.000
R02  19108782.398 8 101968165.030 8       532.445          51.000    19108785.273 8  79308576.571 8       414.124          49.000
R03  21831424.758 5 116865413.392 5      3834.098          31.000    21831434.039 6  90895336.327 6      2982.076          40.000
R17  19116773.539 7 102297728.571 7       389.793          47.000    19116776.172 7  79564896.071 7       303.172          47.000
R24  21316612.828 8 113989475.337 8     -3035.312          48.000    21316615.766 7  88658521.462 7     -2360.799          46.000
C05                                                                  39670761.836 6 159737724.657 6       -25.092          36.000
C27  21511847.680 8 112017859.540 8       242.359          51.000
C28  23272234.750 8 121184618.115 8     -2580.012          48.000
E19  25982981.891 7 136541475.647 7      2715.781          47.000    25982985.594 7 104622695.392 7      2080.923          47.000
E26  24711164.484 6 129858030.842 6     -2116.566          41.000
E33  23427671.414 8 123113235.008 8       -33.773          51.000    23427671.781 8  94333507.554 8       -25.848          51.000
> 2020 05 12 19 14  0.0000000  0 15        .000000000000
G01  20470422.883 5 107572792.958 5       925.410          35.000    20470420.125 5  83822953.045 5       721.102          35.000
G03  21774227.727 8 114424320.665 8      2453.172          50.000    21774229.867 8  89161827.745 8      1911.562          50.000
G08  21981725.875 8 115514749.949 8     -2935.246          50.000    21981727.992 8  90011476.752 8     -2287.205          50.000
G11  19974246.602 8 104965381.542 8      -865.594          50.000    19974244.609 8  81791183.347 8      -674.489          50.000
G22  20769516.711 8 109144553.396 8       841.188          51.000    20769513.398 8  85047696.963 8       655.474          51.000
R02  19105855.602 8 101952546.008 8       508.168          51.000    19105858.945 8  79296428.464 8       395.242          49.000
R03  21809964.812 5 116750544.126 5      3823.836          31.000    21809976.656 6  90805993.579 6      2974.101          41.000
R17  19114641.367 8 102286319.991 8       370.105          48.000    19114644.148 7  79556022.740 7       287.863          46.000
R24  21333675.336 8 114080718.913 8     -3048.195          49.000    21333678.125 7  88729488.652 7     -2370.819          44.000
C05                                                                  39670945.227 6 159738463.376 6       -24.581          36.000
C27  21510490.586 8 112010791.991 8       228.328          51.000
C28  23287122.586 8 121262145.247 8     -2589.148          50.000
E19  25967496.844 7 136460099.724 7      2708.844          46.000    25967499.664 7 104560342.459 7      2075.536          46.000
E26  24723260.516 6 129921601.951 6     -2121.836          39.000    24723269.680 6  99550348.499 6     -1625.945          36.000
E33  23427885.891 8 123114362.143 8       -41.934          51.000    23427886.227 8  94334371.210 8       -32.131          51.000
> 2020 05 12 19 14 30.0000000  0 15        .000000000000
G01  20465167.742 5 107545182.050 5       914.574          32.000    20465167.555 5  83801435.710 5       712.652          31.000
G03  21760253.289 8 114350884.824 8      2441.777          51.000    21760255.828 8  89104604.993 8      1902.684          51.000
G08  21998514.492 8 115602972.973 8     -2947.188          51.000    21998516.461 8  90080221.933 8     -2296.510          51.000
G11  19979237.875 8 104991611.571 8      -883.867          49.000    19979236.102 8  81811622.317 8      -688.728          49.000
G14  21910288.344 5 115139328.573 5       167.098          32.000
G22  20764750.594 8 109119506.211 8       827.848          51.000    20764747.133 8  85028179.698 8       645.076          51.000
R02  19103066.070 8 101937660.725 8       483.367          51.000    19103069.672 8  79284851.026 8       375.952          49.000
R17  19112620.539 8 102275507.404 8       349.879          48.000    19112623.508 7  79547612.958 7       272.125          46.000
R24  21350812.766 8 114172359.947 8     -3061.922          51.000    21350813.812 6  88800764.981 6     -2381.495          41.000
C05                                                                  39671129.047 6 159739203.491 6       -25.059          37.000
C27  21509215.898 8 112004153.336 8       213.461          50.000
C28  23302064.586 8 121339952.469 8     -2598.805          51.000
E19  25952052.453 7 136378938.862 7      2701.297          47.000    25952054.438 7 104498154.302 7      2069.774          46.000
E26  24735389.562 6 129985347.191 6     -2128.191          41.000    24735398.164 6  99599192.276 6     -1630.776          36.000
E33  23428148.859 8 123115743.325 8       -50.812          51.000    23428149.125 8  94335429.530 8       -38.982          51.000
> 2020 05 12 19 15  0.0000000  0 15        .000000000000
G01  20459974.312 5 107517891.286 5       904.211          31.000    20459975.953 5  83780170.301 5       704.583          32.000
G03  21746338.094 8 114277758.647 8      2432.641          51.000    21746340.117 8  89047623.575 8      1895.564          51.000
G08  22015365.328 8 115691522.574 8     -2956.789          51.000    22015367.195 8  90149221.584 8     -2303.991          51.000
G11  19984327.820 8 105018359.230 8      -899.941          50.000    19984325.961 8  81832464.642 8      -701.253          50.000
G14  21909378.445 6 115134547.923 6       150.910          38.000
G22  20760054.008 8 109094826.478 8       816.863          51.000    20760050.391 8  85008948.763 8       636.520          51.000
R02  19100410.273 8 101923489.582 8       460.742          51.000    19100414.430 8  79273829.018 8       358.355          49.000
R17  19110707.961 8 102265273.792 8       331.812          49.000    19110711.250 7  79539653.464 7       258.076          45.000
R24  21368020.797 8 114264378.297 8     -3073.254          51.000    21368021.133 7  88872334.758 7     -2390.312          43.000
C05                                                                  39671309.727 6 159739930.885 6       -23.612          37.000
C27  21508020.336 8 111997926.137 8       200.922          50.000
C28  23317056.719 8 121418020.444 8     -2606.285          51.000
E19  25936645.836 7 136297975.999 7      2695.766          47.000    25936646.906 7 104436117.857 7      2065.685          45.000
E26  24747549.086 7 130049247.904 7     -2132.238          43.000    24747554.875 6  99648155.250 6     -1633.928          40.000
E33  23428456.734 8 123117360.829 8       -57.535          51.000    23428456.930 8  94336668.922 8       -44.082          51.000
> 2020 05 12 19 15 30.0000000  0 15        .000000000000
G03  21732484.031 8 114204954.377 8      2421.371          51.000    21732485.453 8  88990893.019 8      1886.783          51.000
G08  22032279.797 8 115780407.901 8     -2968.547          49.000    22032281.719 8  90218482.868 8     -2313.153          49.000
G11  19989518.367 8 105045635.981 8      -917.996          49.000    19989516.680 8  81853719.246 8      -715.322          49.000
G14  21908574.000 6 115130315.967 6       131.754          37.000
G22  20755429.430 8 109070525.632 8       803.691          51.000    20755425.844 8  84990013.049 8       626.253          51.000
R02  19097890.492 8 101910044.466 8       436.012          51.000    19097895.031 8  79263371.718 8       339.120          49.000
R03  21745994.016 5 116408025.621 5      3788.457          32.000    21745991.047 6  90539559.644 6      2946.584          38.000
R17  19108906.312 8 102255632.708 8       311.496          49.000    19108909.461 7  79532154.826 7       242.275          45.000
R24  21385301.000 8 114356784.359 8     -3086.637          49.000    21385302.133 7  88944206.052 7     -2400.717          45.000
C05                                                                  39671489.445 6 159740654.355 6       -24.225          37.000
C27  21506906.039 8 111992122.589 8       186.367          50.000
C28  23332101.039 8 121496359.423 8     -2615.750          51.000
E19  25921279.469 7 136217223.901 7      2688.211          47.000    25921279.312 7 104374242.919 7      2059.729          44.000
E26  24759740.555 6 130113315.377 6     -2138.367          41.000    24759745.242 7  99697245.919 7     -1638.525          42.000
E33  23428811.859 8 123119226.785 8       -66.363          51.000    23428812.008 8  94338098.694 8       -50.877          51.000
> 2020 05 12 19 16  0.0000000  0 16        .000000000000
G01  20449780.875 5 107464334.340 5       880.129          35.000    20449784.914 6  83738446.796 6       685.812          36.000
G03  21718693.062 8 114132483.566 8      2409.035          50.000    21718694.430 8  88934422.277 8      1877.170          50.000
G08  22049259.125 7 115869637.369 7     -2981.211          47.000    22049261.711 7  90288012.298 7     -2323.022          47.000
G11  19994811.453 8 105073452.431 8      -937.238          49.000    19994810.273 8  81875394.376 8      -730.316          49.000
G14  21907875.562 7 115126643.844 7       112.035          43.000    21907874.039 5  89709067.887 5        87.303          31.000
G22  20750879.312 8 109046614.140 8       789.492          51.000    20750875.742 8  84971380.722 8       615.189          51.000
R02  19095508.633 8 101897335.135 8       410.277          51.000    19095513.172 8  79253486.687 8       319.105          49.000
R03  21724788.281 6 116294564.476 6      3774.832          37.000    21724794.281 5  90451312.305 5      2935.987          35.000
R17  19107218.164 8 102246596.760 8       290.051          50.000    19107221.375 7  79525126.834 7       225.595          45.000
R24  21402654.453 7 114449587.403 7     -3101.207          44.000    21402657.633 7  89016386.202 7     -2412.050          45.000
C05                                                                  39671670.141 6 159741381.948 6       -25.194          36.000
C27  21505875.055 8 111986754.166 8       170.652          50.000
C28  23347199.258 8 121574978.915 8     -2626.359          51.000
E19  25905955.633 7 136136694.675 7      2679.547          47.000    25905954.141 7 104312538.758 7      2053.150          43.000
E26  24771965.328 6 130177560.187 6     -2145.406          37.000    24771970.227 7  99746472.466 7     -1644.023          43.000
E33  23429216.375 8 123121352.598 8       -76.238          51.000    23429216.414 8  94339727.572 8       -58.422          51.000
> 2020 05 12 19 16 30.0000000  0 16        .000000000000
G01  20444787.805 6 107438089.474 6       870.000          37.000    20444790.344 6  83717996.223 6       677.919          36.000
G03  21704968.586 8 114060362.040 8      2399.195          50.000    21704970.141 8  88878223.716 8      1869.506          50.000
G08  22066306.578 7 115959224.557 7     -2991.180          47.000    22066309.695 7  90357820.468 7     -2330.789          47.000
G11  20000210.070 8 105101823.424 8      -954.012          48.000    20000209.461 8  81897501.628 8      -743.386          48.000
G14  21907286.758 6 115123547.032 6        94.617          39.000    21907286.336 5  89706654.699 5        73.728          35.000
G22  20746406.055 8 109023106.670 8       777.816          51.000    20746402.547 8  84953063.225 8       606.091          51.000
R02  19093267.703 8 101885376.766 8       387.074          51.000    19093272.258 8  79244185.741 8       301.058          49.000
R03  21703660.789 6 116181486.936 6      3763.965          39.000    21703667.250 5  90363363.333 5      2927.537          34.000
R17  19105646.320 8 102238183.000 8       271.000          51.000    19105649.305 7  79518582.768 7       210.778          44.000
R24  21420084.359 7 114542801.608 7     -3113.148          44.000    21420089.781 7  89088886.182 7     -2421.338          44.000
C05                                                                  39671854.648 6 159742125.390 6       -24.234          37.000
C27  21504930.734 8 111981836.634 8       157.352          51.000
C28  23362353.602 8 121653892.818 8     -2634.414          50.000
E19  25890677.188 7 136056404.853 7      2673.219          47.000    25890674.695 7 104251018.019 7      2048.466          43.000
E26  24784225.336 5 130241983.194 5     -2150.152          35.000    24784232.555 7  99795846.319 7     -1647.576          43.000
E33  23429673.305 8 123123754.028 8       -83.656          51.000    23429673.180 8  94341567.644 8       -64.115          51.000
> 2020 05 12 19 17  0.0000000  0 16        .000000000000
G01  20439856.703 6 107412174.742 6       858.754          39.000    20439859.141 6  83697802.935 6       669.162          39.000
G03  21691304.375 8 113988556.746 8      2388.352          50.000    21691306.250 8  88822271.580 8      1861.053          50.000
G08  22083415.594 8 116049132.921 8     -3002.219          48.000    22083418.758 8  90427878.935 8     -2339.391          48.000
G11  20005707.914 7 105130715.257 7      -971.641          47.000    20005707.430 7  81920014.737 7      -757.123          47.000
G14  21906800.336 6 115120990.981 6        76.551          40.000    21906799.898 5  89704663.058 5        59.653          34.000
G22  20742002.977 8 108999969.247 8       765.250          51.000    20741999.586 8  84935034.070 8       596.299          51.000
R02  19091160.914 8 101874134.565 8       362.949          51.000    19091165.555 8  79235441.829 8       282.294          49.000
R03  21682598.336 6 116068761.526 6      3751.855          36.000    21682609.797 6  90275688.186 6      2918.116          36.000
R17  19104184.523 8 102230358.629 8       251.031          51.000    19104186.883 7  79512497.136 7       195.247          45.000
R24  21437586.117 8 114636391.130 8     -3125.777          48.000    21437591.531 7  89161678.014 7     -2431.160          44.000
C05                                                                  39672036.742 6 159742858.769 6       -24.294          36.000
C27  21504066.789 8 111977337.308 8       143.090          51.000
C28  23377558.117 8 121733066.536 8     -2643.332          50.000
E19  25875437.656 7 135976322.064 7      2666.055          46.000    25875435.305 7 104189655.927 7      2042.950          43.000
E26  24796515.719 5 130306569.471 5     -2156.344          31.000    24796525.375 7  99845341.405 7     -1651.749          43.000
E33  23430176.406 8 123126397.942 8       -92.074          51.000    23430176.195 8  94343593.507 8       -70.544          51.000
> 2020 05 12 19 17 30.0000000  0 16        .000000000000
G01  20434992.477 6 107386613.895 6       846.102          36.000    20434995.977 5  83677885.444 5       659.303          34.000
G03  21677704.656 8 113917091.358 8      2376.883          48.000    21677707.039 8  88766584.289 8      1852.116          48.000
G08  22100589.781 8 116139383.164 8     -3013.805          48.000    22100592.891 8  90498203.776 8     -2348.419          49.000
G11  20011309.242 7 105160150.407 7      -989.922          47.000    20011308.617 7  81942951.240 7      -771.368          47.000
G14  21906421.609 6 115118999.279 6        57.348          37.000    21906421.688 5  89703111.101 5        44.683          32.000
G22  20737674.805 8 108977224.155 8       751.863          51.000    20737671.133 8  84917310.613 8       585.867          51.000
R02  19089192.547 8 101863630.662 8       338.152          51.000    19089196.781 8  79227272.143 8       263.010          49.000
R03  21661606.156 5 115956414.125 5      3738.777          34.000    21661621.086 6  90188306.870 6      2907.935          37.000
R17  19102837.430 8 102223148.597 8       230.410          51.000    19102839.281 7  79506889.317 7       179.205          45.000
R24  21455163.195 8 114730377.788 8     -3139.133          51.000    21455167.070 7  89234778.718 7     -2441.548          44.000
C05                                                                  39672220.688 6 159743592.579 6       -24.551          36.000
C27  21503287.586 8 111973279.683 8       128.227          51.000
C28  23392817.227 8 121812521.689 8     -2652.930          51.000
E19  25860241.539 7 135896470.492 7      2658.199          45.000    25860240.648 7 104128470.987 7      2036.706          43.000
E26  24808846.039 6 130371349.712 6     -2161.715          38.000    24808851.797 7  99894975.163 7     -1656.514          42.000
E33  23430730.062 8 123129307.936 8      -101.090          51.000    23430730.000 8  94345823.242 8       -77.479          51.000
> 2020 05 12 19 18  0.0000000  0 15        .000000000000
G01  20430193.180 5 107361399.055 5       835.012          34.000    20430197.477 5  83658237.478 5       650.658          35.000
G03  21664168.133 8 113845957.830 8      2365.609          50.000    21664170.820 8  88711155.536 8      1843.329          50.000
G08  22117826.750 8 116229964.257 8     -3024.984          49.000    22117829.883 8  90568786.418 8     -2357.131          49.000
G11  20017012.453 8 105190119.900 8     -1008.004          49.000    20017011.578 8  81966304.087 8      -785.458          49.000
G22  20733419.648 8 108954862.375 8       738.961          51.000    20733415.719 8  84899885.860 8       575.817          51.000
R02  19087360.906 8 101853855.994 8       313.613          51.000    19087364.734 8  79219669.650 8       243.921          49.000
R03  21640690.891 6 115844438.286 6      3726.371          40.000    21640701.359 6  90101214.576 6      2898.292          39.000
R17  19101603.594 8 102216545.653 8       209.906          51.000    19101605.789 7  79501753.663 7       163.260          47.000
R24  21472812.742 8 114824751.092 8     -3152.242          51.000    21472815.312 7  89308180.097 7     -2451.747          44.000
C05                                                                  39672404.852 6 159744334.065 6       -24.856          37.000
C27  21502591.859 8 111969655.754 8       113.480          51.000
C28  23408128.547 8 121892248.464 8     -2662.109          51.000
E19  25845087.891 7 135816842.828 7      2650.488          45.000    25845088.969 7 104067457.596 7      2030.947          45.000
E26  24821209.055 7 130436297.868 7     -2167.820          42.000    24821210.734 6  99944740.661 6     -1661.234          41.000
E33  23431332.773 8 123132475.817 8      -109.973          51.000    23431332.891 8  94348250.573 8       -84.253          51.000
> 2020 05 12 19 18 30.0000000  0 17        .000000000000
G01  20425457.438 6 107336513.880 6       822.719          38.000    20425460.867 6  83638846.481 6       641.080          39.000
G03  21650692.125 8 113775139.715 8      2354.066          51.000    21650694.844 8  88655972.591 8      1834.337          51.000
G08  22135122.789 8 116320856.856 8     -3036.172          49.000    22135126.117 8  90639611.792 8     -2365.851          49.000
G11  20022814.258 8 105220606.603 8     -1026.258          51.000    20022812.992 8  81990059.952 8      -799.681          49.000
G14  21905980.617 6 115116709.084 6        19.793          36.000
G22  20729233.844 8 108932866.567 8       725.758          51.000    20729230.266 8  84882746.287 8       565.526          51.000
G32  22366711.562 6 117537863.325 6     -1526.695          37.000    22366702.141 5  91587942.637 5     -1189.627          34.000
R02  19085662.531 8 101844792.087 8       288.859          51.000    19085665.914 8  79212619.975 8       224.671          48.000
R03  21619842.469 7 115732819.359 7      3713.266          44.000    21619849.492 6  90014399.927 6      2888.095          41.000
R17  19100480.414 8 102210534.058 8       189.164          51.000    19100482.695 7  79497077.956 7       147.125          47.000
R24  21490530.602 8 114919492.279 8     -3165.414          50.000    21490532.680 7  89381867.642 7     -2461.992          45.000
C05                                                                  39672585.906 6 159745063.144 6       -25.255          37.000
C27  21501976.188 8 111966449.408 8        98.551          51.000
C28  23423488.789 8 121972228.735 8     -2671.551          51.000
E19  25829974.156 7 135737423.054 7      2642.430          44.000    25829976.914 7 104006603.489 7      2024.833          46.000
E26  24833599.586 7 130501400.716 7     -2174.055          42.000    24833599.531 7  99994624.634 7     -1665.732          42.000
E33  23431981.492 8 123135885.183 8      -118.988          51.000    23431981.844 8  94350862.941 8       -91.155          51.000
> 2020 05 12 19 19  0.0000000  0 18        .000000000000
G01  20420774.875 6 107311905.817 6       812.586          40.000    20420778.234 6  83619671.405 6       633.187          40.000
G03  21637266.195 8 113704584.374 8      2344.465          50.000    21637268.469 8  88600994.428 8      1826.856          50.000
G08  22152467.562 8 116412005.423 8     -3045.430          48.000    22152470.906 8  90710636.639 8     -2373.062          48.000
G11  20028704.312 8 105251556.961 8     -1042.352          51.000    20028702.547 8  82014177.086 8      -812.222          49.000
G14  21905900.984 6 115116296.302 6         2.965          38.000    21905898.383 5  89700993.620 5         2.322          33.000
G22  20725107.484 8 108911183.136 8       714.605          51.000    20725104.188 8  84865850.097 8       556.835          51.000
G32  22375456.617 5 117583817.479 5     -1541.805          35.000
R01  22201473.117 5 118679547.738 5     -3841.000          32.000
R02  19084087.109 8 101836384.717 8       266.211          51.000    19084089.797 8  79206080.909 8       207.053          48.000
R03  21599050.977 7 115621505.561 7      3702.324          46.000    21599055.719 7  89927822.601 7      2879.589          43.000
R17  19099457.578 8 102205061.095 8       170.469          50.000    19099459.789 7  79492821.199 7       132.587          47.000
R24  21508305.883 8 115014545.224 8     -3176.562          48.000    21508308.461 7  89455797.655 7     -2470.663          46.000
C05                                                                  39672753.711 6 159745738.858 6       -23.838          36.000
C27  21501430.180 8 111963608.442 8        85.625          51.000
C28  23438887.398 8 122052408.443 8     -2678.883          51.000
E19  25814890.531 7 135658159.455 7      2636.691          44.000    25814894.172 7 103945869.055 7      2020.211          47.000
E26  24846008.602 7 130566604.563 7     -2178.094          44.000    24846007.945 6 100044585.960 6     -1668.848          41.000
E33  23432666.102 8 123139483.266 8      -126.066          51.000    23432666.750 8  94353619.909 8       -96.596          51.000
> 2020 05 12 19 19 30.0000000  0 17        .000000000000
G01  20416175.539 6 107287734.406 6       800.484          41.000    20416177.969 6  83600836.510 6       623.754          41.000
G03  21623920.508 8 113634451.105 8      2332.902          50.000    21623922.461 8  88546345.180 8      1817.849          50.000
G08  22169891.055 8 116503566.057 8     -3056.723          50.000    22169893.773 8  90781982.609 8     -2381.862          50.000
G11  20034712.672 8 105283129.221 8     -1060.629          51.000    20034710.477 8  82038778.809 8      -826.464          49.000
G14  21905944.391 6 115116528.142 6       -16.211          40.000    21905947.914 5  89701174.285 5       -12.632          31.000
G22  20721070.758 8 108889970.034 8       701.426          51.000    20721067.156 8  84849320.405 8       546.566          51.000
R01  22223055.859 5 118794922.866 5     -3849.145          35.000
R02  19082664.711 8 101828793.698 8       241.754          51.000    19082667.461 8  79200176.801 8       188.031          49.000
R03  21578346.391 8 115510660.937 8      3689.125          48.000    21578349.766 7  89841610.182 7      2869.322          44.000
R17  19098566.070 8 102200289.827 8       149.559          50.000    19098567.984 8  79489110.223 8       116.323          48.000
R24  21526169.547 8 115110070.057 8     -3189.855          48.000    21526172.492 7  89530094.750 7     -2480.999          47.000
C05                                                                  39672938.484 6 159746482.771 6       -24.219          36.000
C27  21500984.859 8 111961290.762 8        70.750          51.000
C28  23454353.992 8 122132943.630 8     -2688.320          51.000
E19  25799867.227 7 135579211.712 7      2628.574          44.000    25799871.297 8 103885376.625 8      2014.060          48.000
E26  24858466.750 7 130632067.779 7     -2184.059          44.000    24858463.227 6 100094746.020 6     -1673.724          36.000
E33  23433416.852 8 123143429.328 8      -135.133          51.000    23433417.844 8  94356643.509 8      -103.528          51.000
> 2020 05 12 19 20  0.0000000  0 18        .000000000000
G01  20411639.836 6 107263898.494 6       788.188          40.000    20411640.508 6  83582263.098 6       614.175          40.000
G03  21610635.781 8 113564638.782 8      2320.840          50.000    21610637.344 8  88491946.006 8      1808.447          50.000
G08  22187373.633 8 116595435.408 8     -3068.121          50.000    22187375.086 8  90853569.105 8     -2390.744          51.000
G11  20040819.859 8 105315221.379 8     -1079.215          51.000    20040817.445 8  82063785.650 8      -840.947          49.000
G14  21906090.984 7 115117302.033 7       -35.594          42.000    21906091.984 4  89701777.303 4       -27.741          27.000
G22  20717104.086 8 108869125.202 8       687.941          51.000    20717100.227 8  84833077.701 8       536.058          51.000
G32  22393287.750 5 117677521.477 5     -1578.953          33.000    22393290.891 5  91696782.162 5     -1230.353          31.000
R01  22244678.258 5 118910511.185 5     -3856.684          35.000
R02  19081375.492 8 101821914.284 8       216.582          51.000    19081378.234 8  79194826.162 8       168.453          49.000
R03  21557709.984 7 115400184.826 7      3675.527          47.000    21557712.375 7  89755684.381 7      2858.743          44.000
R17  19097786.320 8 102196117.883 8       128.301          48.000    19097788.539 8  79485865.374 8        99.786          48.000
R24  21544100.883 7 115205961.650 7     -3203.367          46.000    21544104.547 7  89604677.088 7     -2491.508          45.000
C05                                                                  39673120.727 6 159747216.776 6       -24.790          36.000
C27  21500620.930 8 111959396.166 8        55.289          51.000
C28  23469868.648 8 122213732.202 8     -2697.918          51.000
E19  25784885.141 7 135500479.319 7      2620.062          45.000    25784889.188 8 103825049.227 8      2007.506          48.000
E26  24870953.977 7 130697688.274 7     -2190.895          42.000    24870944.383 4 100144986.560 4     -1678.453          29.000
E33  23434214.500 8 123147622.156 8      -144.668          51.000    23434215.773 8  94359856.186 8      -110.882          51.000
> 2020 05 12 19 20 30.0000000  0 18        .000000000000
G01  20407173.836 6 107240428.939 6       776.508          39.000    20407173.742 6  83563975.078 6       605.071          39.000
G03  21597417.727 8 113495177.900 8      2310.102          49.000    21597419.016 8  88437820.642 8      1800.079          49.000
G08  22204920.227 8 116687640.068 8     -3078.547          51.000    22204920.117 8  90925416.848 8     -2398.868          51.000
G11  20047031.352 8 105347862.501 8     -1096.641          51.000    20047028.898 8  82089220.266 8      -854.525          50.000
G14  21906346.680 7 115118648.000 7       -53.605          43.000    21906349.883 5  89702825.974 5       -41.767          31.000
G22  20713212.984 8 108848677.766 8       675.531          51.000    20713209.109 8  84817144.652 8       526.388          51.000
G32  22402349.461 5 117725129.760 5     -1595.234          35.000    22402343.359 5  91733883.571 5     -1243.052          33.000
R01  22266345.336 5 119026339.927 5     -3864.555          32.000
R02  19080225.250 8 101815776.837 8       192.797          51.000    19080227.758 8  79190052.591 8       149.953          50.000
R03  21537147.102 7 115290110.050 7      3662.984          45.000    21537149.188 7  89670070.707 7      2848.988          44.000
R17  19097124.680 8 102192577.481 8       108.039          49.000    19097126.805 8  79483111.731 8        84.033          49.000
R24  21562106.984 8 115302248.678 8     -3215.602          48.000    21562110.320 7  89679567.011 7     -2501.023          44.000
C05                                                                  39673306.234 6 159747963.690 6       -24.657          37.000
C27  21500343.961 8 111957954.903 8        40.977          51.000
C28  23485436.680 8 122294802.547 8     -2706.457          51.000
E19  25769949.992 7 135421993.583 7      2612.609          45.000    25769953.547 7 103764910.808 7      2001.801          47.000
E26  24883475.570 6 130763495.600 6     -2196.004          41.000
E33  23435065.062 8 123152092.179 8      -153.098          51.000    23435066.508 8  94363281.267 8      -117.309          51.000
> 2020 05 12 19 21  0.0000000  0 18        .000000000000
G01  20402773.852 6 107217306.087 6       765.090          41.000    20402774.602 6  83545957.264 6       596.177          41.000
G03  21584262.609 8 113426048.843 8      2298.789          49.000    21584264.062 8  88383953.846 8      1791.264          49.000
G08  22222526.312 8 116780158.203 8     -3089.078          51.000    22222525.398 8  90997508.839 8     -2407.074          51.000
G11  20053343.367 8 105381032.416 8     -1114.438          51.000    20053340.891 8  82115066.935 8      -868.393          50.000
G14  21906707.664 6 115120545.309 6       -72.457          41.000    21906708.898 4  89704304.371 4       -56.463          29.000
G22  20709393.648 8 108828607.133 8       662.785          51.000    20709389.820 8  84801505.196 8       516.456          51.000
G32  22411506.758 5 117773248.960 5     -1613.066          31.000    22411491.648 4  91771378.882 4     -1256.941          28.000
R01  22288053.094 5 119142384.467 5     -3871.656          31.000
R02  19079209.898 8 101810359.696 8       168.652          51.000    19079212.828 8  79185839.287 8       131.174          50.000
R03  21516654.742 7 115180418.287 7      3649.922          44.000    21516657.977 7  89584754.922 7      2838.831          44.000
R17  19096577.633 8 102189649.223 8        87.492          49.000    19096579.320 8  79480834.235 8        68.049          48.000
R24  21580183.164 8 115398908.910 8     -3228.191          49.000    21580184.930 6  89754747.144 6     -2510.816          40.000
C05                                                                  39673490.906 6 159748707.989 6       -24.808          37.000
C27  21500150.445 8 111956947.555 8        26.340          51.000
C28  23501054.258 8 122376133.375 8     -2715.262          51.000
E19  25755058.148 7 135343735.438 7      2604.730          46.000    25755060.953 7 103704946.789 7      1995.820          47.000
E26  24896028.766 7 130829469.283 7     -2201.930          42.000    24896032.164 5 100245997.458 5     -1687.151          34.000
E33  23435964.727 8 123156819.782 8      -161.953          51.000    23435966.391 8  94366903.702 8      -124.100          51.000
> 2020 05 12 19 21 30.0000000  0 18        .000000000000
G01  20398455.891 7 107194614.662 7       753.605          42.000    20398457.352 7  83528275.650 7       587.225          42.000
G03  21571186.914 8 113357336.018 8      2287.980          50.000    21571188.477 8  88330411.413 8      1782.842          49.000
G08  22240207.406 8 116873071.174 8     -3099.117          50.000    22240206.727 8  91069908.509 8     -2414.897          50.000
G11  20059771.812 8 105414814.362 8     -1131.711          51.000    20059769.516 8  82141390.518 8      -881.853          50.000
G14  21907189.383 7 115123077.930 7       -90.723          42.000    21907189.594 5  89706277.842 5       -70.690          32.000
G22  20705661.883 8 108808996.696 8       650.594          51.000    20705658.422 8  84786224.357 8       506.959          51.000
G27  24933808.641 5 131028039.294 5     -3826.883          31.000
G32  22420769.398 5 117821928.165 5     -1628.617          35.000
R02  19078345.344 8 101805746.772 8       144.941          51.000    19078348.352 8  79182251.463 8       112.735          50.000
R03  21496251.023 7 115071197.824 7      3637.387          46.000    21496255.367 7  89499805.703 7      2829.079          44.000
R17  19096160.883 8 102187420.147 8        67.258          49.000    19096163.000 8  79479100.515 8        52.312          49.000
R24  21598345.023 8 115496026.048 8     -3240.230          49.000    21598345.125 7  89830282.664 7     -2520.182          42.000
C05                                                                  39673691.055 6 159749513.868 6       -24.494          37.000
C27  21500056.430 8 111956457.864 8        12.082          51.000
C28  23516737.641 8 122457806.606 8     -2723.645          50.000
E19  25740225.758 7 135265789.989 7      2597.484          46.000    25740228.062 7 103645222.359 7      1990.262          47.000
E26  24908630.227 6 130895692.861 6     -2207.148          41.000    24908636.148 6 100296740.238 6     -1691.159          39.000
E33  23436929.406 8 123161889.374 8      -170.156          51.000    23436931.344 8  94370788.187 8      -130.433          51.000
> 2020 05 12 19 22  0.0000000  0 17        .000000000000
G01  20394184.164 7 107172166.226 7       741.605          42.000    20394186.156 7  83510783.400 7       577.874          42.000
G03  21558154.742 8 113288850.923 8      2276.438          49.000    21558156.109 8  88277046.434 8      1773.850          50.000
G08  22257926.930 8 116966187.418 8     -3109.762          50.000    22257927.039 8  91142466.589 8     -2423.191          49.000
G11  20066280.648 8 105449018.811 8     -1149.727          51.000    20066278.414 8  82168043.319 8      -895.891          50.000
G14  21907756.305 6 115126056.591 6      -109.227          37.000    21907756.875 5  89708598.896 5       -85.106          35.000
G22  20701981.680 8 108789656.887 8       637.598          51.000    20701978.273 8  84771154.385 8       496.832          51.000
G32  22430116.148 5 117871042.155 5     -1645.910          35.000    22430088.930 5  91847557.234 5     -1282.527          33.000
R02  19077595.289 8 101801745.246 8       120.629          51.000    19077598.680 8  79179139.171 8        93.822          50.000
R03  21475900.703 8 114962258.263 8      3623.977          49.000    21475905.266 7  89415074.978 7      2818.651          44.000
R17  19095839.203 8 102185698.905 8        46.273          49.000    19095841.344 8  79477761.779 8        35.990          48.000
R24  21616554.992 7 115593406.065 7     -3252.984          44.000    21616556.188 7  89906022.590 7     -2530.102          44.000
C05                                                                  39673870.430 6 159750236.310 6       -24.506          37.000
C27  21500025.812 8 111956298.973 8        -2.723          51.000
C28  23532451.414 8 122539633.467 8     -2732.598          51.000
E19  25725417.023 7 135187969.282 7      2589.391          46.000    25725419.383 8 103585593.512 8      1984.004          48.000
E26  24921242.305 6 130961976.943 6     -2212.738          38.000    24921249.297 7 100347529.298 7     -1695.780          42.000
E33  23437923.219 8 123167112.351 8      -179.270          51.000    23437925.398 8  94374790.190 8      -137.389          51.000
> 2020 05 12 19 22 30.0000000  0 16        .000000000000
G01  20389984.672 7 107150097.494 7       729.750          42.000    20389987.242 7  83493586.997 7       568.636          42.000
G03  21545191.750 8 113220730.024 8      2264.992          49.000    21545192.898 8  88223965.238 8      1764.932          49.000
G08  22275710.305 8 117059640.377 8     -3120.324          49.000    22275711.117 8  91215287.055 8     -2431.421          49.000
G11  20072895.633 8 105483781.694 8     -1167.711          50.000    20072893.781 8  82195131.262 8      -909.905          50.000
G14  21908433.664 5 115129596.876 5      -127.141          35.000    21908432.477 5  89711373.084 5       -99.071          30.000
G22  20698378.852 8 108770723.564 8       624.645          51.000    20698375.258 8  84756401.154 8       486.736          51.000
R02  19076985.469 8 101798492.183 8        96.430          51.000    19076989.297 8  79176609.028 8        75.001          50.000
R03  21455629.070 8 114853740.626 8      3610.555          50.000    21455633.477 7  89330672.443 7      2808.212          44.000
R17  19095638.625 8 102184625.307 8        25.312          50.000    19095640.414 7  79476926.771 7        19.688          47.000
R24  21634839.188 7 115691185.606 7     -3265.645          42.000    21634842.531 7  89982073.293 7     -2539.946          45.000
C05                                                                  39674054.852 6 159750979.372 6       -24.757          36.000
C27  21500084.719 8 111956606.146 8       -17.637          51.000
C28  23548220.406 8 122621747.381 8     -2741.473          49.000
E19  25710658.172 7 135110410.434 7      2581.258          46.000    25710660.680 7 103526165.300 7      1977.973          47.000
E26  24933892.328 6 131028456.998 6     -2218.871          39.000    24933899.656 7 100398468.528 7     -1700.102          43.000
E33  23438972.203 8 123172625.178 8      -188.125          51.000    23438974.602 8  94379014.289 8      -144.166          51.000
> 2020 05 12 19 23  0.0000000  0 16        .000000000000
G01  20385852.836 7 107128383.800 7       718.223          43.000    20385855.422 7  83476667.226 7       559.654          43.000
G03  21532293.039 8 113152948.493 8      2254.273          49.000    21532294.570 8  88171148.486 8      1756.577          49.000
G08  22293552.266 8 117153402.549 8     -3130.066          48.000    22293553.797 8  91288348.452 8     -2439.013          48.000
G11  20079611.820 8 105519077.024 8     -1184.832          50.000    20079610.297 8  82222634.128 8      -923.246          50.000
G14  21909222.641 5 115133736.579 5      -145.934          35.000
G22  20694848.273 8 108752170.390 8       612.676          51.000    20694844.727 8  84741944.151 8       477.410          51.000
R02  19076510.820 8 101795960.585 8        72.938          50.000    19076514.859 8  79174639.993 8        56.729          50.000
R03  21435431.641 8 114745621.662 8      3597.883          50.000    21435435.500 7  89246579.981 7      2798.356          44.000
R17  19095554.188 8 102184174.868 8         5.078          50.000    19095556.227 7  79476576.427 7         3.950          47.000
R24  21653191.922 7 115789336.723 7     -3277.457          43.000    21653198.633 7  90058413.154 7     -2549.130          45.000
C05                                                                  39674239.641 6 159751723.514 6       -24.080          36.000
C27  21500228.461 8 111957354.764 8       -31.711          51.000
C28  23564039.008 7 122704121.866 7     -2749.598          46.000
E19  25695944.727 7 135033089.285 7      2573.984          47.000    25695946.969 7 103466919.234 7      1972.301          47.000
E26  24946574.531 5 131095107.247 5     -2223.914          35.000    24946582.891 7 100449538.195 7     -1704.101          43.000
E33  23440071.719 8 123178402.982 8      -196.445          51.000    23440074.055 8  94383441.437 8      -150.577          51.000
> 2020 05 12 19 23 30.0000000  0 16        .000000000000
G01  20381787.312 7 107107018.355 7       705.031          43.000    20381789.125 7  83460018.817 7       549.375          44.000
G03  21519457.633 8 113085499.410 8      2241.082          48.000    21519459.945 8  88118590.777 8      1746.298          48.000
G08  22311451.055 8 117247463.687 8     -3141.746          48.000    22311453.250 8  91361642.818 8     -2448.117          48.000
G11  20086427.836 8 105554896.065 8     -1204.133          50.000    20086426.258 8  82250545.081 8      -938.285          49.000
G22  20691388.664 8 108733989.286 8       598.395          51.000    20691385.031 8  84727777.063 8       466.281          51.000
G32  22458745.180 5 118021497.293 5     -1697.969          33.000    22458712.445 5  91964697.983 5     -1323.111          31.000
R02  19076169.695 8 101794141.785 8        47.336          50.000    19076174.328 8  79173225.385 8        36.817          50.000
R03  21415307.688 8 114637896.006 8      3582.746          50.000    21415310.570 7  89162793.435 7      2786.583          43.000
R17  19095585.094 8 102184341.077 8       -17.297          50.000    19095587.195 7  79476705.700 7       -13.453          47.000
R24  21671614.836 8 115887850.627 8     -3291.207          48.000    21671622.016 7  90135035.108 7     -2559.828          46.000
C05                                                                  39674423.375 6 159752462.919 6       -25.693          36.000
C27  21500455.547 8 111958537.944 8       -48.156          51.000
C28  23579906.195 7 122786748.148 7     -2759.879          47.000
E19  25681275.508 8 134955999.510 8      2564.266          48.000    25681277.141 7 103407850.461 7      1964.818          47.000
E26                                                                  24959297.094 7 100500732.313 7     -1709.671          42.000
E33  23441220.539 8 123184438.791 8      -207.055          51.000    23441222.328 8  94388066.268 8      -158.613          51.000
> 2020 05 12 19 24  0.0000000  0 17        .000000000000
G01  20377758.492 6 107085846.610 6       694.414          41.000    20377759.836 6  83443521.364 6       541.102          41.000
G03  21506656.445 8 113018228.012 8      2231.387          49.000    21506659.117 8  88066171.514 8      1738.743          49.000
G08  22329376.562 8 117341666.468 8     -3150.508          48.000    22329379.805 8  91435047.576 8     -2454.941          48.000
G11  20093314.016 8 105591083.758 8     -1220.555          50.000    20093312.406 8  82278743.295 8      -951.082          49.000
G14  21911085.555 6 115143531.011 6      -182.980          36.000
G22  20687970.289 8 108716024.570 8       587.141          51.000    20687966.398 8  84713778.589 8       457.512          51.000
G32  22468447.516 6 118072498.117 6     -1713.328          38.000    22468417.984 5  92004438.656 5     -1335.061          33.000
R02  19075932.414 8 101792876.821 8        24.766          50.000    19075937.344 8  79172241.514 8        19.262          49.000
R03  21395228.305 8 114530408.178 8      3570.727          50.000    21395229.172 7  89079191.868 7      2777.232          42.000
R17  19095702.047 8 102184967.389 8       -36.785          50.000    19095703.930 7  79477192.808 7       -28.611          46.000
R24  21690077.016 8 115986567.355 8     -3302.023          49.000    21690082.945 7  90211814.749 7     -2568.240          45.000
C05                                                                  39674576.195 6 159753078.515 6       -24.805          36.000
C27  21500736.562 8 111960002.415 8       -61.543          51.000
C28  23595793.672 8 122869471.227 8     -2766.996          49.000
E19  25666620.852 7 134878987.060 7      2557.738          47.000    25666621.836 7 103348840.967 7      1959.784          47.000
E26                                                                  24972011.625 6 100551931.659 6     -1712.981          39.000
E33  23442389.086 8 123190577.896 8      -214.473          51.000    23442390.219 8  94392770.264 8      -164.279          51.000
> 2020 05 12 19 24 30.0000000  0 17        .000000000000
G01  20373837.539 6 107065244.056 6       681.594          41.000    20373839.008 6  83427467.424 6       531.112          41.000
G03  21493960.609 8 112951509.515 8      2219.023          50.000    21493962.938 8  88014183.113 8      1729.109          50.000
G08  22347399.992 8 117436382.779 8     -3161.414          48.000    22347404.125 8  91508852.489 8     -2463.440          48.000
G11  20100341.555 8 105628014.151 8     -1239.004          50.000    20100340.031 8  82307520.207 8      -965.461          48.000
G14  21912182.438 6 115149352.615 6      -202.633          37.000    21912177.648 5  89726687.057 5      -157.896          33.000
G22  20684664.047 8 108698650.278 8       573.629          51.000    20684660.164 8  84700240.196 8       446.987          50.000
G32  22478287.109 5 118124214.199 5     -1732.012          34.000    22478270.195 5  92044736.595 5     -1349.632          30.000
R02  19075870.125 8 101792544.985 8         -.078          50.000    19075875.227 8  79171983.427 8         -.061          49.000
R03  21375265.078 8 114423542.384 8      3556.184          48.000    21375264.297 7  88996074.101 7      2765.924          42.000
R17  19095976.555 8 102186436.368 8       -58.707          50.000    19095978.164 7  79478335.339 7       -45.661          46.000
R24  21708647.766 8 116085866.668 8     -3315.312          49.000    21708651.680 7  90289047.460 7     -2578.579          43.000
C05                                                                  39674769.602 6 159753857.392 6       -25.717          36.000
C27  21501143.195 8 111962119.958 8       -77.164          51.000
C28  23611771.055 8 122952661.107 8     -2776.477          51.000
E19  25652052.086 7 134802427.988 7      2548.664          47.000    25652052.664 7 103290178.864 7      1952.908          47.000
E26                                                                  24984798.547 6 100603423.083 6     -1718.189          38.000
E33  23443648.570 8 123197195.528 8      -224.320          51.000    23443649.555 8  94397840.913 8      -171.846          51.000
> 2020 05 12 19 25  0.0000000  0 16        .000000000000
G01  20370000.703 7 107045082.802 7       668.789          42.000    20370002.219 6  83411757.340 6       521.134          41.000
G03  21481345.367 8 112885215.826 8      2206.754          48.000    21481347.023 8  87962525.729 8      1719.548          48.000
G08  22365496.773 8 117531482.258 8     -3172.395          49.000    22365501.312 8  91582955.965 8     -2471.999          48.000
G11  20107486.000 8 105665558.085 8     -1257.711          51.000    20107484.453 8  82336775.206 8      -980.034          49.000
G14  21913408.734 5 115155816.044 5      -222.176          35.000    21913403.555 5  89731722.443 5      -173.127          33.000
G22  20681445.531 8 108681737.149 8       560.023          51.000    20681441.547 8  84687061.154 8       436.385          50.000
R02  19075958.438 8 101793014.885 8       -25.074          51.000    19075963.320 8  79172348.890 8       -19.502          49.000
R03  21355394.039 7 114317169.684 7      3541.508          47.000    21355393.586 7  88913339.832 7      2754.509          45.000
R17  19096384.195 8 102188618.451 8       -80.656          49.000    19096385.828 7  79480032.494 7       -62.733          46.000
R24  21727302.086 8 116185615.477 8     -3328.492          49.000    21727304.102 7  90366629.780 7     -2588.830          42.000
C05                                                                  39674979.000 6 159754700.789 6       -26.369          36.000
C27  21501650.969 8 111964763.620 8       -92.969          51.000
C28  23627812.430 8 123036188.962 8     -2785.965          51.000
E19  25637545.008 7 134726194.669 7      2539.539          47.000    25637545.523 7 103231766.351 7      1945.967          47.000
E26                                                                  24997634.844 6 100655107.664 6     -1723.083          37.000
E33  23444974.781 8 123204163.579 8      -234.191          51.000    23444975.719 8  94403180.059 8      -179.478          51.000
> 2020 05 12 19 25 30.0000000  0 17        .000000000000
G01  20366207.875 7 107025152.331 7       659.031          42.000    20366209.422 7  83396227.076 7       513.531          42.000
G03  21468770.680 8 112819136.290 8      2197.859          48.000    21468772.094 8  87911035.194 8      1712.618          48.000
G08  22383626.109 8 117626750.598 8     -3179.734          49.000    22383630.555 8  91657191.009 8     -2477.715          49.000
G11  20114706.922 8 105703503.716 8     -1272.984          51.000    20114705.203 8  82366343.226 8      -991.936          48.000
G14  21914716.641 6 115162706.094 6      -238.301          36.000
G22  20678274.539 8 108665073.722 8       549.941          51.000    20678270.422 8  84674076.693 8       428.526          51.000
G32  22498266.836 6 118229179.237 6     -1763.055          36.000    22498272.555 5  92126632.524 5     -1373.815          35.000
R02  19076156.555 8 101794070.588 8       -46.258          51.000    19076161.242 8  79173170.020 8       -35.978          48.000
R03  21335575.617 8 114211077.365 8      3530.383          48.000    21335576.266 7  88830823.596 7      2745.853          46.000
R17  19096885.180 8 102191299.740 8       -99.098          50.000    19096886.562 7  79482117.917 7       -77.076          45.000
R24  21745999.508 8 116285597.527 8     -3337.992          48.000    21746000.703 7  90444393.587 7     -2596.219          42.000
C05                                                                  39675164.172 6 159755446.849 6       -24.098          36.000
C27  21502219.664 8 111967724.615 8      -105.289          51.000
C28  23643877.469 8 123119844.136 8     -2792.004          51.000
E19  25623059.953 7 134650076.979 7      2534.086          47.000    25623060.750 7 103173442.457 7      1941.544          47.000
E26                                                                  25010479.797 5 100706836.328 5     -1725.615          32.000
E33  23446327.664 8 123211271.325 8      -240.648          51.000    23446328.305 8  94408626.246 8      -184.423          51.000
> 2020 05 12 19 26  0.0000000  0 16        .000000000000
G01  20362485.523 6 107005592.419 6       646.480          41.000    20362487.359 6  83380985.581 6       503.751          41.000
G03  21456263.594 8 112753410.484 8      2185.410          48.000    21456264.695 8  87859820.312 8      1702.920          48.000
G08  22401813.609 8 117722324.611 8     -3190.516          49.000    22401817.789 8  91731664.250 8     -2486.116          49.000
G11  20122030.648 8 105741989.745 8     -1291.469          50.000    20122028.750 8  82396332.324 8     -1006.339          49.000
G14  21916134.844 5 115170161.829 5      -257.551          35.000    21916135.078 5  89742922.933 5      -200.680          32.000
G22  20675177.258 8 108648798.571 8       536.461          51.000    20675173.438 8  84661394.776 8       418.022          51.000
R01  22507228.570 5 120314034.710 5     -3938.539          30.000
R02  19076490.711 8 101795852.167 8       -71.074          51.000    19076494.758 8  79174555.698 8       -55.280          48.000
R03  21315836.203 8 114105409.808 8      3515.516          48.000    21315837.930 7  88748637.728 7      2734.290          46.000
R17  19097506.422 8 102194623.234 8      -121.039          50.000    19097507.078 7  79484702.832 7       -94.145          45.000
R24  21764766.898 8 116385952.431 8     -3350.918          50.000    21764767.844 7  90522447.368 7     -2606.270          42.000
C05                                                                  39675351.750 6 159756202.111 6       -25.137          36.000
C27  21502875.984 8 111971141.283 8      -121.188          51.000
C28  23659992.945 8 123203763.175 8     -2801.285          51.000
E19  25608623.906 7 134574215.477 7      2524.844          47.000    25608625.156 7 103115314.858 7      1934.573          47.000
E33  23447733.641 8 123218658.406 8      -250.535          51.000    23447733.969 8  94414286.469 8      -192.004          51.000
> 2020 05 12 19 26 30.0000000  0 16        .000000000000
G01  20358828.281 6 106986374.490 6       634.957          41.000    20358830.352 7  83366010.553 7       494.772          42.000
G03  21443818.109 7 112688009.448 7      2174.641          46.000    21443819.297 7  87808858.507 7      1694.525          46.000
G08  22420053.172 8 117818172.498 8     -3199.414          48.000    22420057.156 8  91806350.907 8     -2493.050          48.000
G11  20129451.352 8 105780986.019 8     -1308.340          50.000    20129449.445 8  82426718.999 8     -1019.486          50.000
G14  21917654.477 6 115178153.514 6      -275.465          37.000    21917657.586 4  89749141.089 4      -214.651          26.000
G22  20672148.133 8 108632881.300 8       524.633          51.000    20672144.602 8  84648991.701 8       408.805          51.000
R02  19076954.938 8 101798328.397 8       -94.035          51.000    19076958.711 8  79176481.661 8       -73.138          48.000
R03  21296171.234 8 114000139.558 8      3502.383          50.000    21296172.688 7  88666760.887 7      2724.076          45.000
R17  19098242.336 8 102198559.949 8      -141.426          50.000    19098242.695 7  79487764.710 7      -110.001          45.000
R24  21783598.305 8 116486648.470 8     -3362.125          51.000    21783598.570 7  90600766.492 7     -2614.986          43.000
C05                                                                  39675536.047 6 159756941.880 6       -24.349          36.000
C27  21503614.391 8 111974984.909 8      -135.238          51.000
C28  23676153.742 8 123287915.556 8     -2808.941          51.000
E19  25594231.359 7 134498581.799 7      2517.223          47.000    25594233.055 7 103057361.812 7      1928.841          47.000
E26  25036258.766 5 131566424.091 5     -2263.336          34.000    25036261.883 5 100810643.345 5     -1734.089          32.000
E33  23449187.219 8 123226295.941 8      -258.738          51.000    23449187.242 8  94420138.596 8      -198.284          51.000
> 2020 05 12 19 27  0.0000000  0 17        .000000000000
G01  20355242.086 7 106967530.059 7       622.047          43.000    20355244.367 7  83351326.574 7       484.712          43.000
G03  21431440.117 7 112622964.564 7      2162.625          46.000    21431441.969 7  87758174.194 7      1685.162          45.000
G08  22438350.180 8 117914322.840 8     -3209.902          49.000    22438353.922 8  91881273.230 8     -2501.226          49.000
G11  20136974.961 8 105820522.856 8     -1326.828          51.000    20136973.031 8  82457526.914 8     -1033.892          49.000
G14  21919282.305 5 115186711.422 5      -293.816          32.000
G22  20669193.133 8 108617352.424 8       511.188          51.000    20669189.664 8  84636891.283 8       398.331          50.000
G32  22528881.211 5 118390069.320 5     -1813.859          34.000
R02  19077554.711 8 101801529.201 8      -118.680          51.000    19077558.695 8  79178971.201 8       -92.306          48.000
R03  21276586.859 8 113895299.912 8      3487.531          50.000    21276586.656 7  88585219.011 7      2712.527          44.000
R17  19099098.945 8 102203142.507 8      -163.441          50.000    19099099.195 7  79491328.919 7      -127.121          46.000
R24  21802498.719 8 116587715.376 8     -3375.004          50.000    21802499.133 7  90679373.994 7     -2625.009          43.000
C05                                                                  39675722.703 6 159757693.794 6       -24.992          36.000
C27  21504440.773 8 111979286.555 8      -150.949          51.000
C28  23692364.883 8 123372330.505 8     -2818.250          51.000
E19  25579888.141 7 134423207.742 7      2508.328          47.000    25579890.438 7 102999607.708 7      1921.957          47.000
E26  25049200.352 5 131634435.116 5     -2269.738          34.000    25049200.906 6 100862758.837 6     -1738.929          36.000
E33  23450694.414 8 123234215.233 8      -268.484          51.000    23450693.938 8  94426206.618 8      -205.737          51.000
> 2020 05 12 19 27 30.0000000  0 17        .000000000000
G01  20351725.969 7 106949052.425 7       610.184          44.000    20351728.266 7  83336928.434 7       475.471          44.000
G03  21419128.883 7 112558268.978 7      2150.902          47.000    21419130.914 7  87707762.053 7      1676.028          47.000
G08  22456702.914 8 118010765.363 8     -3219.453          50.000    22456706.109 8  91956423.236 8     -2508.665          50.000
G11  20144599.906 8 105860592.237 8     -1344.289          51.000    20144597.992 8  82488749.788 8     -1047.498          50.000
G14  21921016.781 5 115195720.847 5      -313.094          34.000
G22  20666310.414 8 108602204.230 8       498.789          51.000    20666307.102 8  84625087.513 8       388.667          50.000
G32  22539306.398 6 118444796.845 6     -1830.355          37.000    22539313.891 5  92294710.456 5     -1426.266          32.000
R02  19078288.836 8 101805446.228 8      -142.258          51.000    19078292.500 7  79182017.774 7      -110.645          47.000
R03  21257081.711 8 113790886.060 8      3473.488          50.000    21257079.992 7  88504008.319 7      2701.605          44.000
R17  19100074.945 8 102208364.713 8      -184.684          50.000    19100075.070 7  79495390.613 7      -143.643          45.000
R24  21821466.664 8 116689143.608 8     -3386.770          48.000    21821467.250 7  90758262.542 7     -2634.157          44.000
C05                                                                  39675910.492 6 159758450.147 6       -24.880          36.000
C27  21505353.617 8 111984039.380 8      -165.742          51.000
C28  23708624.695 8 123456999.422 8     -2826.312          51.000
E19  25565592.781 7 134348087.305 7      2499.922          46.000    25565596.055 7 102942047.912 7      1915.602          46.000
E26  25062174.516 5 131702610.323 5     -2275.051          34.000    25062175.438 7 100914996.267 7     -1743.343          42.000
E33  23452253.773 8 123242409.468 8      -277.520          51.000    23452252.961 8  94432485.305 8      -212.627          51.000
> 2020 05 12 19 28  0.0000000  0 17        .000000000000
G01  20348274.984 7 106930917.087 7       598.656          43.000    20348277.195 7  83322797.022 7       466.485          44.000
G03  21406879.758 8 112493897.817 8      2140.199          48.000    21406881.625 8  87657602.736 8      1667.691          48.000
G08  22475106.195 8 118107473.068 8     -3227.914          50.000    22475108.438 8  92031779.860 8     -2515.258          50.000
G11  20152321.281 8 105901168.336 8     -1360.957          50.000    20152319.570 8  82520367.534 8     -1060.486          50.000
G14  21922852.812 5 115205370.064 5      -329.980          34.000    21922851.594 5  89770410.854 5      -257.128          31.000
G22  20663495.094 8 108587410.633 8       487.219          51.000    20663491.625 8  84613560.055 8       379.651          50.000
G32  22549799.438 6 118499928.092 6     -1845.750          36.000    22549786.859 5  92337627.347 5     -1438.247          33.000
R02  19079151.766 8 101810051.390 8      -164.934          51.000    19079155.547 8  79185599.601 8      -128.282          48.000
R03  21237651.320 8 113686874.460 8      3460.293          48.000    21237649.922 7  88423110.479 7      2691.342          45.000
R17  19101165.695 8 102214201.630 8      -204.805          50.000    19101165.836 7  79499930.435 7      -159.293          46.000
R24  21840495.594 6 116790905.722 6     -3397.535          41.000    21840497.688 7  90837410.824 7     -2642.530          45.000
C05                                                                  39676094.492 6 159759191.346 6       -24.476          37.000
C27  21506348.227 8 111989218.730 8      -179.742          51.000
C28  23724928.102 8 123541895.850 8     -2833.676          51.000
E19  25551341.047 7 134273196.299 7      2492.617          46.000    25551345.039 7 102884663.892 7      1909.930          46.000
E26                                                                  25075178.367 7 100967345.960 7     -1746.854          43.000
E33  23453860.648 8 123250853.846 8      -285.586          51.000    23453859.781 8  94438955.667 8      -218.811          51.000
> 2020 05 12 19 28 30.0000000  0 17        .000000000000
G01  20344891.828 7 106913138.189 7       590.188          45.000    20344894.031 7  83308943.341 7       459.886          45.000
G03  21394695.031 8 112429865.048 8      2132.203          49.000    21394696.695 8  87607707.096 8      1661.457          48.000
G08  22493561.883 8 118204456.656 8     -3233.941          50.000    22493562.984 8  92107351.466 8     -2519.957          50.000
G11  20160141.367 8 105942263.822 8     -1375.055          50.000    20160140.086 8  82552389.981 8     -1071.471          50.000
G22  20660749.688 8 108572984.524 8       478.094          51.000    20660745.984 8  84602318.933 8       372.541          50.000
G32  22560383.531 6 118555540.449 6     -1858.406          37.000    22560370.086 6  92380924.570 6     -1448.112          37.000
R01  22618185.758 5 120907109.561 5     -3962.453          32.000
R02  19080146.180 8 101815358.139 8      -185.070          51.000    19080150.039 8  79189727.079 8      -143.944          48.000
R03  21218298.438 7 113583281.315 7      3449.605          47.000    21218298.352 7  88342538.076 7      2683.026          45.000
R17  19102373.891 8 102220668.153 8      -222.648          50.000    19102374.289 7  79504959.947 7      -173.171          46.000
R24  21859583.773 5 116893013.346 5     -3405.895          34.000    21859592.742 7  90916828.056 7     -2649.020          45.000
C05                                                                  39676277.305 6 159759927.706 6       -21.947          36.000
C27  21507427.555 8 111994838.347 8      -191.238          51.000
C28  23741277.164 8 123627031.748 8     -2838.457          50.000
E19  25537135.992 7 134198549.329 7      2487.617          47.000    25537140.000 7 102827466.874 7      1906.126          45.000
E26  25088206.070 6 131839410.784 6     -2281.992          38.000    25088210.586 7 101019817.974 7     -1748.447          42.000
E33  23455517.672 8 123259562.337 8      -291.188          51.000    23455517.086 8  94445628.401 8      -223.157          51.000
> 2020 05 12 19 29  0.0000000  0 18        .000000000000
G01  20341567.633 7 106895668.729 7       573.707          46.000    20341569.664 7  83295330.753 7       447.044          46.000
G03  21382565.688 8 112366123.392 8      2116.328          49.000    21382566.891 8  87558038.280 8      1649.087          49.000
G08  22512060.289 8 118301665.749 8     -3247.480          49.000    22512061.148 8  92183098.783 8     -2530.507          49.000
G11  20168051.164 8 105983830.419 8     -1396.992          50.000    20168050.008 8  82584779.539 8     -1088.568          50.000
G14  21926830.977 5 115226282.637 5      -368.426          34.000
G22  20658065.195 8 108558877.440 8       461.406          51.000    20658061.414 8  84591326.386 8       359.537          51.000
G32  22571050.031 5 118611584.001 5     -1878.371          30.000    22571037.391 4  92424594.905 4     -1463.669          26.000
R01  22640449.047 4 121026173.951 4     -3972.445          28.000
R02  19081262.438 8 101821315.492 8      -212.902          51.000    19081266.312 8  79194360.597 8      -165.591          48.000
R03  21199015.258 7 113480060.282 7      3430.867          46.000    21199016.164 7  88262255.056 7      2668.452          45.000
R17  19103690.625 8 102227716.770 8      -248.258          49.000    19103691.805 7  79510442.199 7      -193.089          46.000
R24  21878730.836 7 116995416.527 7     -3421.801          42.000    21878742.938 7  90996474.966 7     -2661.404          45.000
C05                                                                  39676449.875 6 159760621.533 6       -25.261          36.000
C27  21508582.523 8 112000851.372 8      -210.492          51.000
C28  23757662.711 8 123712358.458 8     -2850.891          49.000
E19  25522968.828 7 134124099.727 7      2474.773          47.000    25522972.125 7 102770421.090 7      1896.273          44.000
E26  25101261.109 6 131908002.579 6     -2291.812          41.000    25101264.484 6 101072375.372 6     -1755.908          41.000
E33  23457215.898 8 123268487.643 8      -304.602          51.000    23457215.359 8  94452467.260 8      -233.402          51.000
> 2020 05 12 19 29 30.0000000  0 16        .000000000000
G01  20338323.938 7 106878622.169 7       562.316          47.000    20338325.703 7  83282047.719 7       438.169          47.000
G03  21370513.188 8 112302786.069 8      2105.711          49.000    21370514.609 8  87508684.545 8      1640.814          49.000
G08  22530622.266 8 118399210.439 8     -3255.906          49.000    22530623.641 8  92259107.628 8     -2537.070          49.000
G11  20176072.148 8 106025980.106 8     -1413.504          51.000    20176070.859 8  82617623.443 8     -1101.432          49.000
G22  20655462.945 8 108545201.677 8       449.832          51.000    20655459.219 8  84580669.961 8       350.522          51.000
R01  22662753.281 5 121145413.046 5     -3976.945          30.000
R02  19082521.805 8 101828036.988 8      -235.574          51.000    19082525.648 8  79199588.452 8      -183.224          48.000
R03  21179823.086 7 113377328.429 7      3417.312          44.000    21179824.930 7  88182352.498 7      2657.910          44.000
R17  19105137.469 7 102235463.302 7      -268.543          47.000    19105139.398 7  79516467.270 7      -208.867          47.000
R24  21897958.680 7 117098228.010 7     -3432.656          47.000    21897968.961 7  91076439.416 7     -2669.844          43.000
C05                                                                  39676633.602 6 159761361.223 6       -24.621          37.000
C27  21509834.523 8 112007369.942 8      -224.543          51.000
C28  23774106.266 8 123797986.379 8     -2858.184          50.000
E19  25508860.922 8 134049961.433 8      2467.207          48.000    25508863.125 7 102713613.847 7      1890.505          43.000
E26  25114356.836 6 131976818.259 6     -2296.398          38.000    25114360.742 6 101125104.287 6     -1759.602          40.000
E33  23458976.898 8 123277743.108 8      -312.867          51.000    23458976.250 8  94459559.106 8      -239.717          51.000
> 2020 05 12 19 30  0.0000000  0 14        .000000000000
G01  20335170.250 7 106862048.049 7       549.953          47.000    20335171.547 7  83269132.832 7       428.538          47.000
G03  21358546.766 8 112239902.364 8      2094.164          48.000    21358548.648 7  87459684.250 7      1631.813          47.000
G08  22549256.859 8 118497137.396 8     -3265.246          48.000    22549258.766 8  92335414.342 8     -2544.345          48.000
G11  20184213.148 8 106068760.968 8     -1431.113          51.000    20184211.984 8  82650959.169 8     -1115.153          49.000
G22  20652951.891 8 108532005.511 8       437.258          51.000    20652948.312 8  84570387.236 8       340.720          51.000
R02  19083933.469 8 101835571.036 8      -259.191          51.000    19083937.016 8  79205448.269 8      -201.593          48.000
R03  21160730.141 7 113275138.015 7      3402.777          43.000    21160734.328 7  88102871.030 7      2646.602          43.000
R17  19106724.477 8 102243958.575 8      -290.160          48.000    19106727.227 7  79523074.703 7      -225.680          47.000
R24  21917272.883 8 117201495.652 8     -3444.324          50.000    21917279.094 6  91156758.649 6     -2678.919          40.000
C27  21511192.797 8 112014442.823 8      -239.656          51.000
C28  23790616.984 8 123883962.545 8     -2866.246          51.000
E19  25494821.734 8 133976184.466 8      2458.648          48.000    25494822.930 7 102657083.473 7      1883.944          43.000
E26  25127504.055 6 132045906.218 6     -2301.691          36.000    25127508.516 5 101178041.814 5     -1763.915          33.000
E33  23460810.023 8 123287377.992 8      -321.980          51.000    23460809.633 8  94466941.681 8      -246.721          51.000
> 2020 05 12 19 30 30.0000000  0 14        .000000000000
G01  20332065.672 7 106845732.418 7       539.918          47.000    20332066.766 7  83256419.362 7       420.715          47.000
G03  21346625.844 7 112177258.095 7      2084.551          47.000    21346627.609 7  87410870.518 7      1624.322          47.000
G08  22567923.086 8 118595229.710 8     -3272.070          49.000    22567925.484 8  92411849.903 8     -2549.665          49.000
G11  20192433.281 8 106111957.834 8     -1446.430          51.000    20192432.281 8  82684619.025 8     -1127.088          49.000
G22  20650490.961 8 108519073.371 8       427.027          51.000    20650487.430 8  84560310.249 8       332.749          51.000
R02  19085456.391 8 101843698.189 8      -280.387          51.000    19085460.148 8  79211769.408 8      -218.079          49.000
R03  21141700.703 7 113173272.388 7      3390.461          45.000    21141704.047 7  88023642.232 7      2637.028          42.000
R17  19108410.734 7 102252984.807 7      -309.316          47.000    19108414.266 7  79530095.075 7      -240.579          46.000
R24  21936631.336 8 117304999.016 8     -3453.629          51.000    21936632.023 6  91237261.172 6     -2686.162          36.000
C05                                                                  39677021.125 6 159762921.433 6       -22.793          36.000
C27  21512616.781 8 112021857.705 8      -252.473          51.000
C28  23807153.297 8 123970072.870 8     -2872.266          51.000
E19  25480810.688 8 133902555.166 8      2452.328          48.000    25480811.344 7 102600666.258 7      1879.066          43.000
E33  23462674.414 8 123297178.158 8      -328.828          51.000    23462674.797 8  94474450.884 8      -251.959          51.000
> 2020 05 12 19 31  0.0000000  0 15        .000000000000
G01  20329018.133 8 106829717.179 8       520.754          48.000    20329019.531 8  83243939.969 8       405.782          49.000
G03  21334758.648 7 112114894.741 7      2066.102          47.000    21334760.008 7  87362275.733 7      1609.952          47.000
G08  22586628.195 8 118693526.177 8     -3287.867          49.000    22586630.781 8  92488444.531 8     -2561.977          49.000
G11  20200740.328 8 106155611.519 8     -1470.734          51.000    20200739.453 8  82718634.843 8     -1146.027          49.000
G22  20648088.102 8 108506446.201 8       407.789          51.000    20648084.367 8  84550470.899 8       317.758          51.000
G32  22614673.727 5 118840935.752 5     -1946.852          34.000    22614678.492 5  92603328.997 5     -1517.027          33.000
R02  19087098.141 8 101852458.035 8      -310.562          51.000    19087101.750 8  79218582.630 8      -241.549          48.000
R03  21122741.273 7 113071775.959 7      3369.031          47.000    21122743.016 7  87944700.613 7      2620.361          42.000
R17  19110205.031 8 102262585.166 8      -337.652          49.000    19110208.406 7  79537562.031 7      -262.618          46.000
R24  21956040.586 8 117408778.094 8     -3471.883          51.000    21956035.445 5  91317978.127 5     -2700.356          35.000
C05                                                                  39677192.172 6 159763609.922 6       -28.170          36.000
C27  21514114.414 8 112029655.736 8      -274.141          51.000
C28  23823722.953 8 124056356.763 8     -2886.945          51.000
E19  25466835.727 8 133829115.929 8      2436.871          48.000    25466836.289 7 102544394.683 7      1867.222          44.000
E33  23464578.531 8 123307185.280 8      -344.926          51.000    23464579.445 8  94482118.663 8      -264.291          51.000
> 2020 05 12 19 31 30.0000000  0 15        .000000000000
G01  20326045.141 8 106814094.057 8       514.852          48.000    20326046.914 8  83231766.097 8       401.183          48.000
G03  21322962.266 7 112052903.815 7      2060.762          46.000    21322963.805 7  87313971.151 7      1605.788          47.000
G08  22605388.953 8 118792114.825 8     -3290.496          49.000    22605391.320 8  92565266.832 8     -2564.023          49.000
G11  20209151.422 8 106199811.835 8     -1481.801          51.000    20209150.320 8  82753076.614 8     -1154.650          49.000
G22  20645760.727 8 108494214.631 8       401.816          51.000    20645756.656 8  84540939.796 8       313.101          51.000
G32  22625795.789 5 118899394.306 5     -1956.043          32.000    22625791.992 5  92648838.232 5     -1524.180          33.000
R02  19088875.578 8 101861941.685 8      -327.512          51.000    19088878.773 8  79225958.814 8      -254.728          49.000
R03  21103868.711 8 112970743.540 8      3360.660          48.000    21103869.375 7  87866119.880 7      2613.847          44.000
R17  19112124.023 8 102272853.111 8      -352.738          48.000    19112127.438 7  79545548.209 7      -274.352          46.000
R24  21975516.836 7 117512923.760 7     -3476.949          47.000    21975511.523 6  91398980.216 6     -2704.297          39.000
C05                                                                  39677367.672 6 159764317.160 6       -23.427          36.000
C27  21515702.883 8 112037927.472 8      -282.957          51.000
C28  23840342.992 8 124142902.917 8     -2888.566          50.000
E19  25452914.172 7 133755958.854 7      2434.375          47.000    25452915.133 7 102488339.318 7      1865.333          45.000
E33  23466539.664 8 123317490.826 8      -347.926          51.000    23466540.828 8  94490015.116 8      -266.542          51.000
> 2020 05 12 19 32  0.0000000  0 14        .000000000000
G01  20323192.062 8 106799101.166 8       496.551          48.000    20323193.922 8  83220083.337 8       386.926          48.000
G03  21311281.766 7 111991523.233 7      2043.055          46.000    21311283.828 7  87266142.128 7      1591.991          45.000
G08  22624250.000 8 118891230.799 8     -3305.367          49.000    22624252.094 8  92642500.032 8     -2575.611          49.000
G11  20217711.477 8 106244795.349 8     -1505.215          50.000    20217710.148 8  82788128.697 8     -1172.895          48.000
G22  20643553.562 8 108482615.308 8       383.410          51.000    20643549.602 8  84531901.372 8       298.761          51.000
R02  19090833.680 8 101872388.562 8      -356.754          50.000    19090836.672 8  79234084.153 8      -277.478          50.000
R03  21085128.688 8 112870419.665 8      3339.680          50.000    21085129.172 7  87788090.228 7      2597.532          46.000
R17  19114213.281 8 102284031.331 8      -380.320          49.000    19114216.570 7  79554242.349 7      -295.805          46.000
R24  21995106.000 7 117617675.652 7     -3494.367          45.000    21995102.992 7  91480453.885 7     -2717.841          42.000
C05                                                                  39677593.172 6 159765224.958 6       -28.224          36.000
C27  21517427.523 8 112046908.515 8      -303.996          51.000
C28  23857058.453 8 124229945.283 8     -2902.547          49.000
E19  25439091.602 7 133683322.540 7      2419.910          46.000    25439093.164 7 102432682.975 7      1854.100          46.000
E33  23468602.625 8 123328332.726 8      -363.086          51.000    23468604.266 8  94498322.538 8      -278.173          51.000
> 2020 05 12 19 32 30.0000000  0 14        .000000000000
G01  20320363.102 8 106784234.950 8       488.781          49.000    20320364.891 8  83208499.281 8       380.869          49.000
G03  21299621.344 7 111930249.091 7      2035.961          46.000    21299623.297 7  87218396.029 7      1586.463          45.000
G08  22643114.945 8 118990367.476 8     -3309.645          49.000    22643116.820 8  92719749.348 8     -2578.947          49.000
G11  20226324.391 8 106290056.926 8     -1518.156          50.000    20226323.109 8  82823397.452 8     -1182.979          49.000
G22  20641370.461 8 108471142.999 8       375.441          51.000    20641366.836 8  84522961.908 8       292.552          51.000
R02  19092875.594 8 101883285.029 8      -375.559          49.000    19092878.555 8  79242559.175 8      -292.104          50.000
R03  21066425.070 8 112770292.453 8      3329.379          51.000    21066425.727 7  87710213.521 7      2589.517          47.000
R17  19116377.266 8 102295607.353 8      -397.473          50.000    19116380.250 7  79563245.912 7      -309.148          46.000
R24  22014711.805 7 117722518.617 7     -3501.070          46.000    22014711.516 7  91561998.410 7     -2723.058          44.000
C05                                                                  39677772.445 6 159765946.885 6       -24.642          36.000
C27  21519192.508 8 112056099.511 8      -314.641          51.000
C28  23873772.875 7 124316982.856 7     -2906.031          47.000
E19  25425272.555 7 133610703.815 7      2415.406          46.000    25425274.523 7 102377040.084 7      1850.763          46.000
E33  23470671.789 8 123339207.237 8      -367.801          51.000    23470673.828 8  94506654.951 8      -281.830          51.000
> 2020 05 12 19 33  0.0000000  0 17        .000000000000
G01  20317612.312 8 106769779.202 8       474.316          50.000    20317614.000 8  83197235.060 8       369.597          50.000
G03  21288035.234 7 111869364.848 7      2022.277          47.000    21288036.461 7  87170953.792 7      1575.801          47.000
G08  22662037.195 8 119089805.125 8     -3320.270          48.000    22662038.945 8  92797233.168 8     -2587.226          48.000
G11  20235043.961 8 106335879.104 8     -1537.316          50.000    20235043.094 8  82859103.037 8     -1197.909          49.000
G14  21947004.688 5 115332282.147 5      -516.441          33.000
G22  20639265.375 8 108460080.092 8       361.258          51.000    20639261.672 8  84514341.451 8       281.500          51.000
G32  22659759.891 5 119077841.216 5     -2007.051          34.000
R02  19095055.867 8 101894917.077 8      -400.711          50.000    19095058.484 8  79251606.291 8      -311.664          51.000
R03  21047812.375 8 112670652.611 8      3312.426          51.000    21047813.156 7  87632715.870 7      2576.331          47.000
R17  19118669.141 8 102307870.269 8      -420.922          50.000    19118672.031 7  79572783.724 7      -327.384          46.000
R24  22034388.148 7 117827738.823 7     -3514.402          46.000    22034389.734 7  91643836.317 7     -2733.427          44.000
C05                                                                  39677959.422 6 159766699.756 6       -26.095          36.000
C27  21521051.773 8 112065781.218 8      -331.562          51.000
C28  23890539.727 7 124404294.556 7     -2915.492          45.000
E19  25411511.164 7 133538386.645 7      2404.832          47.000    25411513.227 7 102321628.277 7      1842.601          46.000
E26  25206937.039 5 132463348.946 5     -2336.898          35.000    25206938.328 5 101497901.883 5     -1790.581          35.000
E33  23472801.406 8 123350397.842 8      -378.977          51.000    23472803.430 8  94515229.567 8      -290.379          51.000
> 2020 05 12 19 33 30.0000000  0 16        .000000000000
G01  20314934.297 8 106755706.066 8       463.066          49.000    20314935.781 8  83186268.997 8       360.834          49.000
G03  21276518.234 7 111808842.463 7      2011.750          47.000    21276518.648 8  87123793.512 8      1567.600          48.000
G08  22681010.797 7 119189513.296 7     -3327.723          46.000    22681012.852 7  92874927.796 7     -2593.034          46.000
G11  20243864.703 8 106382232.427 8     -1553.582          50.000    20243863.898 8  82895222.502 8     -1210.583          50.000
G14  21950000.008 6 115348015.685 6      -533.168          38.000    21949994.305 5  89881552.381 5      -415.456          31.000
G22  20637232.672 8 108449397.657 8       350.086          51.000    20637228.750 8  84506017.476 8       272.794          51.000
R02  19097367.695 8 101907253.490 8      -422.629          51.000    19097370.422 8  79261201.287 8      -328.711          50.000
R03  21029285.000 8 112571473.330 8      3298.559          50.000    21029285.977 7  87555576.458 7      2565.546          46.000
R17  19121083.953 8 102320791.878 8      -441.352          50.000    19121086.906 7  79582833.835 7      -343.273          46.000
R24  22054129.664 7 117933305.299 7     -3524.262          46.000    22054131.570 7  91725943.621 7     -2741.089          44.000
C05                                                                  39678148.500 6 159767461.727 6       -25.379          36.000
C27  21522999.953 8 112075925.771 8      -345.535          51.000
C28  23907353.023 7 124491850.931 7     -2922.230          42.000
E19  25397802.117 7 133466343.945 7      2397.223          47.000    25397803.922 7 102266426.741 7      1836.803          46.000
E26  25220282.266 6 132533505.471 6     -2341.301          37.000    25220286.570 6 101551658.124 6     -1793.666          36.000
E33  23474986.031 8 123361876.544 8      -387.117          51.000    23474987.867 8  94524024.934 8      -296.616          51.000
> 2020 05 12 19 34  0.0000000  0 17        .000000000000
G01  20312324.148 8 106741989.933 8       452.758          49.000    20312325.336 8  83175581.110 8       352.798          49.000
G03  21265065.383 7 111748655.901 7      2002.246          47.000    21265065.641 7  87076894.906 7      1560.192          47.000
G08  22700030.266 7 119289462.564 7     -3334.000          47.000    22700033.062 7  92952810.297 7     -2597.925          47.000
G11  20252781.398 8 106429090.000 8     -1568.762          51.000    20252780.570 8  82931734.906 8     -1222.412          50.000
G14  21953094.867 5 115364273.382 5      -548.367          34.000
G22  20635266.883 8 108439068.661 8       339.969          51.000    20635263.164 8  84497968.920 8       264.911          51.000
R01  22864823.961 5 122225511.953 5     -4019.359          30.000
R02  19099806.578 8 101920266.317 8      -443.406          50.000    19099808.859 8  79271322.334 8      -344.872          50.000
R03  21010838.273 8 112472729.985 8      3285.781          49.000    21010838.719 7  87478776.150 7      2555.611          44.000
R17  19123616.867 8 102334346.055 8      -460.879          50.000    19123620.203 7  79593375.960 7      -358.461          46.000
R24  22073930.117 7 118039189.416 7     -3533.066          46.000    22073932.836 7  91808297.985 7     -2747.938          44.000
C05                                                                  39678334.914 6 159768211.444 6       -23.418          36.000
C27  21525031.969 8 112086507.320 8      -358.426          51.000
C28  23924206.570 6 124579624.399 6     -2927.797          41.000
E19  25384140.367 7 133394550.120 7      2390.598          47.000    25384141.758 7 102211415.920 7      1831.814          46.000
E26  25233660.062 6 132603809.768 6     -2344.164          40.000    25233663.625 6 101605527.645 6     -1796.025          37.000
E33  23477220.359 8 123373617.458 8      -394.066          51.000    23477222.305 8  94533021.203 8      -301.959          51.000
> 2020 05 12 19 34 30.0000000  0 16        .000000000000
G01  20309770.352 8 106728570.292 8       437.980          49.000    20309771.570 8  83165124.266 8       341.283          49.000
G03  21253664.633 7 111688744.365 7      1988.238          46.000    21253665.375 7  87030210.629 7      1549.277          45.000
G08  22719083.734 8 119389589.485 8     -3344.840          48.000    22719087.117 8  93030831.245 8     -2606.372          48.000
G11  20261782.062 8 106476389.622 8     -1588.289          49.000    20261781.391 8  82968591.763 8     -1237.631          49.000
G22  20633356.781 8 108429031.392 8       325.375          51.000    20633353.195 8  84490147.665 8       253.539          51.000
R01  22887386.406 5 122346126.655 5     -4025.918          31.000
R02  19102359.789 8 101933891.182 8      -468.730          50.000    19102362.602 8  79281919.480 8      -364.568          50.000
R03  20992461.562 8 112374362.422 8      3268.199          48.000    20992461.578 7  87402268.094 7      2541.936          44.000
R17  19126256.438 8 102348471.503 8      -484.727          49.000    19126259.945 7  79604362.417 7      -377.010          47.000
R24  22093778.375 7 118145326.971 7     -3546.656          47.000    22093781.984 7  91890849.388 7     -2758.513          45.000
C05                                                                  39678506.906 6 159768904.015 6       -25.300          36.000
C27  21527136.227 8 112097465.526 8      -375.848          51.000
C28  23941091.602 7 124667552.782 7     -2937.781          43.000
E19  25370514.391 7 133322945.222 7      2379.305          47.000    25370515.430 7 102156549.867 7      1823.169          45.000
E26  25247054.742 6 132674200.386 6     -2352.039          41.000    25247058.008 6 101659463.216 6     -1802.122          38.000
E33  23479492.930 8 123385559.860 8      -405.777          51.000    23479495.078 8  94542171.861 8      -310.920          51.000
> 2020 05 12 19 35  0.0000000  0 17        .000000000000
G01  20307309.961 8 106715640.990 8       424.836          50.000    20307311.242 8  83155049.486 8       331.041          50.000
G03  21242352.508 7 111629301.413 7      1975.895          44.000    21242353.883 7  86983891.481 7      1539.655          44.000
G08  22738207.375 8 119490084.733 8     -3353.766          48.000    22738210.984 8  93109139.204 8     -2613.324          48.000
G11  20270903.359 8 106524323.480 8     -1606.180          50.000    20270902.742 8  83005942.833 8     -1251.566          50.000
G14  21959585.086 6 115398398.212 6      -588.816          36.000
G22  20631539.039 8 108419478.189 8       312.461          51.000    20631535.359 8  84482703.605 8       243.476          51.000
R01  22909995.250 5 122466986.440 5     -4030.219          31.000
R02  19105064.289 8 101948323.246 8      -492.312          50.000    19105067.148 8  79293144.386 8      -382.910          50.000
R03  20974192.172 8 112276569.520 8      3252.316          48.000    20974192.875 7  87326206.981 7      2529.579          45.000
R17  19129039.789 8 102363365.550 8      -507.199          50.000    19129043.477 7  79615946.657 7      -394.488          47.000
R24  22113710.750 8 118251912.583 8     -3558.141          50.000    22113714.305 7  91973749.237 7     -2767.446          44.000
C05                                                                  39678701.141 6 159769686.354 6       -26.083          36.000
C27  21529349.703 8 112108992.012 8      -391.594          51.000
C28  23958043.344 7 124755826.198 7     -2945.973          44.000
E19  25356961.141 7 133251723.318 7      2369.719          46.000    25356961.984 7 102101977.275 7      1815.773          45.000
E26  25260502.711 6 132744869.897 6     -2357.957          41.000    25260504.898 6 101713612.535 6     -1806.998          38.000
E33  23481840.711 8 123397897.369 8      -415.711          51.000    23481842.828 8  94551625.267 8      -318.532          51.000
> 2020 05 12 19 35 30.0000000  0 17        .000000000000
G01  20304913.258 8 106703046.171 8       413.723          50.000    20304914.492 8  83145235.341 8       322.381          50.000
G03  21231099.898 7 111570170.876 7      1965.352          43.000    21231101.719 7  86937815.750 7      1531.443          43.000
G08  22757370.836 8 119590789.157 8     -3360.676          48.000    22757374.500 8  93187610.171 8     -2618.708          48.000
G11  20280115.672 8 106572734.196 8     -1622.094          51.000    20280114.930 8  83043665.480 8     -1263.969          50.000
G14  21962991.766 5 115416294.602 5      -605.793          32.000
G22  20629783.391 8 108410251.720 8       301.574          51.000    20629779.711 8  84475514.166 8       234.993          51.000
R01  22932619.633 5 122587928.957 5     -4033.441          31.000
R02  19107889.688 8 101963401.226 8      -513.828          51.000    19107892.734 8  79304871.690 8      -399.644          50.000
R03  20956000.547 8 112179194.028 8      3238.328          48.000    20956002.320 7  87250470.503 7      2518.700          45.000
R17  19131936.984 8 102378869.498 8      -527.473          49.000    19131940.867 7  79628005.277 7      -410.257          47.000
R24  22133696.805 8 118358784.884 8     -3567.668          51.000    22133699.523 7  92056872.100 7     -2774.853          43.000
C05                                                                  39678887.883 6 159770438.410 6       -25.077          37.000
C27  21531642.430 8 112120931.947 8      -405.336          51.000
C28  23975032.391 8 124844287.978 8     -2952.246          49.000
E19  25343450.852 7 133180729.123 7      2362.176          45.000    25343451.961 7 102047579.157 7      1809.952          46.000
E26  25273973.164 6 132815661.396 6     -2362.109          40.000    25273975.375 6 101767855.317 6     -1809.940          40.000
E33  23484233.992 8 123410473.898 8      -423.676          51.000    23484235.781 8  94561261.817 8      -324.686          51.000
> 2020 05 12 19 36  0.0000000  0 17        .000000000000
G01  20302588.070 8 106690827.352 8       400.012          50.000    20302589.320 8  83135714.175 8       311.697          50.000
G03  21219914.594 6 111511393.895 6      1952.559          41.000    21219917.219 6  86892015.547 6      1521.477          41.000
G08  22776581.641 8 119691741.144 8     -3370.176          49.000    22776585.156 8  93266274.055 8     -2626.111          49.000
G11  20289426.492 8 106621661.729 8     -1640.516          51.000    20289425.406 8  83081790.835 8     -1278.324          49.000
G14  21966500.859 5 115434740.918 5      -624.047          35.000
G22  20628097.508 8 108401392.225 8       288.188          51.000    20628093.812 8  84468610.670 8       224.562          51.000
R01  22955267.352 5 122708992.351 5     -4038.250          31.000
R02  19110843.562 8 101979164.800 8      -537.887          51.000    19110846.820 8  79317132.265 8      -418.356          49.000
R03  20937895.516 8 112082279.627 8      3221.855          49.000    20937897.938 7  87175092.652 7      2505.888          45.000
R17  19134956.156 8 102395025.686 8      -550.473          49.000    19134959.945 7  79640571.205 7      -428.145          47.000
R24  22153743.727 8 118465983.458 8     -3579.668          50.000    22153745.625 6  92140248.713 6     -2784.186          41.000
C05                                                                  39679074.938 6 159771191.430 6       -25.871          36.000
C27  21534022.500 8 112133326.010 8      -421.656          51.000
C28  23992065.836 8 124932977.205 8     -2960.945          49.000
E19  25329991.656 7 133110004.616 7      2352.016          44.000    25329993.562 7 101993387.661 7      1802.212          46.000
E26  25287473.891 6 132886615.201 6     -2368.590          38.000    25287477.969 7 101822222.530 7     -1814.950          42.000
E33  23486680.414 8 123423330.761 8      -434.086          51.000    23486681.977 8  94571113.167 8      -332.635          51.000
> 2020 05 12 19 36 30.0000000  0 17        .000000000000
G01  20300333.711 8 106678980.944 8       392.293          50.000    20300334.906 8  83126483.204 8       305.683          50.000
G03  21208796.062 7 111452966.625 7      1945.230          43.000    21208799.438 7  86846487.864 7      1515.767          42.000
G08  22795838.336 8 119792934.234 8     -3373.414          48.000    22795841.922 8  93345125.802 8     -2628.634          48.000
G11  20298834.711 8 106671101.008 8     -1652.844          51.000    20298833.125 8  83120314.929 8     -1287.930          48.000
G22  20626480.477 8 108392895.005 8       280.797          51.000    20626476.883 8  84461989.467 8       218.803          51.000
G32  22742067.781 5 119510364.159 5     -2109.184          31.000
R01  22977936.188 5 122830168.882 5     -4036.922          31.000
R02  19113924.859 8 101995607.633 8      -555.766          51.000    19113928.047 8  79329921.113 8      -432.262          49.000
R03  20919876.953 8 111985824.099 8      3211.207          49.000    20919879.883 7  87100071.708 7      2497.605          46.000
R17  19138096.750 8 102411830.532 8      -567.250          50.000    19138100.391 8  79653641.626 8      -441.194          48.000
R24  22173850.320 8 118573501.949 8     -3585.570          50.000    22173850.945 6  92223874.115 6     -2788.783          40.000
C05                                                                  39679261.438 6 159771942.105 6       -22.129          36.000
C27  21536489.039 8 112146170.175 8      -432.125          51.000
C28  24009141.617 8 125021888.177 8     -2963.891          51.000
E19  25316583.211 7 133039546.453 7      2347.770          44.000    25316586.078 7 101939400.251 7      1798.845          47.000
E26  25301005.414 6 132957726.690 6     -2369.520          40.000    25301011.648 7 101876710.512 7     -1815.444          43.000
E33  23489179.445 8 123436464.085 8      -438.844          51.000    23489180.797 8  94581176.360 8      -336.218          51.000
> 2020 05 12 19 37  0.0000000  0 17        .000000000000
G01  20298153.188 8 106667522.555 8       379.367          50.000    20298154.094 8  83117554.579 8       295.608          50.000
G03  21197747.234 7 111394904.310 7      1933.219          44.000    21197751.062 7  86801244.544 7      1506.404          43.000
G08  22815142.984 7 119894380.333 7     -3381.887          47.000    22815146.984 7  93424174.694 7     -2635.239          47.000
G11  20308343.047 8 106721066.001 8     -1670.430          51.000    20308341.242 8  83159248.647 8     -1301.634          48.000
G22  20624935.031 8 108384774.230 8       268.273          51.000    20624931.727 8  84455661.593 8       209.044          51.000
R01  23000628.562 5 122951470.690 5     -4041.477          30.000
R02  19117135.859 8 102012743.338 8      -578.801          51.000    19117139.688 8  79343248.908 8      -450.178          49.000
R03  20901946.953 7 111889844.890 7      3195.246          47.000    20901951.039 7  87025421.214 7      2485.191          46.000
R17  19141361.953 8 102429299.813 8      -589.395          51.000    19141364.695 8  79667228.839 8      -458.418          48.000
R24  22194018.531 7 118681353.539 7     -3596.680          47.000    22194018.672 6  92307758.602 6     -2797.421          40.000
C05                                                                  39679450.156 6 159772701.793 6       -22.651          36.000
C27  21539044.781 8 112159479.480 8      -447.664          51.000
C28  24026262.453 8 125111034.250 8     -2971.633          50.000
E07  26612975.633 5 139852127.649 5     -2415.605          33.000
E19  25303229.141 7 132969370.388 7      2338.234          46.000    25303232.461 7 101885628.971 7      1791.613          47.000
E26  25314570.805 7 133029010.294 7     -2375.023          43.000    25314577.562 7 101931330.397 7     -1820.015          42.000
E33  23491733.992 8 123449889.256 8      -448.621          51.000    23491735.453 8  94591463.175 8      -343.728          51.000
> 2020 05 12 19 37 30.0000000  0 16        .000000000000
G01  20296039.312 8 106656414.488 8       364.680          50.000    20296039.984 8  83108898.931 8       284.163          50.000
G03  21186760.898 7 111337168.926 7      1919.316          45.000    21186764.586 7  86756255.945 7      1495.571          45.000
G08  22834487.617 7 119996038.738 7     -3391.824          46.000    22834492.117 7  93503389.038 7     -2642.977          46.000
G11  20317943.781 8 106771517.128 8     -1689.484          51.000    20317941.602 7  83198561.158 7     -1316.484          47.000
G22  20623453.875 8 108376990.904 8       254.051          51.000    20623450.578 8  84449596.670 8       197.962          51.000
R02  19120469.188 8 102030530.972 8      -603.500          51.000    19120472.625 7  79357083.745 7      -469.389          47.000
R03  20884099.328 8 111794304.847 8      3177.594          48.000    20884104.102 7  86951112.286 7      2471.462          46.000
R17  19144744.039 8 102447394.999 8      -613.301          51.000    19144746.172 8  79681302.856 8      -477.012          48.000
R24  22214241.219 7 118789497.050 7     -3609.375          45.000    22214242.375 7  92391870.221 7     -2807.292          42.000
C05                                                                  39679633.656 6 159773440.937 6       -24.080          36.000
C27  21541682.711 8 112173216.038 8      -464.699          51.000
C28  24043420.445 8 125200375.902 8     -2980.938          49.000
E07  26626798.008 5 139924766.396 5     -2423.551          35.000
E19  25289922.289 7 132899439.250 7      2327.289          47.000    25289925.453 8 101832045.395 8      1783.241          48.000
E26  25328161.758 7 133100427.203 7     -2382.473          43.000    25328167.562 6 101986052.403 6     -1825.585          41.000
E33  23494336.727 8 123463568.341 8      -459.922          51.000    23494338.320 8  94601944.550 8      -352.390          51.000
> 2020 05 12 19 38  0.0000000  0 17        .000000000000
G01  20294000.414 8 106645699.552 8       352.824          50.000    20294000.750 8  83100549.626 8       274.928          50.000
G03  21175845.086 7 111279802.917 7      1908.375          44.000    21175847.953 7  86711555.176 7      1487.045          44.000
G08  22853880.000 7 120097949.017 7     -3398.961          45.000    22853884.656 7  93582799.649 7     -2648.541          45.000
G11  20327644.688 8 106822495.970 8     -1705.906          51.000    20327642.430 7  83238284.877 7     -1329.281          47.000
G22  20622044.867 8 108369586.423 8       242.684          51.000    20622041.219 8  84443826.952 8       189.104          51.000
G32  22778644.320 5 119702580.260 5     -2155.988          34.000    22778649.828 5  93274752.091 5     -1679.988          33.000
R02  19123932.484 8 102049011.283 8      -625.305          51.000    19123935.461 7  79371457.312 7      -486.348          47.000
R03  20866342.859 8 111699249.007 8      3162.844          49.000    20866346.367 7  86877180.001 7      2459.993          43.000
R17  19148251.492 8 102466159.797 8      -634.438          51.000    19148252.727 8  79695897.689 8      -493.451          48.000
R24  22234525.398 7 118897973.471 7     -3618.922          43.000    22234529.344 7  92476240.791 7     -2814.717          44.000
C05                                                                  39679820.078 6 159774191.834 6       -23.485          36.000
C27  21544410.828 8 112187421.867 8      -479.160          51.000
C28  24060623.281 8 125289953.506 8     -2987.660          49.000
E07  26640660.852 6 139997613.422 6     -2429.621          36.000
E19  25276670.562 8 132829796.225 8      2318.801          48.000    25276673.148 8 101778682.578 8      1776.815          48.000
E26  25341785.773 7 133172019.161 7     -2387.250          43.000    25341790.406 6 102040908.528 6     -1829.066          41.000
E33  23496995.812 8 123477543.995 8      -468.582          50.000    23496997.625 8  94612653.145 8      -359.040          51.000
> 2020 05 12 19 38 30.0000000  0 17        .000000000000
G01  20292039.688 8 106635395.364 8       338.453          51.000    20292039.852 8  83092520.399 8       263.730          51.000
G03  21165002.516 7 111222823.627 7      1894.508          44.000    21165004.820 7  86667155.716 7      1476.240          44.000
G08  22873323.469 7 120200125.563 7     -3408.695          46.000    22873327.484 7  93662417.703 7     -2656.129          47.000
G11  20337448.688 8 106874018.145 8     -1724.719          49.000    20337446.672 8  83278432.000 8     -1343.937          48.000
G22  20620710.984 8 108362576.847 8       228.762          51.000    20620707.109 8  84438364.943 8       178.256          51.000
G32  22791014.773 6 119767575.213 6     -2172.484          36.000    22791013.023 5  93325397.545 5     -1692.851          31.000
R02  19127528.445 8 102068199.597 8      -649.617          51.000    19127531.828 7  79386381.591 7      -505.258          47.000
R03  20848680.148 8 111604696.590 8      3145.059          49.000    20848680.719 6  86803639.311 6      2446.160          40.000
R17  19151887.219 8 102485611.985 8      -658.125          51.000    19151887.789 8  79711027.150 8      -511.875          48.000
R24  22254875.508 7 119006798.179 7     -3631.441          45.000    22254881.148 7  92560882.223 7     -2824.454          45.000
C05                                                                  39680012.602 6 159774967.377 6       -24.799          36.000
C27  21547232.164 8 112202113.908 8      -496.082          51.000
C28  24077874.703 8 125379782.385 8     -2996.699          50.000
E07  26654566.359 6 140070686.856 6     -2437.773          36.000
E19  25263477.047 8 132760459.437 8      2307.875          49.000    25263479.008 8 101725554.425 8      1768.294          48.000
E26  25355445.789 6 133243802.538 6     -2394.184          40.000    25355449.734 7 102095911.371 7     -1834.528          43.000
E33  23499714.906 8 123491833.535 8      -479.789          51.000    23499716.547 8  94623602.278 8      -367.655          51.000
> 2020 05 12 19 39  0.0000000  0 17        .000000000000
G01  20290145.617 8 106625441.929 8       325.117          51.000    20290145.961 8  83084764.492 8       253.338          51.000
G03  21154222.062 7 111166170.652 7      1882.266          45.000    21154223.820 7  86623010.551 7      1466.700          45.000
G08  22892806.016 7 120302505.332 7     -3416.820          47.000    22892808.922 7  93742194.092 7     -2662.457          47.000
G11  20347344.406 8 106926022.232 8     -1742.180          49.000    20347343.039 8  83318954.681 8     -1357.540          49.000
G22  20619440.609 8 108355901.051 8       216.168          51.000    20619436.797 8  84433163.030 8       168.443          51.000
G32  22803461.000 5 119832982.395 5     -2188.312          33.000    22803456.633 5  93376329.292 5     -1705.182          33.000
R02  19131245.297 8 102088032.358 8      -672.527          51.000    19131248.078 7  79401807.080 7      -523.077          46.000
R03  20831099.719 8 111510587.991 8      3128.781          48.000    20831098.836 6  86730443.813 6      2433.497          41.000
R17  19155639.922 8 102505690.492 8      -680.516          51.000    19155639.547 7  79726643.769 7      -529.290          47.000
R24  22275279.977 7 119115907.241 7     -3642.363          46.000    22275285.734 7  92645744.794 7     -2832.952          45.000
C05                                                                  39680199.742 6 159775721.095 6       -25.412          36.000
C27  21550135.273 8 112217232.226 8      -511.758          51.000
C28  24095162.789 8 125469801.009 8     -3004.480          51.000
E07  26668502.789 5 140143925.418 5     -2444.336          35.000
E19  25250330.156 8 132691369.000 8      2298.238          49.000    25250331.633 8 101672615.036 8      1760.913          48.000
E26  25369130.312 6 133315716.261 6     -2400.043          41.000    25369134.852 7 102151014.092 7     -1839.018          44.000
E33  23502482.570 8 123506376.761 8      -489.707          51.000    23502483.664 8  94634745.793 8      -375.242          51.000
> 2020 05 12 19 39 30.0000000  0 18        .000000000000
G01  20288327.820 8 106615889.612 8       312.887          51.000    20288328.461 8  83077321.123 8       243.808          51.000
G03  21143513.219 7 111109893.961 7      1870.727          44.000    21143513.734 7  86579158.610 7      1457.709          44.000
G08  22912336.234 7 120405135.443 7     -3424.090          46.000    22912338.477 7  93822165.563 7     -2668.122          46.000
G11  20357341.273 8 106978557.235 8     -1758.859          50.000    20357340.633 8  83359891.061 8     -1370.537          49.000
G14  21993960.344 5 115579041.783 5      -750.590          31.000    21993960.578 5  90061567.548 5      -584.875          30.000
G22  20618243.133 8 108349608.228 8       204.566          51.000    20618239.383 8  84428259.540 8       159.405          51.000
G32  22815997.180 5 119898857.231 5     -2201.996          34.000    22815991.102 5  93427660.131 5     -1715.847          30.000
R02  19135091.852 8 102108557.858 8      -694.527          51.000    19135094.445 7  79417771.379 7      -540.188          47.000
R03  20813611.672 7 111416975.904 7      3113.324          47.000    20813611.664 7  86657634.408 7      2421.474          43.000
R17  19159518.812 8 102526446.140 8      -701.965          51.000    19159517.906 7  79742787.045 7      -545.973          46.000
R24  22295746.266 7 119225348.968 7     -3652.512          42.000    22295752.383 7  92730866.119 7     -2840.842          45.000
C05                                                                  39680390.906 6 159776490.908 6       -25.164          36.000
C27  21553129.820 8 112232826.167 8      -526.625          51.000
C28  24112496.219 8 125560057.070 8     -3011.414          51.000
E07  26682479.562 5 140217377.122 5     -2450.637          34.000
E19  25237239.477 8 132622575.769 8      2289.285          49.000    25237240.742 8 101619903.373 8      1754.158          48.000
E26  25382849.094 7 133387809.551 7     -2404.973          42.000    25382853.773 7 102206254.423 7     -1842.978          45.000
E33  23505308.164 8 123521223.809 8      -498.895          51.000    23505308.922 8  94646122.101 8      -382.252          51.000
> 2020 05 12 19 40  0.0000000  0 18        .000000000000
G01  20286586.844 8 106606741.044 8       302.801          51.000    20286587.906 8  83070192.359 8       235.949          51.000
G03  21132876.297 7 111053995.569 7      1861.648          43.000    21132875.508 7  86535601.409 7      1450.635          44.000
G08  22931913.508 7 120508015.017 7     -3428.934          44.000    22931916.156 7  93902331.425 7     -2671.899          43.000
G11  20367439.430 8 107031623.509 8     -1773.184          51.000    20367439.078 8  83401241.401 8     -1381.702          49.000
G14  21998302.625 6 115601850.215 6      -764.883          37.000    21998305.789 4  90079395.047 4      -596.006          26.000
G22  20617118.672 8 108343699.043 8       195.203          51.000    20617114.828 8  84423654.986 8       152.106          51.000
G32  22828619.133 5 119965194.912 5     -2214.340          34.000    22828617.758 5  93479351.711 5     -1725.475          31.000
R02  19139068.172 8 102129775.575 8      -714.152          51.000    19139070.672 7  79434274.082 7      -555.452          46.000
R03  20796216.711 7 111323864.070 7      3100.121          47.000    20796218.859 7  86585214.038 7      2411.202          46.000
R17  19163524.539 8 102547881.349 8      -721.168          51.000    19163523.500 7  79759458.858 7      -560.908          46.000
R24  22316272.891 6 119335123.274 6     -3659.891          39.000    22316280.773 7  92816246.149 7     -2846.582          44.000
C05                                                                  39680586.398 6 159777276.995 6       -22.914          36.000
C27  21556216.273 8 112248897.444 8      -539.105          51.000
C28  24129874.938 8 125650550.707 8     -3015.895          51.000
E07  26696496.867 5 140291037.829 5     -2454.180          32.000
E19  25224205.508 8 132554082.399 8      2282.684          48.000    25224206.727 7 101567421.481 7      1749.135          47.000
E26  25396602.648 7 133460083.578 7     -2407.680          44.000    25396607.062 7 102261633.185 7     -1844.738          45.000
E33  23508191.914 8 123536376.681 8      -505.656          51.000    23508192.773 8  94657732.735 8      -387.433          51.000
> 2020 05 12 19 40 30.0000000  0 17        .000000000000
G01  20284908.766 8 106597922.451 8       288.004          51.000    20284910.203 8  83063320.718 8       224.419          51.000
G03  21122297.305 7 110998401.995 7      1847.734          44.000    21122296.070 7  86492281.745 7      1439.793          44.000
G08  22951523.305 7 120611067.723 7     -3438.477          42.000    22951527.047 7  93982632.245 7     -2679.329          42.000
G11  20377624.688 8 107085146.005 8     -1792.156          51.000    20377624.219 8  83442947.239 8     -1396.485          49.000
G14  22002736.414 5 115625161.627 5      -785.008          34.000    22002736.664 4  90097551.238 4      -611.682          25.000
G22  20616053.008 8 108338098.687 8       181.125          51.000    20616049.180 8  84419291.070 8       141.136          51.000
R02  19143159.883 8 102151609.001 8      -738.383          51.000    19143161.836 7  79451255.636 7      -574.298          46.000
R03  20778902.500 8 111231179.150 8      3081.941          48.000    20778906.234 7  86513125.751 7      2397.066          47.000
R17  19167643.016 8 102569921.422 8      -745.191          51.000    19167642.055 7  79776601.106 7      -579.593          46.000
R24  22336848.312 6 119445152.931 6     -3672.414          41.000    22336856.125 7  92901824.789 7     -2856.322          43.000
C05                                                                  39680772.148 6 159778024.908 6       -24.464          36.000
C27  21559380.328 8 112265373.192 8      -556.305          51.000
C28  24147284.711 8 125741207.391 8     -3024.902          51.000
E07  26710540.500 5 140364837.214 5     -2462.832          31.000
E19  25211214.312 7 132485816.042 7      2271.367          47.000    25211215.586 7 101515113.527 7      1740.467          46.000
E26  25410376.734 7 133532464.130 7     -2414.793          46.000    25410380.320 7 102317093.585 7     -1850.197          44.000
E33  23511119.914 8 123551762.147 8      -517.117          51.000    23511120.734 8  94669521.583 8      -396.230          51.000
> 2020 05 12 19 41  0.0000000  0 17        .000000000000
G01  20283308.758 8 106589514.232 8       272.008          51.000    20283310.383 8  83056768.851 8       211.954          51.000
G03  21111791.328 7 110943192.910 7      1832.586          44.000    21111790.414 7  86449261.671 7      1427.989          44.000
G08  22971180.633 7 120714370.353 7     -3448.898          42.000    22971185.273 6  94063127.843 6     -2687.453          41.000
G11  20387911.734 8 107139203.156 8     -1812.176          51.000    20387911.031 8  83485069.689 8     -1412.085          49.000
G14  22007277.672 5 115649024.145 5      -806.559          33.000    22007277.469 4  90116125.685 4      -628.496          28.000
G22  20615061.109 8 108332886.249 8       165.980          51.000    20615057.383 8  84415229.436 8       129.335          51.000
R01  23182862.961 5 123925634.150 5     -4074.031          30.000
R02  19147381.602 8 102174136.359 8      -763.754          51.000    19147383.914 7  79468776.939 7      -594.028          46.000
R03  20761684.000 8 111139004.006 8      3062.590          50.000    20761688.375 8  86441434.005 8      2382.017          48.000
R17  19171889.789 8 102592647.749 8      -770.383          51.000    19171888.844 7  79794277.136 7      -599.187          46.000
R24  22357487.367 7 119555516.777 7     -3685.758          42.000    22357494.055 6  92987663.332 6     -2866.697          41.000
C05                                                                  39680963.234 6 159778794.300 6       -26.856          36.000
C27  21562637.312 8 112282332.111 8      -574.707          51.000
C28  24164740.539 8 125832104.284 8     -3035.234          51.000
E19  25198281.703 7 132417857.200 7      2258.746          47.000    25198282.977 7 101463041.197 7      1730.710          46.000
E26  25424186.055 7 133605030.135 7     -2423.309          45.000    25424188.172 7 102372696.086 7     -1856.836          42.000
E33  23514107.398 8 123567459.941 8      -529.805          51.000    23514107.750 8  94681549.755 8      -405.930          51.000
> 2020 05 12 19 41 30.0000000  0 17        .000000000000
G01  20281782.172 8 106581491.820 8       260.328          51.000    20281783.742 8  83050517.617 8       202.853          51.000
G03  21101353.109 6 110888343.442 6      1821.668          41.000    21101354.016 6  86406521.815 6      1419.485          40.000
G08  22990881.242 7 120817895.589 7     -3455.074          44.000    22990884.883 7  94143796.861 7     -2692.266          44.000
G11  20398295.172 8 107193768.917 8     -1827.988          51.000    20398294.391 7  83527588.458 7     -1424.406          47.000
G14  22011920.992 5 115673421.412 5      -822.809          34.000
G22  20614138.164 8 108328035.774 8       155.062          51.000    20614134.359 8  84411449.847 8       120.828          51.000
R01  23205721.938 5 124047833.351 5     -4075.406          30.000
R02  19151728.227 8 102197329.864 8      -784.691          51.000    19151730.391 7  79486816.327 7      -610.316          46.000
R03  20744556.680 8 111047315.023 8      3047.488          50.000    20744560.641 7  86370120.387 7      2370.272          47.000
R17  19176259.883 8 102616035.089 8      -791.254          51.000    19176259.375 7  79812467.247 7      -615.423          47.000
R24  22378182.812 6 119666186.958 6     -3694.672          41.000    22378189.711 7  93073740.087 7     -2873.637          43.000
C05                                                                  39681154.805 6 159779565.924 6       -26.122          36.000
C27  21565982.406 8 112299749.390 8      -588.863          51.000
C28  24182237.086 8 125923214.946 8     -3041.105          51.000
E19  25185403.391 8 132350181.596 8      2250.461          48.000    25185404.617 7 101411185.878 7      1724.415          47.000
E26  25438025.656 7 133677755.915 7     -2427.539          46.000    25438026.367 6 102428421.001 6     -1860.020          41.000
E33  23517149.648 8 123583445.320 8      -538.270          51.000    23517149.492 8  94693798.290 8      -412.404          51.000
> 2020 05 12 19 42  0.0000000  0 17        .000000000000
G01  20280342.430 8 106573926.265 8       246.480          51.000    20280343.992 8  83044622.376 8       192.063          51.000
G03  21090996.180 6 110833924.132 6      1808.730          40.000    21090999.070 6  86364117.188 6      1409.400          40.000
G08  23010637.656 7 120921710.867 7     -3463.457          45.000    23010639.297 7  94224691.866 7     -2698.798          45.000
G11  20408788.125 8 107248912.401 8     -1845.809          49.000    20408787.250 7  83570557.398 7     -1438.292          47.000
G14  22016681.703 5 115698443.897 5      -842.797          35.000
G22  20613297.453 8 108323617.118 8       141.934          51.000    20613293.594 8  84408006.738 8       110.598          51.000
R02  19156212.484 8 102221258.918 8      -807.969          51.000    19156214.477 7  79505427.822 7      -628.420          47.000
R03  20727533.953 8 110956185.899 8      3030.172          50.000    20727536.789 7  86299242.202 7      2356.800          46.000
R17  19180767.055 8 102640155.470 8      -814.371          51.000    19180766.500 7  79831227.529 7      -633.400          46.000
R24  22398949.016 7 119777232.959 7     -3705.832          44.000    22398956.250 7  93160109.108 7     -2882.317          44.000
C05                                                                  39681360.422 6 159780393.507 6       -26.937          37.000
C27  21569429.023 8 112317694.801 8      -605.137          51.000
C28  24199787.477 8 126014607.603 8     -3049.297          48.000
E07  26752919.586 5 140587539.385 5     -2484.840          35.000
E19  25172592.758 8 132282860.409 8      2240.094          48.000    25172593.938 7 101359602.153 7      1716.397          47.000
E26  25451909.281 7 133750711.301 7     -2433.809          47.000    25451909.016 7 102484321.858 7     -1864.732          42.000
E33  23520260.109 8 123599789.071 8      -548.852          51.000    23520259.594 8  94706321.422 8      -420.531          51.000
> 2020 05 12 19 42 30.0000000  0 17        .000000000000
G01  20278947.117 8 106566594.436 8       239.352          51.000    20278948.734 8  83038909.250 8       186.508          51.000
G03  21080679.398 6 110779711.590 6      1802.543          41.000    21080682.852 6  86321873.629 6      1404.579          41.000
G08  23030406.336 7 121025589.793 7     -3464.750          46.000    23030405.703 7  94305636.428 7     -2699.808          46.000
G11  20419348.391 8 107304408.906 8     -1856.629          49.000    20419347.562 7  83613801.432 7     -1446.724          47.000
G14  22021516.188 5 115723834.317 5      -853.777          34.000
G22  20612495.992 8 108319405.512 8       135.883          51.000    20612492.281 8  84404724.980 8       105.883          51.000
R02  19160791.719 8 102245694.389 8      -824.047          51.000    19160794.211 7  79524433.203 7      -640.925          47.000
R03  20710573.023 7 110865390.644 7      3019.781          47.000    20710574.375 7  86228623.701 7      2348.719          44.000
R17  19185368.914 8 102664781.341 8      -830.441          51.000    19185367.961 7  79850380.988 7      -645.902          46.000
R24  22419744.102 7 119888425.062 7     -3709.973          47.000    22419750.289 7  93246591.818 7     -2885.534          44.000
C05                                                                  39681537.297 6 159781105.604 6       -22.808          36.000
C27  21572934.578 8 112335946.655 8      -614.605          51.000
C28  24217348.531 7 126106058.957 7     -3050.340          46.000
E07  26767096.375 6 140662034.293 6     -2484.809          36.000
E19  25159807.078 8 132215671.091 8      2236.316          49.000    25159808.312 7 101308119.448 7      1713.529          47.000
E26  25465793.750 8 133823672.105 8     -2433.273          48.000    25465793.562 7 102540226.837 7     -1864.540          43.000
E33  23523396.078 8 123616267.794 8      -552.777          51.000    23523395.414 8  94718947.966 8      -423.539          51.000
> 2020 05 12 19 43  0.0000000  0 17        .000000000000
G01  20277653.531 8 106559796.906 8       222.820          51.000    20277655.172 8  83033612.458 8       173.626          51.000
G03  21070459.609 6 110726006.012 6      1787.051          40.000    21070463.008 6  86280025.135 6      1392.507          40.000
G08  23050243.555 7 121129829.901 7     -3475.371          46.000    23050240.984 7  94386862.403 7     -2708.084          46.000
G11  20430033.180 8 107360557.264 8     -1877.172          50.000    20430032.414 8  83657553.391 8     -1462.734          48.000
G14  22026477.375 6 115749910.942 6      -874.746          37.000
G22  20611790.812 8 108315700.468 8       120.242          51.000    20611787.242 8  84401837.923 8        93.692          51.000
R02  19165522.406 8 102270939.143 8      -849.645          51.000    19165525.125 7  79544068.005 7      -660.835          47.000
R03  20693729.523 7 110775236.789 7      2999.848          44.000    20693730.836 7  86158504.064 7      2333.218          42.000
R17  19190122.438 8 102690218.640 8      -856.109          50.000    19190121.703 7  79870165.542 7      -665.863          47.000
R24  22440623.492 8 120000066.283 8     -3723.637          48.000    22440628.078 7  93333423.850 7     -2896.162          43.000
C05                                                                  39681742.422 6 159781931.974 6       -25.400          36.000
C27  21576555.938 8 112354802.287 8      -633.430          51.000
C28  24234976.578 7 126197864.832 7     -3060.812          44.000
E07  26781335.430 6 140736859.247 6     -2494.602          37.000
E19  25147103.875 8 132148914.528 8      2223.176          49.000    25147104.984 8 101256968.337 8      1703.445          48.000
E26  25479736.141 8 133896937.746 8     -2442.039          48.000    25479736.336 7 102596365.405 7     -1871.227          44.000
E33  23526614.875 8 123633181.875 8      -565.930          51.000    23526614.148 8  94731908.106 8      -433.637          51.000
> 2020 05 12 19 43 30.0000000  0 17        .000000000000
G01  20276415.484 8 106553290.983 8       210.414          51.000    20276417.109 8  83028542.905 8       163.959          51.000
G03  21060290.141 6 110672564.316 6      1775.340          41.000    21060292.875 6  86238382.317 6      1383.385          41.000
G08  23070102.688 7 121234185.201 7     -3482.090          47.000    23070099.461 7  94468178.160 7     -2713.317          47.000
G11  20440795.680 8 107417112.869 8     -1893.570          51.000    20440794.852 8  83701622.674 8     -1475.509          50.000
G14  22031524.117 6 115776425.246 6      -892.934          37.000    22031537.625 4  90215462.265 4      -695.792          28.000
G22  20611135.609 8 108312257.681 8       108.781          51.000    20611132.117 8  84399155.229 8        84.765          51.000
R02  19170357.820 8 102296742.887 8      -871.008          49.000    19170360.781 8  79564137.580 8      -677.451          48.000
R03  20676960.484 7 110685478.071 7      2983.809          47.000    20676962.875 7  86088691.795 7      2320.743          44.000
R17  19194981.406 8 102716219.801 8      -877.836          50.000    19194980.703 7  79890388.675 7      -682.758          46.000
R24  22461539.727 8 120111906.926 8     -3732.980          49.000    22461543.555 7  93420410.960 7     -2903.432          44.000
C05                                                                  39681929.734 6 159782686.117 6       -25.397          36.000
C27  21580246.906 8 112374020.586 8      -648.281          51.000
C28  24252626.062 7 126289782.515 7     -3067.375          42.000
E07  26795590.219 6 140811769.152 6     -2500.262          36.000
E19  25134436.992 8 132082348.411 8      2214.020          50.000    25134438.133 8 101205963.152 8      1696.498          48.000
E26  25493689.875 8 133970264.383 8     -2446.906          48.000    25493690.883 7 102652550.713 7     -1874.953          45.000
E33  23529870.211 8 123650288.353 8      -575.078          51.000    23529869.469 8  94745015.661 8      -440.662          51.000
> 2020 05 12 19 44  0.0000000  0 17        .000000000000
G01  20275252.148 8 106547177.316 8       196.805          51.000    20275253.656 8  83023779.009 8       153.357          51.000
G03  21050190.305 7 110619486.710 7      1762.730          42.000    21050192.430 7  86197023.230 7      1373.556          42.000
G08  23090002.070 7 121338753.235 7     -3489.543          46.000    23089999.391 7  94549659.697 7     -2719.124          45.000
G11  20451654.523 8 107474174.843 8     -1910.855          51.000    20451653.625 8  83746086.534 8     -1488.978          50.000
G14  22036672.859 5 115803476.070 5      -909.984          33.000
G22  20610549.297 8 108309176.732 8        96.289          51.000    20610545.930 8  84396754.492 8        75.030          51.000
R02  19175316.688 8 102323205.595 8      -893.410          50.000    19175319.875 7  79584719.686 7      -694.875          47.000
R03  20660286.664 8 110596218.376 8      2966.668          50.000    20660289.172 7  86019267.631 7      2307.408          45.000
R17  19199964.594 8 102742886.952 8      -900.367          50.000    19199964.320 7  79911129.805 7      -700.289          46.000
R24  22482511.508 8 120224046.689 8     -3743.254          48.000    22482514.828 7  93507630.731 7     -2911.423          44.000
C05                                                                  39682118.094 6 159783444.572 6       -25.599          36.000
C27  21584026.320 8 112393700.659 8      -663.949          51.000
C28  24270317.203 7 126381909.646 7     -3074.609          42.000
E07  26809879.688 5 140886869.372 5     -2506.148          35.000
E19  25121825.430 8 132016073.428 8      2204.094          50.000    25121826.781 8 101155181.044 8      1688.812          49.000
E26  25507673.570 7 134043751.541 7     -2452.504          45.000    25507675.656 7 102708859.023 7     -1879.116          46.000
E33  23533181.219 8 123667687.660 8      -585.094          51.000    23533180.281 8  94758347.590 8      -448.292          51.000
> 2020 05 12 19 44 30.0000000  0 18        .000000000000
G01  20274163.570 8 106541456.350 8       184.523          51.000    20274164.961 8  83019321.111 8       143.784          51.000
G03  21040159.719 6 110566773.349 6      1751.246          38.000    21040161.922 6  86155947.897 6      1364.607          38.000
G08  23109941.008 7 121443531.360 7     -3495.676          43.000    23109939.492 7  94631304.927 7     -2723.903          43.000
G11  20462609.430 8 107531741.563 8     -1926.980          51.000    20462608.602 8  83790943.722 8     -1501.543          51.000
G14  22041921.930 6 115831065.158 6      -928.098          38.000
G22  20610031.438 8 108306456.340 8        85.180          51.000    20610028.297 8  84394634.702 8        66.374          51.000
R01  23343146.016 4 124782492.329 4     -4088.809          28.000
R02  19180398.617 8 102350324.441 8      -914.457          50.000    19180401.758 8  79605812.106 8      -711.244          48.000
R03  20643707.172 8 110507459.510 8      2950.727          51.000    20643708.898 7  85950232.970 7      2295.010          46.000
R17  19205072.234 8 102770220.234 8      -921.797          51.000    19205072.375 7  79932389.018 7      -716.953          47.000
R24  22503538.164 7 120336483.053 7     -3752.293          47.000    22503541.219 7  93595081.188 7     -2918.450          45.000
C05                                                                  39682307.391 6 159784207.213 6       -25.225          36.000
C27  21587893.867 8 112413842.388 8      -678.699          51.000
C28  24288050.422 7 126474244.564 7     -3080.824          44.000
E07  26824202.594 5 140962144.103 5     -2511.727          35.000
E19  25109269.281 8 131950090.576 8      2195.039          49.000    25109270.938 8 101104622.775 8      1681.868          49.000
E26  25521686.922 7 134117398.538 7     -2457.230          44.000    25521690.547 7 102765289.837 7     -1882.660          46.000
E33  23536547.867 8 123685379.999 8      -594.129          51.000    23536546.672 8  94771904.063 8      -455.239          51.000
> 2020 05 12 19 45  0.0000000  0 17        .000000000000
G01  20273127.828 8 106536013.332 8       170.184          51.000    20273129.172 8  83015079.790 8       132.611          51.000
G03  21030175.875 6 110514309.077 6      1738.141          36.000    21030178.633 6  86115066.612 6      1354.392          37.000
G08  23129897.531 6 121548401.559 6     -3504.043          40.000    23129896.867 6  94713021.909 6     -2730.423          40.000
G11  20473637.992 8 107589696.370 8     -1944.938          51.000    20473637.414 8  83836103.326 8     -1515.536          50.000
G14  22047252.320 6 115859070.088 6      -947.391          37.000
G22  20609560.219 8 108303980.533 8        71.879          51.000    20609557.195 8  84392705.494 8        56.010          51.000
R02  19185581.195 8 102377980.211 8      -937.527          50.000    19185584.336 8  79627322.165 8      -729.188          48.000
R03  20627199.195 8 110419085.820 8      2932.516          50.000    20627200.500 7  85881497.892 7      2280.845          47.000
R17  19210282.359 8 102798102.324 8      -945.305          51.000    19210283.227 7  79954075.068 7      -735.237          46.000
R24  22524597.281 7 120449096.633 7     -3763.367          46.000    22524600.391 7  93682669.452 7     -2927.066          44.000
C05                                                                  39682475.820 6 159784885.508 6       -26.209          36.000
C27  21591828.125 8 112434331.369 8      -695.336          51.000
C28  24305801.984 7 126566671.433 7     -3089.035          45.000
E07  26838537.320 5 141037468.217 5     -2519.031          35.000
E19  25096746.820 8 131884285.444 8      2183.859          49.000    25096748.516 8 101054200.666 8      1673.305          49.000
E26  25535708.523 7 134191089.477 7     -2463.660          44.000    25535713.570 7 102821754.315 7     -1887.779          47.000
E33  23539948.297 8 123703250.378 8      -605.297          51.000    23539946.992 8  94785596.943 8      -463.814          51.000
> 2020 05 12 19 45 30.0000000  0 17        .000000000000
G01  20272192.430 8 106531097.521 8       157.898          51.000    20272193.633 8  83011249.284 8       123.038          51.000
G03  21020287.070 6 110462342.801 6      1726.543          38.000    21020289.680 6  86074573.350 6      1345.355          38.000
G08  23149919.117 6 121653609.886 6     -3509.844          37.000    23149918.633 6  94795002.356 6     -2734.943          38.000
G11  20484787.422 8 107648287.114 8     -1960.855          51.000    20484787.125 8  83881758.455 8     -1527.939          49.000
G14  22052708.336 5 115887764.422 5      -964.133          33.000    22052720.234 4  90302208.689 4      -751.272          29.000
G22  20609182.859 8 108301997.019 8        60.590          51.000    20609179.758 8  84391159.902 8        47.213          51.000
R02  19190911.398 8 102406422.917 8      -958.484          51.000    19190914.398 8  79649444.288 8      -745.488          48.000
R03  20610809.836 8 110331351.980 8      2916.480          49.000    20610811.750 7  85813260.477 7      2268.374          47.000
R17  19215642.359 8 102826786.653 8      -966.676          51.000    19215643.391 7  79976385.081 7      -751.859          45.000
R24  22545735.648 7 120562138.243 7     -3772.371          44.000    22545738.742 6  93770590.652 6     -2934.066          40.000
C05                                                                  39682670.602 6 159785669.972 6       -25.944          36.000
C27  21595876.578 8 112455414.034 8      -709.930          51.000
C28  24323617.555 7 126659435.100 7     -3095.023          47.000
E07  26852931.156 5 141113118.640 5     -2523.594          35.000    26852934.266 5 108125638.562 5     -1934.324          32.000
E19  25084305.523 8 131818907.509 8      2174.895          48.000    25084307.234 8 101004105.887 8      1666.481          48.000
E26  25549786.461 7 134265072.476 7     -2468.027          44.000    25549792.156 7 102878442.605 7     -1891.242          47.000
E33  23543429.812 8 123721547.822 8      -614.277          51.000    23543428.977 8  94799617.043 8      -470.680          51.000
> 2020 05 12 19 46  0.0000000  0 16        .000000000000
G01  20271325.828 8 106526543.283 8       145.633          51.000    20271326.961 8  83007700.520 8       113.480          51.000
G03  21010461.719 5 110410708.200 5      1715.648          35.000    21010463.891 6  86034338.662 6      1336.875          36.000
G08  23169973.656 6 121758987.570 6     -3514.926          37.000    23169972.422 6  94877114.781 6     -2738.906          37.000
G11  20496026.078 8 107707346.353 8     -1976.605          51.000    20496025.695 7  83927778.624 7     -1540.212          47.000
G22  20608867.320 8 108300338.917 8        49.793          51.000    20608864.164 8  84389867.887 8        38.800          51.000
R02  19196357.203 8 102435482.042 8      -979.020          51.000    19196360.078 8  79672045.828 8      -761.460          49.000
R03  20594507.891 8 110244090.894 8      2900.730          48.000    20594510.680 7  85745390.725 7      2256.121          45.000
R17  19221120.703 8 102856104.219 8      -987.922          51.000    19221122.023 7  79999187.618 7      -768.384          46.000
R24  22566921.617 7 120675436.538 7     -3780.984          44.000    22566923.477 6  93858711.573 6     -2940.769          37.000
C05                                                                  39682860.172 6 159786433.132 6       -25.222          36.000
C27  21600007.328 8 112476925.598 8      -724.332          51.000
C28  24341465.500 7 126752369.245 7     -3100.875          47.000
E07                                                                  26867357.805 5 108183714.402 5     -1938.012          33.000
E19  25071913.977 7 131753791.490 7      2166.000          46.000    25071915.781 8 100954211.816 8      1659.656          48.000
E26  25563888.508 7 134339180.803 7     -2472.578          43.000    25563894.766 7 102935226.897 7     -1894.582          47.000
E33  23546961.055 8 123740106.464 8      -623.273          51.000    23546960.742 8  94813837.270 8      -477.519          51.000
> 2020 05 12 19 46 30.0000000  0 16        .000000000000
G01  20270532.766 8 106522375.473 8       131.957          51.000    20270533.945 8  83004452.873 8       102.824          51.000
G03  21000703.844 6 110359430.126 6      1702.988          39.000    21000706.508 6  85994381.755 6      1327.004          38.000
G08  23190064.008 5 121864556.663 5     -3522.281          31.000    23190062.273 5  94959376.361 5     -2744.641          32.000
G11  20507358.430 8 107766897.018 8     -1993.695          51.000    20507357.102 7  83974181.697 7     -1553.529          45.000
G22  20608618.227 8 108299029.982 8        37.363          51.000    20608614.961 8  84388847.937 8        29.114          51.000
R02  19201922.359 8 102465179.129 8     -1000.992          50.000    19201925.516 8  79695143.562 8      -778.549          50.000
R03  20578298.797 8 110157329.084 8      2883.254          50.000    20578301.461 7  85677909.364 7      2242.534          42.000
R17  19226721.883 8 102886079.855 8     -1010.641          50.000    19226723.836 7  80022501.980 7      -786.054          47.000
R24  22588161.414 8 120789014.144 8     -3790.906          48.000    22588159.961 5  93947049.571 5     -2948.486          35.000
C05                                                                  39683049.031 6 159787193.604 6       -25.548          36.000
C27  21604225.375 8 112498890.126 8      -740.184          51.000
C28  24359349.977 8 126845496.498 8     -3107.863          48.000
E07  26881805.945 5 141264845.714 5     -2534.953          35.000    26881813.273 5 108241919.580 5     -1942.660          34.000
E19  25059576.992 7 131688962.745 7      2155.598          46.000    25059579.180 8 100904537.856 8      1651.773          48.000
E26  25578019.148 7 134413438.306 7     -2478.336          43.000    25578025.633 7 102992125.494 7     -1898.877          47.000
E33  23550546.812 8 123758951.027 8      -633.391          51.000    23550546.820 8  94828276.598 8      -485.355          51.000
> 2020 05 12 19 47  0.0000000  0 16        .000000000000
G01  20269816.406 8 106518610.825 8       120.035          51.000    20269817.609 8  83001519.385 8        93.534          51.000
G03  20991017.234 6 110308524.669 6      1691.902          41.000    20991019.789 7  85954715.192 7      1318.365          42.000
G08  23210192.820 5 121970330.206 5     -3527.562          34.000    23210191.117 5  95041797.211 5     -2748.753          33.000
G11  20518787.086 8 107826953.770 8     -2008.926          51.000    20518784.797 7  84020979.091 7     -1565.400          45.000
G22  20608438.477 8 108298085.318 8        26.734          51.000    20608435.156 8  84388111.833 8        20.832          51.000
R02  19207609.703 8 102495528.317 8     -1021.191          51.000    19207612.688 8  79718748.466 8      -794.260          50.000
R03  20562187.719 8 110071084.346 8      2867.578          51.000    20562189.016 7  85610830.209 7      2230.342          43.000
R17  19232449.258 8 102916729.889 8     -1031.613          50.000    19232451.664 7  80046340.874 7      -802.366          47.000
R24  22609456.719 8 120902885.249 8     -3799.180          49.000    22609453.008 6  94035615.902 6     -2954.921          36.000
C05                                                                  39683240.258 6 159787963.502 6       -24.799          37.000
C27  21608533.570 8 112521323.325 8      -754.340          51.000
C28  24377274.180 8 126938831.063 8     -3113.273          48.000
E07  26896294.305 6 141340986.259 6     -2539.910          36.000    26896303.281 5 108300261.011 5     -1945.928          35.000
E19  25047297.945 7 131624437.958 7      2147.133          47.000    25047300.586 8 100855096.829 8      1645.227          48.000
E26  25592181.078 7 134487860.333 7     -2482.133          43.000    25592187.734 7 103049150.150 7     -1901.936          47.000
E33  23554190.039 8 123778097.789 8      -641.941          51.000    23554190.172 8  94842947.477 8      -491.898          51.000
> 2020 05 12 19 47 30.0000000  0 17        .000000000000
G01  20269168.219 8 106515204.672 8       109.660          51.000    20269169.539 8  82998865.240 8        85.446          51.000
G03  20981392.469 6 110257946.780 6      1682.438          39.000    20981394.820 6  85915303.881 6      1310.993          39.000
G08  23230350.727 6 122076260.503 6     -3531.461          36.000    23230349.734 6  95124340.257 6     -2751.788          36.000
G11  20530303.156 8 107887470.297 8     -2022.695          51.000    20530300.844 7  84068134.764 7     -1576.129          47.000
G22  20608319.203 8 108297458.880 8        17.742          51.000    20608315.938 8  84387623.718 8        13.825          51.000
G32  23027649.359 5 121011093.288 5     -2424.867          33.000
R02  19213410.258 8 102526481.376 8     -1039.641          51.000    19213413.336 8  79742823.065 8      -808.609          50.000
R03  20546165.664 8 109985312.718 8      2853.367          51.000    20546167.281 7  85544118.995 7      2219.289          46.000
R17  19238294.367 8 102948008.569 8     -1051.008          49.000    19238297.062 8  80070668.749 8      -817.451          48.000
R24  22630798.000 8 121017001.485 8     -3805.746          48.000    22630794.211 6  94124372.912 6     -2960.025          39.000
C05                                                                  39683425.172 6 159788708.175 6       -22.518          36.000
C27  21612922.844 8 112544180.406 8      -766.898          51.000
C28  24395228.523 7 127032326.605 7     -3117.133          46.000
E07  26910809.031 6 141417260.366 6     -2542.414          38.000    26910818.516 5 108358704.803 5     -1948.221          35.000
E19  25035068.594 7 131560172.772 7      2139.973          47.000    25035071.352 7 100805854.695 7      1639.728          47.000
E26  25606365.508 7 134562401.223 7     -2484.551          43.000    25606372.344 7 103106265.858 7     -1903.702          47.000
E33  23557882.195 8 123797501.954 8      -648.953          51.000    23557882.453 8  94857815.583 8      -497.190          51.000
> 2020 05 12 19 48  0.0000000  0 17        .000000000000
G01  20268596.086 8 106512198.278 8        92.258          51.000    20268597.617 8  82996522.596 8        71.889          51.000
G03  20971837.008 6 110207737.251 6      1666.566          39.000    20971839.820 6  85876179.625 6      1298.623          38.000
G08  23250545.883 6 122182385.249 6     -3541.902          39.000    23250544.727 5  95207034.866 5     -2759.924          35.000
G11  20541914.102 8 107948486.036 8     -2043.328          51.000    20541911.961 8  84115679.500 8     -1592.204          48.000
G22  20608268.258 8 108297190.638 8         1.840          51.000    20608264.867 8  84387414.706 8         1.434          51.000
G32  23041546.125 5 121084125.900 5     -2442.801          35.000
R02  19219331.461 8 102558077.480 8     -1065.094          51.000    19219334.398 8  79767397.817 8      -828.406          50.000
R03  20530239.969 8 109900056.976 8      2832.051          51.000    20530241.938 8  85477808.996 8      2202.706          48.000
R17  19244264.398 8 102979957.306 8     -1077.383          49.000    19244267.750 8  80095517.760 8      -837.964          49.000
R24  22652192.281 7 121131402.165 7     -3819.297          47.000    22652189.258 7  94213351.185 7     -2970.564          42.000
C05                                                                  39683611.500 6 159789458.706 6       -26.046          36.000
C27  21617401.492 8 112567501.489 8      -786.273          51.000
C28  24413220.117 7 127126021.796 7     -3127.621          44.000
E07  26925357.086 6 141493707.027 6     -2552.176          38.000    26925366.328 6 108417280.820 6     -1955.438          36.000
E19  25022896.664 7 131496208.867 7      2125.867          47.000    25022899.461 7 100756843.403 7      1628.854          46.000
E26  25620580.375 7 134637101.093 7     -2494.008          43.000    25620587.203 7 103163503.381 7     -1910.879          47.000
E33  23561631.211 8 123817204.503 8      -662.930          51.000    23561631.805 8  94872912.334 8      -508.004          51.000
> 2020 05 12 19 48 30.0000000  0 17        .000000000000
G01  20268103.797 8 106509611.354 8        80.051          51.000    20268105.484 8  82994506.812 8        62.377          51.000
G03  20962355.812 6 110157915.630 6      1655.289          39.000    20962359.055 6  85837357.545 6      1289.836          38.000
G08  23270781.156 6 122288721.554 6     -3547.293          39.000    23270785.242 6  95289894.536 6     -2764.124          37.000
G11  20553623.062 8 108010018.784 8     -2058.973          50.000    20553621.555 8  84163627.129 8     -1604.391          50.000
G22  20608288.969 8 108297299.156 8        -9.125          51.000    20608285.523 8  84387499.276 8        -7.110          51.000
G32  23055526.484 6 121157587.340 6     -2455.008          36.000    23055542.180 5  94408543.428 5     -1912.996          32.000
R02  19225376.219 8 102590333.515 8     -1085.410          51.000    19225379.094 8  79792485.861 8      -844.208          50.000
R03  20514413.516 8 109815338.812 8      2815.746          48.000    20514416.453 8  85411917.101 8      2190.025          48.000
R17  19250363.570 8 103012595.714 8     -1098.719          49.000    19250367.555 8  80120903.174 8      -854.559          49.000
R24  22673642.297 7 121246104.296 7     -3827.586          44.000    22673641.195 7  94302563.890 7     -2977.014          44.000
C05                                                                  39683803.031 6 159790228.812 6       -25.512          36.000
C27  21621973.141 8 112591305.505 8      -800.734          51.000
C28  24431253.258 7 127219934.197 7     -3133.227          45.000
E07  26939941.422 6 141570343.803 6     -2556.762          38.000    26939950.031 6 108476002.538 6     -1959.200          37.000
E19  25010785.875 7 131432566.331 7      2116.898          46.000    25010788.578 7 100708078.351 7      1621.982          46.000
E26  25634829.133 7 134711978.549 7     -2498.152          44.000    25634835.969 7 103220876.988 7     -1914.088          47.000
E33  23565440.758 8 123837224.965 8      -671.785          50.000    23565441.750 8  94888252.681 8      -514.738          51.000
> 2020 05 12 19 49  0.0000000  0 17        .000000000000
G01  20267685.688 8 106507414.364 8        66.332          51.000    20267687.586 8  82992794.872 8        51.687          51.000
G03  20952943.117 6 110108451.787 6      1642.277          39.000    20952946.164 6  85798814.283 6      1279.697          40.000
G08  23291049.867 6 122395236.671 6     -3554.527          37.000    23291059.531 5  95372893.489 5     -2769.752          33.000
G11  20565424.375 8 108072037.070 8     -2075.742          50.000    20565423.508 8  84211953.098 8     -1617.461          50.000
G22  20608375.336 8 108297753.270 8       -21.344          51.000    20608372.078 8  84387853.143 8       -16.631          51.000
G32  23069581.930 6 121231444.903 6     -2468.410          36.000    23069598.727 5  94466094.775 5     -1923.427          32.000
R02  19231538.492 8 102623216.376 8     -1106.879          51.000    19231541.508 8  79818061.429 8      -860.906          50.000
R03  20498681.336 8 109731129.103 8      2798.164          48.000    20498685.055 7  85346420.628 7      2176.347          46.000
R17  19256586.523 8 103045893.001 8     -1121.402          50.000    19256590.586 8  80146801.081 8      -872.199          49.000
R24  22695141.234 6 121361075.153 6     -3837.234          39.000    22695143.102 7  94391985.657 7     -2984.516          46.000
C05                                                                  39683993.844 6 159790997.212 6       -25.814          36.000
C27  21626631.656 8 112615562.433 8      -816.527          51.000
C28  24449323.805 8 127314032.352 8     -3140.125          48.000
E07  26954555.812 6 141647138.867 6     -2562.566          38.000    26954563.766 6 108534845.508 6     -1963.833          37.000
E19  24998730.805 7 131369215.988 7      2106.352          46.000    24998733.562 7 100659537.189 7      1614.041          47.000
E26  25649106.102 7 134787002.837 7     -2503.551          46.000    25649112.750 7 103278363.136 7     -1918.329          47.000
E33  23569305.109 8 123857533.521 8      -682.145          49.000    23569306.688 8  94903813.791 8      -522.736          51.000
> 2020 05 12 19 49 30.0000000  0 17        .000000000000
G01  20267343.898 8 106505618.171 8        53.422          51.000    20267345.867 8  82991395.237 8        41.627          51.000
G03  20943600.586 6 110059356.141 6      1630.855          41.000    20943602.234 6  85760557.941 6      1270.796          41.000
G08  23311354.133 6 122501938.106 6     -3559.289          37.000    23311361.836 6  95456037.454 6     -2773.469          38.000
G11  20577319.992 8 108134549.840 8     -2091.672          51.000    20577319.453 8  84260664.358 8     -1629.871          50.000
G22  20608529.312 8 108298562.499 8       -32.445          51.000    20608526.203 8  84388483.709 8       -25.282          51.000
G32  23083713.531 6 121305706.572 6     -2482.113          36.000    23083727.680 5  94524007.058 5     -1934.108          33.000
R02  19237819.703 8 102656733.856 8     -1127.559          51.000    19237822.547 8  79844130.574 8      -876.990          50.000
R03  20483046.977 8 109647439.733 8      2781.242          49.000    20483050.328 7  85281328.900 7      2163.188          45.000
R17  19262934.312 8 103079859.422 8     -1143.098          50.000    19262938.406 8  80173219.408 8      -889.076          49.000
R24  22716691.594 7 121476322.960 7     -3845.918          43.000    22716696.211 7  94481622.854 7     -2991.270          46.000
C05                                                                  39684185.883 6 159791770.790 6       -25.765          36.000
C27  21631378.984 8 112640282.366 8      -831.449          51.000
C28  24467432.711 8 127408324.891 8     -3146.023          51.000
E07  26969201.734 6 141724100.853 6     -2567.766          36.000    26969209.375 6 108593816.361 6     -1967.527          37.000
E19  24986733.523 7 131306168.877 7      2096.809          47.000    24986736.273 7 100611228.377 7      1606.750          47.000
E26  25663413.055 7 134862183.813 7     -2508.363          46.000    25663419.594 7 103335969.318 7     -1921.888          47.000
E33  23573226.289 8 123878140.786 8      -691.594          49.000    23573228.148 8  94919603.775 8      -529.905          51.000
> 2020 05 12 19 50  0.0000000  0 16        .000000000000
G01  20267076.844 8 106504214.661 8        40.098          51.000    20267078.734 8  82990301.595 8        31.245          51.000
G03  20934327.047 7 110010620.283 7      1618.398          43.000    20934326.352 7  85722581.966 7      1261.093          42.000
G11  20589307.930 8 108197547.244 8     -2108.082          51.000    20589307.492 8  84309753.240 8     -1642.661          48.000
G22  20608749.242 8 108299717.622 8       -44.383          51.000    20608745.969 8  84389383.807 8       -34.581          51.000
G32  23097919.852 5 121380361.136 5     -2494.898          31.000    23097927.984 4  94582158.643 4     -1944.095          29.000
R02  19244217.750 8 102690874.958 8     -1148.551          51.000    19244220.562 8  79870684.771 8      -893.317          50.000
R03  20467509.055 8 109564263.733 8      2763.875          51.000    20467511.508 7  85216636.504 7      2149.684          45.000
R17  19269405.484 8 103114486.258 8     -1165.383          50.000    19269409.727 8  80200151.363 8      -906.409          48.000
R24  22738293.234 7 121591836.794 7     -3855.043          46.000    22738298.438 7  94571466.892 7     -2998.367          46.000
C05                                                                  39684377.578 6 159792542.807 6       -25.774          36.000
C27  21636213.719 8 112665456.507 8      -846.820          51.000
C28  24485576.844 8 127502801.664 8     -3152.441          51.000
E07  26983877.203 5 141801231.415 5     -2573.617          35.000    26983884.898 6 108652907.221 6     -1971.732          38.000
E19  24974792.641 7 131243417.164 7      2086.598          47.000    24974795.250 7 100563145.910 7      1598.869          47.000
E26  25677748.000 7 134937512.206 7     -2513.488          47.000    25677754.266 7 103393688.464 7     -1925.926          47.000
E33  23577202.758 8 123899038.425 8      -701.562          49.000    23577204.750 8  94935616.274 8      -537.528          51.000
> 2020 05 12 19 50 30.0000000  0 15        .000000000000
G01  20266905.883 8 106503316.293 8        28.719          51.000    20266907.812 8  82989601.574 8        22.378          51.000
G03  20925143.414 7 109962356.215 7      1608.055          44.000    20925142.398 7  85684973.631 7      1253.030          43.000
G11  20601409.078 8 108261139.896 8     -2122.496          51.000    20601408.828 8  84359305.938 8     -1653.893          48.000
G22  20609055.992 8 108301329.404 8       -54.141          51.000    20609052.500 8  84390639.741 8       -42.184          51.000
R02  19250753.172 8 102725750.386 8     -1167.398          51.000    19250756.297 8  79897810.108 8      -907.977          50.000
R03  20452089.266 8 109481716.652 8      2748.332          51.000    20452090.328 7  85152433.288 7      2137.595          45.000
R17  19276021.469 8 103149887.592 8     -1185.617          51.000    19276025.273 7  80227685.724 7      -922.147          47.000
R24  22759965.719 7 121707728.059 7     -3862.039          46.000    22759970.961 7  94661604.499 7     -3003.808          45.000
C05                                                                  39684590.188 6 159793399.017 6       -24.340          36.000
C27  21641156.719 8 112691195.642 8      -860.262          51.000
C28  24503777.133 8 127597571.941 8     -3156.754          51.000
E07  26998603.352 5 141878616.757 5     -2576.008          34.000    26998611.258 6 108712202.547 6     -1974.339          38.000
E19  24962929.562 8 131181073.584 8      2078.543          48.000    24962931.750 7 100515376.159 7      1592.677          46.000
E26  25692132.234 7 135013099.340 7     -2516.738          47.000    25692137.969 7 103451605.863 7     -1928.281          47.000
E33  23581256.078 8 123920338.698 8      -709.523          51.000    23581258.070 8  94951937.268 8      -543.646          51.000
> 2020 05 12 19 51  0.0000000  0 16        .000000000000
G01  20266794.305 8 106502730.051 8         8.430          51.000    20266796.227 8  82989144.759 8         6.569          51.000
G03  20916012.375 7 109914370.462 7      1589.082          42.000    20916012.820 7  85647582.173 7      1238.249          42.000
G08  23372496.594 5 122823292.593 5     -3582.355          31.000    23372490.727 5  95706439.079 5     -2791.449          33.000
G11  20613586.461 8 108325132.680 8     -2145.656          51.000    20613586.188 7  84409170.415 7     -1671.940          46.000
G22  20609412.664 8 108303203.676 8       -72.750          51.000    20609409.141 8  84392100.218 8       -56.685          51.000
R02  19257389.219 8 102761161.614 8     -1195.312          51.000    19257392.078 8  79925352.172 8      -929.687          49.000
R03  20436750.367 8 109399603.019 8      2723.801          49.000    20436750.938 7  85088567.178 7      2118.512          46.000
R17  19282744.539 8 103185865.991 8     -1214.961          49.000    19282748.320 7  80255668.887 7      -944.973          46.000
R24  22781670.625 7 121823797.736 7     -3877.875          43.000    22781676.500 7  94751880.879 7     -3016.125          44.000
C05  39684789.656 5 206649111.176 5       -38.699          34.000    39684786.898 6 159794190.916 6       -29.692          36.000
C27  21646171.203 8 112717307.701 8      -882.473          51.000
C28  24521996.312 8 127692442.287 8     -3169.832          51.000
E07  27013343.180 5 141956075.769 5     -2588.562          34.000    27013351.203 6 108771552.727 6     -1983.701          38.000
E19  24951107.586 8 131118945.399 8      2061.516          49.000    24951108.891 7 100467771.466 7      1579.480          46.000
E26  25706528.586 7 135088751.046 7     -2528.727          47.000    25706533.750 7 103509572.729 7     -1937.536          47.000
E33  23585349.430 8 123941848.282 8      -726.355          51.000    23585351.188 8  94968418.639 8      -556.558          51.000
> 2020 05 12 19 51 30.0000000  0 16        .000000000000
G01  20266757.359 8 106502536.262 8        -1.004          51.000    20266759.305 8  82988993.750 8         -.782          51.000
G03  20906948.852 6 109866743.003 6      1580.613          39.000    20906950.555 6  85610469.887 6      1231.647          39.000
G08  23392936.297 5 122930707.927 5     -3584.430          35.000    23392930.266 6  95790139.268 6     -2793.065          36.000
G11  20625855.031 8 108389604.216 8     -2158.078          51.000    20625854.133 7  84459407.951 7     -1681.622          45.000
G22  20609834.328 8 108305419.607 8       -80.656          51.000    20609830.852 8  84393826.916 8       -62.849          51.000
R02  19264140.266 8 102797187.106 8     -1212.004          51.000    19264143.031 8  79953371.997 8      -942.670          49.000
R03  20421506.312 7 109318005.633 7      2710.309          45.000    20421508.367 7  85025102.555 7      2108.018          47.000
R17  19289591.078 8 103222502.570 8     -1233.199          51.000    19289594.461 7  80284163.969 7      -959.158          46.000
R24  22803422.328 6 121940124.445 6     -3882.711          39.000    22803429.961 7  94842357.207 7     -3019.886          44.000
C05  39684985.336 5 206650131.220 5       -35.352          34.000    39684982.797 6 159794979.690 6       -27.052          36.000
C27  21651272.148 8 112743871.612 8      -894.090          51.000
C28  24540249.398 8 127787490.252 8     -3172.273          51.000
E07  27028111.367 5 142033683.565 5     -2590.684          32.000    27028119.578 6 108831017.669 6     -1984.911          38.000
E19  24939341.867 8 131057113.450 8      2055.047          49.000    24939342.352 7 100420393.759 7      1574.601          46.000
E26  25720952.086 7 135164546.596 7     -2530.012          47.000    25720956.859 7 103567649.796 7     -1938.556          46.000
E33  23589497.891 8 123963647.347 8      -732.469          51.000    23589499.312 8  94985121.809 8      -561.266          51.000
> 2020 05 12 19 52  0.0000000  0 16        .000000000000
G01  20266795.516 8 106502737.082 8       -12.852          51.000    20266797.547 8  82989150.225 8       -10.014          51.000
G03  20897953.336 6 109819475.486 6      1569.676          39.000    20897955.703 6  85573638.082 6      1223.124          38.000
G08  23413406.969 5 123038287.461 5     -3588.141          34.000    23413403.375 5  95873967.394 5     -2795.957          32.000
G11  20638214.750 8 108454554.335 8     -2172.785          51.000    20638213.148 7  84510018.396 7     -1693.082          46.000
G22  20610321.141 8 108307977.783 8       -90.637          51.000    20610317.664 8  84395820.300 8       -70.626          51.000
R02  19271006.234 8 102833825.257 8     -1231.137          51.000    19271009.055 8  79981868.345 8      -957.551          49.000
R03  20406358.852 7 109236927.836 7      2694.250          47.000    20406362.578 7  84962042.042 7      2095.525          45.000
R17  19296560.875 8 103259798.814 8     -1253.965          50.000    19296563.773 7  80313172.139 7      -975.309          46.000
R24  22825223.141 7 122056707.756 7     -3889.812          42.000    22825231.227 7  94933033.113 7     -3025.410          44.000
C05  39685180.305 5 206651147.155 5       -33.914          35.000    39685178.211 6 159795766.455 6       -25.995          36.000
C27  21656459.750 8 112770888.694 8      -907.859          51.000
C28  24558536.414 8 127882715.755 8     -3176.773          50.000
E07                                                                  27042916.312 6 108890597.297 6     -1987.814          38.000
E19  24927632.586 8 130995579.803 8      2046.426          50.000    24927632.609 7 100373244.620 7      1568.020          45.000
E26  25735403.188 7 135240486.929 7     -2533.465          47.000    25735407.148 7 103625837.804 7     -1941.199          46.000
E33  23593701.852 8 123985737.730 8      -740.898          51.000    23593702.758 8  95002048.183 8      -567.755          51.000
> 2020 05 12 19 52 30.0000000  0 17        .000000000000
G01  20266904.422 8 106503309.858 8       -26.133          51.000    20266906.531 8  82989596.554 8       -20.363          51.000
G03  20889022.031 6 109772544.896 6      1557.770          39.000    20889025.547 6  85537068.799 6      1213.846          39.000
G08  23433904.219 6 123146005.747 6     -3593.832          38.000    23433903.992 6  95957903.681 6     -2800.389          38.000
G11  20650661.117 8 108519958.812 8     -2188.574          51.000    20650659.164 7  84560982.893 7     -1705.383          47.000
G14  22139485.781 6 116343783.824 6     -1206.891          36.000
G22  20610868.594 8 108310854.710 8      -102.070          51.000    20610865.180 8  84398062.081 8       -79.535          51.000
R02  19277982.305 8 102871050.465 8     -1251.520          51.000    19277984.836 8  80010821.272 8      -973.407          49.000
R03  20391306.211 8 109156347.347 8      2676.875          49.000    20391308.656 7  84899368.387 7      2082.017          44.000
R17  19303649.562 8 103297730.969 8     -1275.941          51.000    19303651.578 7  80342674.908 7      -992.399          47.000
R24  22847069.391 7 122173521.775 7     -3898.508          45.000    22847076.336 7  95023888.396 7     -3032.176          45.000
C05  39685370.656 5 206652137.478 5       -33.609          35.000    39685368.680 6 159796533.407 6       -25.838          36.000
C27  21661730.234 8 112798335.768 8      -922.977          51.000
C28  24576852.602 8 127978094.262 8     -3182.688          50.000
E07                                                                  27057736.797 6 108950272.594 6     -1991.205          37.000
E19  24915975.602 8 130934322.339 8      2036.441          50.000    24915975.367 7 100326307.122 7      1560.345          45.000
E26  25749877.062 7 135316548.335 7     -2538.273          46.000    25749880.695 7 103684118.584 7     -1944.899          47.000
E33  23597957.023 8 124008096.595 8      -750.664          51.000    23597957.312 8  95019180.272 8      -575.199          51.000
> 2020 05 12 19 53  0.0000000  0 16        .000000000000
G01  20267094.031 8 106504306.475 8       -40.004          51.000    20267096.125 8  82990373.134 8       -31.172          51.000
G03  20880165.133 6 109726002.664 6      1545.148          41.000    20880169.516 6  85500802.134 6      1204.012          41.000
G08  23454436.648 6 123253911.907 6     -3599.363          37.000    23454438.797 6  96041986.440 6     -2804.696          36.000
G11  20663203.484 8 108585867.305 8     -2205.160          51.000    20663201.305 8  84612340.132 8     -1718.310          48.000
G22  20611486.289 8 108314100.243 8      -114.027          51.000    20611482.922 8  84400591.070 8       -88.852          51.000
R02  19285077.609 8 102908912.479 8     -1272.461          51.000    19285080.117 8  80040269.518 8      -989.692          49.000
R03  20376356.297 8 109076318.150 8      2658.727          50.000    20376357.648 7  84837123.537 7      2067.898          43.000
R17  19310867.055 8 103336351.075 8     -1298.488          51.000    19310868.531 8  80372712.759 8     -1009.935          48.000
R24  22868968.406 7 122290616.572 7     -3907.617          47.000    22868974.445 7  95114962.032 7     -3039.261          45.000
C05  39685566.195 5 206653155.960 5       -33.797          34.000    39685563.953 6 159797319.834 6       -26.418          36.000
C27  21667093.164 8 112826263.450 8      -938.688          51.000
C28  24595207.438 8 128073675.023 8     -3189.176          49.000
E07                                                                  27072590.422 6 109010081.703 6     -1995.758          37.000
E19  24904380.828 8 130873393.007 8      2025.707          49.000    24904380.617 7 100279621.064 7      1552.048          44.000
E26  25764383.266 7 135392781.583 7     -2543.906          46.000    25764387.320 7 103742531.033 7     -1949.077          47.000
E33  23602273.070 8 124030775.529 8      -761.090          51.000    23602272.555 8  95036557.620 8      -583.203          51.000
> 2020 05 12 19 53 30.0000000  0 17        .000000000000
G01  20267354.625 8 106505676.040 8       -52.777          51.000    20267356.703 8  82991440.346 8       -41.125          51.000
G03  20871372.898 7 109679797.503 7      1533.617          42.000    20871376.906 7  85464798.115 7      1195.026          42.000
G08  23474993.656 5 123361951.115 5     -3604.469          32.000    23474998.562 5  96126172.866 5     -2808.677          31.000
G11  20675831.445 8 108652226.995 8     -2220.457          51.000    20675829.125 8  84664048.966 8     -1730.229          48.000
G14  22153452.938 6 116417175.259 6     -1240.668          37.000
G22  20612164.125 8 108317662.070 8      -124.945          51.000    20612160.766 8  84403366.521 8       -97.360          51.000
R02  19292281.914 8 102947355.975 8     -1292.152          51.000    19292284.555 8  80070169.996 8     -1005.007          49.000
R03  20361499.812 8 108996789.397 8      2641.586          49.000    20361501.055 7  84775267.855 7      2054.564          46.000
R17  19318203.148 8 103375606.539 8     -1320.059          51.000    19318204.070 7  80403244.781 7     -1026.712          47.000
R24  22890909.266 7 122407937.309 7     -3915.363          46.000    22890915.016 7  95206211.455 7     -3045.283          45.000
C05  39685756.531 5 206654146.619 5       -33.680          34.000    39685754.250 6 159798086.258 6       -25.832          36.000
C27  21672538.508 8 112854620.597 8      -953.320          51.000
C28  24613590.508 7 128169405.508 7     -3194.402          47.000
E07                                                                  27087467.055 6 109069983.900 6     -1999.008          37.000
E19  24892838.562 8 130812741.361 8      2016.008          48.000    24892839.125 7 100233147.752 7      1544.877          44.000
E26  25778912.555 7 135469134.664 7     -2548.000          47.000    25778917.094 7 103801035.348 7     -1952.450          47.000
E33  23606640.281 8 124053723.463 8      -770.426          51.000    23606639.320 8  95054141.080 8      -590.332          51.000
> 2020 05 12 19 54  0.0000000  0 17        .000000000000
G01  20267693.227 8 106507455.701 8       -66.184          50.000    20267695.203 8  82992827.103 8       -51.572          50.000
G03  20862651.688 7 109633966.111 7      1521.645          42.000    20862654.172 7  85429085.370 7      1185.700          43.000
G08  23495582.555 4 123470120.062 4     -3608.664          28.000    23495589.641 4  96210490.053 4     -2811.949          28.000
G11  20688551.633 8 108719073.258 8     -2236.375          51.000    20688549.727 8  84716136.961 8     -1742.630          49.000
G14  22160579.258 5 116454628.688 5     -1256.562          33.000
G22  20612908.891 8 108321576.183 8      -136.363          51.000    20612905.586 8  84406416.484 8      -106.257          51.000
R02  19299601.586 8 102986415.790 8     -1312.219          51.000    19299604.695 8  80100549.870 8     -1020.615          49.000
R03  20346744.039 8 108917799.821 8      2623.945          50.000    20346746.219 8  84713831.518 8      2040.846          48.000
R17  19325664.828 8 103415534.345 8     -1342.090          51.000    19325665.383 8  80434299.739 8     -1043.848          48.000
R24  22912897.656 7 122525519.055 7     -3923.770          44.000    22912904.062 7  95297663.884 7     -3051.821          43.000
C05  39685948.953 5 206655149.104 5       -33.297          35.000    39685946.602 6 159798860.697 6       -26.046          36.000
C27  21678073.578 8 112883443.135 8      -968.465          51.000
C28  24632008.492 7 128265320.365 7     -3200.195          45.000
E07                                                                  27102373.289 6 109130006.014 6     -2002.474          37.000
E19  24881356.195 8 130752404.768 8      2005.945          48.000    24881357.586 7 100186915.851 7      1537.131          45.000
E26  25793472.109 8 135545643.585 8     -2552.848          48.000    25793476.727 8 103859659.065 8     -1956.009          48.000
E33  23611065.539 8 124076977.259 8      -780.172          51.000    23611064.469 8  95071958.912 8      -597.785          51.000
> 2020 05 12 19 54 30.0000000  0 17        .000000000000
G01  20268094.273 8 106509563.476 8       -79.090          50.000    20268096.125 8  82994469.565 8       -61.625          50.000
G03  20853985.812 7 109588426.071 7      1509.914          44.000    20853987.422 7  85393599.665 7      1176.556          44.000
G08  23516188.094 4 123578398.674 4     -3615.367          29.000    23516195.359 4  96294879.661 4     -2817.166          28.000
G11  20701348.195 8 108786322.054 8     -2251.793          50.000    20701346.961 8  84768538.625 8     -1754.644          50.000
G14  22167788.531 5 116492513.975 5     -1272.938          33.000
G22  20613704.867 8 108325759.479 8      -147.297          51.000    20613701.500 8  84409676.203 8      -114.777          51.000
R02  19307020.719 8 103026005.293 8     -1331.902          51.000    19307023.500 8  80131341.700 8     -1035.924          48.000
R03  20332073.961 8 108839266.856 8      2606.719          51.000    20332076.492 8  84652750.337 8      2027.448          48.000
R17  19333236.172 8 103456050.302 8     -1363.734          51.000    19333236.852 8  80465812.140 8     -1060.682          48.000
R24  22934918.148 7 122643275.581 7     -3931.496          45.000    22934925.141 7  95389252.238 7     -3057.833          42.000
C05  39686127.586 5 206656079.152 5       -33.297          34.000    39686125.219 6 159799579.842 6       -25.569          36.000
C27  21683682.422 8 112912649.114 8      -983.273          51.000
C28  24650446.367 7 128361336.243 7     -3205.512          46.000
E07                                                                  27117293.062 6 109190083.593 6     -2005.767          36.000
E19  24869918.430 8 130692301.486 8      1996.203          48.000    24869920.305 7 100140862.725 7      1529.564          45.000
E26  25808045.695 8 135622225.320 8     -2557.352          49.000    25808050.367 8 103918338.534 8     -1959.445          49.000
E33  23615533.297 8 124100454.720 8      -789.613          51.000    23615532.727 8  95089948.120 8      -605.025          51.000
> 2020 05 12 19 55  0.0000000  0 17        .000000000000
G01  20268584.109 8 106512138.356 8       -92.578          49.000    20268586.016 8  82996475.979 8       -72.139          49.000
G03  20845402.078 7 109543316.013 7      1497.441          46.000    20845403.008 7  85358448.952 7      1166.837          46.000
G08  23536840.023 5 123686919.139 5     -3619.137          32.000    23536842.734 5  96379430.973 5     -2820.110          33.000
G11  20714247.711 8 108854110.426 8     -2267.566          51.000    20714247.016 8  84821360.738 8     -1766.935          49.000
G14  22175107.344 5 116530973.147 5     -1290.918          35.000
G22  20614578.398 8 108330349.737 8      -158.688          51.000    20614574.797 8  84413253.029 8      -123.653          51.000
R02  19314564.945 8 103066262.341 8     -1351.973          51.000    19314567.781 8  80162652.743 8     -1051.534          48.000
R03  20317516.109 8 108761333.023 8      2588.914          51.000    20317517.961 7  84592135.164 7      2013.603          47.000
R17  19340943.695 8 103497294.918 8     -1385.891          51.000    19340944.625 7  80497891.268 7     -1077.915          47.000
R24  22956997.852 7 122761345.443 7     -3939.637          46.000    22957004.352 6  95481084.292 6     -3064.165          41.000
C05  39686318.805 5 206657075.303 5       -33.375          34.000    39686316.312 6 159800349.777 6       -26.019          36.000
C27  21689391.312 8 112942375.361 8      -998.414          51.000
C28  24668931.062 7 128457588.766 7     -3211.262          47.000
E07                                                                  27132252.484 6 109250321.495 6     -2009.634          36.000
E19  24858552.203 8 130632570.807 8      1985.816          50.000    24858553.922 7 100095095.079 7      1521.606          46.000
E26  25822659.219 8 135699017.635 8     -2562.152          49.000    25822663.969 8 103977179.382 8     -1963.324          49.000
E33  23620069.852 8 124124294.548 8      -799.648          51.000    23620069.852 8  95108214.997 8      -612.727          51.000
> 2020 05 12 19 55 30.0000000  0 17        .000000000000
G01  20269163.539 8 106515183.264 8      -112.168          50.000    20269165.250 8  82998848.655 8       -87.404          50.000
G03  20836900.648 7 109498638.271 7      1479.164          46.000    20836901.195 7  85323635.127 7      1152.595          46.000
G08  23557532.797 5 123795645.064 5     -3630.703          35.000    23557532.766 5  96464152.477 5     -2829.122          35.000
G11  20727250.359 8 108922439.294 8     -2289.574          51.000    20727249.852 8  84874604.002 8     -1784.084          49.000
G14  22182534.484 6 116570003.143 6     -1312.809          36.000
G22  20615529.633 8 108335348.310 8      -176.340          51.000    20615525.992 8  84417148.025 8      -137.408          51.000
R02  19322234.234 8 103107186.803 8     -1378.227          51.000    19322236.961 8  80194482.899 8     -1071.954          48.000
R03  20303070.398 8 108684002.302 8      2564.691          51.000    20303070.773 7  84531989.092 7      1994.760          44.000
R17  19348787.617 8 103539270.167 8     -1414.391          50.000    19348789.047 7  80530538.669 7     -1100.085          47.000
R24  22979136.500 7 122879728.704 7     -3954.195          46.000    22979141.852 6  95573160.088 6     -3075.485          41.000
C05                                                                  39686520.633 6 159801172.305 6       -30.456          36.000
C27  21695200.758 8 112972624.049 8     -1019.852          51.000
C28  24687461.977 7 128554078.790 7     -3223.227          47.000
E07                                                                  27147251.680 5 109310720.317 5     -2018.266          35.000
E19  24847257.805 8 130573216.039 8      1969.379          50.000    24847259.070 7 100049615.478 7      1508.912          47.000
E26  25837312.664 8 135776022.449 8     -2573.215          49.000    25837317.750 8 104036183.033 8     -1971.624          48.000
E33  23624675.680 8 124148499.501 8      -815.797          51.000    23624676.219 8  95126761.647 8      -625.070          51.000
> 2020 05 12 19 56  0.0000000  0 16        .000000000000
G01  20269809.461 8 106518577.119 8      -119.074          50.000    20269810.828 8  83001493.241 8       -92.785          50.000
G03  20828457.742 7 109454271.456 7      1473.660          43.000    20828459.172 7  85289063.565 7      1148.307          44.000
G08  23578243.570 5 123904464.580 5     -3628.680          35.000    23578240.867 6  96548946.911 6     -2827.543          36.000
G11  20740332.477 8 108991185.550 8     -2298.598          51.000    20740331.977 8  84928172.495 8     -1791.118          49.000
G22  20616535.203 8 108340632.930 8      -180.973          51.000    20616531.680 8  84421265.921 8      -141.018          51.000
R02  19330005.094 8 103148652.756 8     -1391.379          51.000    19330007.672 8  80226734.193 8     -1082.184          49.000
R03  20288713.828 8 108607152.368 8      2553.543          49.000    20288712.320 7  84472216.938 7      1986.089          42.000
R17  19356744.914 8 103581852.227 8     -1429.633          49.000    19356746.578 7  80563658.029 7     -1111.940          46.000
R24  23001309.812 7 122998299.428 7     -3955.668          44.000    23001314.547 6  95665381.730 6     -3076.631          40.000
C05  39686717.250 5 206659149.626 5       -32.812          34.000    39686714.797 6 159801954.185 6       -25.403          36.000
C27  21701087.352 8 113003274.336 8     -1028.523          51.000
C28  24706014.641 7 128650684.126 7     -3222.148          46.000
E07                                                                  27162267.430 5 109371185.642 5     -2016.760          35.000
E19  24836011.812 8 130514116.093 8      1965.543          50.000    24836012.727 8 100004331.120 8      1506.113          48.000
E26  25851983.078 8 135853117.504 8     -2571.395          48.000    25851988.117 8 104095255.867 8     -1970.388          49.000
E33  23629328.008 8 124172948.222 8      -819.176          51.000    23629328.922 8  95145495.075 8      -627.662          51.000
> 2020 05 12 19 56 30.0000000  0 17        .000000000000
G01  20270494.359 8 106522175.728 8      -128.492          50.000    20270495.398 8  83004297.360 8      -100.124          51.000
G03  20820046.180 7 109410070.917 7      1465.496          42.000    20820048.430 7  85254621.564 7      1141.945          42.000
G08  23598942.328 5 124013231.121 5     -3629.824          34.000    23598939.016 5  96633700.008 5     -2828.437          33.000
G11  20753466.211 8 109060202.777 8     -2310.285          51.000    20753465.641 8  84981952.140 8     -1800.222          48.000
G22  20617567.617 8 108346058.116 8      -188.281          51.000    20617564.023 8  84425493.328 8      -146.713          51.000
G32  23289239.086 5 122385780.140 5     -2653.676          33.000    23289234.516 5  95365517.915 5     -2067.799          33.000
R02  19337849.141 8 103190510.210 8     -1406.918          51.000    19337852.016 8  80259290.005 8     -1094.270          48.000
R03  20274418.922 8 108530637.014 8      2539.723          48.000    20274417.266 7  84412705.016 7      1975.340          42.000
R17  19364788.266 8 103624893.050 8     -1447.586          49.000    19364790.055 7  80597134.202 7     -1125.900          46.000
R24  23023488.695 6 123116907.851 6     -3959.266          39.000    23023494.359 6  95757632.726 6     -3079.429          39.000
C05  39686873.820 5 206659964.764 5       -29.109          35.000    39686871.367 6 159802584.512 6       -22.422          36.000
C27  21707023.266 8 113034182.528 8     -1039.633          51.000
C28  24724560.789 7 128747259.782 7     -3223.820          45.000
E07                                                                  27177272.031 5 109431605.375 5     -2017.101          35.000
E19  24824786.945 8 130455127.158 8      1959.355          49.000    24824787.398 8  99959131.820 8      1501.285          48.000
E26  25866643.062 8 135930157.548 8     -2572.262          48.000    25866647.773 8 104154286.511 8     -1970.909          48.000
E33  23633999.359 8 124197496.250 8      -824.988          51.000    23634000.250 8  95164304.603 8      -632.170          51.000
> 2020 05 12 19 57  0.0000000  0 18        .000000000000
G01  20271299.680 8 106526407.561 8      -147.691          51.000    20271300.852 8  83007594.882 8      -115.084          51.000
G03  20811747.938 7 109366464.635 7      1447.758          43.000    20811750.188 7  85220642.613 7      1128.123          43.000
G08  23619710.797 5 124122369.884 5     -3640.516          33.000    23619707.398 5  96718743.172 5     -2836.768          32.000
G11  20766732.602 8 109129917.653 8     -2331.430          51.000    20766731.984 7  85036275.410 7     -1816.698          47.000
G14  22205350.609 6 116689904.103 6     -1358.715          36.000
G22  20618708.031 8 108352050.798 8      -205.273          51.000    20618704.312 8  84430162.953 8      -159.953          51.000
G32  23304456.672 5 122465759.383 5     -2671.812          34.000    23304455.789 5  95427839.349 5     -2081.935          34.000
R02  19345847.656 8 103233191.627 8     -1432.445          51.000    19345850.578 8  80292486.642 8     -1114.124          48.000
R03  20260269.219 8 108454893.640 8      2516.098          50.000    20260268.383 7  84353793.544 7      1956.968          44.000
R17  19372998.500 8 103668828.027 8     -1475.266          50.000    19373000.578 7  80631305.845 7     -1147.429          47.000
R24  23045754.336 6 123235987.196 6     -3973.145          36.000    23045762.312 6  95850250.037 6     -3090.224          37.000
C05  39687074.086 5 206661008.398 5       -34.668          35.000    39687071.570 6 159803391.137 6       -26.868          36.000
C27  21713089.977 8 113065772.294 8     -1060.406          51.000
C28  24743182.094 7 128844228.154 7     -3234.879          44.000
E07                                                                  27192346.797 5 109492306.204 5     -2025.099          35.000
E19  24813664.688 8 130396678.039 8      1943.375          49.000    24813664.664 8  99914346.117 8      1489.068          48.000
E26  25881374.062 8 136007569.891 8     -2582.590          49.000    25881378.273 7 104213602.425 7     -1978.820          47.000
E33  23638770.938 8 124222571.822 8      -840.590          51.000    23638771.891 8  95183518.343 8      -644.118          51.000
> 2020 05 12 19 57 30.0000000  0 17        .000000000000
G01  20272175.461 8 106531009.625 8      -160.328          51.000    20272176.938 8  83011180.904 8      -124.931          51.000
G03  20803512.844 7 109323189.228 7      1436.184          44.000    20803514.852 7  85186921.525 7      1119.104          44.000
G08  23640499.781 5 124231614.602 5     -3643.449          34.000    23640495.609 5  96803868.884 5     -2839.054          35.000
G11  20780080.984 8 109200065.189 8     -2346.180          50.000    20780080.328 7  85090935.798 7     -1828.195          46.000
G22  20619906.117 8 108358346.759 8      -215.711          51.000    20619902.320 8  84435068.905 8      -168.086          51.000
G32  23319737.352 5 122546064.161 5     -2683.254          33.000    23319738.648 5  95490414.521 5     -2090.844          33.000
R02  19353949.578 8 103276426.116 8     -1451.234          51.000    19353952.562 8  80326113.481 8     -1128.738          48.000
R03  20246214.344 8 108379655.210 8      2498.730          51.000    20246214.328 7  84295274.789 7      1943.457          47.000
R17  19381325.820 8 103713388.414 8     -1496.594          51.000    19381327.852 8  80665963.918 8     -1164.017          48.000
R24  23068060.734 6 123355267.154 6     -3980.105          38.000    23068067.578 6  95943023.360 6     -3095.638          37.000
C05  39687268.047 5 206662018.380 5       -33.570          34.000    39687265.625 6 159804172.143 6       -26.324          36.000
C27  21719237.164 8 113097782.226 8     -1074.816          51.000
C28  24761828.391 7 128941326.593 7     -3239.676          43.000
E07                                                                  27207441.219 5 109553085.025 5     -2028.224          35.000
E19  24802594.797 8 130338505.886 8      1933.633          48.000    24802594.875 8  99869772.650 8      1481.618          49.000
E26  25896125.789 8 136085090.452 8     -2586.676          50.000    25896129.508 7 104273001.267 7     -1982.037          47.000
E33  23643592.859 8 124247911.719 8      -849.949          51.000    23643593.664 8  95202934.626 8      -651.281          51.000
> 2020 05 12 19 58  0.0000000  0 17        .000000000000
G01  20273133.820 8 106536045.627 8      -172.633          51.000    20273135.617 8  83015105.043 8      -134.519          51.000
G03  20795352.953 7 109280307.905 7      1425.539          44.000    20795354.375 7  85153507.547 7      1110.813          45.000
G08  23661320.641 5 124341025.967 5     -3647.582          33.000    23661315.195 5  96889124.493 5     -2842.275          33.000
G11  20793523.492 8 109270706.922 8     -2360.328          50.000    20793522.719 7  85145981.272 7     -1839.220          46.000
G22  20621173.953 8 108365008.571 8      -225.574          51.000    20621170.023 8  84440259.919 8      -175.772          51.000
G32  23335090.836 5 122626755.200 5     -2693.133          30.000    23335093.023 4  95553290.623 4     -2098.548          28.000
R02  19362166.883 8 103320275.458 8     -1469.340          50.000    19362169.703 7  80360218.517 7     -1142.823          47.000
R03  20232266.055 8 108304987.560 8      2481.969          51.000    20232267.102 8  84237199.973 8      1930.420          48.000
R17  19389781.977 8 103758638.204 8     -1517.172          51.000    19389784.102 8  80701158.187 8     -1180.023          49.000
R24  23090418.445 6 123474809.795 6     -3986.457          41.000    23090422.078 6  96036000.917 6     -3100.581          38.000
C05  39687467.805 5 206663058.836 5       -32.320          35.000    39687465.172 6 159804975.901 6       -25.065          36.000
C27  21725476.836 8 113130274.610 8     -1088.602          51.000
C28  24780511.734 7 129038616.139 7     -3243.508          42.000
E07                                                                  27222566.945 5 109613989.005 5     -2030.502          35.000
E19  24791589.734 8 130280674.688 8      1924.590          48.000    24791590.227 8  99825460.439 8      1474.674          49.000
E26  25910909.953 8 136162781.859 8     -2590.008          49.000    25910913.320 7 104332531.027 7     -1984.462          46.000
E33  23648477.180 8 124273579.421 8      -858.426          51.000    23648478.070 8  95222602.082 8      -657.737          51.000
> 2020 05 12 19 58 30.0000000  0 16        .000000000000
G01  20274186.953 8 106541579.482 8      -195.039          51.000    20274188.859 8  83019417.120 8      -151.978          51.000
G03  20787280.383 7 109237884.258 7      1404.227          46.000    20787281.500 7  85120450.208 7      1094.206          46.000
G08  23682184.875 5 124450664.741 5     -3660.367          32.000    23682177.891 5  96974557.196 5     -2852.237          32.000
G11  20807072.078 8 109341905.093 8     -2384.828          51.000    20807071.188 7  85201460.323 7     -1858.308          45.000
G22  20622523.219 8 108372098.710 8      -245.688          51.000    20622519.188 8  84445784.700 8      -191.445          51.000
R02  19370510.789 8 103364801.068 8     -1497.715          51.000    19370513.898 7  80394849.577 7     -1164.889          47.000
R03  20218436.227 8 108230956.575 8      2454.824          49.000    20218438.617 8  84179620.310 8      1909.305          49.000
R17  19398378.703 8 103804641.299 8     -1548.426          51.000    19398380.586 8  80736938.388 8     -1204.331          49.000
R24  23112836.234 6 123594677.018 6     -4003.242          40.000    23112838.094 6  96129230.940 6     -3113.633          38.000
C05  39687685.086 5 206664189.082 5       -41.203          35.000    39687682.492 6 159805851.072 6       -32.208          36.000
C27  21731820.844 8 113163311.926 8     -1112.742          50.000
C28  24799244.359 7 129136158.038 7     -3257.785          43.000
E07                                                                  27237735.734 6 109675065.569 6     -2040.367          36.000
E19  24780661.961 8 130223248.772 8      1905.160          49.000    24780662.852 8  99781458.780 8      1459.810          49.000
E26  25925738.336 8 136240706.961 8     -2603.555          48.000    25925741.648 7 104392239.863 7     -1995.072          46.000
E33  23653435.977 8 124299638.642 8      -877.465          51.000    23653437.102 8  95242569.529 8      -672.334          51.000
> 2020 05 12 19 59  0.0000000  0 16        .000000000000
G01  20275293.688 8 106547394.969 8      -198.668          51.000    20275295.477 8  83023948.652 8      -154.806          51.000
G03  20779253.492 7 109195701.518 7      1402.191          44.000    20779255.016 7  85087580.575 7      1092.617          45.000
G08  23703050.797 5 124560311.641 5     -3654.895          34.000    23703042.375 5  97059996.265 5     -2847.976          35.000
G11  20820684.930 8 109413441.049 8     -2390.289          51.000    20820684.125 7  85257202.599 7     -1862.563          45.000
G22  20623912.547 8 108379399.622 8      -246.949          51.000    20623908.367 8  84451473.721 8      -192.428          51.000
R02  19378939.953 8 103409780.567 8     -1507.027          50.000    19378943.039 7  80429833.636 7     -1172.129          47.000
R03  20204684.133 7 108157342.951 7      2446.664          47.000    20204687.250 7  84122365.244 7      1902.961          47.000
R17  19407074.500 8 103851176.496 8     -1560.133          51.000    19407076.656 8  80773132.434 8     -1213.440          49.000
R24  23135271.641 6 123714646.254 6     -4000.895          41.000    23135273.844 6  96222540.303 6     -3111.810          38.000
C05  39687879.039 5 206665199.257 5       -31.562          35.000    39687876.320 6 159806631.408 6       -24.451          36.000
C27  21738228.344 8 113196678.968 8     -1117.832          50.000
C28  24817984.531 7 129233735.847 7     -3253.062          42.000
E07                                                                  27252906.039 6 109736147.451 6     -2036.610          36.000
E19  24769770.289 8 130166011.957 8      1904.715          50.000    24769771.266 8  99737602.012 8      1459.382          49.000
E26  25940569.680 7 136318648.359 7     -2598.402          47.000    25940573.680 7 104451961.184 7     -1991.011          47.000
E33  23658428.219 8 124325872.828 8      -877.551          51.000    23658429.328 8  95262671.050 8      -672.445          51.000
> 2020 05 12 19 59 30.0000000  0 16        .000000000000
G01  20276470.766 8 106553580.353 8      -217.109          51.000    20276472.344 8  83028768.410 8      -169.176          51.000
G03  20771288.375 7 109153847.639 7      1384.828          43.000    20771290.617 7  85054967.181 7      1079.087          43.000
G08  23723934.422 5 124670051.923 5     -3664.262          32.000    23723924.695 5  97145508.153 5     -2855.269          30.000
G11  20834378.547 8 109485401.234 8     -2410.535          51.000    20834377.508 7  85313275.464 7     -1878.339          45.000
G22  20625358.617 8 108386998.352 8      -263.035          51.000    20625354.352 8  84457394.817 8      -204.962          51.000
R02  19387470.133 8 103455300.030 8     -1531.133          49.000    19387473.281 7  80465237.681 7     -1190.881          47.000
R03  20191027.336 8 108084237.257 8      2423.422          49.000    20191030.125 7  84065505.293 7      1884.887          47.000
R17  19415886.484 8 103898332.581 8     -1587.199          51.000    19415888.719 8  80809809.379 8     -1234.488          48.000
R24  23157741.781 7 123834804.358 7     -4013.332          43.000    23157743.836 6  96315996.485 6     -3121.484          36.000
C05                                                                  39688063.273 6 159807384.244 6       -28.272          36.000
C27  21744716.016 8 113230462.380 8     -1137.840          50.000
C28  24836747.734 6 129331435.057 6     -3263.195          36.000
E07                                                                  27268094.164 6 109797300.654 6     -2043.366          36.000
E19  24758931.453 8 130109052.899 8      1889.254          50.000    24758932.227 8  99693958.069 8      1447.547          48.000
E26  25955420.625 7 136396693.297 7     -2608.074          47.000    25955425.625 7 104511761.840 7     -1998.320          47.000
E33  23663470.555 8 124352370.080 8      -892.422          51.000    23663471.414 8  95282974.137 8      -683.795          51.000
