     3.02           OBSERVATION DATA    M (MIXED)           RINEX VERSION / TYPE
SAVERINEX           SC600               20200512 225931 LCL PGM / RUN BY / DATE
       G = GPS       R = GLONASS       C = COMPASS          COMMENT
       S = SBAS      J = QZSS          E = GALILEO          COMMENT
BEAN                                                        MARKER NAME
1                                                           MARKER NUMBER
GEODETIC                                                    MARKER TYPE
Unige DICCA         GTER                                    OBSERVER / AGENCY
SC60291900056       SC600               2.12(191226)        REC # / TYPE / VERS
                    HEMA45          NONE                    ANT # / TYPE
  4509407.8091   693652.4678  4442337.6214                  APPROX POSITION XYZ
        0.0000        0.0000        0.0000                  ANTENNA: DELTA H/E/N
G    8 C1C L1C D1C S1C C2Y L2Y D2Y S2Y                      SYS / # / OBS TYPES
R    8 C1C L1C D1C S1C C2P L2P D2P S2P                      SYS / # / OBS TYPES
C    8 C1I L1I D1I S1I C7I L7I D7I S7I                      SYS / # / OBS TYPES
E    8 C1C L1C D1C S1C C7Q L7Q D7Q S7Q                      SYS / # / OBS TYPES
DBHZ                                                        COMMENT
     30.000                                                 INTERVAL
  2020    05    12    20    00    0.0000000     GPS         TIME OF FIRST OBS
  2020    05    12    20    59   30.0000000     GPS         TIME OF LAST OBS
     0                                                      RCV CLOCK OFFS APPL
G L1C  0.00000                                              SYS / PHASE SHIFT
G L2Y  0.00000                                              SYS / PHASE SHIFT
R L1C  0.00000                                              SYS / PHASE SHIFT
R L2P  0.25000                                              SYS / PHASE SHIFT
C L1I  0.00000                                              SYS / PHASE SHIFT
C L7I  0.00000                                              SYS / PHASE SHIFT
E L1C  0.50000                                              SYS / PHASE SHIFT
E L7Q -0.25000                                              SYS / PHASE SHIFT
 14 R01  1 R02 -4 R03  5 R04  6 R08  6 R10 -5 R12 -1 R13 -2 GLONASS SLOT / FRQ #
    R14 -7 R15  0 R17  4 R18 -3 R22 -3 R23  3               GLONASS SLOT / FRQ #
 C1C   71.950 C2C   71.950 C2P   71.950                     GLONASS COD/PHS/BIS
    18                                                      LEAP SECONDS
*** Above antenna height is from mark to ANTENNA BOTTOM.    COMMENT
    17     4        0.0000        ANT MEASURE TYPE/HEIGT    COMMENT
    0.0000    0.0000    0.0458    0.0405    0.0000          COMMENT
                    BASE STATION                            COMMENT
                                                            END OF HEADER
> 2020 05 12 20 00  0.0000000  0 17        .000000000000
G01  20277706.406 8 106560073.573 8      -232.656          51.000    20277707.750 8  83033828.040 8      -181.294          51.000
G03  20763374.070 7 109112260.084 7      1370.609          46.000    20763376.289 7  85022561.235 7      1068.007          45.000
G08  23744815.273 5 124779841.923 5     -3670.430          32.000    23744810.523 5  97231048.451 5     -2860.072          31.000
G11  20848140.797 8 109557721.338 8     -2427.754          51.000    20848139.062 7  85369628.781 7     -1891.759          45.000
G22  20626849.242 8 108394831.498 8      -276.090          51.000    20626845.109 8  84463498.587 8      -215.135          51.000
G32  23397145.477 4 122952828.262 4     -2745.797          29.000    23397154.047 4  95807429.247 4     -2139.576          29.000
R02  19396089.305 8 103501293.009 8     -1552.289          50.000    19396092.828 8  80501010.002 8     -1207.336          48.000
R03  20177454.242 8 108011577.060 8      2403.207          51.000    20177456.328 8  84008991.847 8      1869.161          48.000
R17  19424802.625 8 103946045.456 8     -1611.023          51.000    19424804.906 7  80846919.384 7     -1253.018          47.000
R24  23180234.898 7 123955085.123 7     -4022.703          46.000    23180234.977 5  96409548.024 5     -3128.775          33.000
C05  39688234.328 5 206667048.797 5       -38.559          35.000    39688231.469 6 159808060.610 6       -29.867          36.000
C27  21751271.328 8 113264599.786 8     -1154.852          50.000
C28  24855525.102 5 129429192.128 5     -3270.223          31.000
E07                                                                  27283287.680 6 109858476.123 6     -2048.304          36.000
E19  24748133.461 8 130052309.724 8      1876.691          49.000    24748134.031 8  99650479.544 8      1437.901          48.000
E26  25970279.555 7 136474778.593 7     -2614.734          45.000    25970285.164 7 104571593.428 7     -2003.459          47.000
E33  23668550.914 8 124379068.108 8      -904.441          51.000    23668551.734 8  95303431.066 8      -693.026          51.000
> 2020 05 12 20 00 30.0000000  0 16        .000000000000
G01  20279060.797 8 106567190.613 8      -240.949          51.000    20279062.055 8  83039373.772 8      -187.753          51.000
G03  20755571.148 7 109071254.288 7      1363.812          46.000    20755572.438 7  84990608.679 7      1062.714          46.000
G08  23765766.516 5 124889952.166 5     -3669.000          35.000    23765767.703 5  97316848.695 5     -2858.961          33.000
G11  20862031.391 8 109630715.351 8     -2437.648          51.000    20862029.008 7  85426507.225 7     -1899.469          44.000
G22  20628444.273 8 108403213.806 8      -281.863          51.000    20628440.188 8  84470030.280 8      -219.631          51.000
R02  19404856.625 8 103548077.483 8     -1565.734          48.000    19404860.039 7  80537397.924 7     -1217.793          46.000
R03  20164025.242 8 107939685.287 8      2390.402          51.000    20164026.125 7  83953076.035 7      1859.199          47.000
R17  19433882.805 8 103994635.682 8     -1627.531          51.000    19433885.000 7  80884711.741 7     -1265.858          46.000
R24  23202811.102 7 124075807.506 7     -4024.582          46.000    23202810.711 5  96503443.128 5     -3130.234          34.000
C05  39688443.930 5 206668140.750 5       -33.434          35.000    39688440.945 6 159808904.221 6       -26.016          36.000
C27  21757954.914 8 113299403.356 8     -1164.559          51.000
C28  24874375.273 6 129527317.842 6     -3270.480          37.000
E07                                                                  27298546.297 5 109919914.348 5     -2047.149          35.000
E19  24737436.594 8 129996098.611 8      1871.516          48.000    24737436.805 7  99607408.718 7      1433.959          47.000
E26  25985206.086 7 136553219.168 7     -2614.059          45.000    25985211.984 7 104631697.227 7     -2002.869          47.000
E33  23673729.656 8 124406282.623 8      -909.121          51.000    23673730.625 8  95324283.730 8      -696.590          51.000
> 2020 05 12 20 01  0.0000000  0 17        .000000000000
G01  20280479.305 8 106574644.470 8      -250.785          51.000    20280480.812 8  83045181.956 8      -195.417          51.000
G03  20747824.281 7 109030543.046 7      1355.328          46.000    20747825.258 7  84958885.669 7      1056.100          46.000
G08  23786727.367 5 125000099.578 5     -3669.562          31.000    23786731.391 5  97402688.808 5     -2859.393          31.000
G11  20875995.188 8 109704094.128 8     -2449.027          51.000    20875992.250 7  85483685.457 7     -1908.336          45.000
G14  22270365.016 5 117031557.727 5     -1484.645          32.000
G22  20630089.117 8 108411857.305 8      -289.137          51.000    20630084.680 8  84476765.472 8      -225.301          51.000
R02  19413717.078 8 103595358.287 8     -1580.961          50.000    19413720.203 7  80574171.884 7     -1229.639          47.000
R03  20150684.812 8 107868270.112 8      2375.922          51.000    20150684.961 7  83897530.912 7      1847.942          47.000
R17  19443072.211 8 104043809.928 8     -1645.441          51.000    19443074.742 7  80922958.327 7     -1279.791          46.000
R24  23225414.781 7 124196676.476 7     -4027.957          45.000    23225415.594 6  96597452.266 6     -3132.859          37.000
C05  39688640.000 5 206669161.793 5       -29.449          35.000    39688636.984 6 159809693.772 6       -22.935          36.000
C27  21764712.141 8 113334587.831 8     -1175.895          51.000
C28  24893237.062 6 129625525.703 6     -3271.801          39.000
E07                                                                  27313814.930 5 109981393.917 5     -2047.484          34.000
E19  24726786.445 8 129940132.856 8      1864.746          49.000    24726785.938 7  99564525.898 7      1428.936          46.000
E26  26000145.461 7 136631726.870 7     -2614.660          45.000    26000151.344 8 104691852.458 8     -2003.456          48.000
E33  23678952.109 8 124433726.396 8      -915.281          51.000    23678952.953 8  95345312.066 8      -701.283          51.000
> 2020 05 12 20 01 30.0000000  0 17        .000000000000
G01  20281966.297 8 106582458.377 8      -267.988          51.000    20281968.055 8  83051270.707 8      -208.822          51.000
G03  20740137.602 7 108990148.835 7      1339.648          46.000    20740139.398 7  84927409.673 7      1043.882          46.000
G08  23807702.961 5 125110323.351 5     -3676.477          33.000    23807707.602 5  97488584.457 5     -2864.793          32.000
G11  20890036.258 8 109777878.921 8     -2467.781          51.000    20890032.914 7  85541180.089 7     -1922.946          47.000
G22  20631787.703 8 108420783.321 8      -303.781          51.000    20631783.070 8  84483720.797 8      -236.713          51.000
G32  23444395.891 5 123201126.849 5     -2774.996          33.000    23444398.812 5  96000898.920 5     -2162.329          30.000
R02  19422674.320 8 103643156.028 8     -1603.281          48.000    19422677.773 7  80611347.920 7     -1246.997          46.000
R03  20137436.578 8 107797356.065 8      2353.859          49.000    20137437.633 7  83842375.591 7      1830.783          46.000
R17  19452374.969 8 104093590.637 8     -1671.023          51.000    19452377.914 7  80961676.597 7     -1299.685          47.000
R24  23248049.727 7 124317712.795 7     -4038.859          44.000    23248051.703 6  96691591.576 6     -3141.335          38.000
C05  39688826.914 5 206670135.386 5       -33.188          35.000    39688823.977 6 159810446.627 6       -25.466          36.000
C27  21771546.766 8 113370175.298 8     -1194.512          51.000
C28  24912116.930 6 129723836.750 6     -3280.188          37.000
E07                                                                  27329097.445 5 110042951.048 5     -2053.081          32.000
E19  24716187.539 8 129884435.956 8      1850.520          49.000    24716186.391 7  99521849.096 7      1417.949          45.000
E26  26015102.141 7 136710323.873 7     -2622.777          46.000    26015107.172 7 104752076.100 7     -2009.732          47.000
E33  23684222.562 8 124461422.435 8      -928.977          51.000    23684223.070 8  95366533.698 8      -711.792          51.000
> 2020 05 12 20 02  0.0000000  0 17        .000000000000
G01  20283542.812 8 106590742.535 8      -283.312          51.000    20283544.703 8  83057725.879 8      -220.763          51.000
G03  20732532.328 7 108950181.642 7      1325.953          46.000    20732534.469 7  84896266.388 7      1033.210          46.000
G08  23828712.703 5 125220734.641 5     -3682.020          33.000    23828718.516 5  97574619.258 5     -2869.103          30.000
G11  20904174.961 8 109852177.843 8     -2484.539          51.000    20904172.125 8  85599075.333 8     -1936.008          48.000
G22  20633560.750 8 108430101.169 8      -316.332          51.000    20633556.406 8  84490981.466 8      -246.492          51.000
G32  23460277.922 5 123284577.594 5     -2787.531          34.000    23460276.695 5  96065925.481 5     -2172.093          33.000
R02  19431748.805 8 103691579.064 8     -1623.789          49.000    19431751.828 7  80649010.278 7     -1262.947          45.000
R03  20124303.086 8 107727055.917 8      2333.797          50.000    20124304.898 7  83787697.724 7      1815.175          45.000
R17  19461812.148 8 104144089.015 8     -1694.512          50.000    19461814.906 8  81000953.101 8     -1317.954          49.000
R24  23270735.445 6 124439025.839 6     -4047.566          38.000    23270738.781 6  96785946.176 6     -3148.107          40.000
C05  39689025.727 5 206671170.436 5       -34.848          35.000    39689022.797 6 159811247.002 6       -27.230          36.000
C27  21778479.414 8 113406274.087 8     -1211.113          51.000
C28  24931034.820 5 129822358.125 5     -3287.172          35.000
E07                                                                  27344414.406 5 110104625.729 5     -2058.110          30.000
E19  24705660.844 8 129829118.284 8      1838.172          49.000    24705659.695 7  99479462.848 7      1408.481          46.000
E26  26030096.789 7 136789119.334 7     -2629.293          46.000    26030100.828 7 104812451.792 7     -2014.626          47.000
E33  23689561.766 8 124489480.706 8      -940.766          51.000    23689562.211 8  95388032.886 8      -720.855          51.000
> 2020 05 12 20 02 30.0000000  0 16        .000000000000
G01  20285212.523 8 106599516.451 8      -301.203          51.000    20285214.344 8  83064562.674 8      -234.704          51.000
G03  20725011.875 7 108910660.432 7      1309.488          45.000    20725013.680 7  84865470.650 7      1020.380          45.000
G08  23849759.828 5 125331341.576 5     -3690.309          30.000    23849766.109 4  97660806.495 4     -2875.559          29.000
G11  20918414.688 8 109927008.319 8     -2503.723          51.000    20918412.352 8  85657384.779 8     -1950.953          49.000
G14  22296266.406 6 117167686.821 6     -1542.402          36.000
G22  20635411.875 8 108439829.143 8      -331.609          51.000    20635407.773 8  84498561.707 8      -258.397          51.000
G32  23476238.633 5 123368443.680 5     -2803.516          35.000    23476235.039 5  96131275.688 5     -2184.558          34.000
R02  19440943.539 8 103740643.830 8     -1646.672          49.000    19440946.672 7  80687171.760 7     -1280.745          44.000
R03  20111288.789 8 107657390.536 8      2311.102          51.000    20111290.805 7  83733513.555 7      1797.523          44.000
R17  19471386.578 8 104195323.443 8     -1720.648          49.000    19471389.484 8  81040802.111 8     -1338.282          49.000
C05  39689239.781 5 206672285.579 5       -38.641          35.000    39689236.852 6 159812109.314 6       -30.118          36.000
C27  21785513.797 8 113442902.518 8     -1230.270          51.000
C28  24949994.773 4 129921107.001 4     -3296.547          29.000
E19  24695210.086 8 129774199.720 8      1823.383          49.000    24695209.570 7  99437382.399 7      1397.209          46.000
E26  26045132.805 7 136868131.625 7     -2637.746          45.000    26045136.211 7 104872993.636 7     -2021.250          47.000
E33  23694973.500 8 124517920.470 8      -954.898          51.000    23694973.844 8  95409824.384 8      -731.675          51.000
> 2020 05 12 20 03  0.0000000  0 16        .000000000000
G01  20286945.227 8 106608621.228 8      -308.699          51.000    20286946.914 8  83071657.294 8      -240.545          51.000
G03  20717545.617 7 108871425.940 7      1303.402          45.000    20717547.500 7  84834898.366 7      1015.641          45.000
G11  20932724.773 8 110002209.293 8     -2512.453          51.000    20932722.812 8  85715982.956 8     -1957.753          49.000
G14  22305092.305 5 117214051.771 5     -1551.918          33.000
G22  20637310.586 8 108449806.990 8      -336.371          51.000    20637306.391 8  84506336.649 8      -262.107          51.000
G32  23492247.250 5 123452563.217 5     -2807.625          34.000    23492244.289 5  96196823.369 5     -2187.772          35.000
R02  19450227.852 8 103790186.171 8     -1658.980          49.000    19450230.625 7  80725704.690 7     -1290.318          44.000
R03  20098363.164 8 107588198.648 8      2298.883          51.000    20098364.766 7  83679697.646 7      1788.020          45.000
R17  19481068.016 8 104247131.139 8     -1736.121          49.000    19481070.875 8  81081097.026 8     -1350.316          50.000
R24  23316229.445 5 124682331.653 5     -4059.137          34.000    23316244.352 6  96975196.875 6     -3157.106          39.000
C05  39689439.086 5 206673323.027 5       -32.961          35.000    39689435.992 6 159812911.505 6       -25.373          36.000
C27  21792619.492 8 113479902.243 8     -1239.137          51.000
C28  24968967.344 5 130019982.986 5     -3294.637          34.000
E19  24684805.078 8 129719521.373 8      1819.043          49.000    24684805.070 7  99395485.998 7      1393.725          47.000
E26  26060179.500 7 136947200.847 7     -2636.234          46.000    26060182.789 8 104933579.096 8     -2019.909          48.000
E33  23700427.547 8 124546582.612 8      -958.738          51.000    23700427.852 8  95431786.270 8      -734.660          51.000
> 2020 05 12 20 03 30.0000000  0 16        .000000000000
G01  20288745.648 8 106618081.929 8      -330.270          51.000    20288747.172 8  83079029.274 8      -257.350          51.000
G03  20710138.766 7 108832502.734 7      1283.234          46.000    20710140.406 7  84804568.643 7       999.926          46.000
G11  20947109.570 8 110077803.851 8     -2535.230          51.000    20947108.352 8  85774887.821 8     -1975.504          49.000
G14  22313995.914 5 117260843.925 5     -1576.207          31.000
G22  20639261.367 8 108460058.346 8      -355.188          51.000    20639257.133 8  84514324.730 8      -276.766          51.000
G32  23508304.523 5 123536976.435 5     -2826.227          31.000    23508309.211 5  96262577.892 5     -2202.261          32.000
R02  19459605.742 8 103840227.749 8     -1685.418          49.000    19459608.617 7  80764625.929 7     -1310.881          44.000
R03  20085530.711 8 107519506.627 8      2272.387          49.000    20085532.398 7  83626270.537 7      1767.412          46.000
R17  19490861.250 8 104299536.229 8     -1765.922          51.000    19490863.758 8  81121856.558 8     -1373.495          49.000
R24  23339033.250 5 124804219.684 5     -4074.418          35.000    23339038.539 6  97069998.658 6     -3168.995          39.000
C05  39689628.047 5 206674307.118 5       -41.109          35.000    39689624.945 6 159813672.455 6       -31.459          36.000
C27  21799800.977 8 113517297.158 8     -1261.930          51.000
C28  24987960.773 6 130118890.700 6     -3307.480          39.000
E19  24674450.719 8 129665108.711 8      1800.375          49.000    24674450.922 8  99353793.173 8      1379.550          48.000
E26  26075241.477 7 137026350.939 7     -2648.625          45.000    26075245.539 8 104994226.556 8     -2029.529          49.000
E33  23705928.820 8 124575491.950 8      -976.715          51.000    23705928.609 8  95453937.573 8      -748.401          51.000
> 2020 05 12 20 04  0.0000000  0 16        .000000000000
G01  20290624.883 8 106627957.639 8      -334.832          51.000    20290626.297 8  83086724.635 8      -260.905          51.000
G03  20702802.539 7 108793949.538 7      1280.125          46.000    20702803.594 7  84774527.196 7       997.500          46.000
G08  23912974.344 5 125663505.812 5     -3694.137          34.000    23912972.086 5  97919628.596 5     -2878.548          31.000
G11  20961580.148 8 110153848.941 8     -2541.125          51.000    20961579.703 8  85834143.739 8     -1980.097          48.000
G14  22322993.531 5 117308121.242 5     -1582.875          35.000
G22  20641275.312 8 108470641.422 8      -357.148          51.000    20641271.180 8  84522571.280 8      -278.297          51.000
G32  23524427.062 5 123621696.369 5     -2828.453          30.000    23524432.844 4  96328598.842 4     -2203.992          27.000
R02  19469087.898 8 103890825.588 8     -1694.680          49.000    19469090.055 7  80803979.810 7     -1318.087          43.000
R03  20072802.891 8 107451375.028 8      2262.891          50.000    20072805.242 7  83573279.310 7      1760.026          47.000
R17  19500777.047 8 104352597.799 8     -1778.520          51.000    19500779.172 8  81163126.677 8     -1383.293          48.000
C05  39689817.797 5 206675294.871 5       -31.781          35.000    39689814.906 6 159814437.056 6       -24.702          36.000
C27  21807069.211 8 113555144.856 8     -1267.953          51.000
C28  25006983.484 6 130217945.618 6     -3303.086          40.000
E19  24664158.328 8 129611021.049 8      1798.629          50.000    24664158.602 8  99312349.397 8      1378.266          48.000
E26  26090328.844 7 137105639.925 7     -2644.016          42.000    26090334.930 8 105054980.438 8     -2025.961          50.000
E33  23711488.477 8 124604707.348 8      -977.699          51.000    23711487.930 8  95476323.384 8      -749.131          51.000
> 2020 05 12 20 04 30.0000000  0 16        .000000000000
G01  20292586.883 8 106638269.143 8      -351.480          51.000    20292588.375 8  83094759.573 8      -273.881          51.000
G03  20695540.297 7 108755786.655 7      1264.875          45.000    20695541.469 7  84744789.902 7       985.617          45.000
G08  23934085.258 5 125774441.655 5     -3700.395          34.000    23934081.102 5  98006071.931 5     -2883.430          32.000
G11  20976140.133 8 110230363.206 8     -2558.824          50.000    20976140.250 8  85893765.258 8     -1993.886          48.000
G22  20643356.055 8 108481575.376 8      -370.855          51.000    20643351.867 8  84531091.245 8      -288.975          51.000
G32  23540615.547 5 123706772.876 5     -2841.953          32.000    23540623.102 5  96394892.204 5     -2214.512          33.000
R02  19478677.711 8 103941996.971 8     -1715.730          49.000    19478680.305 7  80843779.787 7     -1334.457          44.000
R03  20060184.883 8 107383825.842 8      2241.445          51.000    20060186.758 7  83520741.070 7      1743.349          46.000
R17  19510819.000 8 104406335.562 8     -1803.098          51.000    19510821.164 7  81204922.689 7     -1402.409          46.000
R24  23384739.977 4 125048667.664 4     -4082.590          27.000    23384747.469 6  97260091.491 6     -3175.348          39.000
C05  39690012.477 5 206676308.504 5       -34.457          35.000    39690009.578 6 159815220.870 6       -26.850          36.000
C27  21814428.328 8 113593464.930 8     -1285.777          51.000
C28  25026038.141 6 130317166.385 6     -3310.723          40.000
E19  24653931.797 8 129557279.351 8      1785.047          50.000    24653932.148 8  99271170.713 8      1367.742          49.000
E26  26105445.562 6 137185087.481 6     -2651.289          40.000    26105454.336 8 105115855.850 8     -2031.558          50.000
E33  23717110.289 8 124634249.366 8      -990.676          51.000    23717109.664 8  95498959.454 8      -759.116          51.000
> 2020 05 12 20 05  0.0000000  0 15        .000000000000
G01  20294626.555 8 106648988.827 8      -364.027          51.000    20294628.094 8  83103112.594 8      -283.658          51.000
G03  20688347.195 7 108717986.035 7      1254.199          46.000    20688348.344 7  84715334.891 7       977.298          46.000
G08  23955214.570 6 125885476.313 6     -3702.867          36.000    23955206.258 5  98092592.436 5     -2885.348          35.000
G11  20990783.781 8 110307316.896 8     -2572.273          51.000    20990784.023 7  85953729.179 7     -2004.369          47.000
G22  20645498.039 8 108492831.615 8      -380.453          51.000    20645493.797 8  84539862.351 8      -296.454          51.000
G32  23556865.320 5 123792168.334 5     -2851.508          32.000    23556872.562 5  96461434.136 5     -2221.954          30.000
R02  19488369.047 8 103993711.213 8     -1732.633          49.000    19488371.523 7  80884001.986 7     -1347.603          42.000
R03  20047670.547 8 107316831.785 8      2224.023          51.000    20047671.492 7  83468634.622 7      1729.799          45.000
R17  19520981.867 8 104460720.325 8     -1823.449          51.000    19520983.547 7  81247221.883 7     -1418.238          44.000
C05  39690206.672 5 206677320.679 5       -33.621          35.000    39690203.625 6 159816002.372 6       -25.835          36.000
C27  21821872.812 8 113632229.118 8     -1299.375          51.000
C28  25045118.234 6 130416523.497 6     -3313.742          39.000
E19  24643765.945 8 129503856.352 8      1775.602          50.000    24643766.555 8  99230236.224 8      1360.547          49.000
E26  26120587.477 7 137264665.019 7     -2654.629          42.000    26120598.023 8 105176830.851 8     -2034.033          49.000
E33  23722789.039 8 124664090.180 8      -999.520          51.000    23722788.375 8  95521824.458 8      -765.893          51.000
> 2020 05 12 20 05 30.0000000  0 16        .000000000000
G01  20296745.820 8 106660126.752 8      -377.969          51.000    20296747.406 8  83111791.506 8      -294.521          51.000
G03  20681224.812 7 108680557.345 7      1241.535          45.000    20681225.766 7  84686169.706 7       967.430          45.000
G08  23976363.391 6 125996617.009 6     -3706.730          36.000    23976356.180 6  98179195.469 6     -2888.367          37.000
G11  21005512.711 8 110384717.991 8     -2587.422          51.000    21005512.570 7  86014041.702 7     -2016.173          46.000
G22  20647703.008 8 108504419.169 8      -391.566          51.000    20647698.852 8  84548891.611 8      -305.117          51.000
G32  23573177.438 5 123877890.020 5     -2862.184          32.000    23573184.328 4  96528230.230 4     -2230.273          29.000
R02  19498163.352 8 104045974.690 8     -1751.094          48.000    19498165.602 7  80924651.342 7     -1361.962          43.000
R03  20035261.188 8 107250403.466 8      2205.012          50.000    20035261.914 7  83416968.194 7      1715.012          46.000
R17  19531267.523 8 104515760.941 8     -1845.477          51.000    19531268.477 7  81290031.193 7     -1435.371          44.000
R24  23430605.250 6 125293939.975 6     -4093.812          36.000    23430609.469 5  97450873.825 5     -3184.073          35.000
C05  39690402.062 5 206678337.442 5       -34.242          35.000    39690399.000 6 159816788.991 6       -26.276          36.000
C27  21829403.688 8 113671446.436 8     -1314.609          51.000
C28  25064225.852 6 130516024.950 6     -3319.141          39.000
E19  24633662.594 8 129450762.299 8      1764.340          50.000    24633663.781 8  99189553.767 8      1351.912          49.000
E26  26135757.188 7 137344381.462 7     -2659.270          44.000    26135767.617 8 105237912.305 8     -2037.721          48.000
E33  23728526.430 8 124694239.576 8     -1010.086          51.000    23728525.484 8  95544925.910 8      -773.953          50.000
> 2020 05 12 20 06  0.0000000  0 16        .000000000000
G01  20298922.070 8 106671563.667 8      -392.262          51.000    20298923.883 8  83120703.394 8      -305.658          51.000
G03  20674149.930 7 108643380.822 7      1228.797          43.000    20674151.453 7  84657201.024 7       957.507          43.000
G08  23997509.023 6 126107740.853 6     -3709.652          38.000    23997505.555 6  98265785.358 6     -2890.641          39.000
G11  21020303.883 8 110462445.020 8     -2602.242          51.000    21020302.625 7  86074608.208 7     -2027.721          45.000
G22  20649947.984 8 108516217.003 8      -402.801          51.000    20649944.008 8  84558084.729 8      -313.871          51.000
G32  23589528.758 5 123963815.631 5     -2873.164          33.000    23589534.508 5  96595185.294 5     -2238.823          31.000
R02  19508037.008 8 104098662.870 8     -1769.426          48.000    19508039.812 7  80965631.052 7     -1376.220          43.000
R03  20022934.234 8 107184420.241 8      2185.922          49.000    20022936.180 8  83365647.929 8      1700.161          48.000
R17  19541653.133 8 104571334.420 8     -1867.297          51.000    19541654.227 7  81333254.959 7     -1452.342          46.000
R24  23453573.906 6 125416744.968 6     -4101.051          40.000    23453578.680 5  97546388.933 5     -3189.703          34.000
C05  39690575.812 5 206679243.163 5       -34.039          35.000    39690572.867 6 159817488.980 6       -26.536          36.000
C27  21836998.703 8 113710997.640 8     -1329.781          51.000
C28  25083338.352 6 130615550.365 6     -3323.660          39.000
E19  24623598.992 8 129397878.190 8      1753.430          49.000    24623600.914 8  99149032.184 8      1343.534          50.000
E26  26150931.133 7 137424116.551 7     -2664.191          46.000    26150940.461 7 105299008.017 7     -2041.169          47.000
E33  23734299.664 8 124724578.061 8     -1020.266          51.000    23734298.266 8  95568172.260 8      -781.801          50.000
> 2020 05 12 20 06 30.0000000  0 16        .000000000000
G01  20301222.898 8 106683655.203 8      -406.594          51.000    20301224.961 8  83130125.372 8      -316.826          51.000
G03  20667190.469 7 108606811.772 7      1216.266          43.000    20667193.055 7  84628705.642 7       947.739          43.000
G08  24018719.469 6 126219201.274 6     -3713.371          36.000    24018718.500 5  98352637.522 5     -2893.542          35.000
G11  21035224.422 8 110540851.430 8     -2617.500          51.000    21035222.180 7  86135704.092 7     -2039.610          45.000
G22  20652300.438 8 108528579.684 8      -414.195          51.000    20652296.781 8  84567717.991 8      -322.747          51.000
G32  23605985.812 5 124050297.893 5     -2884.309          32.000    23605990.359 5  96662574.074 5     -2247.507          33.000
R02  19518057.531 7 104152134.128 7     -1787.941          47.000    19518059.867 7  81007219.788 7     -1390.621          42.000
R03  20010758.250 8 107119244.953 8      2166.484          50.000    20010761.516 8  83314956.056 8      1685.043          48.000
R17  19552205.516 8 104627801.717 8     -1889.613          50.000    19552207.195 8  81377173.960 8     -1469.699          48.000
R24  23476622.594 6 125539988.921 6     -4108.199          41.000    23476626.047 5  97642245.298 5     -3195.269          34.000
C05  39690795.664 5 206680387.799 5       -35.289          35.000    39690792.727 5 159818374.459 5       -26.874          35.000
C27  21844725.531 8 113751234.178 8     -1345.398          51.000
C28  25102523.516 6 130715450.256 6     -3329.125          40.000
E19  24613642.914 8 129345559.791 8      1741.828          49.000    24613645.328 8  99108944.052 8      1334.671          49.000
E26  26166176.367 7 137504224.833 7     -2669.125          47.000    26166184.000 7 105360389.673 7     -2045.174          46.000
E33  23740176.453 8 124755461.062 8     -1031.141          51.000    23740174.930 8  95591835.839 8      -790.059          51.000
> 2020 05 12 20 07  0.0000000  0 15        .000000000000
G01  20303575.297 8 106696017.574 8      -418.883          51.000    20303577.438 8  83139758.395 8      -326.402          51.000
G03  20660273.914 7 108570465.920 7      1205.617          45.000    20660276.828 7  84600384.184 7       939.442          45.000
G08  24039919.891 5 126330611.185 5     -3715.695          34.000    24039920.008 5  98439450.345 5     -2895.350          35.000
G11  21050200.867 8 110619551.667 8     -2630.562          51.000    21050198.328 7  86197028.908 7     -2049.792          45.000
G22  20654687.125 8 108541122.315 8      -423.426          51.000    20654683.742 8  84577491.485 8      -329.942          51.000
R02  19528150.758 7 104205994.663 7     -1804.145          47.000    19528153.469 7  81049111.333 7     -1403.224          42.000
R03  19998661.281 8 107054487.162 8      2149.223          50.000    19998664.430 7  83264588.894 7      1671.618          47.000
R17  19562851.359 8 104684770.512 8     -1909.703          49.000    19562853.555 8  81421483.065 8     -1485.322          49.000
R24  23499678.930 7 125663278.224 7     -4112.949          42.000    23499679.539 5  97738136.931 5     -3198.961          33.000
C05                                                                  39690985.625 6 159819151.160 6       -25.916          36.000
C27  21852510.383 8 113791774.818 8     -1358.738          51.000
C28  25121707.672 7 130815342.162 7     -3332.000          42.000
E19  24603721.484 8 129293423.440 8      1732.520          48.000    24603723.828 8  99068995.435 8      1327.491          49.000
E26  26181419.281 8 137584321.499 8     -2671.980          48.000    26181425.102 7 105421762.406 7     -2047.389          46.000
E33  23746083.578 8 124786504.566 8     -1039.809          50.000    23746082.617 8  95615622.421 8      -796.736          51.000
> 2020 05 12 20 07 30.0000000  0 15        .000000000000
G01  20306008.172 8 106708802.770 8      -432.910          51.000    20306010.367 8  83149720.875 8      -337.333          51.000
G03  20653429.070 7 108534494.745 7      1193.113          45.000    20653431.516 7  84572354.760 7       929.702          45.000
G08  24061139.617 5 126442119.702 5     -3717.918          33.000    24061139.188 5  98526339.999 5     -2897.085          34.000
G11  21065261.648 8 110698695.426 8     -2645.145          51.000    21065259.273 7  86258699.330 7     -2061.152          46.000
G22  20657136.836 8 108553995.812 8      -434.277          51.000    20657133.477 8  84587522.772 8      -338.398          51.000
R02  19538345.727 7 104260396.449 7     -1821.988          46.000    19538348.250 6  81091423.805 6     -1417.102          40.000
R03  19986671.484 8 106990302.321 8      2130.262          50.000    19986673.719 7  83214667.355 7      1656.873          45.000
R17  19573619.836 8 104742394.343 8     -1931.301          51.000    19573622.289 8  81466301.638 8     -1502.120          49.000
R24  23522771.875 6 125786765.047 6     -4119.027          40.000    23522769.898 5  97834182.115 5     -3203.691          31.000
C05  39691183.344 5 206682406.038 5       -33.066          35.000    39691180.336 5 159819935.156 5       -26.007          35.000
C27  21860382.453 8 113832769.093 8     -1373.664          51.000
C28  25140919.047 7 130915374.757 7     -3336.320          42.000
E19  24593863.922 8 129241621.456 8      1721.508          48.000    24593865.656 8  99029303.025 8      1319.050          48.000
E26  26196688.484 8 137664557.474 8     -2676.496          48.000    26196692.453 7 105483241.852 7     -2050.897          44.000
E33  23752049.844 8 124817860.295 8     -1050.078          49.000    23752050.055 8  95639648.250 8      -804.578          51.000
> 2020 05 12 20 08  0.0000000  0 15        .000000000000
G01  20308519.672 8 106722000.689 8      -446.664          51.000    20308521.781 8  83160004.948 8      -348.050          51.000
G03  20646653.758 7 108498887.892 7      1180.922          46.000    20646655.594 7  84544609.164 7       920.199          46.000
G08  24082376.070 5 126553713.654 5     -3719.969          31.000    24082375.000 5  98613296.277 5     -2898.677          31.000
G11  21080404.398 8 110778270.165 8     -2659.461          51.000    21080402.273 7  86320705.610 7     -2072.307          46.000
G22  20659647.336 8 108567188.710 8      -444.992          51.000    20659643.898 8  84597802.948 8      -346.747          51.000
R02  19548639.359 7 104315324.912 7     -1839.586          47.000    19548641.703 6  81134145.964 6     -1430.792          40.000
R03  19974786.406 8 106926680.656 8      2111.422          51.000    19974788.062 7  83165183.852 7      1642.217          46.000
R17  19584508.625 8 104800661.470 8     -1952.820          51.000    19584510.797 8  81511620.525 8     -1518.860          48.000
R24  23545899.078 6 125910435.857 6     -4125.262          37.000    23545895.648 4  97930370.441 4     -3208.540          28.000
C05  39691377.914 5 206683418.935 5       -33.332          35.000    39691374.812 5 159820718.365 5       -25.935          35.000
C27  21868339.867 8 113874205.937 8     -1388.426          51.000
C28  25160154.820 7 131015535.951 7     -3340.664          42.000
E19  24584068.234 8 129190144.003 8      1710.684          49.000    24584069.336 8  98989859.284 8      1310.861          49.000
E26  26211981.703 8 137744921.602 8     -2680.781          49.000    26211984.062 7 105544819.486 7     -2054.123          44.000
E33  23758073.414 8 124849517.976 8     -1060.176          49.000    23758074.758 8  95663905.440 8      -812.328          51.000
> 2020 05 12 20 08 30.0000000  0 15        .000000000000
G01  20311116.461 8 106735646.374 8      -460.387          51.000    20311118.469 8  83170637.951 8      -358.743          51.000
G03  20639953.969 7 108463679.878 7      1168.871          44.000    20639955.703 7  84517174.334 7       910.809          44.000
G04  23556931.492 6 123792511.035 6      3685.883          38.000    23556930.633 5  96461690.247 5      2872.116          32.000
G11  21095635.352 8 110858309.010 8     -2673.848          51.000    21095633.711 7  86383073.521 7     -2083.518          47.000
G22  20662225.078 8 108580735.106 8      -455.598          51.000    20662221.688 8  84608358.579 8      -355.011          51.000
R02  19559038.047 7 104370812.837 7     -1856.910          45.000    19559040.031 6  81177303.216 6     -1444.263          40.000
R03  19963013.984 8 106863658.531 8      2092.641          51.000    19963015.250 8  83116166.655 8      1627.609          48.000
R17  19595524.023 8 104859606.136 8     -1974.188          51.000    19595525.758 7  81557466.342 7     -1535.482          46.000
R24  23569065.922 5 126034323.857 5     -4131.211          35.000    23569060.789 4  98026723.213 4     -3213.167          27.000
C05  39691578.797 5 206684465.198 5       -33.566          35.000    39691575.633 5 159821527.407 5       -25.871          35.000
C27  21876388.422 8 113916119.188 8     -1403.234          51.000
C28  25179421.328 6 131115858.456 6     -3345.070          41.000
E19  24574340.875 8 129139026.295 8      1699.820          50.000    24574341.758 8  98950691.188 8      1302.442          49.000
E26  26227305.547 8 137825447.885 8     -2685.082          49.000    26227307.008 7 105606521.386 7     -2057.290          43.000
E33  23764161.383 8 124881512.431 8     -1070.207          50.000    23764163.406 8  95688420.677 8      -820.041          51.000
> 2020 05 12 20 09  0.0000000  0 15        .000000000000
G01  20313780.008 8 106749642.812 8      -474.305          51.000    20313782.117 8  83181544.256 8      -369.588          51.000
G03  20633311.320 7 108428773.272 7      1156.785          45.000    20633313.203 7  84489974.407 7       901.391          45.000
G04  23535899.562 6 123681986.842 6      3680.973          38.000    23535899.250 5  96375567.512 5      2868.300          33.000
G11  21110935.594 8 110938712.816 8     -2688.223          51.000    21110934.336 7  86445725.835 7     -2094.719          46.000
G22  20664851.297 8 108594536.456 8      -466.273          51.000    20664848.125 8  84619112.874 8      -363.330          51.000
R02  19569522.109 7 104426758.543 7     -1874.324          45.000    19569523.688 6  81220816.545 6     -1457.808          39.000
R03  19951334.859 8 106801137.731 8      2073.672          51.000    19951336.391 8  83067539.397 8      1612.856          49.000
R17  19606647.273 8 104919128.104 8     -1995.699          51.000    19606648.453 7  81603761.148 7     -1552.214          45.000
R24  23592254.555 6 126158327.297 6     -4137.074          37.000    23592250.781 4  98123169.844 4     -3217.724          29.000
C05  39691767.656 5 206685448.310 5       -33.496          35.000    39691764.406 5 159822286.619 5       -26.131          35.000
C27  21884509.992 8 113958411.635 8     -1417.996          51.000
C28  25198699.547 6 131216244.096 6     -3349.207          39.000
E19  24564663.328 8 129088171.531 8      1688.777          50.000    24564664.344 8  98911724.552 8      1293.983          49.000
E26  26242641.219 8 137906038.293 8     -2689.414          48.000    26242643.414 7 105668272.431 7     -2060.690          44.000
E33  23770295.461 8 124913746.436 8     -1080.520          51.000    23770297.711 8  95713119.450 8      -827.901          51.000
> 2020 05 12 20 09 30.0000000  0 15        .000000000000
G01  20316528.352 8 106764085.638 8      -489.391          51.000    20316530.672 8  83192798.384 8      -381.343          51.000
G03  20626744.352 7 108394263.313 7      1143.441          46.000    20626746.211 7  84463083.518 7       890.993          46.000
G04  23514902.188 6 123571647.919 6      3674.520          37.000    23514904.633 5  96289589.059 5      2863.259          35.000
G11  21126322.859 8 111019575.215 8     -2703.520          51.000    21126321.664 7  86508735.505 7     -2106.639          46.000
G22  20667544.164 8 108608687.558 8      -478.000          51.000    20667540.961 8  84630139.713 8      -372.468          51.000
R02  19580109.336 7 104483255.165 7     -1892.941          43.000    19580110.656 6  81264758.333 6     -1472.285          39.000
R03  19939766.797 8 106739215.977 8      2053.594          50.000    19939768.844 8  83019378.045 8      1597.240          48.000
R17  19617896.438 8 104979323.143 8     -2018.121          50.000    19617897.562 7  81650579.466 7     -1569.650          46.000
R24  23615481.742 6 126282540.737 6     -4143.914          37.000    23615481.789 5  98219780.320 5     -3223.044          31.000
C05  39691962.344 5 206686462.646 5       -34.848          35.000    39691959.141 6 159823070.948 6       -26.877          36.000
C27  21892722.984 8 114001177.002 8     -1433.910          51.000
C28  25218007.797 6 131316785.601 6     -3354.543          36.000
E19  24555053.977 8 129037675.489 8      1676.773          50.000    24555055.102 8  98873032.786 8      1284.770          49.000
E26  26258006.969 8 137986787.391 8     -2694.715          48.000    26258010.633 7 105730145.087 7     -2064.743          45.000
E33  23776493.516 8 124946315.342 8     -1091.629          51.000    23776495.594 8  95738074.838 8      -836.443          51.000
> 2020 05 12 20 10  0.0000000  0 15        .000000000000
G01  20319357.602 8 106778953.324 8      -501.902          51.000    20319359.984 8  83204383.572 8      -391.093          51.000
G03  20620248.578 7 108360128.019 7      1132.332          45.000    20620250.484 7  84436484.583 7       882.337          46.000
G04  23493936.438 6 123461474.885 6      3670.562          36.000    23493940.969 5  96203739.895 5      2860.182          30.000
G11  21141792.562 8 111100872.292 8     -2716.340          50.000    21141791.492 7  86572083.862 7     -2116.631          44.000
G22  20670299.234 8 108623165.507 8      -487.301          51.000    20670295.859 8  84641421.231 8      -379.715          51.000
G32  23722650.109 5 124663379.916 5     -2954.512          31.000    23722651.148 5  97140300.811 5     -2302.214          30.000
R02  19590795.258 7 104540277.797 7     -1908.781          45.000    19590798.305 6  81309109.280 6     -1484.608          40.000
R03  19928306.547 8 106677871.974 8      2035.992          49.000    19928308.984 7  82971666.081 7      1583.553          46.000
R17  19629266.312 8 105040167.922 8     -2038.219          48.000    19629268.438 7  81697903.187 7     -1585.281          47.000
C05  39692159.008 5 206687486.519 5       -33.195          35.000    39692155.812 6 159823862.687 6       -25.774          36.000
C27  21901022.781 8 114044392.919 8     -1447.219          51.000
C28  25237342.578 5 131417459.729 5     -3357.215          32.000
E19  24545509.000 8 128987517.020 8      1667.133          50.000    24545510.078 8  98834599.673 8      1277.401          49.000
E26  26273398.742 8 138067672.651 8     -2697.695          48.000    26273403.836 7 105792122.092 7     -2067.116          46.000
E33  23782751.141 8 124979197.436 8     -1100.492          51.000    23782753.102 8  95763270.183 8      -843.240          51.000
> 2020 05 12 20 10 30.0000000  0 15        .000000000000
G01  20322261.727 8 106794213.855 8      -516.074          51.000    20322264.203 8  83216274.897 8      -402.136          51.000
G03  20613818.008 7 108326334.969 7      1119.930          46.000    20613820.148 7  84410152.381 7       872.672          46.000
G04  23472996.430 5 123351437.919 5      3665.727          34.000    23473002.844 5  96117996.809 5      2856.410          33.000
G11  21157338.594 8 111182569.642 8     -2730.625          49.000    21157337.430 7  86635744.115 7     -2127.760          44.000
G22  20673110.086 8 108637937.044 8      -498.066          51.000    20673106.773 8  84652931.524 8      -388.104          51.000
G32  23739539.070 5 124752119.660 5     -2963.543          33.000    23739543.609 5  97209467.480 5     -2309.254          33.000
R02  19601573.328 7 104597790.585 7     -1925.977          45.000    19601575.891 6  81353841.446 6     -1497.982          38.000
R03  19916948.617 8 106617073.569 8      2016.715          50.000    19916950.930 7  82924378.457 7      1568.556          46.000
R17  19640751.164 8 105101628.256 8     -2059.758          50.000    19640754.164 8  81745705.708 8     -1602.031          48.000
C05  39692351.359 5 206688487.877 5       -33.539          35.000    39692348.164 6 159824637.038 6       -26.300          36.000
C27  21909402.820 8 114088026.707 8     -1462.301          51.000
C28  25256697.242 5 131518232.703 5     -3361.598          34.000
E19  24536022.367 8 128937664.367 8      1655.863          50.000    24536023.250 8  98796400.899 8      1268.820          48.000
E26  26288810.461 7 138148661.079 7     -2702.090          47.000    26288816.695 7 105854178.155 7     -2070.426          46.000
E33  23789062.273 8 125012360.525 8     -1110.938          51.000    23789064.055 8  95788680.836 8      -851.208          51.000
> 2020 05 12 20 11  0.0000000  0 15        .000000000000
G01  20325226.484 8 106809792.920 8      -527.832          51.000    20325228.938 8  83228414.425 8      -411.298          51.000
G03  20607438.539 7 108292809.460 7      1109.555          47.000    20607440.562 7  84384028.635 7       864.591          46.000
G04  23452068.734 5 123241464.999 5      3661.680          35.000    23452076.156 5  96032303.594 5      2853.257          34.000
G11  21172946.711 8 111264591.180 8     -2742.758          50.000    21172945.539 7  86699656.968 7     -2137.214          44.000
G22  20675962.469 8 108652926.743 8      -506.504          51.000    20675959.320 8  84664611.813 8      -394.678          51.000
G32  23756466.359 5 124841076.944 5     -2971.656          33.000    23756471.836 5  97278784.731 5     -2315.579          31.000
R02  19612427.922 7 104655714.478 7     -1940.984          45.000    19612430.617 6  81398893.369 6     -1509.651          39.000
R03  19905679.062 8 106556745.545 8      1999.719          50.000    19905680.750 7  82877456.681 7      1555.337          46.000
R17  19652337.453 8 105163627.092 8     -2078.867          51.000    19652340.227 8  81793927.031 8     -1616.897          49.000
C05  39692525.070 5 206689392.687 5       -31.789          35.000    39692521.812 5 159825337.175 5       -24.391          35.000
C27  21917848.398 8 114132003.594 8     -1474.770          51.000
C28  25276055.062 5 131619028.677 5     -3363.609          34.000
E19  24526579.758 8 128888043.345 8      1646.957          51.000    24526580.477 8  98758379.628 8      1261.939          48.000
E26  26304227.531 7 138229677.314 7     -2704.355          47.000    26304234.328 8 105916255.524 8     -2072.100          48.000
E33  23795412.688 8 125045730.003 8     -1118.969          51.000    23795413.906 8  95814249.663 8      -857.371          51.000
> 2020 05 12 20 11 30.0000000  0 15        .000000000000
G01  20328295.367 8 106825919.464 8      -548.043          51.000    20328297.531 8  83240980.575 8      -427.046          51.000
G03  20601153.156 7 108259780.019 7      1091.254          46.000    20601154.867 7  84358291.427 7       850.331          46.000
G04  23431197.180 5 123131787.107 5      3649.652          33.000    23431205.211 4  95946840.322 4      2843.879          28.000
G11  21188660.016 8 111347163.745 8     -2762.883          51.000    21188658.594 7  86763999.182 7     -2152.899          44.000
G22  20678899.805 8 108668362.455 8      -523.332          51.000    20678896.617 8  84676639.647 8      -407.791          51.000
G32  23773474.000 5 124930455.468 5     -2987.723          34.000    23773479.273 5  97348430.343 5     -2328.096          32.000
R02  19623403.203 7 104714279.345 7     -1964.273          46.000    19623406.766 6  81444443.816 6     -1527.771          39.000
R03  19894540.711 8 106497121.579 8      1974.312          50.000    19894542.203 7  82831082.508 7      1535.576          46.000
R17  19664067.750 8 105226395.947 8     -2106.527          51.000    19664070.000 8  81842747.245 8     -1638.410          48.000
C05  39692723.742 5 206690428.057 5       -37.977          35.000    39692720.578 5 159826136.898 5       -29.263          35.000
C27  21926403.078 8 114176549.459 8     -1495.645          51.000
C28  25295460.391 5 131720072.759 5     -3373.883          31.000
E19  24517224.977 8 128838883.068 8      1629.664          51.000    24517225.406 8  98720711.393 8      1248.746          48.000
E26  26319693.297 7 138310949.268 7     -2714.406          47.000    26319700.375 8 105978528.829 8     -2079.983          48.000
E33  23801845.789 8 125079534.658 8     -1135.270          51.000    23801846.648 8  95840151.937 8      -869.936          51.000
> 2020 05 12 20 12  0.0000000  0 15        .000000000000
G01  20331442.328 8 106842456.615 8      -560.562          51.000    20331444.375 8  83253866.678 8      -436.802          51.000
G03  20594935.938 7 108227109.307 7      1080.512          47.000    20594937.461 7  84332833.741 7       841.957          46.000
G04  23410356.320 5 123022269.502 5      3645.699          31.000    23410364.070 5  95861501.939 5      2840.805          30.000
G11  21204451.859 8 111430148.132 8     -2775.398          51.000    21204449.898 7  86828662.325 7     -2162.648          45.000
G22  20681895.867 8 108684106.703 8      -532.422          51.000    20681892.562 8  84688907.886 8      -414.874          51.000
G32  23790535.500 5 125020114.920 5     -2996.164          35.000    23790540.867 6  97418294.826 6     -2334.673          36.000
R02  19634471.234 7 104773341.956 7     -1979.562          44.000    19634475.359 6  81490381.426 6     -1539.657          39.000
R03  19883508.258 8 106438062.720 8      1956.621          50.000    19883509.828 7  82785147.842 7      1521.816          46.000
R17  19675915.312 8 105289793.774 8     -2126.234          51.000    19675917.094 7  81892056.644 7     -1653.741          47.000
C05  39692921.289 5 206691455.920 5       -36.730          35.000    39692918.031 5 159826931.467 5       -28.197          35.000
C27  21935040.414 8 114221527.551 8     -1508.887          51.000
C28  25314885.031 5 131821252.306 5     -3377.125          31.000
E19  24507931.922 8 128790046.915 8      1620.098          50.000    24507932.438 8  98683291.511 8      1241.409          48.000
E26  26335181.242 7 138392339.008 7     -2717.332          46.000    26335188.641 8 106040892.387 8     -2082.115          49.000
E33  23808335.484 8 125113637.365 8     -1144.094          51.000    23808336.273 8  95866282.584 8      -876.691          51.000
> 2020 05 12 20 12 30.0000000  0 15        .000000000000
G01  20334667.102 8 106859402.849 8      -572.285          51.000    20334669.219 8  83267071.540 8      -445.936          51.000
G03  20588786.914 7 108194795.476 7      1070.586          47.000    20588788.367 7  84307654.102 7       834.223          47.000
G04  23389546.281 5 122912913.127 5      3642.902          31.000    23389553.492 4  95776289.123 4      2838.619          28.000
G11  21220321.516 8 111513540.700 8     -2787.160          51.000    21220319.000 7  86893643.541 7     -2171.813          46.000
G22  20684949.922 8 108700155.800 8      -540.676          51.000    20684946.578 8  84701413.679 8      -421.306          51.000
G32  23807649.906 6 125110050.867 6     -3003.164          36.000    23807654.539 6  97488374.802 6     -2340.128          36.000
R02  19645632.328 7 104832898.385 7     -1994.059          47.000    19645635.523 6  81536703.040 6     -1550.937          38.000
R03  19872581.188 8 106379567.896 8      1939.664          51.000    19872582.922 7  82739651.861 7      1508.628          47.000
R17  19687879.727 8 105353817.496 8     -2145.156          51.000    19687880.789 7  81941852.826 7     -1668.455          45.000
C05  39693117.344 5 206692476.474 5       -34.391          35.000    39693114.172 5 159827721.065 5       -26.850          35.000
C27  21943760.148 8 114266935.315 8     -1521.344          51.000
C28  25334329.805 5 131922513.555 5     -3377.422          32.000
E19  24498700.305 8 128741533.603 8      1611.070          50.000    24498701.312 8  98646118.997 8      1234.459          48.000
E26  26350690.820 7 138473844.047 7     -2719.410          46.000    26350698.523 8 106103344.309 8     -2083.683          48.000
E33  23814881.594 8 125148036.398 8     -1152.191          51.000    23814882.344 8  95892640.284 8      -882.830          51.000
> 2020 05 12 20 13  0.0000000  0 15        .000000000000
G01  20337970.406 8 106876761.861 8      -584.781          51.000    20337972.570 8  83280598.056 8      -455.674          51.000
G03  20582706.266 7 108162841.722 7      1059.879          47.000    20582707.781 7  84282755.089 7       825.883          47.000
G04  23368769.273 5 122803723.726 5      3637.855          31.000    23368774.758 4  95691206.397 4      2834.690          29.000
G11  21236268.984 8 111597342.810 8     -2799.438          51.000    21236266.461 7  86958943.894 7     -2181.380          47.000
G22  20688062.516 8 108716512.700 8      -549.547          51.000    20688059.117 8  84714159.330 8      -428.218          51.000
G32  23824817.422 6 125200264.295 6     -3010.590          36.000    23824820.852 6  97558670.970 6     -2345.914          36.000
R02  19656885.469 7 104892948.347 7     -2008.906          44.000    19656888.891 6  81583408.556 6     -1562.480          39.000
R03  19861760.086 8 106321641.248 8      1922.121          50.000    19861762.328 8  82694597.816 8      1494.986          48.000
R17  19699961.430 8 105418469.347 8     -2164.785          51.000    19699962.203 7  81992137.546 7     -1683.725          45.000
C05  39693312.531 5 206693493.055 5       -32.852          35.000    39693309.297 5 159828507.130 5       -25.500          35.000
C27  21952563.039 8 114312775.357 8     -1534.438          51.000
C28  25353797.000 5 132023883.457 5     -3380.090          31.000
E19  24489530.812 8 128693347.088 8      1601.613          50.000    24489532.367 8  98609196.892 8      1227.189          48.000
E26  26366222.688 7 138555467.066 7     -2722.055          44.000    26366230.789 8 106165886.603 8     -2085.652          48.000
E33  23821484.852 8 125182735.231 8     -1160.867          51.000    23821485.109 8  95919227.705 8      -889.442          51.000
> 2020 05 12 20 13 30.0000000  0 16        .000000000000
G01  20341378.219 8 106894670.080 8      -588.625          51.000    20341380.336 8  83294552.505 8      -458.669          51.000
G03  20576720.102 8 108131384.097 8      1057.695          48.000    20576721.383 8  84258242.664 8       824.178          48.000
G04  23348050.547 5 122694839.627 5      3642.121          34.000    23348053.688 5  95606361.656 5      2838.019          33.000
G11  21252319.586 8 111681688.669 8     -2803.199          51.000    21252317.500 8  87024667.917 8     -2184.314          48.000
G22  20691259.477 8 108733312.987 8      -549.902          51.000    20691255.914 8  84727250.473 8      -428.495          51.000
G32  23842063.094 6 125290888.795 6     -3010.438          37.000    23842065.164 6  97629287.425 6     -2345.798          37.000
R02  19668256.461 7 104953626.635 7     -2015.340          44.000    19668260.586 6  81630602.762 6     -1567.487          39.000
R03  19851070.766 8 106264422.183 8      1913.297          50.000    19851073.734 8  82650094.130 8      1488.120          48.000
R17  19712186.156 8 105483886.448 8     -2175.527          51.000    19712187.117 7  82043017.471 7     -1692.077          47.000
R18  19626965.531 6 104770063.053 6      1816.102          36.000    19626965.852 4  81487827.415 4      1412.523          27.000
C05  39693532.703 5 206694640.061 5       -23.254          35.000    39693529.445 5 159829394.090 5       -17.978          35.000
C27  21961474.805 8 114359181.739 8     -1539.027          51.000
C28  25373312.570 4 132125495.220 4     -3374.062          29.000
E19  24480449.430 8 128645623.940 8      1600.609          50.000    24480451.375 8  98572629.818 8      1226.360          48.000
E26  26381802.875 7 138637343.439 7     -2716.051          45.000    26381810.953 7 106228623.025 7     -2081.118          46.000
E33  23828170.914 8 125217870.082 8     -1161.027          51.000    23828170.547 8  95946149.220 8      -889.597          51.000
> 2020 05 12 20 14  0.0000000  0 17        .000000000000
G01  20344834.625 8 106912833.599 8      -610.398          51.000    20344836.578 8  83308705.903 8      -475.635          51.000
G03  20570772.430 7 108100128.321 7      1037.805          47.000    20570773.188 7  84233887.518 7       808.679          47.000
G04  23327333.609 6 122585969.417 6      3628.242          39.000    23327334.625 6  95521527.787 6      2827.208          36.000
G08  24338320.938 4 127898738.971 4     -3745.980          29.000    24338324.867 4  99661381.153 4     -2918.946          29.000
G11  21268417.375 8 111766282.437 8     -2824.461          51.000    21268415.711 8  87090585.120 8     -2200.882          49.000
G22  20694484.648 8 108750261.483 8      -568.035          51.000    20694480.977 8  84740457.097 8      -442.625          51.000
G32  23859330.711 6 125381627.598 6     -3027.246          38.000    23859331.227 6  97699992.980 6     -2358.893          37.000
R02  19679688.648 7 105014632.693 7     -2039.398          43.000    19679692.383 6  81678051.956 6     -1586.199          38.000
R03  19840458.211 8 106207611.746 8      1886.250          51.000    19840460.648 7  82605908.269 7      1467.086          46.000
R17  19724497.672 8 105549767.902 8     -2204.387          51.000    19724499.117 8  82094258.592 8     -1714.523          48.000
R18  19616866.055 5 104716170.642 5      1788.297          33.000    19616868.008 3  81445914.140 3      1390.901          22.000
C05  39693721.953 5 206695624.936 5       -30.691          35.000    39693718.672 5 159830155.423 5       -23.536          35.000
C27  21970439.078 8 114405862.241 8     -1561.160          51.000
C28  25392817.375 5 132227055.652 5     -3385.250          35.000
E19  24471400.016 8 128598070.337 8      1581.684          49.000    24471402.500 8  98536192.653 8      1212.059          48.000
E26  26397375.570 7 138719178.310 7     -2727.727          45.000    26397382.969 7 106291327.647 7     -2090.058          46.000
E33  23834883.781 8 125253146.856 8     -1178.762          51.000    23834883.016 8  95973179.459 8      -903.201          51.000
> 2020 05 12 20 14 30.0000000  0 16        .000000000000
G01  20348378.758 8 106931458.790 8      -627.379          51.000    20348380.758 8  83323219.038 8      -488.870          51.000
G03  20564902.086 7 108069280.301 7      1022.660          46.000    20564902.727 7  84209850.102 7       796.878          46.000
G04  23306658.594 6 122477321.562 6      3619.246          41.000    23306658.023 5  95436867.168 5      2820.195          33.000
G11  21284601.164 8 111851328.301 8     -2841.180          51.000    21284599.883 8  87156854.625 8     -2213.906          49.000
G22  20697777.055 8 108767563.497 8      -581.469          51.000    20697773.430 8  84753939.196 8      -453.093          51.000
G32  23876658.773 6 125472684.276 6     -3039.316          39.000    23876658.453 6  97770946.214 6     -2368.302          39.000
R02  19691221.398 7 105076171.776 7     -2059.035          44.000    19691223.883 6  81725915.645 6     -1601.475          38.000
R03  19829961.875 8 106151420.373 8      1863.902          51.000    19829963.047 7  82562203.910 7      1449.702          46.000
R17  19736934.477 8 105616322.281 8     -2228.488          50.000    19736936.695 8  82146023.114 8     -1733.269          49.000
R18  19606888.570 5 104662922.940 5      1765.301          30.000    19606892.781 4  81404496.279 4      1373.018          25.000
C05  39693919.531 5 206696653.922 5       -34.059          35.000    39693916.211 5 159830951.112 5       -26.327          35.000
C27  21979495.305 8 114453020.158 8     -1578.668          51.000
C28  25412350.211 6 132328767.123 6     -3392.020          36.000
E19  24462422.039 8 128550893.097 8      1567.547          48.000    24462425.031 8  98500043.894 8      1201.104          48.000
E26  26412979.508 7 138801177.047 7     -2734.723          44.000    26412986.422 7 106354157.830 7     -2095.563          46.000
E33  23841662.945 8 125288771.660 8     -1192.113          51.000    23841661.961 8  96000476.375 8      -913.440          51.000
> 2020 05 12 20 15  0.0000000  0 16        .000000000000
G01  20352001.719 8 106950498.263 8      -641.504          51.000    20352003.852 8  83338054.979 8      -499.873          51.000
G03  20559100.297 7 108038792.333 7      1010.297          46.000    20559101.219 7  84186093.251 7       787.244          47.000
G04  23286016.797 7 122368851.030 7      3612.707          42.000    23286015.539 5  95352344.774 5      2815.099          32.000
G11  21300861.305 8 111936776.607 8     -2854.887          51.000    21300860.562 8  87223437.720 8     -2224.584          49.000
G22  20701127.500 8 108785170.368 8      -591.836          51.000    20701123.969 8  84767658.845 8      -461.171          51.000
G32  23894037.586 6 125564008.643 6     -3048.469          40.000    23894037.109 6  97842108.028 6     -2375.430          40.000
R02  19702843.781 7 105138192.838 7     -2075.309          42.000    19702847.531 6  81774154.261 6     -1614.126          40.000
R03  19819572.125 8 106095800.277 8      1844.566          50.000    19819572.805 7  82518943.835 7      1434.663          47.000
R17  19749487.375 8 105683499.444 8     -2249.500          49.000    19749490.672 8  82198272.035 8     -1749.611          49.000
R18  19597023.273 5 104610274.655 5      1744.441          30.000    19597028.680 4  81363542.699 4      1356.788          25.000
C05  39694116.336 5 206697678.662 5       -33.758          35.000    39694112.992 5 159831743.520 5       -26.064          35.000
C27  21988634.250 8 114500607.496 8     -1593.312          51.000
C28  25431903.188 5 132430580.927 5     -3395.816          30.000
E19  24453506.555 7 128504044.815 7      1556.273          47.000    24453510.016 8  98464147.169 8      1192.523          48.000
E26  26428605.344 7 138883291.308 7     -2738.816          43.000    26428612.047 7 106417076.510 7     -2098.592          46.000
E33  23848499.219 8 125324696.894 8     -1202.375          51.000    23848498.195 8  96028003.475 8      -921.273          51.000
> 2020 05 12 20 15 30.0000000  0 16        .000000000000
G01  20355703.156 8 106969949.985 8      -654.938          51.000    20355705.320 8  83353212.149 8      -510.344          51.000
G03  20553366.734 7 108008661.963 7       998.691          46.000    20553367.984 7  84162615.045 7       778.204          46.000
G04  23265408.672 7 122260557.917 7      3607.164          44.000    23265407.195 4  95267960.646 4      2810.783          29.000
G11  21317197.242 8 112022623.000 8     -2867.773          51.000    21317196.820 8  87290331.019 8     -2234.626          48.000
G22  20704535.391 8 108803078.823 8      -601.617          51.000    20704531.812 8  84781613.498 8      -468.793          51.000
G32  23911466.297 6 125655595.934 6     -3057.000          40.000    23911465.789 6  97913474.724 6     -2382.078          40.000
R02  19714555.891 7 105200690.666 7     -2090.707          45.000    19714559.570 6  81822763.725 6     -1626.105          37.000
R03  19809288.672 8 106040749.800 8      1825.934          51.000    19809289.117 8  82476126.810 8      1420.171          48.000
R17  19762156.422 8 105751295.769 8     -2269.836          51.000    19762160.047 8  82251002.536 8     -1765.425          48.000
R18  19587275.289 5 104558180.985 5      1725.453          30.000    19587278.703 4  81323046.167 4      1342.019          28.000
C05                                                                  39694308.523 5 159832530.945 5       -25.868          35.000
C27  21997855.172 8 114548621.135 8     -1607.145          51.000
C28  25451474.492 5 132532492.974 5     -3398.301          32.000
E19  24444653.188 7 128457523.728 7      1545.641          46.000    24444657.117 8  98428501.178 8      1184.238          48.000
E26  26444251.812 6 138965518.059 6     -2742.281          41.000    26444259.383 7 106480081.415 7     -2101.369          47.000
E33  23855392.195 8 125360920.348 8     -1212.051          51.000    23855391.125 8  96055759.092 8      -928.756          50.000
> 2020 05 12 20 16  0.0000000  0 16        .000000000000
G01  20359485.406 8 106989825.919 8      -669.664          51.000    20359487.750 8  83368699.878 8      -521.816          51.000
G03  20547703.461 7 107978900.737 7       985.957          45.000    20547704.867 7  84139424.508 7       768.278          45.000
G04  23244837.172 7 122152456.470 7      3600.055          44.000    23244836.680 4  95183725.804 4      2805.240          27.000
G11  21333610.703 8 112108877.351 8     -2881.930          51.000    21333610.406 7  87357542.212 7     -2245.659          46.000
G22  20708002.828 8 108821300.101 8      -612.719          51.000    20707999.164 8  84795811.899 8      -477.443          51.000
G32  23928946.555 6 125747455.303 6     -3066.941          41.000    23928946.570 6  97985053.452 6     -2389.824          41.000
R02  19726358.922 7 105263673.605 7     -2107.309          42.000    19726360.398 6  81871750.399 6     -1639.015          37.000
R03  19799113.852 8 105986281.324 8      1805.754          50.000    19799113.953 7  82433762.446 7      1404.475          46.000
R17  19774943.305 8 105819721.793 8     -2291.465          51.000    19774946.969 8  82304222.751 8     -1782.250          48.000
R18  19577639.961 4 104506747.066 4      1703.910          29.000    19577645.008 4  81283041.941 4      1325.266          29.000
C05  39694508.523 5 206699721.437 5       -34.625          35.000    39694505.023 5 159833321.397 5       -26.925          35.000
C27  22007160.039 8 114597071.831 8     -1622.410          51.000
C28  25471066.492 4 132634513.110 4     -3401.457          28.000
E19  24435864.734 7 128411342.191 7      1533.594          47.000    24435868.422 7  98393115.330 7      1175.106          47.000
E26  26459921.438 6 139047868.242 6     -2747.027          39.000    26459930.438 8 106543180.928 8     -2104.970          48.000
E33  23862344.180 8 125397453.776 8     -1223.000          51.000    23862343.234 8  96083752.218 8      -937.131          50.000
> 2020 05 12 20 16 30.0000000  0 16        .000000000000
G01  20363348.750 8 107010127.987 8      -683.031          51.000    20363351.078 8  83384519.665 8      -532.232          51.000
G03  20542110.617 7 107949510.245 7       974.434          46.000    20542112.133 7  84116522.825 7       759.299          46.000
G04  23224303.086 7 122044550.819 7      3594.520          43.000    23224303.664 4  95099643.494 4      2800.915          29.000
G11  21350101.734 8 112195539.657 8     -2894.637          51.000    21350101.406 7  87425071.302 7     -2255.561          45.000
G14  22576581.711 5 118640767.194 5     -1961.746          34.000
G22  20711529.883 8 108839835.117 8      -622.211          51.000    20711526.297 8  84810254.764 8      -484.840          51.000
G32  23946478.258 6 125839585.816 6     -3074.758          41.000    23946479.023 6  98056843.429 6     -2395.918          41.000
R02  19738252.539 7 105327140.319 7     -2122.676          45.000    19738254.906 6  81921113.462 6     -1650.967          38.000
R03  19789047.336 8 105932397.269 8      1787.242          49.000    19789047.141 7  82391852.664 7      1390.080          45.000
R17  19787848.555 8 105888777.510 8     -2311.453          51.000    19787851.734 7  82357932.717 7     -1797.797          47.000
R18  19568121.500 5 104455956.408 5      1684.562          34.000    19568125.578 4  81243520.145 4      1310.215          29.000
C05  39694706.352 5 206700750.708 5       -34.203          35.000    39694702.812 5 159834118.039 5       -26.158          35.000
C27  22016548.547 8 114645960.364 8     -1636.121          51.000
E19  24427141.953 8 128365502.035 8      1523.148          48.000    24427144.172 7  98357991.046 7      1167.091          47.000
E26  26475615.414 6 139130342.824 6     -2750.523          40.000    26475625.273 8 106606375.769 8     -2107.391          48.000
E33  23869355.484 8 125434298.898 8     -1232.629          51.000    23869355.000 8  96111984.161 8      -944.395          51.000
> 2020 05 12 20 17  0.0000000  0 15        .000000000000
G01  20367291.734 8 107030848.412 8      -698.039          51.000    20367293.906 8  83400665.431 8      -543.927          51.000
G03  20536586.664 7 107920482.360 7       960.949          45.000    20536588.477 7  84093903.703 7       748.792          45.000
G04  23203804.781 6 121936835.532 6      3586.852          40.000    23203805.977 4  95015704.612 4      2794.955          25.000
G11  21366668.531 8 112282599.617 8     -2908.945          51.000    21366667.844 7  87492910.229 7     -2266.711          43.000
G22  20715114.867 8 108858675.027 8      -633.434          51.000    20715111.531 8  84824935.212 8      -493.585          51.000
G32  23964059.578 6 125931977.057 6     -3084.242          40.000    23964060.805 6  98128836.585 6     -2403.303          40.000
R02  19750234.961 7 105391080.016 7     -2139.484          45.000    19750236.703 6  81970844.280 6     -1664.046          36.000
R03  19779087.922 8 105879090.022 8      1766.902          48.000    19779088.227 7  82350391.482 7      1374.257          46.000
R17  19800869.617 8 105958453.431 8     -2333.297          50.000    19800872.039 7  82412125.090 7     -1814.786          46.000
R18  19558718.055 5 104405757.082 5      1662.516          32.000    19558720.023 4  81204476.228 4      1293.068          27.000
C05  39694903.984 5 206701781.280 5       -34.859          35.000    39694900.422 5 159834913.801 5       -26.590          35.000
C27  22026019.391 8 114695277.937 8     -1651.465          51.000
E19  24418482.945 8 128319995.955 8      1510.816          48.000    24418483.711 7  98323122.747 7      1157.686          47.000
E26  26491332.992 6 139212933.150 6     -2755.359          41.000    26491341.945 8 106669659.265 8     -2111.276          49.000
E33  23876424.742 8 125471447.760 8     -1243.707          51.000    23876424.562 8  96140448.855 8      -952.994          51.000
> 2020 05 12 20 17 30.0000000  0 15        .000000000000
G01  20371315.773 8 107051994.731 8      -711.625          51.000    20371317.859 8  83417143.066 8      -554.513          51.000
G03  20531133.172 7 107891824.076 7       949.648          47.000    20531135.008 7  84071572.590 7       739.986          47.000
G04  23183344.148 6 121829320.341 6      3580.895          37.000
G11  21383312.070 8 112370062.590 8     -2921.891          51.000    21383310.586 7  87561063.156 7     -2276.801          42.000
G22  20718759.133 8 108877826.145 8      -643.293          51.000    20718755.992 8  84839858.156 8      -501.267          51.000
G32  23981691.477 6 126024633.771 6     -3092.703          39.000    23981693.164 6  98201036.613 6     -2409.899          39.000
R02  19762306.594 7 105455496.741 7     -2154.805          44.000    19762308.789 6  82020946.190 6     -1675.959          39.000
R03  19769237.953 8 105826367.297 8      1747.980          50.000    19769239.453 8  82309384.953 8      1359.540          48.000
R17  19814007.195 8 106028755.402 8     -2353.551          48.000    19814009.305 7  82466804.396 7     -1830.539          46.000
R18  19549432.172 5 104356182.894 5      1642.301          35.000    19549426.555 4  81165905.096 4      1277.345          24.000
C05  39695102.633 5 206702815.392 5       -34.273          35.000    39695099.062 5 159835713.761 5       -26.424          35.000
C27  22035573.945 8 114745030.902 8     -1665.355          51.000
E19  24409889.000 8 128274831.560 8      1500.059          49.000    24409889.062 8  98288516.298 8      1149.339          48.000
E26  26507074.328 7 139295645.748 7     -2758.906          44.000    26507081.828 8 106733036.435 8     -2113.985          49.000
E33  23883553.281 8 125508907.685 8     -1253.617          51.000    23883553.109 8  96169151.891 8      -960.549          51.000
> 2020 05 12 20 18  0.0000000  0 15        .000000000000
G01  20375416.086 8 107073541.778 8      -725.805          51.000    20375418.078 8  83433932.959 8      -565.565          51.000
G03  20525745.391 7 107863510.024 7       937.156          47.000    20525747.242 7  84049509.688 7       730.252          47.000
G04  23162916.469 5 121721982.434 5      3573.328          32.000
G11  21400027.023 8 112457901.409 8     -2935.191          49.000    21400024.750 7  87629508.916 7     -2287.162          43.000
G22  20722457.734 8 108897262.129 8      -653.480          51.000    20722454.469 8  84855003.083 8      -509.206          51.000
G32  23999368.312 6 126117528.026 6     -3101.273          38.000    23999370.938 6  98273421.719 6     -2416.580          37.000
R02  19774462.492 7 105520361.511 7     -2170.480          42.000    19774464.375 6  82071396.542 6     -1688.155          37.000
R03  19759493.219 8 105774204.169 8      1728.586          51.000    19759495.375 8  82268813.643 8      1344.456          48.000
R17  19827256.531 8 106099655.917 8     -2374.270          49.000    19827258.508 7  82521949.268 7     -1846.654          45.000
R18  19540259.328 5 104307210.377 5      1621.086          35.000    19540254.914 4  81127822.932 4      1260.845          28.000
C05  39695297.695 5 206703830.930 5       -34.766          35.000    39695294.055 5 159836498.945 5       -26.844          35.000
C27  22045207.109 8 114795193.195 8     -1679.891          51.000
E19  24401355.477 8 128229984.036 8      1488.617          50.000    24401355.305 8  98254152.630 8      1140.590          49.000
E26  26522833.984 7 139378454.427 7     -2762.828          46.000    26522839.789 8 106796487.230 8     -2117.038          49.000
E33  23890736.234 8 125546653.288 8     -1264.051          51.000    23890736.242 8  96198073.833 8      -968.481          51.000
> 2020 05 12 20 18 30.0000000  0 16        .000000000000
G01  20379597.047 8 107095512.622 8      -746.523          51.000    20379598.984 8  83451053.101 8      -581.707          51.000
G03  20520427.125 7 107835562.793 7       918.312          46.000    20520429.594 7  84027732.640 7       715.568          46.000
G04  23142528.766 5 121614847.092 5      3560.461          35.000
G11  21416817.609 8 112546136.864 8     -2954.910          50.000    21416815.078 7  87698263.767 7     -2302.527          44.000
G14  22622077.227 5 118879772.160 5     -2025.973          30.000
G22  20726214.750 8 108917005.136 8      -670.312          51.000    20726211.320 8  84870387.248 8      -522.321          51.000
G32  24017094.680 5 126210680.198 5     -3116.203          35.000    24017097.656 6  98346007.808 6     -2428.210          36.000
R02  19786705.820 7 105585694.785 7     -2192.699          42.000    19786707.727 6  82122211.341 6     -1705.430          39.000
R03  19749857.523 8 105722624.167 8      1702.363          50.000    19749860.078 8  82228695.898 8      1324.060          48.000
R17  19840622.219 8 106171176.812 8     -2401.676          51.000    19840623.328 7  82577576.606 7     -1867.973          44.000
R18  19531203.039 5 104258866.452 5      1593.047          33.000    19531200.102 4  81090233.558 4      1239.036          26.000
C05  39695493.508 5 206704850.478 5       -40.961          35.000    39695489.891 5 159837287.314 5       -31.541          35.000
C27  22054922.984 8 114845786.543 8     -1700.699          51.000
E19  24392886.680 8 128185476.561 8      1470.699          51.000    24392886.414 8  98220049.512 8      1126.863          49.000
E26  26538615.656 8 139461381.376 8     -2773.285          48.000    26538620.203 8 106860028.617 8     -2125.069          49.000
E33  23897977.820 8 125584707.440 8     -1280.777          51.000    23897978.078 8  96227232.211 8      -981.435          51.000
> 2020 05 12 20 19  0.0000000  0 15        .000000000000
G01  20383846.336 8 107117842.545 8      -750.293          51.000    20383848.414 8  83468453.043 8      -584.644          51.000
G03  20515166.297 7 107807917.325 7       916.648          45.000    20515168.633 7  84006190.722 7       714.275          45.000
G04  23122168.719 6 121507851.755 6      3564.383          40.000
G11  21433671.297 8 112634702.599 8     -2957.590          51.000    21433669.156 7  87767276.008 7     -2304.615          45.000
G22  20730017.617 8 108936989.474 8      -670.035          51.000    20730014.211 8  84885959.464 8      -522.105          51.000
G32  24034857.141 5 126304022.799 5     -3114.203          32.000    24034859.977 5  98418742.316 5     -2426.649          31.000
R02  19799024.672 7 105651427.270 7     -2197.371          44.000    19799026.680 6  82173336.563 6     -1709.066          40.000
R03  19740318.836 8 105671561.579 8      1693.570          51.000    19740321.562 8  82188980.564 8      1317.221          48.000
R17  19854091.070 8 106243250.357 8     -2411.457          51.000    19854091.289 7  82633633.771 7     -1875.578          43.000
C05  39695677.562 5 206705808.170 5       -30.453          35.000    39695673.930 5 159838028.670 5       -23.893          35.000
C27  22064709.164 8 114896745.659 8     -1704.652          51.000
C28  25589001.484 5 133248677.007 5     -3418.531          33.000
E19  24384469.922 8 128141244.556 8      1470.020          51.000    24384469.898 8  98186157.466 8      1126.385          50.000
E26  26554406.914 8 139544360.855 8     -2766.676          48.000    26554410.602 8 106923610.238 8     -2119.861          48.000
E33  23905265.586 8 125623005.217 8     -1280.457          51.000    23905266.109 8  96256577.242 8      -981.126          51.000
> 2020 05 12 20 19 30.0000000  0 17        .000000000000
G01  20388207.500 8 107140760.810 8      -768.707          51.000    20388209.586 8  83486311.423 8      -598.992          51.000
G03  20510006.680 7 107780802.455 7       899.914          46.000    20510007.820 7  83985062.260 7       701.232          46.000
G04  23101879.422 7 121401228.009 7      3552.844          42.000    23101878.578 5  94598324.428 5      2768.453          30.000
G11  21450630.758 8 112723824.765 8     -2975.055          51.000    21450629.164 7  87836721.863 7     -2318.224          46.000
G14  22645299.359 6 119001818.771 6     -2048.461          36.000
G22  20733909.812 8 108957443.463 8      -684.602          51.000    20733906.609 8  84901897.653 8      -533.456          51.000
G32  24052669.781 4 126397632.445 4     -3127.105          29.000
R02  19811460.492 6 105717788.863 6     -2217.289          41.000    19811462.164 6  82224951.121 6     -1724.555          40.000
R03  19730920.617 8 105621250.270 8      1669.641          51.000    19730923.367 8  82149849.538 8      1298.609          49.000
R17  19867706.273 8 106316107.912 8     -2436.512          51.000    19867706.188 7  82690300.712 7     -1895.065          44.000
R18  19513445.906 5 104164078.445 5      1557.391          34.000    19513458.891 4  81016532.144 4      1211.301          28.000
C05  39695893.625 5 206706934.535 5       -35.074          35.000    39695889.969 5 159838898.509 5       -27.481          34.000
C27  22074609.102 8 114948296.543 8     -1723.281          51.000
C28  25608737.898 5 133351472.705 5     -3425.992          34.000
E19  24376148.930 8 128097517.616 8      1454.172          51.000    24376149.375 8  98152652.428 8      1114.269          50.000
E26  26570251.047 8 139627621.226 8     -2774.852          48.000    26570254.406 7 106987407.093 7     -2126.224          47.000
E33  23912643.391 8 125661775.666 8     -1295.148          51.000    23912643.938 8  96286284.465 8      -992.416          51.000
> 2020 05 12 20 20  0.0000000  0 16        .000000000000
G01  20392626.992 8 107163985.526 8      -781.883          51.000    20392629.023 8  83504408.601 8      -609.259          51.000
G03  20504894.141 7 107753935.971 7       888.816          45.000    20504895.344 7  83964127.349 7       692.587          45.000
G04  23081607.359 7 121294696.290 7      3546.898          43.000    23081608.352 5  94515312.773 5      2763.817          34.000
G11  21467642.102 8 112813219.562 8     -2986.805          51.000    21467640.977 7  87906380.132 7     -2327.380          46.000
G14  22657028.531 5 119063487.862 5     -2061.047          30.000
G22  20737837.586 8 108978084.344 8      -693.715          51.000    20737834.703 8  84917981.452 8      -540.557          51.000
R02  19823960.141 7 105784489.687 7     -2231.656          42.000    19823962.492 7  82276829.586 7     -1735.733          42.000
R03  19721608.844 8 105571403.218 8      1651.242          51.000    19721611.719 8  82111079.625 8      1284.299          49.000
R17  19881413.773 8 106389460.609 8     -2455.902          50.000    19881414.000 7  82747352.782 7     -1910.146          45.000
R18  19504744.305 5 104117617.244 5      1536.645          30.000    19504742.383 4  80980384.807 4      1195.168          26.000
C05  39696087.781 5 206707944.950 5       -34.414          35.000    39696084.305 5 159839680.602 5       -26.554          35.000
C27  22084568.836 8 115000158.756 8     -1736.371          51.000
C28  25628472.883 5 133454244.545 5     -3426.777          30.000
E19  24367870.336 8 128054013.956 8      1443.957          51.000    24367871.094 8  98119318.461 8      1106.483          50.000
E26  26586094.500 8 139710879.632 8     -2777.586          49.000    26586097.867 7 107051202.456 7     -2128.403          46.000
E33  23920057.570 8 125700736.709 8     -1304.258          51.000    23920057.938 8  96316137.735 8      -999.363          51.000
> 2020 05 12 20 20 30.0000000  0 15        .000000000000
G01  20397129.141 8 107187644.016 8      -795.469          51.000    20397130.758 8  83522843.800 8      -619.846          51.000
G03  20499852.828 7 107727444.880 7       877.188          44.000    20499855.047 7  83943484.975 7       683.523          44.000
G04  23061377.070 7 121188386.240 7      3540.266          42.000    23061378.305 5  94432473.825 5      2758.652          31.000
G11  21484728.914 8 112903012.232 8     -2999.316          49.000    21484728.055 7  87976348.447 7     -2337.130          46.000
G22  20741824.922 8 108999037.959 8      -703.320          51.000    20741822.273 8  84934308.938 8      -548.042          51.000
R02  19836546.602 6 105851655.979 6     -2246.520          41.000    19836549.898 7  82329070.035 7     -1747.290          42.000
R03  19712408.133 8 105522150.504 8      1632.152          51.000    19712410.867 8  82072771.979 8      1269.452          48.000
R17  19895237.680 8 106463436.445 8     -2475.895          50.000    19895238.602 7  82804889.542 7     -1925.696          47.000
R18  19496162.523 5 104071805.190 5      1516.512          35.000    19496167.508 5  80944760.197 5      1179.509          30.000
C05  39696284.375 5 206708968.444 5       -34.020          35.000    39696280.922 5 159840472.426 5       -26.388          35.000
C27  22094612.414 8 115052457.329 8     -1750.230          51.000
C28  25648230.398 5 133557061.141 5     -3430.547          31.000
E19  24359658.398 8 128010861.063 8      1432.965          50.000    24359659.180 8  98086253.280 8      1097.974          50.000
E26  26601961.406 8 139794262.463 8     -2781.121          48.000    26601964.938 7 107115093.162 7     -2130.905          45.000
E33  23927532.000 8 125740015.513 8     -1314.254          51.000    23927532.422 8  96346234.483 8     -1006.978          51.000
> 2020 05 12 20 21  0.0000000  0 15        .000000000000
G01  20401709.758 8 107211714.737 8      -809.500          51.000    20401711.039 8  83541600.208 8      -630.779          51.000
G03  20494879.109 7 107701307.237 7       865.320          45.000    20494881.492 7  83923117.996 7       674.276          45.000
G04  23041184.953 6 121082278.604 6      3533.195          41.000    23041186.664 5  94349792.574 5      2753.142          30.000
G11  21501886.516 7 112993179.085 7     -3012.043          47.000    21501886.727 7  88046608.307 7     -2347.046          47.000
G22  20745867.492 8 109020281.809 8      -713.281          51.000    20745864.805 8  84950862.578 8      -555.804          51.000
R02  19849216.328 7 105919262.715 7     -2261.281          44.000    19849219.172 7  82381653.032 7     -1758.777          42.000
R03  19703314.109 8 105473470.410 8      1612.762          51.000    19703316.695 8  82034909.700 8      1254.370          48.000
R17  19909173.859 8 106538011.408 8     -2496.113          51.000    19909175.305 8  82862892.299 8     -1941.421          48.000
R18  19487700.664 5 104026623.295 5      1494.602          32.000    19487700.383 4  80909618.780 4      1162.471          28.000
C05  39696479.227 5 206709983.550 5       -34.062          34.000    39696475.836 5 159841257.374 5       -26.264          34.000
C27  22104735.125 8 115105169.768 8     -1764.262          51.000
C28  25668001.758 5 133660010.839 5     -3433.375          33.000
E19  24351509.078 8 127968037.658 8      1421.660          50.000    24351509.711 8  98053440.557 8      1089.315          50.000
E26  26617847.555 8 139877747.215 8     -2784.758          48.000    26617851.617 7 107179061.977 7     -2133.820          46.000
E33  23935062.633 8 125779590.330 8     -1324.320          51.000    23935062.859 8  96376558.045 8     -1014.757          51.000
> 2020 05 12 20 21 30.0000000  0 15        .000000000000
G01  20406373.273 8 107236221.341 8      -823.902          51.000    20406374.711 8  83560696.257 8      -642.002          51.000
G03  20489976.961 7 107675546.348 7       852.672          45.000    20489978.805 7  83903044.568 7       664.420          45.000
G04  23021035.906 6 120976399.377 6      3525.711          41.000    23021038.672 5  94267289.336 5      2747.313          30.000
G11  21519119.172 7 113083741.580 7     -3024.980          46.000    21519120.945 7  88117176.480 7     -2357.125          45.000
G22  20749969.688 8 109041838.870 8      -723.523          51.000    20749966.742 8  84967660.290 8      -563.784          51.000
R02  19861972.211 6 105987329.933 6     -2276.172          41.000    19861974.289 7  82434594.171 7     -1770.356          42.000
R03  19694331.273 8 105425386.933 8      1593.160          51.000    19694334.195 8  81997511.454 8      1239.125          49.000
R17  19923226.039 8 106613207.828 8     -2516.555          51.000    19923228.055 8  82921378.402 8     -1957.320          49.000
R18  19479358.516 5 103982097.858 5      1474.113          33.000    19479357.508 4  80874988.850 4      1146.533          29.000
C05                                                                  39696673.461 5 159842053.409 5       -26.584          34.000
C27  22114941.406 8 115158318.363 8     -1778.637          51.000
C28  25687790.602 5 133763059.272 5     -3436.434          35.000
E19  24343427.117 8 127925567.716 8      1409.984          49.000    24343427.602 8  98020898.667 8      1080.384          50.000
E26  26633757.305 7 139961356.651 7     -2788.805          47.000    26633761.719 7 107243126.319 7     -2136.927          44.000
E33  23942654.234 8 125819484.627 8     -1334.918          51.000    23942654.203 8  96407126.408 8     -1022.886          51.000
> 2020 05 12 20 22  0.0000000  0 15        .000000000000
G01  20411117.117 8 107261150.211 8      -838.242          51.000    20411118.547 8  83580121.322 8      -653.179          51.000
G03  20485143.562 7 107650148.243 7       840.547          43.000    20485145.180 7  83883253.821 7       654.972          43.000
G04  23000928.125 6 120870737.274 6      3518.406          39.000    23000930.219 4  94184955.270 4      2741.612          28.000
G11  21536424.250 7 113174683.923 7     -3037.910          45.000    21536426.930 7  88188040.688 7     -2367.203          46.000
G22  20754128.695 8 109063694.376 8      -733.652          51.000    20754125.750 8  84984690.560 8      -571.677          51.000
R02  19874810.680 6 106055841.117 6     -2291.191          41.000    19874813.883 7  82487880.700 7     -1782.035          42.000
R03  19685457.609 8 105377886.539 8      1573.441          51.000    19685460.516 7  81960566.720 7      1223.788          47.000
R17  19937391.547 8 106689009.846 8     -2536.977          51.000    19937393.523 8  82980335.521 8     -1973.204          48.000
R18  19471138.422 5 103938217.999 5      1451.754          34.000    19471136.656 4  80840860.099 4      1129.145          26.000
C05  39696874.836 5 206712043.152 5       -34.434          35.000    39696871.156 5 159842849.014 5       -26.662          35.000
C27  22125228.984 8 115211888.456 8     -1792.867          51.000
C28  25707595.578 6 133866191.169 6     -3439.297          37.000
E19  24335409.875 8 127883437.740 8      1398.410          48.000    24335410.328 8  97988617.267 8      1071.569          50.000
E26  26649688.016 7 140045076.245 7     -2792.684          46.000    26649692.453 7 107307275.067 7     -2139.834          43.000
E33  23950304.156 8 125859684.602 8     -1345.266          51.000    23950303.992 8  96437928.982 8     -1030.794          51.000
> 2020 05 12 20 22 30.0000000  0 15        .000000000000
G01  20415943.070 8 107286510.383 8      -852.355          51.000    20415944.102 8  83599882.485 8      -664.173          51.000
G03  20480381.172 7 107625121.596 7       828.535          44.000    20480382.766 7  83863752.565 7       645.612          44.000
G04  22980863.305 6 120765303.486 6      3511.531          37.000    22980866.906 5  94102799.283 5      2736.270          35.000
G11  21553803.797 8 113266012.755 8     -3050.523          48.000    21553806.406 7  88259206.037 7     -2377.031          47.000
G22  20758346.039 8 109085856.410 8      -743.637          51.000    20758343.273 8  85001959.694 8      -579.454          51.000
R02  19887734.062 7 106124802.399 7     -2306.023          43.000    19887737.602 6  82541517.255 6     -1793.574          41.000
R03  19676694.711 8 105330978.753 8      1553.941          50.000    19676696.844 7  81924082.896 7      1208.621          46.000
R17  19951671.922 8 106765424.653 8     -2557.098          51.000    19951673.320 8  83039769.276 8     -1988.854          48.000
R18  19463041.602 5 103894995.238 5      1429.836          32.000    19463045.617 5  80807241.500 5      1112.098          31.000
C05  39697074.273 5 206713081.698 5       -34.117          34.000    39697070.844 5 159843652.890 5       -26.792          34.000
C27  22135599.195 8 115265887.770 8     -1806.914          51.000
C28  25727417.477 6 133969413.585 6     -3442.074          37.000
E19  24327459.086 7 127841657.016 7      1387.086          47.000    24327459.461 8  97956603.466 8      1062.847          49.000
E26  26665641.336 7 140128914.103 7     -2796.316          47.000    26665645.680 7 107371514.441 7     -2142.668          42.000
E33  23958013.953 8 125900199.060 8     -1355.500          51.000    23958013.789 8  96468972.530 8     -1038.633          51.000
> 2020 05 12 20 23  0.0000000  0 15        .000000000000
G01  20420848.797 8 107312290.076 8      -866.242          51.000    20420849.680 8  83619970.544 8      -674.994          51.000
G03  20475687.266 7 107600454.331 7       816.359          44.000    20475689.055 7  83844531.366 7       636.127          44.000
G04  22960840.109 5 120660088.798 5      3503.652          33.000    22960845.289 5  94020813.798 5      2730.125          33.000
G11  21571254.773 8 113357714.135 8     -3062.840          51.000    21571256.102 7  88330661.640 7     -2386.628          45.000
G22  20762619.258 8 109108312.449 8      -753.391          51.000    20762616.547 8  85019457.910 8      -587.058          51.000
R02  19900738.766 7 106194198.209 7     -2320.262          43.000    19900742.219 6  82595491.802 6     -1804.645          40.000
R03  19668040.086 8 105284651.467 8      1534.641          50.000    19668041.680 7  81888050.583 7      1193.612          46.000
R17  19966063.914 8 106842438.439 8     -2577.051          51.000    19966065.406 7  83099668.893 7     -2004.373          47.000
R18  19455065.781 5 103852420.540 5      1408.309          33.000    19455070.469 5  80774127.762 5      1095.348          32.000
C05                                                                  39697270.055 5 159844455.036 5       -26.847          35.000
C27  22146049.078 8 115320303.568 8     -1820.754          51.000
C28  25747253.766 6 134072713.106 6     -3444.801          37.000
E19  24319572.680 7 127800213.872 7      1375.805          47.000    24319572.594 8  97924848.319 8      1054.140          49.000
E26  26681614.703 7 140212857.573 7     -2799.879          45.000    26681618.867 7 107435834.719 7     -2145.374          42.000
E33  23965781.234 8 125941016.124 8     -1365.578          51.000    23965781.195 8  96500247.944 8     -1046.403          51.000
> 2020 05 12 20 23 30.0000000  0 14        .000000000000
G01  20425833.672 8 107338486.607 8      -879.910          51.000    20425834.867 8  83640383.417 8      -685.644          50.000
G03  20471061.203 7 107576143.398 7       804.547          42.000    20471062.867 7  83825587.796 7       626.920          42.000
G11  21588775.812 8 113449783.293 8     -3074.777          51.000    21588775.797 7  88402403.813 7     -2395.930          44.000
G22  20766947.680 8 109131058.644 8      -762.750          51.000    20766944.859 8  85037182.208 8      -594.351          51.000
R02  19913824.289 7 106264022.698 7     -2334.273          43.000    19913828.031 6  82649799.724 6     -1815.549          38.000
R03  19659493.977 8 105238902.244 8      1515.578          51.000    19659495.625 7  81852467.886 7      1178.783          47.000
R17  19980566.430 8 106920046.407 8     -2596.598          50.000    19980568.711 7  83160030.623 7     -2019.576          46.000
R18  19447210.000 5 103810493.527 5      1387.016          34.000    19447214.586 5  80741517.835 5      1078.793          31.000
C05  39697471.453 5 206715149.226 5       -33.750          34.000    39697468.203 5 159845253.204 5       -26.400          35.000
C27  22156577.773 8 115375131.966 8     -1834.211          51.000
C28  25767103.539 5 134176085.076 5     -3446.473          35.000
E19  24311750.094 8 127759105.910 8      1364.875          48.000    24311749.602 8  97893350.003 8      1045.831          48.000
E26  26697607.305 7 140296903.031 7     -2802.988          45.000    26697610.766 6 107500233.151 6     -2147.909          40.000
E33  23973605.500 8 125982132.871 8     -1375.344          51.000    23973605.461 8  96531752.992 8     -1053.835          51.000
> 2020 05 12 20 24  0.0000000  0 15        .000000000000
G01  20430900.617 8 107365114.996 8      -894.750          50.000    20430902.453 8  83661132.775 8      -697.208          50.000
G03  20466505.484 6 107552203.506 6       792.121          41.000    20466507.211 6  83806933.285 6       617.237          40.000
G04  22920924.461 5 120450262.044 5      3488.301          35.000    22920929.695 5  93857352.550 5      2718.166          33.000
G11  21606369.102 8 113542233.130 8     -3087.844          51.000    21606367.703 7  88474442.611 7     -2406.112          44.000
G22  20771333.977 8 109154109.170 8      -773.180          51.000    20771331.188 8  85055143.660 8      -602.478          51.000
R02  19926992.031 7 106334287.796 7     -2349.453          43.000    19926996.211 6  82704450.376 6     -1827.349          36.000
R03  19651058.969 8 105193746.286 8      1495.406          51.000    19651060.922 7  81817346.590 7      1163.094          47.000
R17  19995182.539 8 106998261.906 8     -2617.164          50.000    19995185.391 7  83220864.866 7     -2035.572          46.000
R18  19439479.719 5 103769262.390 5      1364.461          35.000    19439485.156 5  80709425.711 5      1061.244          31.000
C05  39697671.414 5 206716191.031 5       -34.484          34.000
C27  22167188.492 8 115430386.649 8     -1848.793          51.000
C28  25786970.219 5 134279542.640 5     -3449.699          34.000
E19  24303994.258 8 127718348.355 8      1352.906          48.000    24303993.922 8  97862120.198 8      1036.601          49.000
E26  26713622.023 7 140381064.489 7     -2807.195          45.000    26713624.164 6 107564720.454 6     -2150.917          38.000
E33  23981489.484 8 126023564.104 8     -1386.176          51.000    23981489.414 8  96563499.008 8     -1062.120          51.000
> 2020 05 12 20 24 30.0000000  0 17        .000000000000
G01  20436045.766 8 107392153.885 8      -908.359          51.000    20436048.117 8  83682202.032 8      -707.812          51.000
G03  20462016.289 7 107528613.141 7       780.293          42.000    20462018.070 7  83788551.190 7       608.020          42.000
G04  22901030.977 6 120345718.979 6      3480.641          39.000    22901034.852 5  93775890.431 5      2712.188          34.000
G11  21624029.945 8 113635040.007 8     -3099.828          50.000    21624027.727 7  88546759.622 7     -2415.454          43.000
G14  22766059.547 5 119636450.080 5     -2182.906          30.000
G22  20775774.016 8 109177441.840 8      -782.738          51.000    20775771.289 8  85073324.940 8      -609.926          51.000
R02  19940237.766 7 106404968.931 7     -2363.105          43.000    19940241.211 5  82759424.513 5     -1837.974          35.000
R03  19642730.758 8 105149162.290 8      1476.363          51.000    19642732.125 7  81782670.167 7      1148.283          46.000
R04  23255764.250 6 124533564.297 6      3823.340          37.000    23255774.336 5  96859462.543 5      2973.706          35.000
R17  20009907.703 8 107077061.112 8     -2636.730          48.000    20009910.773 7  83282153.141 7     -2050.790          47.000
R18  19431871.648 5 103728647.726 5      1342.445          35.000    19431871.766 4  80677841.712 4      1044.130          28.000
C05  39697869.289 5 206717221.319 5       -34.715          34.000    39697865.961 5 159846855.451 5       -26.762          35.000
C27  22177877.125 8 115486045.318 8     -1862.355          51.000
C28  25806850.445 5 134383062.816 5     -3452.383          33.000
E19  24296301.141 8 127677919.877 8      1341.785          49.000    24296301.172 8  97831142.535 8      1028.139          49.000
E26  26729654.188 7 140465319.887 7     -2810.324          43.000    26729655.922 6 107629279.768 6     -2153.551          39.000
E33  23989429.344 8 126065288.360 8     -1396.000          51.000    23989429.219 8  96595469.542 8     -1069.617          51.000
> 2020 05 12 20 25  0.0000000  0 16        .000000000000
G01  20441271.109 8 107419614.273 8      -921.492          51.000    20441273.906 8  83703599.723 8      -718.046          51.000
G03  20457595.773 7 107505382.646 7       769.316          44.000    20457597.109 7  83770449.510 7       599.467          43.000
G04  22881179.992 6 120241406.220 6      3474.098          39.000    22881184.422 6  93694607.830 6      2707.089          36.000
G11  21641760.172 8 113728212.733 8     -3110.910          50.000    21641757.906 7  88619361.730 7     -2424.086          44.000
G22  20780269.742 8 109201066.622 8      -791.461          51.000    20780266.930 8  85091733.855 8      -616.723          51.000
R02  19953562.320 7 106476073.617 7     -2376.309          42.000    19953566.719 6  82814728.154 6     -1848.240          36.000
R03  19634511.148 8 105105161.186 8      1457.793          51.000    19634511.992 7  81748447.143 7      1133.842          45.000
R04  23234361.914 6 124418967.299 6      3817.168          38.000    23234370.773 5  96770331.608 5      2968.914          35.000
R17  20024743.492 8 107156453.199 8     -2655.379          48.000    20024747.078 7  83343902.579 7     -2065.292          47.000
R18  19424386.727 5 103688696.739 5      1321.039          30.000    19424387.875 5  80646762.326 5      1027.466          33.000
C05  39698066.812 5 206718250.171 5       -33.414          35.000    39698063.617 5 159847651.441 5       -26.152          35.000
C27  22188645.445 8 115542117.641 8     -1875.062          51.000
C28  25826746.258 5 134486654.696 5     -3453.484          30.000
E19  24288672.750 8 127637831.864 8      1331.527          49.000    24288673.102 8  97800425.762 8      1020.204          49.000
E26  26745706.094 7 140549679.254 7     -2812.883          42.000    26745708.984 6 107693918.716 6     -2155.311          40.000
E33  23997426.977 8 126107316.448 8     -1405.102          51.000    23997426.906 8  96627672.852 8     -1076.627          51.000
> 2020 05 12 20 25 30.0000000  0 15        .000000000000
G01  20446577.898 8 107447502.287 8      -936.523          51.000    20446580.891 8  83725330.642 8      -729.759          51.000
G03  20453244.805 7 107482518.002 7       756.180          44.000    20453245.539 7  83752632.892 7       589.231          44.000
G04  22861373.938 5 120137332.334 5      3465.172          35.000    22861379.156 5  93613511.325 5      2700.137          34.000
G11  21659560.609 8 113821755.405 8     -3124.117          50.000    21659558.672 7  88692252.120 7     -2434.377          44.000
G22  20784822.117 8 109224988.824 8      -802.227          51.000    20784819.031 8  85110374.534 8      -625.112          51.000
R02  19966967.312 7 106547605.122 7     -2391.293          42.000    19966971.492 5  82870363.763 5     -1859.895          35.000
R03  19626401.578 8 105061749.379 8      1437.391          51.000    19626402.250 7  81714682.434 7      1117.974          47.000
R04  23213000.844 6 124304600.226 6      3808.562          36.000    23213011.117 5  96681379.515 5      2962.218          35.000
R17  20039691.133 8 107236442.663 8     -2676.066          49.000    20039694.977 7  83406116.598 7     -2081.385          47.000
R18  19417025.398 5 103649411.607 5      1298.613          35.000    19417029.992 5  80616207.168 5      1010.036          34.000
C05  39698265.328 5 206719284.150 5       -34.137          34.000    39698262.148 5 159848451.373 5       -26.484          35.000
C27  22199494.336 8 115598608.510 8     -1889.820          51.000
E19  24281110.125 8 127598090.576 8      1319.211          49.000    24281110.781 8  97769974.663 8      1010.818          49.000
E26  26761779.484 7 140634147.821 7     -2817.324          42.000    26761784.328 7 107758641.338 7     -2158.816          42.000
E33  24005483.438 8 126149654.285 8     -1416.234          51.000    24005483.141 8  96660113.491 8     -1085.152          51.000
> 2020 05 12 20 26  0.0000000  0 15        .000000000000
G01  20451963.875 8 107475806.447 8      -950.793          51.000    20451966.789 8  83747385.822 8      -740.878          51.000
G03  20448961.312 7 107460007.345 7       744.105          44.000    20448961.938 7  83735092.138 7       579.822          44.000
G04  22841613.016 6 120033488.222 6      3457.184          38.000    22841617.938 6  93532593.849 6      2693.909          37.000
G11  21677428.797 8 113915654.270 8     -3136.199          50.000    21677427.289 7  88765420.043 7     -2443.792          43.000
G22  20789428.656 8 109249195.680 8      -811.957          51.000    20789425.258 8  85129237.029 8      -632.694          51.000
R02  19980448.852 6 106619548.408 6     -2405.523          40.000    19980452.883 6  82926319.658 6     -1870.963          36.000
R03  19618399.352 8 105018915.410 8      1417.820          49.000    19618400.906 7  81681367.160 7      1102.749          47.000
R04  23191680.578 5 124190453.439 5      3800.672          34.000    23191693.734 6  96592598.732 6      2956.078          36.000
R17  20054748.695 8 107317015.395 8     -2695.820          51.000    20054751.844 7  83468784.265 7     -2096.752          45.000
R18  19409789.297 5 103610786.598 5      1275.984          35.000    19409794.336 5  80586165.489 5       992.432          33.000
C05  39698462.719 5 206720311.949 5       -35.008          34.000    39698459.641 5 159849245.444 5       -26.391          34.000
C27  22210421.000 8 115655505.391 8     -1903.594          51.000
E19  24273611.320 8 127558684.751 8      1307.633          50.000    24273612.188 8  97739780.611 8      1001.985          49.000
E26  26777871.773 6 140718713.222 6     -2820.691          41.000    26777879.094 7 107823438.172 7     -2161.330          45.000
E33  24013596.547 8 126192290.228 8     -1426.395          51.000    24013595.617 8  96692782.543 8     -1093.000          50.000
> 2020 05 12 20 26 30.0000000  0 15        .000000000000
G01  20457428.609 8 107504523.258 8      -963.832          51.000    20457431.352 8  83769762.550 8      -751.038          51.000
G03  20444744.695 7 107437846.947 7       733.238          45.000    20444745.609 7  83717824.312 7       571.355          45.000
G04  22821896.438 7 119929872.635 7      3450.340          42.000    22821901.406 6  93451854.463 6      2688.580          37.000
G11  21695363.852 8 114009903.662 8     -3147.277          51.000    21695362.125 7  88838861.103 7     -2452.424          43.000
G22  20794088.578 8 109273683.230 8      -820.766          51.000    20794084.953 8  85148318.222 8      -639.558          51.000
R02  19994007.289 7 106691897.286 7     -2418.004          44.000    19994011.148 6  82982590.975 6     -1880.670          37.000
R03  19610504.383 8 104976655.748 8      1399.320          50.000    19610506.414 7  81648498.524 7      1088.357          47.000
R04  23170403.641 5 124076524.853 5      3794.500          34.000    23170416.922 6  96503987.682 6      2951.281          36.000
R17  20069914.461 8 107398165.877 8     -2714.469          51.000    20069916.414 7  83531901.247 7     -2111.257          43.000
R18  19402677.055 5 103572820.474 5      1254.961          34.000    19402680.781 5  80556636.308 5       976.087          33.000
C05                                                                  39698655.398 5 159850033.925 5       -25.841          34.000
C27  22221424.523 8 115712803.605 8     -1916.461          51.000
E19  24266175.945 8 127519611.061 8      1297.082          50.000    24266176.812 8  97709841.037 8       993.856          49.000
E26  26793981.711 6 140803371.164 6     -2823.285          41.000    26793991.523 7 107888305.912 7     -2163.278          47.000
E33  24021765.734 8 126235220.598 8     -1435.703          51.000    24021764.133 8  96725677.215 8     -1100.072          50.000
> 2020 05 12 20 27  0.0000000  0 15        .000000000000
G01  20462972.938 8 107533658.237 8      -977.391          51.000    20462975.656 8  83792465.121 8      -761.606          51.000
G03  20440595.328 7 107416042.004 7       721.660          43.000    20440596.539 7  83700833.437 7       562.333          43.000
G04  22802224.898 7 119826493.486 7      3442.719          43.000    22802229.133 6  93371299.358 6      2682.641          38.000
G11  21713366.266 8 114104506.653 8     -3158.547          51.000    21713364.070 7  88912577.694 7     -2461.208          43.000
G22  20798802.664 8 109298455.841 8      -829.797          51.000    20798798.969 8  85167621.546 8      -646.595          51.000
R02  20007642.180 6 106764653.924 6     -2431.188          41.000    20007645.023 6  83039179.416 6     -1890.927          36.000
R03  19602718.609 8 104934975.962 8      1380.352          51.000    19602720.125 8  81616080.933 8      1073.610          48.000
R04  23149171.445 5 123962821.938 5      3787.203          35.000    23149182.875 6  96415552.157 6      2945.602          36.000
R17  20085188.516 8 107479897.816 8     -2733.352          51.000    20085188.984 7  83595470.450 7     -2125.943          42.000
C05  39698852.836 5 206722343.102 5       -32.660          34.000    39698850.172 5 159850818.433 5       -25.648          35.000
C27  22232505.781 8 115770507.392 8     -1929.480          51.000
C28  25906450.398 5 134901670.432 5     -3461.996          31.000
E19  24258804.781 8 127480875.376 8      1286.195          49.000    24258805.844 8  97680160.456 8       985.535          49.000
E26  26810110.375 7 140888126.200 7     -2825.996          42.000    26810121.859 8 107953248.073 8     -2165.454          48.000
E33  24029991.586 8 126278450.747 8     -1445.363          49.000    24029990.805 8  96758801.570 8     -1107.432          51.000
> 2020 05 12 20 27 30.0000000  0 16        .000000000000
G01  20468599.102 8 107563223.239 8      -992.273          51.000    20468601.516 8  83815502.782 8      -773.200          51.000
G03  20436515.625 7 107394604.164 7       708.867          44.000    20436517.219 7  83684128.606 7       552.361          44.000
G04  22782600.367 7 119723365.098 7      3433.816          43.000    22782604.102 6  93290939.659 6      2675.704          40.000
G11  21731437.719 8 114199473.206 8     -3171.238          50.000    21731436.055 7  88986577.573 7     -2471.098          46.000
G22  20803573.000 8 109323524.760 8      -840.160          51.000    20803569.352 8  85187155.758 8      -654.670          50.000
R02  20021354.453 7 106837826.967 7     -2445.719          42.000    20021357.062 6  83096091.834 6     -1902.226          36.000
R03  19595043.516 8 104893888.143 8      1360.219          50.000    19595044.828 8  81584123.770 8      1057.951          49.000
R04  23127985.281 6 123849358.663 6      3778.926          37.000    23127993.914 5  96327303.051 5      2939.168          35.000
R17  20100573.062 8 107562221.128 8     -2753.570          51.000    20100572.656 7  83659499.644 7     -2141.669          44.000
R18  19388829.320 5 103498876.877 5      1208.805          32.000    19388835.656 6  80499147.361 6       940.181          36.000
C05  39699048.859 5 206723363.728 5       -33.414          34.000    39699046.258 5 159851607.538 5       -26.206          34.000
C27  22243666.727 8 115828627.329 8     -1943.852          51.000
C28  25926407.562 5 135005591.158 5     -3464.582          32.000
E19  24251500.016 8 127442489.518 8      1274.156          49.000    24251501.648 8  97650747.934 8       976.299          50.000
E26  26826259.719 7 140972989.388 7     -2830.207          42.000    26826272.094 8 108018273.111 8     -2168.570          48.000
E33  24038276.312 8 126321992.342 8     -1456.191          48.000    24038277.484 8  96792164.614 8     -1115.756          51.000
> 2020 05 12 20 28  0.0000000  0 16        .000000000000
G01  20474306.086 8 107593212.959 8     -1006.406          51.000    20474308.273 8  83838871.373 8      -784.216          51.000
G03  20432505.133 7 107373527.728 7       696.965          45.000    20432506.805 7  83667705.396 7       543.089          45.000
G04  22763022.352 7 119620484.541 7      3425.406          42.000    22763026.172 6  93210773.019 6      2669.145          40.000
G11  21749576.812 8 114294796.029 8     -3182.898          48.000    21749576.258 7  89060855.070 7     -2480.181          47.000
G22  20808398.617 8 109348883.973 8      -849.617          51.000    20808394.969 8  85206916.172 8      -662.039          50.000
R02  20035143.836 7 106911408.070 7     -2459.086          42.000    20035145.781 6  83153321.542 6     -1912.619          37.000
R03  19587477.742 8 104853387.076 8      1340.711          50.000    19587478.945 8  81552622.921 8      1042.775          49.000
R04  23106843.539 6 123736131.451 6      3770.730          38.000    23106849.383 6  96239237.515 6      2932.793          36.000
R17  20116066.508 8 107645128.205 8     -2772.863          51.000    20116066.508 7  83723982.905 7     -2156.671          46.000
R18  19382097.500 5 103462938.585 5      1187.098          34.000    19382104.148 6  80471195.348 6       923.295          36.000
C05  39699245.242 5 206724386.729 5       -32.375          34.000    39699242.680 5 159852398.628 5       -25.880          34.000
C27  22254905.883 8 115887156.948 8     -1957.336          50.000
C28  25946376.484 5 135109576.197 5     -3466.621          33.000
E19  24244261.148 8 127404448.696 8      1262.660          50.000    24244263.008 8  97621599.786 8       967.484          49.000
E26  26842428.406 6 141057954.557 6     -2833.648          41.000    26842440.953 8 108083376.324 8     -2171.159          48.000
E33  24046619.609 8 126365839.945 8     -1466.324          49.000    24046622.312 8  96825762.153 8     -1123.523          51.000
> 2020 05 12 20 28 30.0000000  0 17        .000000000000
G01  20480094.383 8 107623629.743 8     -1021.230          51.000    20480096.312 8  83862572.772 8      -795.764          51.000
G03  20428563.766 7 107352814.751 7       684.070          45.000    20428565.586 7  83651565.428 7       533.045          45.000
G04  22743492.109 7 119517856.557 7      3416.395          42.000    22743496.406 6  93130803.189 6      2662.126          41.000
G11  21767783.547 7 114390474.983 7     -3195.520          47.000    21767784.297 7  89135410.129 7     -2490.012          47.000
G14  22868150.531 4 120172942.024 4     -2286.953          29.000
G22  20813279.766 8 109374534.601 8      -860.121          51.000    20813276.195 8  85226903.663 8      -670.224          51.000
R02  20049009.078 6 106985396.256 6     -2472.988          39.000    20049011.031 6  83210867.952 6     -1923.432          36.000
R03  19580021.805 8 104813475.013 8      1320.320          49.000    19580022.812 8  81521580.195 8      1026.916          48.000
R04  23085746.555 6 123623144.581 6      3761.961          39.000    23085750.547 6  96151358.920 6      2925.970          36.000
R17  20131668.680 8 107728619.516 8     -2792.961          50.000    20131669.594 7  83788920.574 7     -2172.303          47.000
R18  19375492.664 6 103427684.277 6      1163.719          36.000    19375497.188 5  80443775.325 5       905.115          34.000
C05  39699442.445 5 206725413.642 5       -34.516          34.000    39699439.867 5 159853192.555 5       -26.777          35.000
C27  22266223.984 8 115946097.387 8     -1971.734          50.000
C28  25966357.773 5 135213625.952 5     -3470.320          34.000
E19  24237088.578 8 127366755.335 8      1250.309          50.000    24237090.195 8  97592717.874 8       958.050          49.000
E26  26858616.820 6 141143023.245 6     -2837.855          41.000    26858628.922 8 108148558.849 8     -2174.218          48.000
E33  24055022.359 8 126409995.778 8     -1477.363          51.000    24055025.547 8  96859595.861 8     -1131.949          51.000
> 2020 05 12 20 29  0.0000000  0 15        .000000000000
G01  20485962.625 8 107654467.092 8     -1033.918          51.000    20485964.430 8  83886601.865 8      -805.650          51.000
G03  20424689.930 7 107332458.379 7       673.898          45.000    20424691.859 7  83635703.341 7       525.116          45.000
G04  22724009.641 7 119415476.981 7      3409.645          43.000    22724013.961 7  93051026.908 7      2656.866          42.000
G11  21786055.961 7 114486501.478 7     -3205.375          47.000    21786058.180 7  89210236.037 7     -2497.692          47.000
G22  20818215.125 8 109400469.382 8      -868.070          51.000    20818211.438 8  85247112.589 8      -676.418          50.000
R02  20062948.945 6 107059782.116 6     -2484.988          39.000    20062950.211 6  83268723.624 6     -1932.772          37.000
R03  19572674.359 8 104774145.127 8      1302.426          48.000    19572675.078 8  81490990.311 8      1012.998          48.000
R04  23064692.602 6 123510393.055 6      3755.586          38.000    23064695.336 6  96063663.351 6      2921.011          36.000
R17  20147377.773 8 107812686.139 8     -2810.641          48.000    20147379.945 7  83854305.741 7     -2186.051          47.000
R18  19369016.922 6 103393109.627 6      1142.062          40.000    19369019.086 5  80416883.965 5       888.277          34.000
C05  39699639.281 5 206726438.214 5       -32.887          34.000    39699636.695 5 159853984.727 5       -25.856          34.000
C27  22277620.164 8 116005440.934 8     -1983.676          51.000
C28  25986350.336 5 135317732.166 5     -3469.988          35.000
E19  24229980.664 8 127329403.130 8      1240.445          48.000    24229981.898 8  97564097.371 8       950.447          48.000
E33  24063482.773 8 126454453.096 8     -1485.895          51.000    24063486.078 8  96893660.563 8     -1138.525          51.000
> 2020 05 12 20 29 30.0000000  0 13        .000000000000
G01  20491917.914 8 107685761.649 8     -1050.004          51.000    20491919.719 8  83910987.222 8      -818.185          51.000
G03  20420891.047 7 107312495.112 7       659.727          46.000    20420892.445 7  83620147.577 7       514.073          46.000
G04  22704582.273 7 119313384.910 7      3399.121          45.000    22704586.109 6  92971474.671 6      2648.666          41.000
G11  21804401.680 8 114582910.015 8     -3219.238          48.000    21804404.312 7  89285359.620 7     -2508.494          46.000
G22  20823211.438 8 109426724.396 8      -879.742          51.000    20823207.453 8  85267571.043 8      -685.513          50.000
R02  20076969.945 6 107134599.269 6     -2500.164          38.000    20076972.391 6  83326914.758 6     -1944.569          40.000
R03  19565442.930 8 104735435.122 8      1280.770          49.000    19565443.344 8  81460882.541 8       996.154          48.000
R17  20163201.406 8 107897363.209 8     -2831.859          50.000    20163204.148 8  83920165.723 8     -2202.557          48.000
R18  19362675.242 6 103359254.482 6      1117.402          39.000    19362677.695 6  80390552.147 6       869.091          37.000
C05  39699842.664 5 206727497.831 5       -34.879          34.000    39699840.195 5 159854804.725 5       -27.149          34.000
C27  22289101.117 8 116065222.763 8     -1999.215          51.000
E19  24222944.562 8 127292428.880 8      1226.922          49.000    24222945.234 7  97535766.476 7       940.118          47.000
E33  24072007.609 8 126499248.504 8     -1498.055          51.000    24072010.516 8  96927984.309 8     -1147.890          51.000
> 2020 05 12 20 30  0.0000000  0 14        .000000000000
G01  20497952.586 8 107717473.463 8     -1064.750          51.000    20497954.375 8  83935697.709 8      -829.675          51.000
G03  20417159.062 7 107292884.677 7       646.938          44.000    20417160.398 7  83604866.733 7       504.107          44.000
G04  22685202.758 7 119211542.759 7      3389.711          46.000    22685205.641 7  92892117.175 7      2641.333          42.000
G11  21822812.812 8 114679658.343 8     -3231.438          50.000    21822814.523 7  89360747.930 7     -2518.003          44.000
G22  20828260.875 8 109453258.551 8      -889.945          51.000    20828256.555 8  85288247.012 8      -693.464          50.000
R02  20091063.375 6 107209804.500 6     -2514.180          41.000    20091067.844 6  83385407.794 6     -1955.473          40.000
R03  19558319.469 8 104697303.975 8      1260.504          49.000    19558320.328 8  81431224.981 8       980.389          48.000
R04  23022713.688 5 123285609.219 5      3736.488          32.000    23022727.406 5  95888857.904 5      2906.161          35.000
R17  20179131.500 8 107982608.150 8     -2851.781          51.000    20179134.609 7  83986467.350 7     -2218.052          47.000
R18  19356460.609 6 103326080.324 6      1093.496          38.000    19356464.094 6  80364750.030 6       850.497          36.000
C05  39700044.930 5 206728551.455 5       -36.285          34.000    39700042.469 5 159855618.471 5       -27.995          34.000
C27  22300658.727 8 116125402.057 8     -2013.441          51.000
E19  24215972.945 8 127255792.613 8      1214.676          49.000    24215972.930 7  97507694.544 7       930.741          47.000
E33  24080589.109 8 126544341.778 8     -1508.918          51.000    24080591.461 8  96962536.285 8     -1156.172          51.000
> 2020 05 12 20 30 30.0000000  0 14        .000000000000
G01  20504062.711 8 107749582.441 8     -1077.066          51.000    20504064.461 8  83960717.689 8      -839.273          51.000
G03  20413490.172 7 107273606.695 7       636.965          45.000    20413492.117 7  83589844.958 7       496.336          45.000
G04  22665867.523 7 119109932.897 7      3383.109          47.000    22665868.953 7  92812940.703 7      2636.189          42.000
G11  21841284.547 8 114776724.311 8     -3240.934          51.000    21841284.367 7  89436383.709 7     -2525.406          42.000
G22  20833359.406 8 109480051.141 8      -897.621          51.000    20833355.008 8  85309124.367 8      -699.445          51.000
R02  20105225.562 6 107285374.241 6     -2525.043          40.000    20105229.414 6  83444184.217 6     -1963.925          38.000
R03  19551300.383 8 104659731.283 8      1243.125          49.000    19551301.875 8  81402001.793 8       966.875          48.000
R04  23001801.461 5 123173585.245 5      3730.840          30.000    23001805.062 5  95801728.143 5      2901.767          34.000
R17  20195163.570 8 108068398.221 8     -2868.879          51.000    20195166.656 7  84053192.930 7     -2231.353          47.000
R18  19350370.305 6 103293569.439 6      1072.547          40.000    19350374.523 6  80339463.766 6       834.203          36.000
C05  39700242.414 5 206729579.579 5       -33.293          34.000
C27  22312288.727 8 116185957.665 8     -2024.961          51.000
E19  24209061.938 8 127219474.934 8      1205.176          48.000    24209061.445 7  97479866.731 7       923.512          47.000
E33  24089223.164 8 126589712.713 8     -1517.023          51.000    24089225.031 8  96997301.019 8     -1162.439          51.000
> 2020 05 12 20 31  0.0000000  0 14        .000000000000
G01  20510252.805 8 107782112.578 8     -1091.363          51.000    20510254.625 8  83986065.842 8      -850.413          51.000
G03  20409889.461 7 107254684.939 7       624.836          45.000    20409891.633 7  83575100.739 7       486.888          46.000
G04  22646581.266 7 119008581.729 7      3374.035          47.000    22646581.773 7  92733965.837 7      2629.121          42.000
G11  21859820.594 8 114874129.768 8     -3252.531          51.000    21859818.000 6  89512284.015 6     -2534.443          40.000
G22  20838511.406 8 109507125.317 8      -907.270          51.000    20838507.258 8  85330221.138 8      -706.963          51.000
R02  20119459.500 6 107361329.639 6     -2538.492          40.000    20119461.898 6  83503260.614 6     -1974.386          39.000
R03  19544390.047 8 104622741.397 8      1223.172          49.000    19544392.070 8  81373231.916 8       951.356          48.000
R04  22980930.570 5 123061804.602 5      3722.234          33.000    22980931.758 5  95714787.712 5      2895.071          35.000
R17  20211301.984 8 108154755.537 8     -2888.125          51.000    20211304.695 7  84120359.681 7     -2246.319          47.000
R18  19344409.352 6 103261748.372 6      1048.801          40.000    19344413.172 6  80314714.055 6       815.734          37.000
C05  39700439.531 5 206730605.504 5       -33.699          34.000    39700436.898 5 159857207.692 5       -26.551          34.000
C27  22323995.117 8 116246912.130 8     -2038.570          51.000
E19  24202215.930 8 127183499.831 8      1193.285          48.000    24202215.398 7  97452301.441 7       914.341          47.000
E33  24097914.125 8 126635385.147 8     -1527.555          50.000    24097915.805 8  97032296.779 8     -1170.425          51.000
> 2020 05 12 20 31 30.0000000  0 14        .000000000000
G01  20516522.688 8 107815062.351 8     -1106.090          51.000    20516524.922 8  84011740.988 8      -861.888          51.000
G03  20406356.078 7 107236117.611 7       612.305          44.000    20406358.609 7  83560632.727 7       477.124          44.000
G04  22627344.062 7 118907490.155 7      3364.504          46.000    22627344.164 6  92655193.240 6      2621.694          41.000
G11  21878420.383 8 114971871.300 8     -3264.441          51.000    21878416.664 6  89588446.234 6     -2543.724          41.000
G22  20843716.562 8 109534478.826 8      -917.344          51.000    20843712.648 8  85351535.550 8      -714.813          51.000
R02  20133764.727 6 107437666.258 6     -2551.668          40.000    20133767.508 6  83562633.567 6     -1984.631          40.000
R03  19537588.156 8 104586332.754 8      1203.121          49.000    19537590.859 8  81344914.105 8       935.758          48.000
R04  22960103.727 5 122950267.626 5      3713.094          34.000    22960106.094 6  95628036.808 6      2887.965          38.000
R17  20227545.992 8 108241676.572 8     -2907.516          51.000    20227547.828 7  84187964.907 7     -2261.401          47.000
R18  19338577.570 6 103230618.444 6      1025.395          40.000    19338581.344 6  80290501.872 6       797.529          37.000
C05  39700636.000 5 206731629.400 5       -34.926          34.000    39700633.406 5 159857999.023 5       -26.789          34.000
C27  22335777.195 8 116308262.763 8     -2052.414          51.000
E19  24195434.883 8 127147865.905 8      1181.293          49.000    24195434.359 7  97424997.547 7       905.114          47.000
E33  24106661.805 8 126681357.396 8     -1538.246          49.000    24106663.672 8  97067522.276 8     -1178.635          51.000
> 2020 05 12 20 32  0.0000000  0 15        .000000000000
G01  20522873.844 8 107848439.267 8     -1120.074          51.000    20522876.688 8  84037748.969 8      -872.785          51.000
G03  20402891.281 7 107217912.110 7       600.473          44.000    20402894.125 7  83546446.623 7       467.904          45.000
G04  22608157.383 7 118806668.269 7      3355.797          43.000    22608157.836 6  92576630.759 6      2614.910          40.000
G11  21897084.891 8 115069953.938 8     -3275.520          51.000    21897081.469 7  89664874.223 7     -2552.353          42.000
G14  22961298.523 5 120662411.357 5     -2373.609          30.000
G22  20848976.227 8 109562118.535 8      -926.602          51.000    20848972.375 8  85373072.978 8      -722.027          51.000
R02  20148142.375 6 107514388.939 6     -2564.824          38.000    20148145.469 6  83622306.750 6     -1994.863          39.000
R03  19530896.516 8 104550512.881 8      1183.727          50.000    19530899.828 8  81317054.230 8       920.676          48.000
R04  22939323.641 6 122838983.946 6      3704.742          37.000    22939326.391 6  95541482.919 6      2881.469          38.000
R17  20243896.133 8 108329166.733 8     -2926.250          51.000    20243897.281 7  84256012.835 7     -2275.969          47.000
R18  19332877.141 6 103200189.387 6      1002.074          41.000    19332880.477 6  80266834.796 6       779.388          37.000
C05  39700833.508 5 206732657.196 5       -35.797          34.000    39700830.688 5 159858792.309 5       -27.019          34.000
C27  22347635.688 8 116370015.851 8     -2065.598          50.000
E19  24188720.203 8 127112581.188 8      1169.855          48.000    24188719.961 8  97397961.198 8       896.377          48.000
E33  24115468.180 8 126727636.930 8     -1548.277          50.000    24115470.195 8  97102983.224 8     -1186.342          51.000
> 2020 05 12 20 32 30.0000000  0 14        .000000000000
G01  20529308.477 8 107882253.889 8     -1133.062          51.000    20529311.320 8  84064098.026 8      -882.906          51.000
G03  20399497.539 7 107200078.488 7       589.590          44.000    20399500.203 7  83532550.307 7       459.421          44.000
G04  22589024.031 7 118706128.810 7      3348.004          43.000    22589025.211 6  92498288.346 6      2608.834          41.000
G11  21915816.117 8 115168386.005 8     -3285.477          51.000    21915813.023 7  89741574.493 7     -2560.112          43.000
G22  20854292.234 8 109590053.980 8      -934.777          51.000    20854288.250 8  85394840.857 8      -728.398          50.000
R02  20162593.273 6 107591504.615 6     -2575.609          41.000    20162596.273 6  83682285.676 6     -2003.252          38.000
R03  19524317.188 8 104515292.224 8      1165.512          50.000    19524320.375 8  81289660.402 8       906.512          48.000
R04  22918592.523 6 122727965.694 6      3697.645          40.000    22918595.312 6  95455135.478 6      2875.949          37.000
R17  20260353.180 8 108417234.556 8     -2943.773          49.000    20260354.859 7  84324510.055 7     -2289.602          47.000
R18  19327310.922 7 103170474.086 7       980.094          42.000    19327313.484 6  80243722.933 6       762.298          38.000
C05  39701033.727 5 206733699.628 5       -33.633          34.000    39701030.828 5 159859598.892 5       -25.596          34.000
C27  22359572.859 8 116432180.409 8     -2077.516          50.000
E19  24182073.484 7 127077656.024 7      1159.566          47.000    24182074.484 8  97371200.388 8       888.520          50.000
E33  24124335.602 8 126774233.969 8     -1557.152          51.000    24124337.344 8  97138687.444 8     -1193.173          51.000
> 2020 05 12 20 33  0.0000000  0 14        .000000000000
G01  20535819.805 8 107916470.790 8     -1147.605          51.000    20535822.266 8  84090760.570 8      -894.235          51.000
G03  20396167.875 7 107182581.262 7       577.250          44.000    20396170.180 7  83518916.102 7       449.805          44.000
G04  22569939.383 7 118605838.967 7      3338.543          45.000    22569940.570 6  92420140.434 6      2601.465          41.000
G11  21934607.008 8 115267130.215 8     -3296.984          51.000    21934604.031 7  89818517.968 7     -2569.082          42.000
G22  20859657.680 8 109618249.180 8      -944.496          51.000    20859653.508 8  85416811.145 8      -735.968          51.000
R02  20177111.664 7 107668974.833 7     -2588.746          43.000    20177114.023 6  83742540.221 6     -2013.472          38.000
R03  19517843.227 8 104480634.842 8      1145.531          50.000    19517845.562 7  81262704.667 7       890.969          47.000
R04  22897904.070 7 122617179.151 7      3688.781          42.000    22897906.336 5  95368968.240 5      2869.055          35.000
R17  20276910.523 8 108505841.773 8     -2962.879          49.000    20276912.969 7  84393426.761 7     -2304.461          46.000
R18  19321871.281 7 103141439.362 7       956.086          42.000    19321873.742 6  80221140.340 6       743.622          38.000
C05                                                                  39701227.141 5 159860388.966 5       -26.681          34.000
C27  22371582.414 8 116494720.205 8     -2091.219          50.000
E19  24175488.844 8 127043055.526 8      1147.531          48.000    24175490.883 8  97344688.333 8       879.286          50.000
E33  24133257.148 8 126821113.065 8     -1567.684          51.000    24133258.266 8  97174607.777 8     -1201.224          51.000
> 2020 05 12 20 33 30.0000000  0 14        .000000000000
G01  20542413.938 8 107951121.380 8     -1162.023          51.000    20542416.227 8  84117761.020 8      -905.473          51.000
G03  20392908.219 7 107165451.571 7       564.805          44.000    20392910.195 7  83505568.266 7       440.108          45.000
G04  22550909.461 7 118505832.486 7      3328.910          47.000    22550910.414 7  92342213.354 7      2593.956          43.000
G11  21953462.898 8 115366215.602 8     -3308.379          51.000    21953459.453 7  89895727.306 7     -2577.961          42.000
G22  20865078.289 8 109646734.544 8      -954.188          51.000    20865074.125 8  85439007.536 8      -743.520          51.000
R02  20191701.086 6 107746828.355 6     -2601.477          37.000    20191703.297 5  83803092.956 5     -2023.365          35.000
R03  19511480.570 8 104446572.753 8      1125.664          51.000    19511482.258 7  81236211.931 7       875.513          47.000
R04  22877265.055 7 122506657.798 7      3679.668          43.000    22877266.008 5  95283007.300 5      2861.967          33.000
R17  20293575.156 8 108595018.080 8     -2981.941          51.000    20293576.648 7  84462786.089 7     -2319.288          45.000
R18  19316566.086 7 103113119.168 7       932.262          43.000    19316568.062 6  80199113.535 6       725.092          39.000
C05  39701428.195 5 206735754.304 5       -34.613          33.000    39701425.531 5 159861188.016 5       -26.729          34.000
C27  22383670.148 8 116557665.110 8     -2104.699          50.000
E19  24168972.328 8 127008811.134 8      1135.688          48.000    24168974.781 8  97318449.118 8       870.217          50.000
E33  24142238.406 8 126868305.447 8     -1578.129          51.000    24142239.047 8  97210768.156 8     -1209.243          51.000
> 2020 05 12 20 34  0.0000000  0 14        .000000000000
G01  20549088.656 8 107986195.060 8     -1175.848          51.000    20549090.797 8  84145091.142 8      -916.245          51.000
G03  20389716.711 7 107148678.470 7       553.625          45.000    20389718.406 7  83492498.322 7       431.396          45.000
G04  22531931.688 8 118406101.189 8      3319.977          48.000    22531932.492 7  92264500.695 7      2586.995          43.000
G11  21972380.719 8 115465629.534 8     -3318.910          51.000    21972376.945 6  89973192.710 6     -2586.164          41.000
G22  20870551.984 8 109675499.148 8      -963.086          51.000    20870547.961 8  85461421.525 8      -750.457          50.000
R02  20206360.219 7 107825051.225 7     -2613.445          43.000    20206361.297 6  83863932.914 6     -2032.686          36.000
R03  19505226.797 8 104413094.633 8      1106.500          51.000    19505228.445 8  81210173.381 8       860.611          48.000
R04  22856673.672 7 122396392.796 7      3671.520          42.000    22856673.516 5  95197245.737 5      2855.629          35.000
R17  20310343.852 8 108684750.320 8     -2999.906          51.000    20310344.789 7  84532577.845 7     -2333.260          46.000
R18  19311392.992 6 103085505.108 6       908.984          41.000    19311395.742 6  80177635.906 6       706.985          40.000
C05  39701626.648 5 206736786.555 5       -34.316          34.000    39701624.109 5 159861987.381 5       -26.046          34.000
C27  22395833.938 8 116621003.453 8     -2117.488          51.000
E19  24162521.578 7 126974912.540 7      1124.555          47.000    24162524.492 8  97292474.882 8       861.615          50.000
E33  24151277.062 8 126915800.357 8     -1587.852          51.000    24151277.398 8  97247160.354 8     -1216.740          51.000
> 2020 05 12 20 34 30.0000000  0 13        .000000000000
G01  20555845.430 8 108021700.291 8     -1191.000          51.000    20555847.141 8  84172757.520 8      -928.052          51.000
G03  20386594.555 7 107132270.350 7       540.500          45.000    20386596.141 7  83479712.798 7       421.169          45.000
G04  22513008.242 8 118306656.093 8      3309.797          48.000    22513008.969 7  92187011.042 7      2579.062          43.000
G11  21991361.508 8 115565378.403 8     -3330.777          49.000    21991359.102 7  90050919.129 7     -2595.411          43.000
G22  20876080.258 8 109704550.554 8      -973.426          51.000    20876076.367 8  85484058.985 8      -758.514          50.000
R02  20221089.898 6 107903649.847 6     -2626.277          39.000    20221092.648 6  83925065.092 6     -2042.660          38.000
R03  19499083.633 8 104380209.076 8      1086.094          51.000    19499085.125 7  81184595.727 7       844.740          47.000
R04  22836131.117 6 122286394.532 6      3661.988          39.000    22836132.438 6  95111691.642 6      2848.216          37.000
R17  20327216.703 8 108775045.060 8     -3019.441          49.000    20327218.977 7  84602807.077 7     -2348.454          47.000
R18  19306354.484 7 103058608.226 7       884.387          45.000    19306356.852 6  80156716.115 6       687.859          40.000
C27  22408075.055 8 116684742.385 8     -2131.500          51.000
E19  24156138.203 7 126941368.273 7      1111.980          47.000    24156141.633 8  97266772.160 8       852.028          50.000
E33  24160374.680 8 126963606.157 8     -1598.938          51.000    24160374.969 8  97283790.762 8     -1225.169          51.000
> 2020 05 12 20 35  0.0000000  0 14        .000000000000
G01  20562682.273 8 108057626.903 8     -1204.367          51.000    20562683.555 8  84200752.269 8      -938.468          51.000
G03  20383539.656 7 107116216.774 7       529.398          44.000    20383541.102 7  83467203.535 7       412.518          44.000
G04  22494137.883 8 118207489.471 8      3301.016          49.000    22494138.406 7  92109738.372 7      2572.220          45.000
G11  22010403.594 8 115665449.718 8     -3340.961          48.000    22010402.680 7  90128896.799 7     -2603.346          46.000
G22  20881661.109 8 109733877.912 8      -981.957          51.000    20881657.203 8  85506911.459 8      -765.161          50.000
R02  20235886.492 6 107982609.612 6     -2637.891          40.000    20235891.070 6  83986478.317 6     -2051.693          39.000
R03  19493049.055 8 104347905.684 8      1067.301          51.000    19493050.062 7  81159470.871 7       830.123          47.000
R04  22815633.852 5 122176654.596 5      3653.824          33.000    22815639.992 6  95026338.419 6      2841.869          40.000
R17  20344192.102 8 108865889.696 8     -3037.051          49.000    20344195.820 7  84673463.980 7     -2362.151          47.000
R18  19301448.914 7 103032420.337 7       861.219          44.000    19301451.227 7  80136347.755 7       669.834          42.000
C05                                                                  39702024.438 5 159863599.447 5       -26.554          34.000
C27  22420391.047 8 116748870.569 8     -2143.953          51.000
E19  24149820.977 7 126908168.563 7      1101.102          47.000    24149824.055 8  97241333.419 8       843.785          50.000
E33  24169529.211 8 127011712.529 8     -1608.293          51.000    24169529.805 8  97320651.481 8     -1232.373          51.000
> 2020 05 12 20 35 30.0000000  0 14        .000000000000
G01  20569599.773 8 108093978.231 8     -1218.680          51.000    20569600.812 8  84229077.957 8      -949.621          51.000
G03  20380552.891 7 107100520.978 7       517.309          45.000    20380553.984 7  83454973.028 7       403.098          45.000
G04  22475321.664 8 118108607.139 8      3291.402          50.000    22475321.844 7  92032687.250 7      2564.732          46.000
G11  22029507.727 8 115765844.859 8     -3351.828          49.000    22029507.742 7  90207126.781 7     -2611.814          47.000
G22  20887294.922 8 109763483.760 8      -991.391          51.000    20887290.883 8  85529980.949 8      -772.512          50.000
R02  20250751.852 6 108061932.153 6     -2650.094          38.000    20250756.352 6  84048173.584 6     -2061.184          40.000
R03  19487123.797 8 104316187.864 8      1047.652          51.000    19487124.531 8  81134801.470 8       814.844          48.000
R04  22795186.625 5 122067178.448 5      3645.215          35.000    22795196.414 6  94941190.234 6      2835.161          41.000
R17  20361272.227 8 108957285.313 8     -3055.555          51.000    20361275.656 7  84744549.421 7     -2376.543          47.000
R18  19296677.188 7 103006947.192 7       837.332          45.000    19296679.664 7  80116535.299 7       651.258          42.000
C05                                                                  39702224.992 5 159864407.015 5       -26.962          34.000
C27  22432781.961 8 116813390.091 8     -2157.082          51.000
E19  24143569.781 7 126875316.919 7      1089.309          46.000    24143572.500 8  97216161.386 8       834.611          49.000
E33  24178741.328 8 127060122.691 8     -1618.637          51.000    24178742.156 8  97357744.970 8     -1240.254          51.000
> 2020 05 12 20 36  0.0000000  0 14        .000000000000
G01  20576593.969 8 108130733.250 8     -1232.344          51.000    20576595.031 8  84257718.212 8      -960.268          51.000
G03  20377630.273 7 107085161.598 7       505.930          45.000    20377631.117 7  83443004.695 7       394.231          45.000
G04  22456555.867 8 118009990.499 8      3282.371          50.000    22456555.875 7  91955843.159 7      2557.692          45.000
G11  22048669.422 8 115866540.827 8     -3361.867          50.000    22048670.086 7  90285591.152 7     -2619.637          45.000
G22  20892977.516 8 109793346.469 8     -1000.125          51.000    20892973.414 8  85553250.585 8      -779.318          50.000
R02  20265680.008 6 108141592.627 6     -2661.586          38.000    20265684.531 6  84110131.820 6     -2070.119          39.000
R03  19481304.039 8 104285033.484 8      1028.555          51.000    19481304.852 8  81110570.304 8       799.987          48.000
R04  22774791.570 6 121957946.191 6      3636.691          41.000    22774797.773 6  94856231.845 6      2828.541          41.000
R17  20378451.273 8 109049208.078 8     -3073.367          51.000    20378453.500 7  84816044.919 7     -2390.397          45.000
R18  19292035.297 7 102982169.630 7       813.922          44.000    19292037.773 7  80097263.843 7       633.050          42.000
C05                                                                  39702421.984 5 159865200.420 5       -26.741          34.000
C27  22445243.258 8 116878278.810 8     -2169.477          51.000
E19  24137380.594 7 126842792.509 7      1078.258          46.000    24137383.039 8  97191240.114 8       826.174          49.000
E33  24188007.016 8 127108815.483 8     -1628.215          51.000    24188008.031 8  97395055.005 8     -1247.554          51.000
> 2020 05 12 20 36 30.0000000  0 14        .000000000000
G01  20583668.891 8 108167912.747 8     -1246.262          51.000    20583669.828 8  84286689.238 8      -971.113          51.000
G03  20374775.500 7 107070159.290 7       494.297          45.000    20374776.445 7  83431314.601 7       385.166          45.000
G04  22437844.383 8 117911662.871 8      3272.934          48.000    22437844.758 7  91879224.236 7      2550.338          46.000
G11  22067891.992 8 115967555.869 8     -3372.188          49.000    22067892.867 7  90364304.148 7     -2627.679          46.000
G22  20898712.742 8 109823486.381 8     -1009.176          51.000    20898708.820 8  85576736.227 8      -786.371          50.000
R02  20280674.703 6 108221609.401 6     -2672.945          36.000    20280678.492 6  84172367.087 6     -2078.954          38.000
R03  19475593.773 8 104254463.981 8      1009.371          51.000    19475594.492 8  81086794.017 8       785.069          48.000
R04  22754445.344 7 121848980.782 7      3627.715          42.000    22754448.648 6  94771481.029 6      2821.559          41.000
R17  20395731.820 8 109141676.885 8     -3091.180          50.000    20395732.836 7  84887965.105 7     -2404.251          43.000
R18  19287528.461 7 102958110.929 7       790.219          46.000    19287530.586 7  80078551.526 7       614.615          43.000
C05                                                                  39702619.609 5 159865995.714 5       -26.445          34.000
C27  22457778.453 8 116943556.172 8     -2182.191          51.000
E19  24131258.148 7 126810616.453 7      1066.863          46.000    24131259.742 8  97166585.741 8       817.464          48.000
E33  24197330.375 8 127157811.596 8     -1638.148          51.000    24197331.383 8  97432597.453 8     -1255.190          51.000
> 2020 05 12 20 37  0.0000000  0 13        .000000000000
G01  20590824.234 8 108205515.381 8     -1260.523          51.000    20590825.273 8  84315989.986 8      -982.226          51.000
G03  20371988.445 7 107055512.582 7       482.078          46.000    20371989.359 7  83419901.582 7       375.645          46.000
G04  22419187.406 7 117813625.445 7      3262.930          47.000    22419188.523 7  91802831.419 7      2542.543          47.000
G11  22087174.836 8 116068886.730 8     -3382.969          49.000    22087175.305 7  90443263.228 7     -2636.080          42.000
G22  20904500.320 8 109853901.244 8     -1018.469          51.000    20904496.641 8  85600436.111 8      -793.612          50.000
R02  20295735.461 6 108301977.507 6     -2684.641          38.000    20295738.273 6  84234875.605 6     -2088.054          38.000
R03  19469991.852 8 104224477.753 8       989.801          51.000    19469993.219 8  81063471.426 8       769.845          48.000
R04  22734146.961 6 121740282.980 6      3618.578          38.000    22734149.297 6  94686938.347 6      2814.453          40.000
R17  20413112.539 8 109234688.277 8     -3109.496          48.000    20413113.078 7  84960307.248 7     -2418.500          42.000
R18  19283156.383 7 102934772.088 7       765.844          46.000    19283158.023 7  80060399.107 7       595.659          43.000
C27  22470387.750 8 117009219.538 8     -2195.344          51.000
E19  24125201.641 7 126778787.529 7      1055.129          47.000    24125202.445 8  97142197.349 8       808.356          48.000
E33  24206711.250 8 127207109.528 8     -1648.391          51.000    24206711.836 8  97470371.173 8     -1263.056          51.000
> 2020 05 12 20 37 30.0000000  0 13        .000000000000
G01  20598060.977 8 108243545.778 8     -1274.574          51.000    20598062.375 8  84345624.052 8      -993.175          51.000
G03  20369269.898 7 107041225.824 7       470.391          46.000    20369270.578 7  83408769.039 7       366.538          46.000
G04  22400587.859 8 117715885.211 8      3253.168          50.000    22400588.859 7  91726670.209 7      2534.939          46.000
G11  22106518.258 8 116170535.951 8     -3393.551          48.000    22106517.961 6  90522470.391 6     -2644.328          41.000
G22  20910341.078 8 109884595.164 8     -1027.609          51.000    20910337.531 8  85624353.438 8      -800.735          50.000
R02  20310862.125 6 108382699.951 6     -2696.602          36.000    20310864.898 6  84297659.710 6     -2097.357          37.000
R03  19464499.820 8 104195079.175 8       970.324          51.000    19464501.297 8  81040605.876 8       754.697          48.000
R04  22713898.125 6 121631859.319 6      3609.699          36.000    22713901.531 6  94602608.769 6      2807.544          41.000
R17  20430595.406 8 109328244.560 8     -3127.398          48.000    20430595.500 7  85033073.172 7     -2432.421          42.000
R18  19278920.453 7 102912159.962 7       741.715          47.000    19278922.094 7  80042811.887 7       576.889          44.000
C27  22483072.461 8 117075272.273 8     -2208.117          51.000
E19  24119211.695 7 126747310.636 7      1043.473          47.000    24119212.305 8  97118078.687 8       799.559          49.000
E33  24216150.336 8 127256713.778 8     -1658.496          51.000    24216150.648 8  97508379.601 8     -1270.820          51.000
> 2020 05 12 20 38  0.0000000  0 14        .000000000000
G01  20605376.586 8 108281990.034 8     -1287.785          51.000    20605378.109 8  84375580.627 8     -1003.466          51.000
G03  20366616.961 7 107027284.967 7       459.602          45.000    20366617.680 7  83397906.046 7       358.134          45.000
G04  22382043.375 8 117618430.740 8      3244.316          51.000    22382043.742 7  91650731.704 7      2528.039          46.000
G11  22125918.914 7 116272487.326 7     -3402.844          47.000    22125917.930 6  90601912.963 6     -2651.567          39.000
G22  20916232.336 8 109915553.761 8     -1035.746          51.000    20916228.695 8  85648477.012 8      -807.078          50.000
R02  20326052.359 6 108463758.601 6     -2706.965          36.000    20326054.773 6  84360705.371 6     -2105.417          36.000
R03  19459114.820 8 104166253.852 8       951.980          51.000    19459116.672 8  81018186.215 8       740.432          49.000
R04  22693702.289 7 121523697.214 7      3601.785          42.000    22693703.102 6  94518482.710 6      2801.391          41.000
R17  20448177.898 8 109422329.134 8     -3144.418          50.000    20448178.039 7  85106250.045 7     -2445.658          44.000
R18  19274818.172 7 102890262.373 7       718.641          47.000    19274820.172 7  80025780.448 7       558.943          45.000
C05                                                                  39703213.648 5 159868388.443 5       -26.273          34.000
C27  22495829.516 8 117141699.344 8     -2219.789          51.000
E19  24113285.969 7 126716172.021 7      1033.035          47.000    24113286.875 8  97094219.235 8       791.534          49.000
E33  24225644.781 8 127306610.322 8     -1667.324          49.000    24225645.148 8  97546611.998 8     -1277.590          51.000
> 2020 05 12 20 38 30.0000000  0 14        .000000000000
G01  20612771.555 8 108320851.363 8     -1302.598          51.000    20612773.047 8  84405862.184 8     -1015.011          51.000
G03  20364030.391 7 107013693.044 7       446.871          46.000    20364031.250 7  83387314.952 7       348.211          46.000
G04  22363554.508 8 117521267.770 8      3233.645          51.000    22363554.055 7  91575020.335 7      2519.726          46.000
G11  22145376.672 7 116374742.203 7     -3413.859          45.000    22145375.734 6  90681592.092 6     -2660.150          41.000
G22  20922174.414 8 109946779.061 8     -1045.480          51.000    20922170.633 8  85672808.413 8      -814.660          50.000
R02  20341306.461 6 108545154.833 6     -2719.012          38.000    20341309.844 6  84424013.602 6     -2114.787          36.000
R03  19453837.703 8 104138004.626 8       931.785          51.000    19453839.742 8  80996214.588 8       724.722          50.000
R04  22673555.547 7 121415801.883 7      3591.848          46.000    22673554.344 6  94434564.187 6      2793.659          41.000
R17  20465859.281 8 109516943.128 8     -3162.777          49.000    20465859.859 7  85179838.691 7     -2459.941          45.000
R18  19270850.594 7 102869085.009 7       693.645          47.000    19270853.320 7  80009309.159 7       539.498          46.000
C05                                                                  39703410.289 5 159869179.585 5       -26.113          34.000
C27  22508658.672 8 117208502.729 8     -2233.254          51.000
E19  24107425.414 8 126685375.047 8      1020.758          48.000    24107426.352 8  97070621.569 8       782.166          49.000
E33  24235194.945 7 127356802.182 7     -1678.195          47.000    24235196.062 8  97585070.719 8     -1285.857          51.000
> 2020 05 12 20 39  0.0000000  0 15        .000000000000
G01  20620247.570 8 108360138.293 8     -1316.219          51.000    20620249.172 8  84436475.368 8     -1025.625          51.000
G03  20361512.148 7 107000458.460 7       435.609          47.000    20361512.680 7  83377002.282 7       339.436          47.000
G04  22345122.992 8 117424407.374 8      3223.949          50.000    22345122.125 7  91499544.740 7      2512.171          46.000
G11  22164893.352 7 116477307.039 7     -3423.496          47.000    22164893.305 6  90761512.764 6     -2667.656          41.000
G14  23157612.133 5 121694064.904 5     -2535.242          33.000
G22  20928168.828 8 109978279.417 8     -1054.246          51.000    20928164.938 8  85697354.150 8      -821.490          50.000
R02  20356624.562 6 108626893.490 6     -2729.875          39.000    20356627.430 5  84487588.037 5     -2123.242          32.000
R03  19448669.523 8 104110340.283 8       912.723          51.000    19448671.828 8  80974697.881 8       709.895          49.000
R04  22653459.359 7 121308184.091 7      3582.992          47.000    22653457.117 6  94350861.526 6      2786.775          40.000
R17  20483640.336 8 109612092.775 8     -3180.168          48.000    20483641.828 7  85253843.953 7     -2473.467          46.000
R18  19267020.188 8 102848638.458 8       669.691          48.000    19267023.188 7  79993406.283 7       520.874          46.000
C05                                                                  39703607.828 5 159869975.148 5       -26.182          34.000
C27  22521561.250 8 117275689.613 8     -2245.594          51.000
E19  24101631.633 8 126654928.709 8      1009.480          49.000    24101632.203 8  97047292.566 8       773.420          49.000
E33  24244802.805 8 127407297.808 8     -1687.832          49.000    24244804.883 8  97623762.228 8     -1293.328          51.000
> 2020 05 12 20 39 30.0000000  0 15        .000000000000
G01  20627801.586 8 108399834.867 8     -1325.535          51.000    20627803.281 8  84467407.751 8     -1032.885          51.000
G03  20359058.406 7 106987565.094 7       428.676          45.000    20359059.297 7  83366955.514 7       334.033          45.000
G04  22326746.023 8 117327836.106 8      3218.727          48.000    22326745.008 7  91424294.437 7      2508.102          44.000
G11  22184466.641 8 116580164.080 8     -3428.973          50.000    22184466.430 7  90841661.135 7     -2671.924          42.000
G14  23172118.945 5 121770305.993 5     -2542.246          30.000
G22  20934212.375 8 110010038.257 8     -1058.504          51.000    20934208.461 8  85722101.305 8      -824.808          50.000
R02  20372003.062 5 108708956.407 5     -2735.832          31.000    20372004.109 5  84551414.570 5     -2127.875          32.000
R03  19443607.750 8 104083244.232 8       898.289          51.000    19443609.875 8  80953623.193 8       698.669          49.000
R04  22633411.062 7 121200829.195 7      3578.633          47.000    22633408.898 6  94267363.325 6      2783.381          39.000
R17  20501517.531 8 109707759.438 8     -3192.988          48.000    20501519.805 7  85328251.368 7     -2483.435          45.000
R18  19263324.094 8 102828908.912 8       650.301          48.000    19263327.234 7  79978061.093 7       505.789          46.000
C05                                                                  39703803.117 5 159870762.414 5       -22.059          34.000
C27  22534534.125 8 117343242.935 8     -2253.465          51.000
E19  24095901.703 8 126624817.119 8      1002.922          50.000    24095901.969 8  97024220.056 8       768.434          49.000
E33  24254466.617 8 127458081.244 8     -1693.000          51.000    24254468.578 8  97662674.217 8     -1297.141          51.000
> 2020 05 12 20 40  0.0000000  0 13        .000000000000
G01  20635442.406 8 108439987.335 8     -1344.688          51.000    20635443.953 8  84498695.385 8     -1047.808          51.000
G03  20356678.266 7 106975059.047 7       411.855          45.000    20356680.000 7  83357210.559 7       320.926          45.000
G04  22308432.695 7 117231602.686 7      3203.539          47.000    22308431.766 7  91349307.372 7      2496.264          44.000
G11  22204104.523 8 116683357.019 8     -3443.934          51.000    22204103.633 7  90922071.235 7     -2683.585          44.000
G22  20940313.727 8 110042101.368 8     -1072.496          51.000    20940309.898 8  85747085.557 8      -835.711          50.000
R02  20387449.789 5 108791335.051 5     -2752.391          32.000    20387454.445 5  84615494.997 5     -2140.751          35.000
R03  19438660.977 8 104056763.178 8       873.898          51.000    19438662.750 8  80933026.840 8       679.699          49.000
R04  22613420.172 7 121093786.461 7      3564.301          47.000    22613419.359 6  94184107.901 6      2772.234          40.000
R17  20519500.219 8 109803987.932 8     -3215.543          51.000    20519502.375 7  85403095.774 7     -2500.978          46.000
R18  19259771.453 8 102809945.332 8       620.750          49.000    19259775.164 8  79963311.623 8       482.806          48.000
C27  22547585.672 8 117411207.239 8     -2270.988          51.000
E19  24090244.250 8 126595086.700 8       986.039          49.000    24090244.664 8  97001439.626 8       755.527          49.000
E33  24264194.555 8 127509198.583 8     -1708.148          51.000    24264196.164 8  97701842.032 8     -1308.865          50.000
> 2020 05 12 20 40 30.0000000  0 14        .000000000000
G01  20643162.234 8 108480555.021 8     -1358.473          51.000    20643163.852 8  84530306.571 8     -1058.550          51.000
G03  20354364.547 7 106962899.556 7       400.145          44.000    20354366.219 7  83347735.616 7       311.801          44.000
G04  22290176.594 7 117135668.978 7      3193.391          47.000    22290175.711 7  91274553.872 7      2488.359          44.000
G11  22223798.414 8 116786843.383 8     -3453.695          51.000    22223796.758 7  91002709.947 7     -2691.191          46.000
G22  20946464.875 8 110074427.190 8     -1081.129          51.000    20946461.352 8  85772274.519 8      -842.435          50.000
R02  20402958.656 6 108874089.565 6     -2763.449          37.000    20402961.156 5  84679859.090 5     -2149.355          33.000
R03  19433821.156 8 104030855.367 8       854.770          51.000    19433822.820 8  80912876.348 8       664.821          49.000
R04  22593480.406 8 120987016.249 8      3555.145          48.000    22593481.086 6  94101064.452 6      2765.115          41.000
R17  20537580.406 8 109900734.552 8     -3232.785          51.000    20537581.906 7  85478343.158 7     -2514.388          47.000
R18  19256355.164 8 102791708.143 8       596.508          49.000    19256359.008 8  79949127.142 8       463.951          48.000
C05                                                                  39704205.836 5 159872383.646 5       -26.188          34.000
C27  22560707.797 8 117479541.002 8     -2283.234          50.000
E19  24084651.398 8 126565697.134 8       974.566          48.000    24084652.047 8  96978920.370 8       746.764          49.000
E33  24273978.469 8 127560609.018 8     -1717.891          51.000    24273979.281 8  97741234.416 8     -1316.321          50.000
> 2020 05 12 20 41  0.0000000  0 14        .000000000000
G01  20650960.211 8 108521533.387 8     -1372.816          51.000    20650962.055 8  84562237.741 8     -1069.727          51.000
G03  20352115.477 7 106951081.841 7       387.891          43.000    20352117.008 7  83338527.017 7       302.252          44.000
G04  22271977.664 8 117040032.890 8      3182.773          49.000    22271976.992 7  91200032.283 7      2480.083          43.000
G11  22243546.664 8 116890616.403 8     -3463.926          51.000    22243544.602 7  91083572.010 7     -2699.163          46.000
G22  20952665.117 8 110107010.963 8     -1090.391          50.000    20952661.969 8  85797664.486 8      -849.655          50.000
R02  20418525.688 5 108957160.660 5     -2774.602          35.000    20418527.102 5  84744469.944 5     -2158.023          33.000
R03  19429087.680 8 104005516.215 8       835.117          51.000    19429089.234 8  80893168.136 8       649.536          49.000
R04  22573591.266 7 120880515.437 7      3545.410          47.000    22573593.211 6  94018230.561 6      2757.541          41.000
R17  20555755.906 8 109997992.353 8     -3250.469          51.000    20555757.508 8  85553988.086 8     -2528.142          49.000
R18  19253074.398 8 102774195.259 8       571.629          50.000    19253078.102 8  79935506.003 8       444.603          48.000
C05                                                                  39704404.922 5 159873185.282 5       -26.656          34.000
C27  22573899.875 8 117548238.458 8     -2295.957          50.000
E19  24079122.586 8 126536644.111 8       962.836          49.000    24079123.148 8  96956658.976 8       737.772          48.000
E33  24283817.148 8 127612307.903 8     -1728.133          51.000    24283817.422 8  97780847.808 8     -1324.097          50.000
> 2020 05 12 20 41 30.0000000  0 14        .000000000000
G01  20658838.172 8 108562931.928 8     -1386.699          51.000    20658840.070 8  84594496.319 8     -1080.545          51.000
G03  20349933.156 7 106939615.336 7       376.590          44.000    20349934.867 7  83329592.055 7       293.450          44.000
G04  22253837.953 8 116944706.434 8      3172.621          49.000    22253837.805 7  91125751.969 7      2472.172          45.000
G11  22263350.508 8 116994683.659 8     -3473.504          51.000    22263348.562 7  91164663.326 7     -2706.629          46.000
G22  20958916.172 8 110139861.463 8     -1099.199          50.000    20958913.445 8  85823262.276 8      -856.519          50.000
R02  20434154.125 6 109040554.694 6     -2784.930          36.000    20434156.281 5  84809331.982 5     -2166.056          33.000
R03  19424462.188 8 103980754.788 8       816.027          51.000    19424463.375 8  80873909.264 8       634.688          48.000
R04  22553754.609 7 120774295.661 7      3536.203          46.000    22553757.562 6  93935615.273 6      2750.383          39.000
R17  20574027.805 8 110095768.463 8     -3267.586          51.000    20574029.711 8  85630036.122 8     -2541.456          49.000
R18  19249931.391 8 102757418.178 8       547.262          50.000    19249934.836 8  79922457.148 8       425.648          48.000
C05                                                                  39704604.086 5 159873986.333 5       -26.662          35.000
C27  22587163.758 8 117617307.749 8     -2308.250          50.000
E19  24073659.898 8 126507937.397 8       951.336          49.000    24073660.195 8  96934662.933 8       728.916          49.000
E33  24293712.086 8 127664304.596 8     -1737.973          51.000    24293712.094 8  97820689.408 8     -1331.717          51.000
> 2020 05 12 20 42  0.0000000  0 14        .000000000000
G01  20666796.016 8 108604750.507 8     -1400.824          51.000    20666797.656 8  84627082.214 8     -1091.551          51.000
G03  20347817.969 7 106928499.830 7       364.688          44.000    20347819.320 7  83320930.654 7       284.172          44.000
G04  22235757.633 8 116849692.044 8      3162.043          49.000    22235758.188 7  91051714.824 7      2463.930          45.000
G11  22283209.820 8 117099043.031 8     -3483.309          51.000    22283207.992 7  91245982.278 7     -2714.269          46.000
G22  20965218.023 8 110172977.893 8     -1108.246          51.000    20965215.383 8  85849067.283 8      -863.568          50.000
R02  20449842.445 6 109124269.822 6     -2795.625          36.000    20449845.367 5  84874443.760 5     -2174.378          33.000
R03  19419944.656 8 103956570.665 8       796.645          51.000    19419945.711 8  80855099.411 8       619.612          49.000
R04  22533970.445 7 120668358.942 7      3526.484          45.000    22533973.672 6  93853220.126 6      2742.821          38.000
R17  20592395.438 8 110194060.525 8     -3284.812          49.000    20592398.148 8  85706485.486 8     -2554.854          48.000
R18  19246926.711 8 102741378.634 8       522.512          50.000    19246930.047 8  79909981.951 8       406.395          49.000
C05                                                                  39704803.195 5 159874788.031 5       -26.406          35.000
C27  22600499.180 8 117686747.555 8     -2320.648          51.000
E19  24068262.961 8 126479576.894 8       939.703          48.000    24068263.484 8  96912932.177 8       719.981          50.000
E33  24303663.492 8 127716598.878 8     -1747.895          51.000    24303663.672 8  97860759.061 8     -1339.326          51.000
> 2020 05 12 20 42 30.0000000  0 14        .000000000000
G01  20674832.195 8 108646981.407 8     -1414.766          51.000    20674833.680 8  84659989.387 8     -1102.415          51.000
G03  20345768.172 7 106917727.456 7       353.254          44.000    20345769.008 7  83312536.587 7       275.263          44.000
G04  22217735.641 8 116754984.540 8      3151.602          49.000    22217736.875 7  90977916.785 7      2455.793          46.000
G11  22303122.359 8 117203684.120 8     -3492.832          51.000    22303120.750 7  91327520.758 7     -2721.687          45.000
G22  20971569.102 8 110206352.280 8     -1116.867          51.000    20971566.172 8  85875073.278 8      -870.286          50.000
R02  20465588.688 5 109208294.573 5     -2804.762          31.000    20465590.602 5  84939798.785 5     -2181.484          30.000
R03  19415532.961 8 103932955.874 8       777.582          51.000    19415534.492 8  80836732.362 8       604.786          49.000
R04  22514238.016 7 120562699.259 7      3517.270          44.000    22514241.891 6  93771040.405 6      2735.654          40.000
R17  20610856.398 7 110292857.915 7     -3301.723          45.000    20610860.719 7  85783327.934 7     -2568.007          47.000
R18  19244058.930 8 102726070.869 8       497.980          51.000    19244062.445 8  79898075.886 8       387.318          48.000
C05                                                                  39705000.930 5 159875584.540 5       -26.511          35.000
C27  22613904.125 8 117756548.988 8     -2332.812          51.000
E19  24062930.453 8 126451555.134 8       928.289          48.000    24062931.406 8  96891460.974 8       711.331          50.000
E33  24313670.164 8 127769182.962 8     -1757.715          51.000    24313670.773 8  97901050.754 8     -1346.847          51.000
> 2020 05 12 20 43  0.0000000  0 16        .000000000000
G01  20682949.297 8 108689637.184 8     -1428.625          51.000    20682950.852 8  84693227.649 8     -1113.214          51.000
G03  20343785.875 7 106907310.662 7       341.605          44.000    20343786.875 7  83304419.616 7       266.186          44.000
G04  22199774.828 8 116660598.989 8      3141.137          49.000    22199776.594 7  90904369.613 7      2447.639          46.000
G11  22323090.070 8 117308617.987 8     -3502.195          48.000    22323088.648 7  91409287.406 7     -2728.983          44.000
G22  20977971.609 8 110239996.615 8     -1125.723          51.000    20977968.383 8  85901289.630 8      -877.186          51.000
R02  20481394.773 5 109292647.485 5     -2816.547          33.000    20481394.305 5  85005389.901 5     -2190.648          30.000
R03  19411230.109 8 103909922.718 8       758.363          51.000    19411231.883 8  80818817.686 8       589.838          49.000
R04  22494562.000 7 120457330.936 7      3507.730          45.000    22494565.680 7  93689087.284 7      2728.235          43.000
R17  20629414.938 8 110392171.445 8     -3318.648          48.000    20629419.148 7  85860571.787 7     -2581.171          45.000
R18  19241331.164 8 102711509.663 8       473.211          51.000    19241334.156 8  79886750.529 8       368.056          48.000
C05                                                                  39705199.656 5 159876385.274 5       -26.581          35.000
C20  26240690.867 6 136642146.807 6      2885.590          36.000
C27  22627380.719 8 117826723.215 8     -2345.047          51.000
E04  27228737.203 6 143087974.578 6      2859.723          40.000
E19  24057665.062 8 126423885.168 8       916.742          48.000    24057666.242 8  96870259.316 8       702.478          50.000
E33  24323734.609 8 127822069.349 8     -1767.660          51.000    24323734.844 8  97941574.091 8     -1354.447          51.000
> 2020 05 12 20 43 30.0000000  0 16        .000000000000
G01  20691142.711 8 108732692.860 8     -1437.934          51.000    20691144.164 8  84726777.528 8     -1120.468          51.000
G03  20341866.812 7 106897224.366 7       334.691          46.000    20341868.242 7  83296560.177 7       260.798          46.000
G04  22181870.922 8 116566512.927 8      3135.031          48.000    22181872.930 7  90831055.818 7      2442.881          44.000
G11  22343107.391 7 117413817.428 7     -3507.426          45.000    22343106.680 7  91491261.029 7     -2733.056          44.000
G22  20984420.539 8 110273885.364 8     -1129.906          51.000    20984417.336 8  85927696.443 8      -880.446          51.000
R02  20497263.805 6 109377315.472 6     -2821.988          38.000    20497263.203 5  85071235.624 5     -2194.886          34.000
R03  19407030.953 8 103887445.542 8       743.867          51.000    19407033.016 8  80801335.447 8       578.563          49.000
R04  22474936.625 7 120352230.626 7      3502.844          45.000    22474939.773 7  93607342.648 7      2724.434          45.000
R17  20648065.531 8 110491973.340 8     -3330.902          50.000    20648069.031 7  85938195.404 7     -2590.705          45.000
R18  19238738.781 8 102697671.707 8       453.113          51.000    19238741.430 8  79875987.667 8       352.421          48.000
C05                                                                  39705394.727 5 159877170.279 5       -23.086          35.000
C20  26224075.938 5 136555630.252 5      2886.434          35.000
C27  22640923.844 8 117897244.199 8     -2352.695          51.000
E04  27212418.906 6 143002225.293 6      2860.473          41.000
E19  24052461.969 8 126396542.151 8       909.742          49.000    24052463.266 8  96849308.171 8       697.087          50.000
E33  24333851.883 8 127875232.931 8     -1772.941          51.000    24333852.000 8  97982309.807 8     -1358.494          51.000
> 2020 05 12 20 44  0.0000000  0 15        .000000000000
G01  20699408.352 8 108776128.468 8     -1457.793          51.000    20699409.891 8  84760623.433 8     -1135.946          51.000
G03  20340006.844 7 106887448.499 7       316.953          47.000    20340008.438 7  83288942.654 7       246.980          47.000
G04  22164020.492 7 116472708.881 7      3118.281          47.000    22164022.273 7  90757961.784 7      2429.830          45.000
G11  22363171.344 7 117519260.441 7     -3522.465          46.000    22363171.086 7  91573424.479 7     -2744.778          43.000
G22  20990912.156 8 110307998.352 8     -1144.500          51.000    20990909.016 8  85954277.992 8      -891.818          51.000
R02  20513178.977 5 109462221.102 5     -2838.355          34.000    20513176.789 5  85137273.210 5     -2207.616          33.000
R03  19402931.672 8 103865503.491 8       718.742          51.000    19402933.758 8  80784269.421 8       559.022          48.000
R04  22455356.586 7 120247379.804 7      3487.176          43.000    22455360.156 7  93525792.074 7      2712.248          44.000
R17  20666803.531 8 110592240.466 8     -3353.660          50.000    20666806.523 7  86016180.857 7     -2608.405          47.000
R18  19236278.547 8 102684538.613 8       422.332          51.000    19236281.258 8  79865773.034 8       328.480          49.000
C20  26207475.133 5 136469186.409 5      2876.500          34.000
C27  22654529.305 8 117968090.896 8     -2370.586          51.000
E04  27196115.930 6 142916556.738 6      2850.613          40.000
E19  24047317.516 8 126369506.186 8       892.531          50.000    24047318.719 8  96828592.300 8       683.882          51.000
E33  24344017.914 8 127928653.612 8     -1788.602          51.000    24344017.844 8  98023242.524 8     -1370.475          51.000
> 2020 05 12 20 44 30.0000000  0 15        .000000000000
G01  20707770.414 8 108820070.793 8     -1470.641          51.000    20707772.000 8  84794864.203 8     -1145.954          51.000
G03  20338229.734 7 106878109.800 7       306.594          45.000    20338231.195 7  83281665.750 7       238.904          45.000
G04  22146248.141 7 116379316.257 7      3108.754          46.000    22146248.906 7  90685188.337 7      2422.406          43.000
G11  22383306.609 8 117625072.017 8     -3530.684          48.000    22383306.203 7  91655875.060 7     -2751.182          44.000
G22  20997470.422 8 110342461.588 8     -1152.129          51.000    20997467.219 8  85981132.462 8      -897.763          51.000
R03  19398956.609 8 103844225.535 8       700.801          51.000    19398958.688 8  80767719.915 8       545.067          48.000
R04  22435846.391 7 120142909.501 7      3478.496          42.000    22435851.266 7  93444537.388 7      2705.494          44.000
R17  20685652.234 8 110693099.649 8     -3369.270          49.000    20685654.984 8  86094626.840 8     -2620.546          48.000
R18  19233974.727 8 102672240.917 8       398.516          51.000    19233977.641 8  79856208.159 8       309.957          49.000
C05                                                                  39705786.641 5 159878748.592 5       -26.856          35.000
C20  26190911.883 5 136382941.819 5      2873.730          32.000
C27  22668221.008 8 118039387.706 8     -2381.637          51.000
E04  27179852.789 6 142831097.032 6      2847.715          39.000
E19  24042255.742 8 126342904.599 8       882.109          49.000    24042256.844 8  96808209.273 8       675.881          51.000
E33  24354256.617 8 127982458.099 8     -1797.301          51.000    24354256.359 8  98064469.328 8     -1377.162          51.000
> 2020 05 12 20 45  0.0000000  0 16        .000000000000
G01  20716206.859 8 108864404.178 8     -1485.254          51.000    20716208.297 8  84829409.696 8     -1157.341          51.000
G03  20336513.617 7 106869092.575 7       294.176          45.000    20336515.180 7  83274639.327 7       229.225          45.000
G04  22128532.031 7 116286221.908 7      3097.270          45.000    22128532.031 7  90612647.290 7      2413.454          43.000
G11  22403489.969 8 117731133.690 8     -3540.527          49.000    22403489.711 7  91738520.515 7     -2758.849          45.000
G22  21004073.242 8 110377158.938 8     -1161.434          51.000    21004069.961 8  86008169.349 8      -905.013          51.000
R02  20545199.148 6 109633143.697 6     -2857.934          38.000    20545192.117 4  85270196.585 4     -2222.840          28.000
R03  19395083.656 8 103823493.207 8       681.012          50.000    19395085.898 8  80751594.782 8       529.679          48.000
R04  22416386.406 7 120038703.750 7      3468.117          45.000    22416391.438 7  93363488.489 7      2697.424          44.000
R17  20704588.812 7 110794430.729 7     -3386.449          46.000    20704591.609 8  86173439.932 8     -2633.902          49.000
R18  19231805.852 8 102660663.015 8       372.984          51.000    19231808.742 8  79847203.122 8       290.099          49.000
C05                                                                  39705986.039 5 159879550.895 5       -27.188          35.000
C20  26174360.609 5 136296782.834 5      2869.020          31.000
C27  22681976.844 8 118111018.792 8     -2394.172          51.000
E04  27163607.367 6 142745731.777 6      2842.910          37.000
E19  24037254.438 8 126316621.801 8       869.832          50.000    24037255.586 8  96788070.530 8       666.549          51.000
E33  24364546.062 8 128036530.646 8     -1807.809          51.000    24364546.078 8  98105901.526 8     -1385.240          51.000
> 2020 05 12 20 45 30.0000000  0 17        .000000000000
G01  20724725.789 8 108909171.997 8     -1499.332          51.000    20724727.445 8  84864293.695 8     -1168.314          51.000
G03  20334867.227 7 106860440.046 7       282.488          46.000    20334868.758 7  83267897.107 7       220.121          46.000
G04  22110881.312 7 116193471.758 7      3086.062          45.000    22110881.867 7  90540374.446 7      2404.724          44.000
G11  22423728.852 8 117837488.038 8     -3549.836          48.000    22423728.836 7  91821394.016 7     -2766.106          46.000
G17  22354064.133 6 117471404.021 6      1417.402          37.000    22354063.406 5  91536139.047 5      1104.475          33.000
G22  21010728.758 8 110412133.313 8     -1170.258          51.000    21010725.430 8  86035422.093 8      -911.889          51.000
R02  20561293.266 6 109719035.478 6     -2868.125          37.000    20561287.047 4  85336972.143 4     -2230.767          28.000
R03  19391320.508 8 103803350.532 8       661.766          51.000    19391323.109 7  80735928.266 7       514.707          47.000
R04  22396985.094 7 119934808.610 7      3458.051          46.000    22396988.922 7  93282681.235 7      2689.598          44.000
R17  20723620.109 7 110896275.388 7     -3403.195          46.000    20723623.922 8  86252652.524 8     -2646.930          49.000
R18  19229780.367 8 102649850.774 8       347.820          51.000    19229783.352 8  79838793.604 8       270.527          49.000
C05                                                                  39706188.453 5 159880365.860 5       -26.952          35.000
C20  26157834.469 5 136210753.379 5      2865.629          33.000
C27  22695804.961 8 118183025.880 8     -2406.387          50.000
E04  27147388.703 5 142660505.645 5      2838.180          34.000    27147395.734 5 109311298.582 5      2175.086          34.000
E19  24032322.180 8 126290701.377 8       858.191          50.000    24032322.992 8  96768209.441 8       657.572          51.000
E33  24374894.469 8 128090914.587 8     -1817.801          51.000    24374893.852 8  98147572.326 8     -1392.842          51.000
> 2020 05 12 20 46  0.0000000  0 16        .000000000000
G01  20733310.547 8 108954286.600 8     -1511.586          51.000    20733312.531 8  84899447.911 8     -1177.859          51.000
G03  20333273.453 7 106852064.567 7       272.500          45.000    20333274.820 7  83261370.779 7       212.338          44.000
G04  22093280.648 7 116100980.694 7      3076.668          47.000    22093281.883 7  90468303.483 7      2397.404          45.000
G11  22444005.977 8 117944044.834 8     -3557.371          49.000    22444006.531 7  91904425.271 7     -2771.977          46.000
G17  22346007.148 5 117429065.652 5      1402.117          34.000    22346002.484 5  91503148.117 5      1092.562          33.000
G22  21017420.211 8 110447296.772 8     -1177.262          51.000    21017416.773 8  86062822.181 8      -917.347          51.000
R03  19387651.352 8 103783707.921 8       644.418          51.000    19387653.602 7  80720650.686 7       501.214          47.000
R04  22377625.875 7 119831136.647 7      3449.969          46.000    22377627.742 7  93202047.556 7      2683.312          43.000
R17  20742730.492 7 110998542.152 7     -3417.969          47.000    20742735.164 8  86332193.344 8     -2658.420          49.000
R18  19227882.062 8 102639717.200 8       324.402          51.000    19227885.008 8  79830911.929 8       252.313          50.000
C05                                                                  39706377.414 5 159881126.563 5       -25.953          35.000
C20  26141319.695 6 136124767.419 6      2863.336          36.000
C27  22709688.367 8 118255320.877 8     -2416.617          50.000
E04  27131179.406 4 142575310.125 4      2836.723          29.000    27131184.953 5 109246035.871 5      2173.000          35.000
E19  24027442.211 8 126265055.939 8       848.305          51.000    24027442.641 8  96748559.041 8       649.967          51.000
E33  24385285.094 8 128145522.196 8     -1826.035          51.000    24385285.070 8  98189414.470 8     -1399.161          51.000
> 2020 05 12 20 46 30.0000000  0 17        .000000000000
G01  20741986.727 8 108999882.647 8     -1525.484          50.000    20741989.070 8  84934977.304 8     -1188.689          50.000
G03  20331757.977 7 106844100.766 7       260.828          46.000    20331759.250 7  83255165.226 7       203.240          46.000
G04  22075756.031 8 116008885.907 8      3065.562          49.000    22075757.492 7  90396541.317 7      2388.753          46.000
G11  22464347.016 8 118050936.815 8     -3566.262          51.000    22464347.641 7  91987717.700 7     -2778.905          45.000
G17  22338059.469 6 117387307.539 6      1384.660          37.000    22338053.789 5  91470609.347 5      1078.953          34.000
G22  21024173.094 8 110482783.495 8     -1185.926          51.000    21024169.633 8  86090474.170 8      -924.098          50.000
R02  20593647.094 5 109891645.971 5     -2885.699          34.000    20593631.414 4  85471249.868 4     -2244.430          27.000
R03  19384100.867 8 103764701.791 8       625.324          51.000    19384102.773 7  80705868.152 7       486.363          47.000
R04  22358333.766 7 119727826.926 7      3440.043          47.000    22358334.711 7  93121695.595 7      2675.589          43.000
R17  20761945.133 7 111101365.435 7     -3434.254          47.000    20761950.203 8  86412167.020 8     -2671.086          49.000
R18  19226136.875 8 102630400.783 8       299.301          51.000    19226139.812 8  79823665.827 8       232.789          49.000
C05                                                                  39706578.555 5 159881937.440 5       -25.844          35.000
C20  26124840.359 6 136038959.430 6      2859.238          39.000
C27  22723652.617 8 118328035.979 8     -2428.473          51.000
E04                                                                  27115011.094 6 109180917.773 6      2169.660          36.000
E19  24022640.000 8 126239820.458 8       836.645          50.000    24022640.477 8  96729222.783 8       641.023          51.000
E33  24395743.984 8 128200488.014 8     -1835.812          50.000    24395744.039 8  98231531.121 8     -1406.697          51.000
> 2020 05 12 20 47  0.0000000  0 17        .000000000000
G01  20750745.500 8 109045912.926 8     -1538.672          50.000    20750748.109 8  84970845.064 8     -1198.962          49.000
G03  20330312.000 7 106836501.394 7       250.020          46.000    20330313.531 7  83249243.610 7       194.820          46.000
G04  22058298.562 8 115917142.721 8      3055.141          50.000    22058299.969 7  90325053.152 7      2380.632          46.000
G11  22484742.773 8 118158114.536 8     -3574.516          51.000    22484742.531 7  92071232.791 7     -2785.337          45.000
G17  22330212.297 5 117346019.934 5      1367.516          32.000
G22  21030978.383 8 110518545.972 8     -1193.879          51.000    21030974.945 8  86118341.039 8      -930.295          51.000
R02  20609912.938 5 109978429.761 5     -2894.926          33.000    20609889.680 4  85538695.132 4     -2251.618          28.000
R03  19380660.438 8 103746283.991 8       607.086          51.000    19380662.094 7  80691543.191 7       472.178          47.000
R04  22339100.234 8 119624833.285 8      3430.680          48.000    22339101.531 7  93041589.472 7      2668.306          43.000
R17  20781253.773 7 111204694.949 7     -3449.879          44.000    20781259.703 8  86492534.407 8     -2683.239          48.000
R18  19224535.883 8 102621855.282 8       274.855          51.000    19224538.875 8  79817019.326 8       213.773          49.000
C05                                                                  39706783.016 5 159882760.617 5       -25.460          35.000
C20  26108387.219 6 135953283.538 6      2856.371          40.000
C27  22737688.367 8 118401123.152 8     -2439.617          51.000
E04                                                                  27098865.250 6 109115909.032 6      2167.403          36.000
E19  24017906.734 8 126214947.918 8       825.910          50.000    24017907.383 8  96710164.621 8       632.792          51.000
E33  24406262.258 8 128255764.765 8     -1844.859          50.000    24406262.719 8  98273886.036 8     -1413.626          51.000
> 2020 05 12 20 47 30.0000000  0 16        .000000000000
G01  20759576.727 8 109092321.653 8     -1554.695          51.000    20759579.281 8  85007007.711 8     -1211.454          51.000
G03  20328924.445 7 106829210.595 7       236.461          45.000    20328926.477 7  83243562.473 7       184.252          45.000
G04  22040897.805 8 115825697.988 8      3041.785          50.000    22040898.891 7  90253797.544 7      2370.225          47.000
G11  22505181.984 8 118265520.258 8     -3585.328          51.000    22505180.875 7  92154925.510 7     -2793.762          44.000
G22  21037825.422 8 110554528.093 8     -1204.465          50.000    21037822.094 8  86146379.059 8      -938.544          50.000
R02  20626231.203 4 110065463.127 4     -2906.578          29.000    20626205.297 5  85606399.449 5     -2260.684          30.000
R03  19377319.211 8 103728397.219 8       585.930          50.000    19377320.656 7  80677631.261 7       455.726          46.000
R04  22319915.805 8 119522100.581 8      3418.645          48.000    22319917.453 7  92961686.315 7      2658.946          44.000
R17  20800646.188 7 111308471.253 7     -3468.051          45.000    20800652.523 7  86573249.312 7     -2697.373          46.000
R18  19223069.195 8 102614025.867 8       247.598          51.000    19223072.227 8  79810929.777 8       192.576          49.000
C05                                                                  39706980.336 5 159883554.568 5       -26.983          35.000
C20  26091949.789 6 135867685.478 6      2850.727          40.000
C27  22751784.922 8 118474525.852 8     -2453.359          51.000
E04                                                                  27082736.820 6 109050968.000 6      2162.650          37.000
E19  24013231.883 8 126190382.904 8       812.418          49.000    24013232.602 8  96691342.089 8       622.487          51.000
E33  24416829.047 8 128311296.623 8     -1856.688          49.000    24416830.258 8  98316436.409 8     -1422.654          51.000
> 2020 05 12 20 48  0.0000000  0 15        .000000000000
G01  20768494.859 8 109139184.938 8     -1569.938          51.000    20768497.086 8  85043524.522 8     -1223.331          51.000
G03  20327610.008 7 106822304.413 7       223.805          44.000    20327612.047 7  83238181.027 7       174.390          44.000
G04  22023568.570 8 115734630.261 8      3028.965          49.000    22023569.258 7  90182835.723 7      2360.232          46.000
G11  22525678.555 8 118373228.019 8     -3595.434          51.000    22525676.664 7  92238853.593 7     -2801.637          44.000
G22  21044728.695 8 110590805.440 8     -1214.340          50.000    21044725.422 8  86174647.116 8      -946.239          50.000
R03  19374091.469 8 103711118.517 8       565.574          50.000    19374092.625 7  80664192.268 7       439.891          46.000
R04  22300795.086 8 119419708.327 8      3407.145          49.000    22300796.969 7  92882047.974 7      2650.004          44.000
R17  20820137.430 8 111412769.613 8     -3485.645          49.000    20820142.945 7  86654370.212 7     -2711.057          46.000
R18  19221751.430 8 102606991.450 8       220.957          50.000    19221754.531 8  79805458.566 8       171.855          49.000
C05                                                                  39707184.758 5 159884377.853 5       -28.149          35.000
C20  26075542.172 6 135782241.637 6      2845.570          41.000
C27  22765956.297 8 118548318.235 8     -2466.422          51.000
E04  27066637.781 5 142236143.931 5      2815.945          33.000    27066640.539 6 108986153.893 6      2158.259          36.000
E19  24008629.953 8 126166201.445 8       799.434          49.000    24008630.977 8  96672813.441 8       612.580          51.000
E33  24427458.781 8 128367159.572 8     -1867.902          48.000    24427461.117 8  98359240.481 8     -1431.190          51.000
> 2020 05 12 20 48 30.0000000  0 15        .000000000000
G01  20777485.469 8 109186428.241 8     -1581.469          51.000    20777487.008 8  85080337.461 8     -1232.313          51.000
G03  20326354.766 7 106815708.379 7       214.344          45.000    20326356.531 7  83233041.246 7       167.024          45.000
G04  22006297.062 8 115643867.616 8      3020.012          48.000    22006297.695 7  90112111.614 7      2353.256          47.000
G11  22546217.805 8 118481161.688 8     -3601.895          49.000    22546215.844 7  92322957.721 7     -2806.671          44.000
G22  21051674.000 8 110627303.080 8     -1220.570          51.000    21051670.609 8  86203086.835 8      -951.094          51.000
R03  19370963.023 8 103694371.511 8       548.977          48.000    19370964.266 7  80651166.846 7       426.985          46.000
R04  22281723.695 8 119317582.563 8      3399.340          48.000    22281725.930 7  92802616.900 7      2643.934          44.000
R17  20839712.398 8 111517511.431 8     -3499.004          51.000    20839716.633 7  86735836.048 7     -2721.447          47.000
R18  19220568.773 8 102600678.320 8       198.078          51.000    19220571.891 8  79800548.347 8       154.061          49.000
C05                                                                  39707382.477 5 159885174.235 5       -26.412          35.000
C20  26059149.852 6 135696879.099 6      2843.906          40.000
C27  22780187.680 8 118622425.209 8     -2475.809          51.000
E04  27050560.352 5 142151654.462 5      2814.801          34.000    27050562.086 5 108921410.720 5      2156.197          34.000
E19  24004087.039 8 126142329.707 8       790.141          48.000    24004088.508 8  96654522.129 8       605.447          50.000
E33  24438137.586 8 128423279.046 8     -1875.387          48.000    24438141.391 8  98402241.124 8     -1436.880          51.000
> 2020 05 12 20 49  0.0000000  0 16        .000000000000
G01  20786554.766 8 109234085.555 8     -1595.133          51.000    20786555.773 8  85117472.998 8     -1242.961          51.000
G03  20325165.141 7 106809456.424 7       202.965          46.000    20325166.938 7  83228169.598 7       158.154          47.000
G04  21989090.219 7 115553446.640 7      3008.648          47.000    21989091.359 7  90041653.710 7      2344.401          47.000
G11  22566805.289 7 118589353.141 7     -3610.375          47.000    22566804.047 7  92407262.765 7     -2813.276          43.000
G22  21058667.734 8 110664054.797 8     -1228.883          51.000    21058664.258 8  86231724.527 8      -957.571          51.000
R02  20675466.781 5 110328248.002 5     -2933.523          35.000    20675460.125 4  85810834.138 4     -2281.635          29.000
R03  19367939.789 8 103678190.368 8       530.312          48.000    19367941.430 7  80638581.522 7       412.462          45.000
R04  22262708.539 7 119215759.678 7      3389.148          46.000    22262710.984 7  92723421.396 7      2636.007          43.000
R17  20859376.086 8 111622728.889 8     -3514.875          51.000    20859379.227 7  86817671.837 7     -2733.792          46.000
R18  19219528.156 8 102595122.650 8       172.918          50.000    19219531.219 8  79796227.259 8       134.492          50.000
C05                                                                  39707579.859 5 159885968.500 5       -26.215          35.000
C20  26042779.422 6 135611632.653 6      2840.012          40.000
C27  22794485.219 8 118696879.212 8     -2487.348          51.000
E04  27034504.781 5 142067286.861 5      2810.445          35.000    27034507.867 5 108856759.423 5      2153.234          31.000
E19  23999609.633 8 126118801.661 8       778.848          48.000    23999611.266 8  96636494.155 8       596.893          50.000
E33  24448872.219 8 128479688.988 8     -1884.828          50.000    24448876.508 8  98445464.350 8     -1444.249          51.000
> 2020 05 12 20 49 30.0000000  0 16        .000000000000
G01  20795702.656 8 109282156.682 8     -1609.406          51.000    20795703.367 8  85154930.989 8     -1254.083          51.000
G03  20324041.047 7 106803548.368 7       191.074          47.000    20324042.773 7  83223565.929 7       148.889          47.000
G04  21971948.461 7 115463369.661 7      2996.598          46.000    21971950.461 7  89971463.855 7      2335.011          46.000
G11  22587441.086 7 118697800.045 7     -3619.523          47.000    22587440.328 7  92491766.882 7     -2820.408          42.000
G22  21065709.695 8 110701060.005 8     -1237.898          51.000    21065706.258 8  86260559.741 8      -964.596          51.000
R02  20691995.266 5 110416403.321 5     -2943.430          34.000    20691981.742 5  85879399.295 5     -2289.340          30.000
R03  19365022.477 8 103662574.508 8       510.930          49.000    19365024.328 7  80626435.856 7       397.393          46.000
R04  22243750.609 7 119114241.309 7      3378.715          46.000    22243751.859 6  92644462.726 6      2627.889          40.000
R17  20879127.914 8 111728419.403 8     -3530.992          51.000    20879129.930 7  86899875.594 7     -2746.327          46.000
R18  19218629.680 8 102590325.822 8       147.035          50.000    19218632.766 8  79792496.385 8       114.361          50.000
C05                                                                  39707777.031 5 159886762.298 5       -26.662          35.000
C20  26026430.953 7 135526502.987 7      2835.562          42.000
C27  22808848.695 8 118771678.806 8     -2499.164          50.000
E04  27018474.312 5 141983048.252 5      2805.621          35.000
E19  23995197.852 8 126095617.320 8       766.938          48.000    23995199.180 8  96618729.536 8       587.731          49.000
E33  24459662.625 8 128536389.122 8     -1894.930          51.000    24459666.906 8  98488909.901 8     -1451.929          51.000
> 2020 05 12 20 50  0.0000000  0 16        .000000000000
G01  20804930.531 8 109330648.876 8     -1624.812          51.000    20804931.086 8  85192717.121 8     -1266.088          51.000
G03  20322983.727 8 106797991.522 8       177.992          48.000    20322984.992 8  83219235.939 8       138.695          48.000
G04  21954874.219 7 115373646.564 7      2983.359          46.000    21954876.289 7  89901549.761 7      2324.696          46.000
G11  22608127.141 8 118806507.993 8     -3629.348          49.000    22608126.859 6  92576474.358 6     -2828.066          41.000
G22  21072801.156 8 110738325.596 8     -1248.039          51.000    21072797.781 8  86289597.853 8      -972.498          51.000
R03  19362212.492 8 103647530.926 8       490.477          50.000    19362214.312 7  80614735.318 7       381.482          46.000
R04  22224851.430 8 119013036.696 8      3366.777          48.000    22224851.367 6  92565748.082 6      2618.608          40.000
R17  20898968.617 8 111834587.933 8     -3548.305          51.000    20898970.023 7  86982451.105 7     -2759.793          45.000
R18  19217875.078 8 102586296.939 8       120.102          48.000    19217878.125 8  79789362.815 8        93.415          50.000
C05                                                                  39707975.484 5 159887562.647 5       -27.934          35.000
C20  26010106.383 6 135441498.362 6      2829.926          41.000
C27  22823279.812 8 118846829.961 8     -2512.227          48.000
C30  22278452.641 6 116009754.045 6       529.723          37.000
E04  27002470.047 6 141898947.204 6      2799.453          36.000
E19  23990853.133 8 126072784.501 8       753.812          48.000    23990854.133 8  96601234.269 8       577.579          50.000
E33  24470509.883 8 128593386.730 8     -1906.320          51.000    24470513.164 8  98532583.399 8     -1460.678          51.000
> 2020 05 12 20 50 30.0000000  0 16        .000000000000
G01  20814241.094 8 109379576.710 8     -1636.641          51.000    20814241.547 8  85230842.714 8     -1275.301          51.000
G03  20321995.945 8 106792800.391 8       168.277          48.000    20321996.805 8  83215190.910 8       131.128          48.000
G04  21937870.820 8 115284294.387 8      2973.602          48.000    21937872.039 7  89831924.746 7      2317.095          44.000
G11  22628865.883 8 118915489.477 8     -3635.949          49.000    22628865.508 7  92661394.975 7     -2833.207          42.000
G22  21079944.859 8 110775865.974 8     -1254.484          51.000    21079941.406 8  86318850.091 8      -977.520          50.000
R03  19359512.023 8 103633073.790 8       473.613          49.000    19359513.273 7  80603490.896 7       368.366          45.000
R04  22206013.812 8 118912162.690 8      3358.375          48.000    22206014.766 7  92487290.614 7      2612.072          43.000
R17  20918900.188 8 111941246.667 8     -3562.020          51.000    20918900.875 7  87065407.839 7     -2770.463          43.000
R18  19217267.102 7 102583052.285 7        96.578          47.000    19217270.367 8  79786839.193 8        75.116          50.000
C05                                                                  39708177.852 5 159888376.906 5       -26.530          35.000
C20  25993808.500 6 135356634.185 6      2827.777          40.000
C27  22837781.820 8 118922345.851 8     -2521.816          49.000
C30  22275444.977 5 115994082.555 5       515.172          35.000
E04  26986495.117 5 141814999.634 5      2797.012          35.000
E19  23986577.844 7 126050317.826 7       744.184          47.000    23986578.953 8  96584019.562 8       570.213          50.000
E33  24481416.258 8 128650696.263 8     -1914.117          51.000    24481418.680 8  98576495.881 8     -1466.667          51.000
> 2020 05 12 20 51  0.0000000  0 16        .000000000000
G01  20823628.219 8 109428907.504 8     -1651.301          51.000    20823628.750 8  85269282.315 8     -1286.725          51.000
G03  20321071.500 8 106787942.403 8       156.227          48.000    20321072.523 8  83211405.469 8       121.735          48.000
G04  21920932.555 8 115195283.057 8      2961.172          48.000    21920932.438 7  89762565.368 7      2307.410          43.000
G11  22649650.281 8 119024709.798 8     -3644.797          49.000    22649649.641 7  92746501.692 7     -2840.101          42.000
G22  21087134.438 8 110813647.708 8     -1263.527          51.000    21087130.844 8  86348290.403 8      -984.567          49.000
R02  20741857.242 4 110682522.987 4     -2971.352          29.000
R03  19356914.672 8 103619169.551 8       454.074          50.000    19356915.539 7  80592676.514 7       353.169          46.000
R04  22187232.078 8 118811587.755 8      3347.367          48.000    22187235.281 7  92409065.747 7      2603.511          44.000
R17  20938916.359 8 112048360.159 8     -3578.238          51.000    20938917.141 7  87148718.246 7     -2783.077          45.000
R18  19216800.070 7 102580560.143 7        70.426          47.000    19216803.594 8  79784900.864 8        54.776          49.000
C05                                                                  39708378.297 5 159889183.389 5       -27.206          35.000
C20  25977530.562 6 135271879.093 6      2823.258          38.000
C27  22852348.164 8 118998192.923 8     -2533.961          51.000
E04  26970542.906 6 141731174.207 6      2792.148          36.000
E19  23982365.875 7 126028184.900 7       732.031          47.000    23982367.047 8  96567060.590 8       560.946          49.000
E33  24492375.570 8 128708284.996 8     -1924.480          51.000    24492376.969 8  98620622.301 8     -1474.554          51.000
> 2020 05 12 20 51 30.0000000  0 16        .000000000000
G01  20833092.500 8 109478643.005 8     -1661.258          51.000    20833092.891 8  85308037.261 8     -1294.487          51.000
G03  20320210.648 7 106783419.250 7       148.547          47.000    20320212.070 7  83207880.947 7       115.751          47.000
G04  21904060.062 8 115106616.886 8      2953.195          49.000    21904059.703 7  89693474.917 7      2301.194          45.000
G11  22670480.109 8 119134168.907 8     -3649.234          48.000    22670479.156 7  92831794.517 7     -2843.559          42.000
G22  21094370.289 8 110851672.590 8     -1268.102          51.000    21094366.617 8  86377920.186 8      -988.131          50.000
R03  19354420.734 8 103605819.497 8       439.199          48.000    19354421.453 7  80582293.144 7       341.599          46.000
R04  22168506.531 7 118711315.686 7      3340.770          47.000    22168511.930 7  92331076.392 7      2598.376          44.000
R17  20959017.070 8 112155927.312 8     -3589.590          48.000    20959019.031 8  87232381.585 8     -2791.903          48.000
R18  19216474.906 7 102578824.199 7        48.758          47.000    19216478.375 8  79783550.714 8        37.926          49.000
C05                                                                  39708577.062 5 159889983.720 5       -24.104          35.000
C20  25961274.391 6 135187235.882 6      2823.227          38.000
C27  22866978.398 8 119074371.575 8     -2541.438          51.000
C30  22269698.438 4 115964154.350 4       484.250          29.000
E04  26954613.992 5 141647473.981 5      2791.426          35.000    26954630.539 6 108535115.274 6      2138.837          37.000
E19  23978218.031 7 126006387.808 7       724.328          46.000    23978218.727 8  96550358.909 8       555.151          48.000
E33  24503388.008 8 128766154.594 8     -1930.262          51.000    24503388.320 8  98664963.925 8     -1478.957          51.000
> 2020 05 12 20 52  0.0000000  0 18        .000000000000
G01  20842625.453 8 109528738.652 8     -1684.016          51.000    20842625.859 8  85347072.826 8     -1312.220          51.000
G03  20319404.977 7 106779186.467 7       128.098          47.000    20319406.711 7  83204582.673 7        99.813          47.000
G04  21887245.398 8 115018253.880 8      2932.211          50.000    21887245.734 7  89624620.651 7      2284.840          47.000
G11  22691346.227 7 119243820.672 7     -3666.465          47.000    22691345.445 7  92917237.451 7     -2856.986          42.000
G22  21101643.898 8 110889895.938 8     -1285.648          51.000    21101640.266 8  86407704.608 8     -1001.804          50.000
R02  20775374.453 6 110861330.600 6     -2993.660          37.000
R03  19352021.258 8 103592977.603 8       411.301          48.000    19352022.578 7  80572305.005 7       319.901          46.000
R04  22149828.320 7 118611302.786 7      3320.953          45.000    22149835.234 7  92253288.606 7      2582.967          43.000
R17  20979193.148 7 112263900.516 7     -3614.281          46.000    20979197.141 8  87316360.776 8     -2811.108          49.000
R18  19216283.289 8 102577800.322 8        13.883          48.000    19216286.742 8  79782754.364 8        10.798          49.000
C05                                                                  39708765.820 5 159890743.689 5       -30.870          35.000
C20  25945031.906 6 135102661.288 6      2809.926          40.000
C27  22881663.500 8 119150836.445 8     -2561.723          51.000
C30  22266967.766 4 115949903.733 4       459.312          29.000
E04  26938700.422 5 141563855.869 5      2777.578          35.000    26938718.242 6 108471044.240 6      2128.274          39.000
E12  21763424.844 6 114367568.643 6       727.812          39.000    21763425.484 7  87632295.575 7       557.803          45.000
E19  23974125.523 7 125984882.150 7       703.688          46.000    23974126.305 8  96533880.553 8       539.141          48.000
E33  24514445.062 8 128824260.475 8     -1949.062          51.000    24514444.656 8  98709486.592 8     -1493.443          51.000
> 2020 05 12 20 52 30.0000000  0 19        .000000000000
G01  20852247.930 8 109579305.647 8     -1692.594          51.000    20852248.414 8  85386475.655 8     -1318.904          51.000
G03  20318675.914 8 106775355.274 8       121.809          48.000    20318677.758 8  83201597.328 8        94.916          48.000
G04  21870510.148 8 114930307.816 8      2925.309          51.000    21870511.125 8  89556091.258 8      2279.461          48.000
G11  22712269.508 7 119353773.540 7     -3669.250          47.000    22712268.664 6  93002915.016 6     -2859.156          41.000
G17  22250443.312 5 116926886.347 5      1173.480          31.000
G22  21108976.320 8 110928428.349 8     -1288.797          50.000    21108972.867 8  86437729.866 8     -1004.257          50.000
R02  20792194.398 5 110951098.386 5     -2997.102          35.000    20792173.758 4  86295224.557 4     -2331.091          27.000
R03  19349738.211 8 103580756.719 8       397.812          48.000    19349739.695 7  80562799.862 7       309.410          46.000
R04  22131220.977 7 118511664.367 7      3315.684          45.000    22131226.820 6  92175792.129 6      2578.868          41.000
R17  20999465.953 7 112372390.428 7     -3624.215          47.000    20999471.406 8  87400741.837 8     -2818.834          49.000
R18  19216246.453 8 102577603.197 8        -6.453          49.000    19216249.859 8  79782601.030 8        -5.019          48.000
C05                                                                  39708965.875 5 159891549.824 5       -27.037          35.000
C20  25928824.492 6 135018266.733 6      2810.773          39.000
C27  22896424.094 8 119227696.482 8     -2567.777          51.000
C30  22264334.367 5 115936229.297 5       447.992          31.000
E04  26922824.289 5 141480396.389 5      2777.688          35.000    26922843.297 6 108407122.293 6      2128.864          40.000
E12  21759269.070 6 114345731.274 6       722.039          39.000    21759269.695 7  87615563.036 7       553.305          45.000
E19  23970109.422 7 125963779.426 7       697.480          45.000    23970111.148 8  96517710.941 8       534.412          49.000
E33  24525568.180 8 128882713.795 8     -1953.473          51.000    24525567.227 8  98754275.476 8     -1496.820          51.000
> 2020 05 12 20 53  0.0000000  0 17        .000000000000
G01  20861955.789 8 109630321.238 8     -1709.238          51.000    20861956.289 8  85426228.029 8     -1331.874          51.000
G03  20318019.070 8 106771902.996 8       107.559          49.000    20318020.828 8  83198907.247 8        83.812          48.000
G04  21853850.359 8 114842758.514 8      2910.352          51.000    21853851.648 8  89487871.039 8      2267.806          48.000
G11  22733245.461 7 119464003.413 7     -3680.285          47.000    22733243.891 6  93088808.395 6     -2867.758          39.000
G22  21116363.156 8 110967247.099 8     -1300.109          50.000    21116359.953 8  86467978.244 8     -1013.072          50.000
R03  19347567.078 8 103569133.218 8       376.141          48.000    19347568.383 7  80553759.371 7       292.554          46.000
R04  22112681.328 7 118412378.983 7      3302.195          47.000    22112683.922 6  92098570.247 6      2568.377          40.000
R17  21019830.797 7 112481371.557 7     -3642.246          46.000    21019837.109 7  87485504.897 7     -2832.858          47.000
R18  19216360.445 8 102578211.132 8       -35.043          49.000    19216363.469 7  79783073.872 7       -27.256          47.000
C05                                                                  39709172.812 5 159892383.097 5       -29.209          35.000
C20  25912647.703 6 134934030.591 6      2803.855          39.000
C27  22911255.516 8 119304927.916 8     -2581.855          51.000
C30  22261813.031 5 115923071.661 5       428.910          35.000
E04  26906982.438 5 141397146.084 5      2770.621          35.000    26907001.305 6 108343333.138 6      2123.000          40.000
E12  21755183.562 6 114324261.731 6       708.242          40.000    21755183.711 7  87599112.351 7       542.607          45.000
E19  23966165.789 7 125943057.225 7       683.148          45.000    23966168.336 8  96501832.911 8       523.407          49.000
E33  24536753.305 8 128941491.759 8     -1966.031          51.000    24536752.102 8  98799313.127 8     -1506.374          51.000
> 2020 05 12 20 53 30.0000000  0 18        .000000000000
G01  20871733.211 8 109681701.778 8     -1718.855          51.000    20871733.664 8  85466264.791 8     -1339.368          51.000
G03  20317418.266 7 106768746.041 7       100.285          47.000    20317419.906 7  83196447.300 7        78.147          47.000
G04  21837250.539 8 114755524.905 8      2902.324          51.000    21837251.664 8  89419896.804 8      2261.554          48.000
G11  22754258.070 8 119574424.596 8     -3684.070          48.000    22754255.078 6  93174850.840 6     -2870.704          39.000
G22  21123788.547 8 111006268.103 8     -1304.258          50.000    21123785.461 8  86498384.229 8     -1016.302          50.000
R02  20825999.055 5 111131487.953 5     -3012.535          35.000
R03  19345491.422 8 103558021.225 8       361.738          49.000    19345492.930 7  80545116.729 7       281.352          46.000
R04  22094192.250 7 118313363.352 7      3295.945          47.000    22094192.828 6  92021558.171 6      2563.516          40.000
R17  21040271.727 7 112590756.018 7     -3653.059          47.000    21040277.688 7  87570581.667 7     -2841.268          45.000
R18  19216609.375 8 102579540.892 8       -56.473          49.000    19216612.617 7  79784108.097 7       -43.923          47.000
C05                                                                  39709370.898 5 159893180.760 5       -26.252          35.000
C20  25896485.867 6 134849870.993 6      2804.031          41.000
C27  22926142.008 8 119382446.642 8     -2588.789          51.000
C30  22259375.133 5 115910368.928 5       415.441          33.000
E04  26891158.578 6 141313986.751 6      2770.020          38.000    26891176.734 6 108279613.726 6      2122.761          39.000
E12  21751152.477 6 114303077.926 6       701.371          41.000    21751152.469 7  87582880.595 7       537.315          45.000
E19  23962279.039 7 125922632.124 7       675.695          47.000    23962281.672 8  96486182.509 8       517.705          48.000
E33  24547984.250 8 129000510.662 8     -1971.496          51.000    24547983.086 8  98844535.409 8     -1510.597          51.000
> 2020 05 12 20 54  0.0000000  0 18        .000000000000
G01  20881589.367 8 109733496.236 8     -1735.043          51.000    20881590.148 8  85506624.077 8     -1351.982          51.000
G03  20316882.992 8 106765933.491 8        86.375          48.000    20316884.500 8  83194255.699 8        67.305          48.000
G04  21820720.492 8 114668658.527 8      2887.695          50.000    21820721.359 8  89352208.736 8      2250.155          48.000
G11  22775315.953 7 119685084.145 7     -3694.359          47.000    22775313.188 6  93261079.014 6     -2878.722          40.000
G22  21131261.828 8 111045540.356 8     -1315.074          50.000    21131258.648 8  86528985.989 8     -1024.733          50.000
R02  20842955.680 6 111221995.578 6     -3023.191          37.000    20842940.578 4  86505984.120 4     -2351.371          29.000
R03  19343520.594 8 103547470.313 8       340.523          48.000    19343521.852 7  80536910.450 7       264.852          46.000
R04  22075762.008 7 118214669.361 7      3282.602          43.000    22075762.859 6  91944796.228 6      2553.135          41.000
R17  21060796.875 7 112700591.253 7     -3670.422          47.000    21060802.695 7  87656009.058 7     -2854.773          45.000
R18  19217003.258 8 102581643.411 8       -84.711          51.000    19217006.336 7  79785743.377 7       -65.889          47.000
C05                                                                  39709569.484 5 159893980.637 5       -28.061          35.000
C20  25880348.977 7 134765837.649 7      2797.180          43.000
C27  22941092.914 8 119460299.870 8     -2602.406          51.000
C30  22257031.359 5 115898170.169 5       396.176          35.000
E04  26875361.938 6 141230968.776 6      2763.152          39.000    26875379.062 6 108216002.688 6      2117.107          37.000
E12  21747185.492 6 114282230.349 6       687.539          41.000    21747185.172 7  87566906.499 7       526.789          45.000
E19  23958458.406 7 125902553.413 7       661.699          47.000    23958460.844 8  96470797.519 8       507.043          49.000
E33  24559270.188 8 129059819.483 8     -1983.637          51.000    24559269.922 8  98889979.820 8     -1519.858          51.000
> 2020 05 12 20 54 30.0000000  0 18        .000000000000
G01  20891525.648 8 109785711.688 8     -1746.285          51.000    20891526.750 8  85547311.420 8     -1360.742          51.000
G03  20316414.695 8 106763472.474 8        77.449          49.000    20316416.305 8  83192338.024 8        60.350          49.000
G04  21804262.117 8 114582169.065 8      2877.887          50.000    21804262.578 7  89284814.392 7      2242.509          46.000
G11  22796419.859 7 119795987.397 7     -3699.586          46.000    22796417.875 6  93347497.098 6     -2882.794          41.000
G22  21138784.234 8 111085070.649 8     -1320.723          51.000    21138781.039 8  86559788.817 8     -1029.135          49.000
R02  20859969.469 5 111312775.188 5     -3029.086          34.000    20859958.984 5  86576590.519 5     -2355.956          30.000
R03  19341655.711 8 103537487.141 8       324.547          48.000    19341656.984 7  80529145.773 7       252.425          46.000
R04  22057392.531 7 118116306.038 7      3274.207          42.000    22057395.133 7  91868291.387 7      2546.602          42.000
R17  21081408.219 8 112810882.097 8     -3682.664          50.000    21081413.508 7  87741790.809 7     -2864.294          47.000
R18  19217543.453 8 102584527.216 8      -107.867          50.000    19217546.484 7  79787986.307 7       -83.900          47.000
C05                                                                  39709770.258 5 159894788.646 5       -26.046          35.000
C20  25864237.992 7 134681938.548 7      2795.527          43.000
C27  22956109.430 8 119538493.593 8     -2610.891          51.000
C30  22254787.234 5 115886483.582 5       381.770          35.000
E04  26859594.266 6 141148100.608 6      2760.922          41.000    26859609.648 5 108152506.409 5      2115.494          34.000
E12  21743283.953 6 114261727.712 6       678.879          41.000    21743283.359 7  87551196.682 7       520.270          45.000
E19  23954704.984 8 125882828.571 8       652.848          48.000    23954707.516 8  96455683.706 8       500.237          50.000
E33  24570612.562 8 129119425.228 8     -1990.562          51.000    24570613.383 8  98935651.753 8     -1525.230          51.000
> 2020 05 12 20 55  0.0000000  0 17        .000000000000
G01  20901541.016 8 109838342.195 8     -1762.012          51.000    20901542.102 8  85588322.184 8     -1372.996          51.000
G03  20316012.242 8 106761357.133 8        64.203          48.000    20316013.992 8  83190689.697 8        50.028          49.000
G04  21787874.648 8 114496053.167 8      2863.523          48.000    21787874.711 7  89217711.138 7      2231.317          47.000
G11  22817568.422 7 119907126.327 7     -3709.172          44.000    22817567.234 7  93434098.860 7     -2890.264          42.000
G22  21146354.445 8 111124852.664 8     -1330.910          50.000    21146351.336 8  86590787.795 8     -1037.073          49.000
R03  19339895.539 8 103528064.986 8       304.000          49.000    19339896.969 7  80521817.442 7       236.444          45.000
R04  22039086.867 7 118018269.054 7      3261.621          44.000    22039088.641 7  91792040.428 7      2536.816          43.000
R17  21102103.930 8 112921619.806 8     -3699.344          51.000    21102108.141 8  87827920.132 8     -2877.270          48.000
R18  19218229.406 8 102588187.765 8      -135.574          51.000    19218232.398 7  79790833.382 7      -105.447          47.000
C05                                                                  39709971.977 5 159895600.646 5       -27.656          35.000
C20  25848151.547 7 134598168.915 7      2789.367          42.000
C27  22971189.586 8 119617020.498 8     -2623.789          50.000
C30  22252638.766 5 115875304.520 5       363.027          30.000
E04  26843854.219 7 141065377.712 7      2754.254          42.000    26843868.461 5 108089121.467 5      2110.756          34.000
E12  21739447.148 6 114241565.650 6       665.793          41.000    21739446.750 7  87535747.837 7       510.111          45.000
E19  23951017.859 8 125863451.698 8       639.418          48.000    23951020.234 8  96440836.515 8       489.962          50.000
E33  24582010.273 8 129179321.961 8     -2002.062          51.000    24582012.047 8  98981546.662 8     -1534.042          51.000
> 2020 05 12 20 55 30.0000000  0 18        .000000000000
G01  20911623.945 8 109891328.630 8     -1772.418          51.000    20911625.258 8  85629610.320 8     -1381.105          51.000
G03  20315664.398 8 106759528.501 8        55.797          49.000    20315665.961 8  83189264.800 8        43.478          49.000
G04  21771547.375 8 114410254.272 8      2854.336          48.000    21771547.773 8  89150854.907 8      2224.161          48.000
G11  22838750.031 7 120018440.043 7     -3713.551          44.000    22838749.492 7  93520836.816 7     -2893.676          43.000
G22  21153961.328 8 111164827.316 8     -1335.980          50.000    21153958.227 8  86621936.869 8     -1041.021          49.000
R02  20894129.805 5 111495006.126 5     -3043.633          31.000
R03  19338228.922 8 103519143.146 8       288.820          48.000    19338229.984 7  80514878.221 7       224.638          46.000
R04  22020830.906 7 117920499.945 7      3254.250          45.000    22020831.531 7  91715997.843 7      2531.086          43.000
R17  21122870.781 8 113032741.756 8     -3710.656          50.000    21122874.312 7  87914348.314 7     -2886.066          47.000
R18  19219049.953 8 102592566.573 8      -158.215          51.000    19219052.867 8  79794239.109 8      -123.059          48.000
C05                                                                  39710163.523 5 159896371.717 5       -25.210          35.000
C20  25832078.172 6 134514471.267 6      2788.852          41.000
C27  22986321.695 8 119695820.838 8     -2631.453          49.000
C30  22250576.203 5 115864575.380 5       350.270          32.000
E04  26828130.672 7 140982742.482 7      2752.621          42.000    26828143.977 6 108025803.699 6      2109.409          37.000
E12  21735664.086 6 114221686.603 6       657.656          41.000    21735664.406 7  87520515.850 7       503.799          46.000
E19  23947385.945 8 125844364.067 8       631.164          49.000    23947387.906 8  96426210.940 8       483.601          51.000
E33  24593451.867 8 129239450.551 8     -2008.383          50.000    24593454.789 8  99027619.220 8     -1538.930          51.000
> 2020 05 12 20 56  0.0000000  0 18        .000000000000
G01  20921778.133 8 109944690.577 8     -1775.582          51.000    20921779.922 8  85671191.052 8     -1383.567          51.000
G03  20315374.797 8 106758006.196 8        54.895          49.000    20315375.984 8  83188078.588 8        42.775          49.000
G04  21755284.570 8 114324794.514 8      2852.266          48.000    21755285.680 8  89084262.930 8      2222.548          48.000
G11  22859968.609 7 120129946.374 7     -3710.613          44.000    22859968.180 6  93607724.858 6     -2891.387          41.000
G14  23683653.617 5 124458442.563 5     -2857.047          31.000
G17  22206068.680 5 116693672.525 5      1059.941          33.000
G22  21161608.570 8 111205014.047 8     -1333.672          50.000    21161605.367 8  86653251.201 8     -1039.225          48.000
R03  19336659.336 8 103510741.217 8       280.977          49.000    19336660.656 7  80508343.392 7       218.537          46.000
R04  22002627.516 7 117823020.771 7      3253.980          45.000    22002627.586 7  91640180.752 7      2530.874          43.000
R17  21143711.703 8 113144265.381 8     -3714.711          48.000    21143714.938 7  88001088.921 7     -2889.220          44.000
R18  19220008.914 8 102597684.730 8      -173.434          51.000    19220011.328 7  79798219.870 7      -134.893          47.000
C05                                                                  39710348.594 5 159897117.259 5       -17.401          35.000
C20  25816022.344 7 134430866.083 7      2794.430          42.000
C27  23001509.562 8 119774912.765 8     -2631.879          49.000
E04  26812427.430 7 140900215.753 7      2758.535          42.000    26812439.953 6 107962569.047 6      2113.638          39.000
E12  21731938.562 6 114202111.744 6       656.918          41.000    21731939.688 7  87505516.913 7       503.269          46.000
E19  23943812.789 8 125825585.503 8       630.164          49.000    23943814.445 8  96411822.180 8       482.853          51.000
E33  24604940.977 8 129299830.537 8     -2007.395          50.000    24604944.930 8  99073884.388 8     -1538.199          51.000
> 2020 05 12 20 56 30.0000000  0 17        .000000000000
G01  20932034.219 8 109998587.748 8     -1806.598          51.000    20932036.477 8  85713188.867 8     -1407.738          51.000
G03  20315173.844 8 106756950.149 8        26.270          49.000    20315174.859 8  83187255.706 8        20.470          49.000
G04  21739117.352 8 114239836.266 8      2822.480          48.000    21739118.945 7  89018061.725 7      2199.335          47.000
G11  22881254.078 7 120241803.234 7     -3735.312          45.000    22881253.000 6  93694886.060 6     -2910.633          40.000
G14  23700071.500 5 124544738.612 5     -2882.648          33.000
G22  21169326.539 8 111245572.260 8     -1359.078          50.000    21169323.289 7  86684854.993 7     -1059.022          47.000
R03  19335217.242 8 103503021.200 8       244.941          49.000    19335218.547 7  80502338.940 7       190.510          46.000
R04  21984507.812 7 117725996.338 7      3225.414          44.000    21984507.531 7  91564717.322 7      2508.658          42.000
R17  21164656.297 7 113256350.727 7     -3746.527          44.000    21164659.727 6  88088266.427 6     -2913.969          41.000
R18  19221136.820 8 102603705.630 8      -216.746          51.000    19221138.453 8  79802902.788 8      -168.580          48.000
C05                                                                  39710557.906 5 159897960.103 5       -30.417          35.000
C20  25800014.953 7 134347512.706 7      2773.320          42.000
C27  23016784.305 8 119854453.421 8     -2659.891          50.000
E04  26796775.008 6 140817958.832 6      2736.340          41.000    26796787.352 6 107899541.083 6      2096.541          40.000
E12  21728301.828 7 114183002.439 7       628.070          42.000    21728303.117 7  87490874.708 7       481.291          46.000
E19  23940328.906 8 125807276.043 8       601.477          50.000    23940330.172 8  96397792.855 8       460.839          51.000
E33  24616508.688 8 129360621.703 8     -2034.328          50.000    24616513.062 8  99120464.607 8     -1558.750          51.000
> 2020 05 12 20 57  0.0000000  0 18        .000000000000
G01  20942334.992 8 110052718.949 8     -1818.590          51.000    20942337.586 8  85755369.008 8     -1417.083          51.000
G03  20315004.211 8 106756059.192 8        16.730          49.000    20315005.367 8  83186561.454 8        13.040          49.000
G04  21722988.797 8 114155080.822 8      2811.562          49.000    21722990.609 7  88952018.546 7      2190.828          47.000
G11  22902548.969 7 120353707.503 7     -3741.164          45.000    22902545.438 6  93782084.136 6     -2915.193          36.000
G14  23716505.867 5 124631078.666 5     -2889.668          32.000
G22  21177057.891 8 111286200.550 8     -1365.594          50.000    21177054.664 7  86716513.403 7     -1064.099          46.000
R02  20945673.602 6 111770068.979 6     -3072.863          37.000
R03  19333844.820 8 103495675.650 8       228.137          48.000    19333846.203 7  80496625.739 7       177.440          46.000
R04  21966416.547 7 117629121.293 7      3216.238          46.000    21966415.367 7  91489370.087 7      2501.519          43.000
R17  21185647.617 7 113368688.697 7     -3759.156          45.000    21185650.328 6  88175640.370 6     -2923.791          40.000
R18  19222376.711 8 102610324.576 8      -241.012          51.000    19222378.242 8  79808050.839 8      -187.457          48.000
C05                                                                  39710734.172 5 159898669.859 5       -29.420          35.000
C20  25783999.406 7 134264113.720 7      2770.602          42.000
C27  23032088.172 8 119934143.064 8     -2668.965          51.000
E04  26781116.297 6 140735671.850 6      2733.047          40.000    26781128.352 6 107836490.070 6      2094.096          40.000
E12  21724697.023 7 114164058.978 7       618.258          42.000    21724698.172 7  87476359.590 7       473.835          47.000
E19  23936877.078 8 125789134.786 8       591.633          50.000    23936877.969 8  96383892.417 8       453.335          51.000
E33  24628097.750 8 129421522.686 8     -2042.188          50.000    24628101.758 8  99167128.998 8     -1564.820          51.000
> 2020 05 12 20 57 30.0000000  0 18        .000000000000
G01  20952751.875 8 110107459.345 8     -1830.969          51.000    20952754.281 8  85798023.846 8     -1426.729          51.000
G03  20314937.414 8 106755708.696 8         6.543          49.000    20314938.734 8  83186288.328 8         5.098          49.000
G04  21706970.719 8 114070906.015 8      2799.926          49.000    21706972.414 7  88886427.779 7      2181.760          46.000
G11  22923923.898 7 120466032.593 7     -3747.277          45.000    22923918.820 6  93869610.072 6     -2919.959          37.000
G22  21184874.016 8 111327274.156 8     -1372.602          50.000    21184870.492 7  86748518.798 7     -1069.560          45.000
R02  20962960.375 6 111862351.865 6     -3079.441          36.000
R03  19332613.477 8 103489086.126 8       211.066          48.000    19332615.211 7  80491500.581 7       164.166          46.000
R04  21948426.023 7 117532779.952 7      3206.449          47.000    21948424.680 7  91414437.990 7      2493.908          44.000
R17  21206758.898 7 113481658.894 7     -3772.133          47.000    21206761.148 7  88263506.043 7     -2933.881          43.000
R18  19223800.312 8 102617924.306 8      -265.621          51.000    19223801.844 8  79813961.728 8      -206.594          48.000
C05                                                                  39710949.078 5 159899535.459 5       -28.417          35.000
C20  25768047.398 7 134181042.085 7      2767.527          43.000
C27  23047491.727 8 120014352.259 8     -2678.363          50.000
C30  22243317.219 5 115826795.059 5       279.281          31.000
E04  26765522.953 6 140653731.486 6      2729.527          39.000    26765534.625 6 107773704.618 6      2091.411          40.000
E12  21721195.703 7 114145658.192 7       608.238          43.000    21721196.570 7  87462260.291 7       466.059          47.000
E19  23933528.508 8 125771537.299 8       581.371          50.000    23933529.281 8  96370408.631 8       445.493          51.000
E33  24639779.328 8 129482908.726 8     -2050.395          51.000    24639782.562 8  99214165.051 8     -1571.058          51.000
> 2020 05 12 20 58  0.0000000  0 17        .000000000000
G01  20963234.711 8 110162545.727 8     -1842.523          51.000    20963236.391 8  85840948.269 8     -1435.733          51.000
G03  20314923.406 8 106755635.567 8        -2.875          49.000    20314924.812 8  83186231.342 8        -2.240          50.000
G04  21691013.414 8 113987051.165 8      2789.281          48.000    21691014.922 7  88821086.318 7      2173.466          46.000
G11  22945328.281 7 120578513.417 7     -3752.531          45.000    22945324.062 6  93957257.434 6     -2924.050          39.000
G22  21192724.773 8 111368529.638 8     -1378.852          50.000    21192720.750 7  86780665.909 7     -1074.430          44.000
R02  20980277.711 5 111954801.867 5     -3085.098          33.000
R03  19331473.773 8 103482984.003 8       194.668          49.000    19331475.211 7  80486754.496 7       151.408          45.000
R04  21930484.383 7 117436705.919 7      3197.332          47.000    21930484.461 7  91339713.787 7      2486.817          44.000
R17  21227938.547 8 113594990.603 8     -3784.391          49.000    21227940.805 7  88351652.901 7     -2943.415          45.000
R18  19225357.867 8 102626238.188 8      -289.723          51.000    19225359.219 8  79820428.070 8      -225.340          49.000
C05                                                                  39711152.258 6 159900353.650 6       -27.064          36.000
C20  25752108.500 7 134098038.060 7      2764.973          43.000
C27  23062944.461 8 120094819.025 8     -2687.184          50.000
E04  26749944.953 6 140571875.933 6      2726.281          37.000    26749956.781 6 107710984.106 6      2089.133          39.000
E12  21717747.867 7 114127538.465 7       598.652          42.000    21717748.289 7  87448376.354 7       458.699          47.000
E19  23930233.227 8 125754220.546 8       571.887          50.000    23930233.852 8  96357139.961 8       438.217          51.000
E33  24651503.305 8 129544516.545 8     -2057.902          51.000    24651505.609 8  99261371.030 8     -1576.855          51.000
> 2020 05 12 20 58 30.0000000  0 18        .000000000000
G01  20973792.859 8 110218027.714 8     -1856.434          51.000    20973794.062 8  85884180.960 8     -1446.572          51.000
G03  20314971.734 8 106755889.502 8       -14.406          49.000    20314972.977 8  83186429.230 8       -11.223          49.000
G04  21675127.039 8 113903568.479 8      2775.957          48.000    21675128.328 7  88756034.858 7      2163.083          45.000
G11  22966771.258 7 120691197.692 7     -3759.969          46.000    22966768.719 6  94045063.386 6     -2929.846          41.000
G22  21200619.523 8 111410016.589 8     -1387.297          50.000    21200615.125 7  86812993.395 7     -1081.011          43.000
R02  20997636.602 4 112047411.540 4     -3093.691          27.000
R03  19330434.195 8 103477419.413 8       176.000          48.000    19330435.703 7  80482426.494 7       136.892          45.000
R04  21912600.883 7 117340951.680 7      3185.895          45.000    21912603.555 7  91265238.284 7      2477.918          45.000
R17  21249195.094 8 113708731.914 8     -3798.816          51.000    21249196.992 7  88440118.360 7     -2954.635          45.000
R18  19227058.898 8 102635318.273 8      -315.957          51.000    19227060.469 8  79827490.344 8      -245.744          49.000
C05                                                                  39711353.586 5 159901163.920 5       -27.680          35.000
C20  25736191.594 6 134015151.893 6      2760.465          41.000
C27  23078455.992 8 120175591.117 8     -2697.969          51.000
C30  22240286.812 5 115811001.699 5       246.398          34.000
E04  26734392.664 6 140490156.224 6      2721.500          36.000    26734403.672 6 107648367.735 6      2085.117          39.000
E12  21714363.000 7 114109751.017 7       587.035          42.000    21714363.234 7  87434746.997 7       449.594          47.000
E19  23927000.977 8 125737234.516 8       560.082          51.000    23927001.406 8  96344124.704 8       429.175          51.000
E33  24663278.945 8 129606395.778 8     -2067.629          51.000    24663279.984 8  99308784.980 8     -1584.332          51.000
> 2020 05 12 20 59  0.0000000  0 17        .000000000000
G01  20984432.328 8 110273938.510 8     -1869.441          50.000    20984433.477 8  85927747.804 8     -1456.708          50.000
G03  20315088.711 8 106756504.010 8       -25.055          50.000    20315089.680 8  83186908.075 8       -19.526          50.000
G04  21659318.789 8 113820493.768 8      2763.773          48.000    21659319.523 7  88691301.329 7      2153.590          46.000
G11  22988259.422 8 120804116.965 8     -3766.297          48.000    22988258.094 7  94133052.434 7     -2934.777          44.000
G22  21208564.547 8 111451767.951 8     -1394.703          50.000    21208560.133 7  86845526.896 7     -1086.785          43.000
R03  19329501.023 8 103472425.336 8       158.324          48.000    19329503.000 7  80478542.214 7       123.141          44.000
R04  21894784.031 7 117245552.926 7      3175.363          46.000    21894788.750 7  91191039.268 7      2469.724          45.000
R17  21270533.859 8 113822914.117 8     -3811.961          51.000    21270535.461 7  88528926.721 7     -2964.862          45.000
R18  19228909.852 8 102645199.320 8      -341.215          51.000    19228911.719 8  79835175.598 8      -265.389          49.000
C05                                                                  39711559.312 6 159901992.131 6       -26.868          36.000
C20  25720303.258 6 133932417.669 6      2756.668          40.000
C27  23094032.648 8 120256700.423 8     -2707.805          51.000
C30  22238926.094 6 115803884.475 6       229.559          38.000
E04  26718872.914 6 140408607.105 6      2716.730          36.000    26718882.539 6 107585882.043 6      2081.761          41.000
E12  21711047.859 7 114092330.725 7       576.062          42.000    21711048.039 8  87421398.987 8       441.270          48.000
E19  23923837.906 8 125720612.767 8       549.387          50.000    23923838.328 8  96331388.570 8       420.983          51.000
E33  24675112.398 8 129668579.662 8     -2076.449          50.000    24675112.703 8  99356432.364 8     -1591.046          51.000
> 2020 05 12 20 59 30.0000000  0 19        .000000000000
G01  20995132.109 8 110330168.960 8     -1878.023          49.000    20995133.562 8  85971563.739 8     -1463.395          49.000
G03  20315253.680 8 106757370.034 8       -31.375          51.000    20315254.336 8  83187582.899 8       -24.448          51.000
G04  21643567.977 8 113737720.383 8      2755.656          48.000    21643568.180 7  88626802.621 7      2147.265          47.000
G11  23009771.445 8 120917160.188 8     -3768.621          49.000    23009770.578 7  94221138.051 7     -2936.588          45.000
G14  23799499.773 5 125067198.852 5     -2922.555          31.000
G22  21216539.148 8 111493674.588 8     -1397.836          50.000    21216534.898 7  86878181.404 7     -1089.226          44.000
R02  21032501.914 6 112233466.154 6     -3102.215          36.000
R03  19328654.102 7 103467890.147 7       145.070          47.000    19328655.547 7  80475014.826 7       112.832          43.000
R04  21877015.031 7 117150400.199 7      3169.289          47.000    21877019.352 7  91117031.626 7      2465.003          44.000
R17  21291933.500 8 113937423.577 8     -3820.766          51.000    21291934.703 7  88617989.604 7     -2971.707          45.000
R18  19230890.062 8 102655771.346 8      -362.301          48.000    19230892.609 8  79843398.280 8      -281.793          50.000
C05                                                                  39711748.836 5 159902755.178 5       -22.848          35.000
C20  25704423.766 7 133849728.323 7      2757.059          42.000
C27  23109653.094 8 120338037.531 8     -2713.402          51.000
C30  22237644.375 5 115797190.455 5       218.148          35.000
E04  26703366.039 6 140327120.811 6      2716.898          38.000    26703373.570 7 107523444.510 7      2081.722          42.000
E12  21707782.180 7 114075170.012 7       569.461          44.000    21707782.383 8  87408249.859 8       436.319          48.000
E19  23920723.227 8 125704246.259 8       542.984          49.000    23920723.734 8  96318848.003 8       416.113          51.000
E33  24686982.297 8 129730959.014 8     -2080.887          49.000    24686983.305 8  99404229.506 8     -1594.416          51.000
