     3.02           OBSERVATION DATA    M (MIXED)           RINEX VERSION / TYPE
SAVERINEX           SC600               20200508 145931 LCL PGM / RUN BY / DATE
       G = GPS       R = GLONASS       C = COMPASS          COMMENT
       S = SBAS      J = QZSS          E = GALILEO          COMMENT
BEAN                                                        MARKER NAME
1                                                           MARKER NUMBER
GEODETIC                                                    MARKER TYPE
Unige DICCA         GTER                                    OBSERVER / AGENCY
SC60291900056       SC600               2.12(191226)        REC # / TYPE / VERS
                    HEMA45          NONE                    ANT # / TYPE
  4509407.8091   693652.4678  4442337.6214                  APPROX POSITION XYZ
        0.0000        0.0000        0.0000                  ANTENNA: DELTA H/E/N
G    8 C1C L1C D1C S1C C2Y L2Y D2Y S2Y                      SYS / # / OBS TYPES
R    8 C1C L1C D1C S1C C2P L2P D2P S2P                      SYS / # / OBS TYPES
C    4 C1I L1I D1I S1I                                      SYS / # / OBS TYPES
E    8 C1C L1C D1C S1C C7Q L7Q D7Q S7Q                      SYS / # / OBS TYPES
DBHZ                                                        COMMENT
     30.000                                                 INTERVAL
  2020    05    08    12    00    0.0000000     GPS         TIME OF FIRST OBS
  2020    05    08    12    59   30.0000000     GPS         TIME OF LAST OBS
     0                                                      RCV CLOCK OFFS APPL
G L1C  0.00000                                              SYS / PHASE SHIFT
G L2Y  0.00000                                              SYS / PHASE SHIFT
R L1C  0.00000                                              SYS / PHASE SHIFT
R L2P  0.25000                                              SYS / PHASE SHIFT
C L1I  0.00000                                              SYS / PHASE SHIFT
E L1C  0.50000                                              SYS / PHASE SHIFT
E L7Q -0.25000                                              SYS / PHASE SHIFT
 14 R01  1 R02 -4 R03  5 R04  6 R10 -5 R12 -1 R13 -2 R14 -7 GLONASS SLOT / FRQ #
    R15  0 R16 -1 R17  4 R18 -3 R19  3 R23  3               GLONASS SLOT / FRQ #
 C1C   71.950 C2C   71.950 C2P   71.950                     GLONASS COD/PHS/BIS
    18                                                      LEAP SECONDS
*** Above antenna height is from mark to ANTENNA BOTTOM.    COMMENT
    17     4        0.0000        ANT MEASURE TYPE/HEIGT    COMMENT
    0.0000    0.0000    0.0458    0.0405    0.0000          COMMENT
                    BASE STATION                            COMMENT
                                                            END OF HEADER
> 2020 05 08 12 00  0.0000000  0 17        .000000000000
G14  24311888.977 6 127759822.340 6     -2538.719          39.000    24311888.352 4  99553156.833 4     -1978.232          27.000
G18  22319573.172 8 117290175.881 8      3221.973          48.000    22319576.086 7  91394918.876 7      2510.628          47.000
G25  21338213.617 7 112133078.506 7     -2122.676          46.000    21338215.758 7  87376431.890 7     -1654.033          46.000
G29  20312393.766 8 106742342.916 8      -720.105          51.000    20312393.203 8  83175873.375 8      -561.124          51.000
R14  22191981.727 7 118295737.320 7     -3684.906          47.000    22191987.328 7  92007785.786 7     -2866.041          46.000
R15  19215134.695 8 102679829.171 8      -667.836          51.000    19215136.578 7  79862107.421 7      -519.428          47.000
R17  19231712.820 8 102912763.347 8     -1132.539          51.000    19231714.430 7  80043277.860 7      -880.864          47.000
R18  20283401.680 8 108274273.322 8      2728.770          49.000    20283403.766 7  84213317.897 7      2122.376          45.000
R24  22575138.773 5 120719359.026 5     -3952.793          34.000    22575142.023 4  93892890.426 4     -3074.398          26.000
C27  25663507.711 4 133636616.951 4     -3094.242          29.000
C29  22363641.883 8 116453443.195 8      1839.844          51.000
C30  21871088.781 8 113888592.335 8     -1256.391          50.000
E01  23502155.961 8 123504667.035 8       197.652          51.000    23502156.016 8  94633447.058 8       151.469          51.000
E13  25421013.781 5 133588330.353 5     -2164.398          34.000
E21  25425253.531 8 133610580.176 8     -2085.879          49.000    25425259.289 8 102376952.207 8     -1598.265          51.000
E26  22534336.000 8 118418710.210 8       603.305          51.000    22534339.625 8  90736454.227 8       462.326          51.000
E33  25898008.891 7 136094943.464 7      2833.887          45.000    25898006.828 7 104280567.992 7      2171.405          45.000
> 2020 05 08 12 00 30.0000000  0 17        .000000000000
G14  24326402.008 6 127836090.104 6     -2542.762          37.000    24326402.906 5  99612586.261 5     -1981.370          30.000
G18  22301211.578 8 117193683.238 8      3213.852          49.000    22301213.930 7  91319729.811 7      2504.300          46.000
G25  21350362.766 7 112196922.271 7     -2130.785          47.000    21350365.766 7  87426180.270 7     -1660.352          46.000
G29  20316545.156 8 106764159.229 8      -731.379          51.000    20316544.797 8  83192873.087 8      -569.906          51.000
R14  22212753.328 8 118406456.288 8     -3693.348          48.000    22212758.359 7  92093900.417 7     -2872.610          45.000
R15  19218948.258 8 102700205.164 8      -687.676          51.000    19218949.586 8  79877955.398 8      -534.859          48.000
R17  19238125.969 8 102947080.801 8     -1152.258          51.000    19238127.625 8  80069969.206 8      -896.201          48.000
R18  20268121.148 8 108192705.354 8      2712.062          51.000    20268123.797 8  84149876.180 8      2109.385          48.000
R24  22597331.039 5 120838029.934 5     -3955.543          32.000    22597333.391 4  93985189.991 4     -3076.536          26.000
C27  25681339.633 4 133729475.506 4     -3092.641          27.000
C29  22353077.359 8 116398430.496 8      1830.562          51.000
C30  21878362.594 8 113926469.438 8     -1265.754          51.000
E01  23501056.367 8 123498889.177 8       190.520          51.000    23501056.695 8  94629019.865 8       145.968          51.000
E13  25433394.766 5 133653390.710 5     -2170.082          33.000
E21  25437183.938 8 133673274.604 8     -2090.770          50.000    25437189.578 8 102424990.810 8     -1601.979          51.000
E26  22530933.305 8 118400827.638 8       591.797          51.000    22530936.383 8  90722752.016 8       453.476          51.000
E33  25881852.086 7 136010040.779 7      2829.285          42.000    25881850.805 7 104215512.735 7      2167.834          46.000
> 2020 05 08 12 01  0.0000000  0 15        .000000000000
G14  24340967.156 6 127912632.880 6     -2565.664          36.000    24340970.148 5  99672229.899 5     -1999.219          32.000
G18  22282924.195 8 117097580.035 8      3187.156          50.000    22282925.391 7  91244844.238 7      2483.501          44.000
G25  21362585.844 7 112261154.169 7     -2157.199          47.000    21362589.289 7  87476231.074 7     -1680.934          47.000
G29  20320789.195 8 106786461.818 8      -761.207          51.000    20320788.742 8  83210251.714 8      -593.148          51.000
R14  22233599.734 8 118517576.027 8     -3720.523          49.000    22233604.789 7  92180326.764 7     -2893.740          45.000
R15  19222901.172 8 102721325.949 8      -726.285          51.000    19222902.023 8  79894382.674 8      -564.888          48.000
R17  19244677.031 8 102982138.229 8     -1190.832          51.000    19244678.664 8  80097236.110 8      -926.203          48.000
R18  20252963.234 8 108111787.871 8      2676.516          51.000    20252966.906 8  84086940.380 8      2081.734          50.000
R24  22619569.914 5 120956951.137 5     -3977.707          31.000    22619570.508 4  94077673.666 4     -3093.772          25.000
C29  22342594.164 8 116343843.148 8      1802.883          51.000
C30  21885718.109 8 113964771.718 8     -1293.426          51.000
E01  23500026.156 8 123493475.462 8       164.664          51.000    23500026.570 8  94624871.691 8       126.111          51.000
E21  25449170.008 8 133736261.921 8     -2114.203          49.000    25449175.328 8 102473253.831 8     -1620.019          51.000
E26  22527624.734 8 118383439.575 8       561.629          51.000    22527627.305 8  90709428.716 8       430.315          51.000
E33  25865746.359 6 135925424.072 6      2806.133          36.000    25865749.711 7 104150676.526 7      2150.040          47.000
> 2020 05 08 12 01 30.0000000  0 16        .000000000000
G14  24355549.109 6 127989262.713 6     -2537.254          38.000    24355553.594 5  99731941.403 5     -1977.081          30.000
G18  22264676.195 8 117001684.074 8      3211.414          50.000    22264675.750 7  91170120.193 7      2502.404          42.000
G25  21374847.469 7 112325588.755 7     -2132.762          47.000    21374850.289 7  87526439.822 7     -1661.892          47.000
G29  20325090.359 8 106809064.472 8      -740.035          51.000    20325089.781 8  83227864.171 8      -576.651          51.000
R14  22254485.469 7 118628907.042 7     -3695.828          47.000    22254490.977 7  92266917.533 7     -2874.533          44.000
R15  19226958.148 8 102743004.134 8      -713.238          51.000    19226958.594 7  79911243.483 7      -554.741          47.000
R17  19251331.086 8 103017744.939 8     -1177.285          51.000    19251332.594 8  80124930.200 8      -915.666          48.000
R18  20237892.102 8 108031334.755 8      2692.660          51.000    20237896.477 8  84024365.723 8      2094.291          50.000
R24  22641819.812 5 121075931.017 5     -3947.875          32.000
C29  22332157.555 8 116289498.423 8      1825.637          51.000
C30  21893119.633 8 114003314.507 8     -1270.492          51.000
E01  23499030.219 8 123488241.798 8       189.816          51.000    23499030.695 8  94620861.467 8       145.405          51.000
E13  25458315.828 5 133784350.556 5     -2169.035          33.000
E21  25461176.898 8 133799357.041 8     -2086.707          51.000    25461181.492 8 102521599.403 8     -1598.881          51.000
E26  22524374.836 8 118366361.079 8       582.449          51.000    22524377.086 8  90696342.580 8       446.271          51.000
E33  25849659.344 6 135840909.800 6      2833.750          37.000    25849668.312 8 104085918.734 8      2171.279          48.000
> 2020 05 08 12 02  0.0000000  0 18        .000000000000
G02  25064479.820 5 131714706.104 5     -2976.672          31.000
G12  23800966.852 5 125074924.866 5     -3099.766          32.000
G14  24370146.930 6 128065974.941 6     -2576.199          39.000    24370151.656 5  99791717.083 5     -2007.437          35.000
G18  22246467.484 8 116905996.165 8      3168.699          49.000    22246466.430 7  91095558.282 7      2469.119          43.000
G25  21387147.273 7 112390223.562 7     -2175.199          46.000    21387149.141 7  87576804.599 7     -1694.963          46.000
G29  20329447.977 8 106831963.707 8      -785.785          51.000    20329447.500 8  83245707.749 8      -612.300          51.000
R14  22275409.898 7 118740445.121 7     -3739.039          47.000    22275415.523 7  92353669.396 7     -2908.145          45.000
R15  19231118.977 8 102765238.440 8      -768.223          51.000    19231119.602 7  79928536.810 7      -597.507          47.000
R17  19258086.625 8 103053896.492 8     -1231.898          51.000    19258088.469 7  80153048.080 7      -958.143          47.000
R18  20222907.023 8 107951345.994 8      2640.801          49.000    20222912.219 8  83962152.255 8      2053.956          50.000
R24  22664079.891 5 121194964.494 5     -3986.902          31.000
C29  22321767.352 8 116235394.825 8      1782.082          51.000
C30  21900566.852 8 114042094.411 8     -1313.914          51.000
E01  23498068.320 8 123483187.072 8       147.898          51.000    23498068.977 8  94616988.356 8       113.388          51.000
E13  25470819.672 5 133850059.837 5     -2210.434          33.000
E21  25473204.438 8 133862557.713 8     -2126.031          51.000    25473207.750 8 102570025.878 8     -1629.061          51.000
E26  22521183.305 8 118349590.154 8       536.438          51.000    22521185.578 8  90683492.106 8       410.956          51.000
E33  25833595.852 7 135756497.149 7      2794.500          42.000    25833605.945 8 104021238.874 8      2141.162          48.000
> 2020 05 08 12 02 30.0000000  0 16        .000000000000
G14  24384793.594 6 128142942.171 6     -2566.348          37.000    24384798.312 4  99851691.486 4     -1999.751          26.000
G18  22228331.766 7 116810694.703 7      3173.570          46.000    22228331.539 7  91021297.446 7      2472.912          45.000
G25  21399518.312 7 112455233.744 7     -2169.840          46.000    21399519.781 7  87627461.862 7     -1690.784          46.000
G29  20333895.281 8 106855334.243 8      -783.605          51.000    20333894.852 8  83263918.557 8      -610.602          51.000
R14  22296406.562 8 118852366.423 8     -3733.688          48.000    22296412.172 7  92440719.207 7     -2903.985          46.000
R15  19235417.344 8 102788207.835 8      -774.625          51.000    19235418.266 7  79946401.881 7      -602.486          47.000
R17  19264977.406 8 103090769.177 8     -1237.734          51.000    19264978.844 8  80181726.819 8      -962.682          48.000
R18  20208042.719 8 107872001.748 8      2637.469          50.000    20208047.820 8  83900440.095 8      2051.365          49.000
R24  22686382.328 4 121314280.783 4     -3975.199          28.000
C29  22311457.297 8 116181706.927 8      1785.883          50.000
C30  21908092.977 8 114081284.139 8     -1309.871          51.000
E01  23497173.977 8 123478487.785 8       153.934          51.000    23497174.969 8  94613387.588 8       117.931          51.000
E13  25483383.812 5 133916085.024 5     -2202.809          32.000
E21  25485285.359 8 133926039.375 8     -2117.492          51.000    25485287.875 8 102618667.642 8     -1622.515          51.000
E26  22518083.461 8 118333302.354 8       538.176          51.000    22518086.219 8  90671011.845 8       412.312          51.000
E33  25817586.531 7 135672363.107 7      2803.000          44.000    25817596.039 8 103956772.532 8      2147.810          48.000
> 2020 05 08 12 03  0.0000000  0 15        .000000000000
G14  24399533.156 5 128220397.673 5     -2581.656          35.000    24399536.914 5  99912046.297 5     -2011.692          34.000
G18  22210314.805 7 116716018.776 7      3153.898          46.000    22210316.180 7  90947524.030 7      2457.586          46.000
G25  21412005.703 7 112520855.181 7     -2188.926          46.000    21412007.250 7  87678595.409 7     -1705.656          46.000
G29  20338476.797 8 106879410.873 8      -805.852          51.000    20338476.328 8  83282679.569 8      -627.936          51.000
R14  22317519.688 8 118964908.735 8     -3752.977          48.000    22317524.875 7  92528252.059 7     -2918.982          46.000
R15  19239898.148 8 102812153.142 8      -805.844          51.000    19239899.172 7  79965025.982 7      -626.770          46.000
R17  19272047.109 8 103128601.083 8     -1268.434          51.000    19272048.781 7  80211151.655 7      -986.559          47.000
R18  20193345.055 8 107793543.939 8      2609.188          51.000    20193349.367 7  83839417.383 7      2029.371          47.000
C29  22301271.969 8 116128669.484 8      1765.527          51.000
C30  21915742.141 8 114121116.406 8     -1330.000          51.000
E01  23496392.445 8 123474381.149 8       135.480          51.000    23496393.727 8  94610240.929 8       103.855          51.000
E13  25496052.000 5 133982657.091 5     -2219.762          31.000
E21  25497464.320 8 133990038.184 8     -2133.445          51.000    25497466.219 8 102667705.627 8     -1634.685          50.000
E26  22515120.414 8 118317734.062 8       515.504          51.000    22515123.734 8  90659082.879 8       394.928          51.000
E33  25801676.047 7 135588745.458 7      2787.125          47.000    25801683.664 7 103892701.885 7      2135.544          47.000
> 2020 05 08 12 03 30.0000000  0 14        .000000000000
G14  24414249.586 5 128297732.879 5     -2580.699          33.000    24414246.898 4  99972259.350 4     -2010.934          28.000
G18  22192302.523 7 116621365.300 7      3149.785          46.000    22192304.969 7  90873768.071 7      2454.381          46.000
G25  21424494.016 7 112586481.532 7     -2192.305          46.000    21424495.672 7  87729732.853 7     -1708.289          46.000
G29  20343077.312 8 106903586.900 8      -812.184          51.000    20343076.938 8  83301518.020 8      -632.870          51.000
R14  22338633.227 7 119077455.350 7     -3756.348          46.000    22338638.164 7  92615788.281 7     -2921.604          46.000
R15  19244446.430 8 102836458.886 8      -821.051          51.000    19244447.570 7  79983930.411 7      -638.595          46.000
R17  19279180.586 8 103166772.960 8     -1282.840          51.000    19279181.969 7  80240840.864 7      -997.764          47.000
R18  20178698.711 8 107715358.864 8      2596.793          51.000    20178702.055 7  83778606.816 7      2019.728          46.000
C29  22291096.500 8 116075682.660 8      1760.742          51.000
C30  21923399.336 8 114160989.541 8     -1334.434          51.000
E01  23495608.633 8 123470262.179 8       132.812          51.000    23495609.859 8  94607084.827 8       101.765          51.000
E21  25509626.039 8 134053948.106 8     -2133.508          51.000    25509627.547 8 102716675.493 8     -1634.808          50.000
E26  22512179.297 8 118302279.390 8       508.566          51.000    22512182.906 8  90647240.966 8       389.675          51.000
E33  25785748.891 8 135505039.720 8      2786.918          49.000    25785753.930 7 103828563.742 7      2135.508          47.000
> 2020 05 08 12 04  0.0000000  0 15        .000000000000
G14  24429000.133 5 128375248.173 5     -2586.609          32.000
G18  22174353.008 7 116527040.439 7      3138.125          46.000    22174356.062 7  90800268.173 7      2445.292          46.000
G25  21437040.508 7 112652415.764 7     -2203.117          45.000    21437043.094 7  87781110.123 7     -1716.715          45.000
G29  20347754.289 8 106928164.393 8      -826.285          51.000    20347754.141 8  83320669.303 8      -643.859          51.000
R14  22359804.789 7 119190311.856 7     -3767.441          47.000    22359809.500 7  92703565.525 7     -2930.232          45.000
R15  19249120.094 8 102861434.117 8      -844.012          51.000    19249121.195 7  80003355.554 7      -656.457          46.000
R17  19286434.508 8 103205591.209 8     -1305.055          51.000    19286436.258 7  80271032.850 7     -1015.043          47.000
R18  20164161.469 8 107637756.384 8      2576.598          51.000    20164164.250 7  83718249.331 7      2004.020          47.000
R24  22753491.281 4 121673142.527 4     -3994.082          29.000
C29  22280989.023 8 116023047.555 8      1748.211          51.000
C30  21931122.055 8 114201202.828 8     -1346.551          51.000
E01  23494880.328 8 123466435.176 8       122.336          51.000    23494881.516 8  94604152.442 8        93.750          51.000
E21  25521828.461 8 134118072.278 8     -2141.359          50.000    25521829.797 8 102765809.548 8     -1640.848          49.000
E26  22509317.609 8 118287241.670 8       493.977          51.000    22509321.516 8  90635718.559 8       378.513          51.000
E33  25769862.773 8 135421550.623 8      2779.031          50.000    25769864.953 7 103764591.622 7      2129.349          46.000
> 2020 05 08 12 04 30.0000000  0 15        .000000000000
G14  24443784.195 5 128452952.396 5     -2591.738          31.000
G18  22156466.438 7 116433045.577 7      3128.461          47.000    22156469.508 7  90727025.428 7      2437.762          47.000
G25  21449645.367 7 112718655.968 7     -2212.355          46.000    21449648.539 7  87832725.834 7     -1723.913          46.000
G29  20352507.219 8 106953140.838 8      -838.375          51.000    20352507.047 8  83340131.467 8      -653.279          51.000
R14  22381034.414 8 119303475.025 8     -3776.363          48.000    22381038.352 7  92791581.244 7     -2937.174          46.000
R15  19253918.953 8 102887077.754 8      -865.102          51.000    19253919.961 7  80023300.580 7      -672.857          47.000
R17  19293808.758 8 103245051.835 8     -1325.160          51.000    19293810.305 7  80301724.423 7     -1030.680          46.000
R18  20149732.711 8 107560737.348 8      2558.422          49.000    20149735.961 8  83658345.600 8      1989.881          48.000
R24  22775911.695 5 121793034.836 5     -3997.520          32.000
C29  22270948.820 8 115970763.360 8      1737.781          51.000
C30  21938909.234 8 114241753.479 8     -1356.406          51.000
E01  23494207.438 8 123462899.651 8       113.766          51.000    23494208.719 8  94601443.392 8        87.195          51.000
E21  25534071.211 8 134182409.172 8     -2147.352          49.000    25534072.469 8 102815106.609 8     -1645.382          49.000
E26  22506535.000 8 118272619.513 8       481.293          51.000    22506539.273 8  90624514.569 8       368.750          51.000
E33  25754017.359 8 135338278.218 8      2772.957          50.000    25754016.789 7 103700785.552 7      2124.623          46.000
> 2020 05 08 12 05  0.0000000  0 15        .000000000000
G14  24458592.305 5 128530769.005 5     -2591.938          32.000
G18  22138634.102 8 116339335.914 8      3122.539          48.000    22138636.984 7  90654004.917 7      2433.147          47.000
G25  21462299.562 7 112785154.147 7     -2217.156          46.000    21462302.516 7  87884542.573 7     -1727.654          46.000
G29  20357326.867 8 106978467.304 8      -846.504          51.000    20357326.430 8  83359866.372 8      -659.613          51.000
R14  22402312.055 7 119416894.311 7     -3781.117          47.000    22402314.977 7  92879796.135 7     -2940.872          44.000
R15  19258834.031 8 102913341.825 8      -882.176          51.000    19258835.172 8  80043728.183 8      -686.137          48.000
R17  19301293.469 8 103285103.873 8     -1341.215          51.000    19301295.000 7  80332876.025 7     -1043.167          47.000
R18  20135404.234 8 107484254.718 8      2544.117          50.000    20135408.375 8  83598859.092 8      1978.758          48.000
R24  22798378.727 5 121913068.628 5     -3996.992          34.000
C29  22260966.773 8 115918783.427 8      1731.172          51.000
C30  21946751.773 8 114282592.991 8     -1362.543          51.000
E01  23493581.195 8 123459608.893 8       109.176          51.000    23493582.734 8  94598921.888 8        83.687          51.000
E21  25546344.977 7 134246911.048 7     -2149.211          47.000    25546346.461 8 102864530.089 8     -1646.849          49.000
E26  22503822.438 8 118258365.302 8       472.523          51.000    22503827.141 8  90613592.512 8       362.081          51.000
E33  25738204.109 8 135255176.275 8      2770.789          51.000    25738201.039 7 103637110.081 7      2123.138          47.000
> 2020 05 08 12 05 30.0000000  0 16        .000000000000
G12  23924979.109 5 125726626.396 5     -3118.906          31.000
G14  24473429.266 6 128608735.464 6     -2603.141          36.000
G18  22120861.750 7 116245941.291 7      3105.953          47.000    22120864.305 7  90581229.919 7      2420.223          47.000
G25  21475008.141 7 112851936.934 7     -2232.820          46.000    21475010.773 7  87936581.076 7     -1739.860          46.000
G29  20362217.914 8 107004169.577 8      -864.977          51.000    20362217.477 8  83379894.128 8      -674.008          51.000
R14  22423641.484 7 119530595.162 7     -3796.676          47.000    22423644.539 7  92968229.990 7     -2952.976          45.000
R15  19263870.359 8 102940254.248 8      -909.887          51.000    19263871.758 8  80064660.074 8      -707.690          48.000
R17  19308893.227 8 103325772.300 8     -1367.961          51.000    19308895.008 7  80364507.034 7     -1063.970          46.000
R18  20121182.430 8 107408337.771 8      2519.172          51.000    20121186.812 8  83539812.611 8      1959.356          48.000
R24  22820835.828 5 122033161.059 5     -4007.012          35.000
C29  22251048.242 8 115867134.996 8      1714.180          51.000
C30  21954654.945 8 114323746.766 8     -1378.938          51.000
E01  23493006.969 8 123456590.858 8        94.105          51.000    23493008.766 8  94596609.362 8        72.065          51.000
E21  25558655.375 8 134311604.771 8     -2161.617          48.000    25558657.266 8 102914100.565 8     -1656.304          50.000
E26  22501185.023 8 118244505.997 8       453.445          51.000    22501189.930 8  90602973.049 8       347.442          51.000
E33  25722428.680 8 135172273.215 8      2758.148          51.000    25722424.055 7 103573587.004 7      2113.401          47.000
> 2020 05 08 12 06  0.0000000  0 15        .000000000000
G14  24488305.086 6 128686905.895 6     -2607.746          38.000
G18  22103160.914 8 116152921.665 8      3095.734          48.000    22103162.820 7  90508747.145 7      2412.264          46.000
G25  21487781.680 7 112919061.036 7     -2241.781          46.000    21487784.172 7  87988885.546 7     -1746.846          47.000
G29  20367191.062 8 107030303.836 8      -877.039          51.000    20367190.789 8  83400258.495 8      -683.407          51.000
R14  22445034.438 8 119644633.610 8     -3805.590          48.000    22445038.383 7  93056926.487 7     -2959.903          47.000
R15  19269039.062 8 102967873.823 8      -931.098          51.000    19269040.648 8  80086141.974 8      -724.187          48.000
R17  19316618.945 8 103367112.825 8     -1387.906          50.000    19316620.250 7  80396660.764 7     -1079.483          46.000
R18  20107078.570 8 107333046.265 8      2500.625          51.000    20107082.383 8  83481252.593 8      1944.934          48.000
R24  22843325.016 5 122153429.478 5     -4010.469          35.000
C29  22241204.219 8 115815875.364 8      1703.570          51.000
C30  21962629.117 8 114365270.212 8     -1388.906          51.000
E01  23492495.672 8 123453903.674 8        85.449          51.000    23492497.648 8  94594550.341 8        65.468          51.000
E21  25571013.672 8 134376547.354 8     -2167.520          50.000    25571016.047 8 102963861.751 8     -1660.836          51.000
E26  22498633.633 8 118231098.834 8       440.711          51.000    22498638.555 8  90592700.032 8       337.762          51.000
E33  25706702.062 8 135089627.639 8      2751.906          51.000    25706697.570 8 103510261.213 8      2108.639          49.000
> 2020 05 08 12 06 30.0000000  0 15        .000000000000
G14  24503209.500 5 128765225.599 5     -2613.020          34.000
G18  22085522.211 8 116060228.045 8      3084.520          48.000    22085523.266 7  90436518.393 7      2403.525          46.000
G25  21500610.156 7 112986474.227 7     -2251.770          45.000    21500611.977 7  88041415.275 7     -1754.626          45.000
G29  20372236.328 8 107056817.050 8      -889.867          51.000    20372236.094 8  83420918.136 8      -693.403          51.000
R14  22466480.430 7 119758954.839 7     -3815.141          46.000    22466485.406 8  93145842.933 8     -2967.335          48.000
R15  19274330.102 8 102996148.114 8      -953.199          51.000    19274331.781 8  80108133.081 8      -741.377          48.000
R17  19324459.586 8 103409070.171 8     -1408.594          50.000    19324461.094 7  80429294.269 7     -1095.573          47.000
R18  20093082.469 8 107258329.370 8      2481.137          51.000    20093085.297 8  83423139.495 8      1929.773          48.000
R24  22865837.398 6 122273818.074 6     -4014.469          37.000
C29  22231424.852 8 115764953.682 8      1691.941          50.000
C30  21970664.039 8 114407110.585 8     -1399.707          51.000
E01  23492037.539 8 123451496.442 8        75.828          51.000    23492039.422 8  94592705.839 8        58.072          51.000
E21  25583409.609 8 134441686.780 8     -2174.336          50.000    25583412.234 8 103013773.774 8     -1666.077          51.000
E26  22496158.477 8 118218091.964 8       427.113          51.000    22496163.414 8  90582733.729 8       327.269          51.000
E33  25691014.680 8 135007189.142 8      2744.734          51.000    25691011.422 8 103447094.088 8      2103.090          50.000
> 2020 05 08 12 07  0.0000000  0 14        .000000000000
G18  22067938.656 7 115967825.706 7      3079.742          47.000    22067939.383 7  90364516.615 7      2399.799          47.000
G25  21513486.148 7 113054138.551 7     -2255.020          45.000    21513487.914 7  88094140.690 7     -1757.158          45.000
G29  20377346.281 8 107083670.384 8      -896.211          51.000    20377346.086 8  83441842.812 8      -698.346          51.000
R14  22487971.641 7 119873518.898 7     -3818.262          45.000    22487977.797 8  93234948.280 8     -2969.759          48.000
R15  19279736.570 8 103025039.369 8      -968.672          51.000    19279738.109 7  80130604.049 7      -753.411          47.000
R17  19332408.008 8 103451603.416 8     -1422.672          49.000    19332409.609 7  80462375.682 7     -1106.523          46.000
R18  20079186.445 8 107184150.799 8      2468.246          50.000    20079189.086 8  83365445.057 8      1919.747          49.000
R24  22888364.953 6 122394285.759 6     -4012.234          36.000
C29  22221703.281 8 115714333.291 8      1686.793          50.000
C30  21978752.648 8 114449229.416 8     -1404.121          51.000
E01  23491625.727 8 123449332.568 8        72.672          51.000    23491627.242 8  94591047.811 8        55.630          51.000
E21  25595835.555 8 134506985.483 8     -2174.734          49.000    25595838.336 8 103063807.829 8     -1666.295          51.000
E26  22493752.328 8 118205447.772 8       420.031          51.000    22493757.281 8  90573045.349 8       321.827          51.000
E33  25675359.562 8 134924921.559 8      2743.992          51.000    25675357.984 8 103384057.923 8      2102.513          51.000
> 2020 05 08 12 07 30.0000000  0 14        .000000000000
G18  22050413.250 7 115875731.230 7      3060.734          47.000    22050414.352 7  90292754.662 7      2384.988          47.000
G25  21526412.484 7 113122067.280 7     -2272.547          45.000    21526414.188 7  88147072.187 7     -1770.816          45.000
G29  20382523.430 8 107110876.493 8      -916.555          51.000    20382523.336 8  83463042.364 8      -714.198          51.000
R14  22509510.148 7 119988337.511 7     -3835.332          45.000    22509517.516 7  93324251.625 7     -2983.036          45.000
R15  19285261.117 8 103054561.725 8      -998.512          51.000    19285262.625 7  80153565.833 7      -776.623          46.000
R17  19340465.828 8 103494724.152 8     -1451.031          50.000    19340467.570 7  80495914.026 7     -1128.580          46.000
R18  20065393.242 8 107110526.105 8      2441.055          50.000    20065396.539 8  83308181.363 8      1898.595          49.000
R24  22910909.008 5 122514843.426 5     -4023.730          35.000
C29  22212042.258 8 115664028.258 8      1667.848          50.000
C30  21986897.016 8 114491638.970 8     -1422.238          51.000
E01  23491263.180 8 123447426.715 8        55.379          51.000    23491264.266 8  94589587.476 8        42.388          51.000
E21  25608294.320 8 134572457.031 8     -2189.027          49.000    25608297.227 8 103113974.284 8     -1677.325          50.000
E26  22491417.906 8 118193180.040 8       398.758          51.000    22491422.344 8  90563645.403 8       305.566          51.000
E33  25659739.773 8 134842840.101 8      2729.082          51.000    25659739.977 8 103321164.359 8      2091.106          51.000
> 2020 05 08 12 08  0.0000000  0 14        .000000000000
G18  22032968.570 8 115784060.602 8      3050.773          48.000    22032970.156 7  90221323.015 7      2377.226          46.000
G25  21539410.281 7 113190373.352 7     -2280.906          43.000    21539412.500 7  88200297.692 7     -1777.330          43.000
G29  20387789.125 8 107138547.452 8      -927.840          51.000    20387788.961 8  83484604.152 8      -722.989          51.000
R14  22531118.523 7 120103523.715 7     -3843.398          46.000    22531125.297 7  93413840.850 7     -2989.313          42.000
R15  19290925.242 8 103084831.143 8     -1019.125          51.000    19290926.805 7  80177108.654 7      -792.653          46.000
R17  19348654.953 8 103538545.085 8     -1469.984          50.000    19348656.867 7  80529996.959 7     -1143.321          46.000
R18  20051725.945 8 107037572.055 8      2422.875          51.000    20051729.477 8  83251439.332 8      1884.461          49.000
R24  22933491.062 5 122635603.518 5     -4026.609          35.000
C29  22202464.008 8 115614151.441 8      1657.621          51.000
C30  21995118.469 8 114534450.191 8     -1431.582          51.000
E01  23490971.469 8 123445893.096 8        47.176          51.000    23490972.500 8  94588412.376 8        36.079          51.000
E21  25620807.523 8 134638214.488 8     -2194.457          49.000    25620810.688 8 103164359.864 8     -1681.500          49.000
E26  22489176.648 8 118181401.959 8       386.633          51.000    22489180.352 8  90554620.661 8       296.224          51.000
E33  25644176.789 8 134761059.400 8      2723.188          51.000    25644178.891 8 103258501.251 8      2086.592          51.000
> 2020 05 08 12 08 30.0000000  0 14        .000000000000
G18  22015584.555 8 115692707.246 8      3038.957          49.000    22015586.484 7  90150138.603 7      2368.018          46.000
G25  21552459.266 7 113258946.895 7     -2291.043          44.000    21552461.969 7  88253731.585 7     -1785.231          44.000
G29  20393122.281 8 107166572.902 8      -940.957          51.000    20393121.789 8  83506442.151 8      -733.213          51.000
R14  22552774.664 7 120218964.245 7     -3853.031          46.000    22552779.320 6  93503627.763 6     -2996.808          40.000
R15  19296708.594 8 103115736.291 8     -1041.609          51.000    19296709.820 7  80201145.971 7      -810.144          47.000
R17  19356953.508 8 103582952.309 8     -1490.867          50.000    19356955.438 7  80564535.911 7     -1159.563          45.000
R18  20038164.219 8 106965179.063 8      2402.867          51.000    20038167.648 8  83195133.714 8      1868.900          49.000
R24  22956089.953 5 122756451.741 5     -4031.105          34.000
C29  22192947.633 8 115564594.939 8      1645.785          51.000
C30  22003396.227 8 114577553.341 8     -1442.457          51.000
E01  23490729.805 8 123444623.276 8        37.062          51.000    23490731.023 8  94587439.389 8        28.428          51.000
E21  25633354.242 8 134704148.294 8     -2201.512          49.000    25633357.758 8 103214880.567 8     -1686.915          50.000
E26  22487007.719 8 118170004.066 8       372.770          51.000    22487010.922 8  90545887.235 8       285.614          51.000
E33  25628650.000 8 134679471.477 8      2715.539          50.000    25628653.875 8 103195985.841 8      2080.741          51.000
> 2020 05 08 12 09  0.0000000  0 15        .000000000000
G18  21998267.641 8 115601705.201 8      3027.598          49.000    21998269.578 7  90079227.940 7      2359.167          45.000
G25  21565565.273 7 113327818.723 7     -2300.676          44.000    21565567.703 7  88307397.911 7     -1792.737          45.000
G29  20398528.516 8 107194982.684 8      -953.348          51.000    20398527.914 8  83528579.645 8      -742.868          51.000
G31  21136498.586 5 111073056.776 5       142.234          32.000
R14  22574484.836 8 120334688.825 8     -3862.133          48.000    22574485.930 6  93593635.618 6     -3003.884          39.000
R15  19302616.609 8 103147309.443 8     -1063.457          49.000    19302618.750 8  80225702.849 8      -827.133          48.000
R17  19365367.211 8 103627974.772 8     -1510.930          49.000    19365368.930 7  80599553.389 7     -1175.168          45.000
R18  20024713.875 8 106893380.629 8      2383.445          50.000    20024717.641 8  83139290.540 8      1853.794          49.000
R24  22978711.148 5 122877416.822 5     -4034.316          35.000
C29  22183498.602 8 115515390.146 8      1634.352          51.000
C30  22011735.633 8 114620978.045 8     -1452.820          51.000
E01  23490544.359 8 123443649.378 8        27.562          51.000    23490545.797 8  94586693.155 8        21.110          51.000
E21  25645940.297 8 134770289.577 8     -2208.113          48.000    25645944.406 8 103265560.206 8     -1691.946          50.000
E26  22484917.133 8 118159017.558 8       359.359          51.000    22484919.633 8  90537469.042 8       275.341          51.000
E33  25613165.945 8 134598108.997 8      2708.328          50.000    25613171.305 8 103133643.168 8      2075.254          51.000
> 2020 05 08 12 09 30.0000000  0 15        .000000000000
G18  21981014.930 8 115511040.739 8      3016.336          48.000    21981016.383 7  90008580.295 7      2350.392          45.000
G25  21578724.984 7 113396971.903 7     -2310.090          46.000    21578726.836 7  88361283.457 7     -1800.070          46.000
G29  20404004.539 8 107223759.325 8      -965.566          51.000    20404004.102 8  83551002.992 8      -752.389          51.000
G31  21135743.273 6 111069075.556 6       122.512          37.000    21135742.250 6  86547316.578 6        95.461          37.000
R14  22596245.391 8 120450678.798 8     -3871.070          48.000    22596244.633 6  93683849.969 6     -3010.836          40.000
R15  19308646.367 7 103179534.108 7     -1085.270          47.000    19308649.758 8  80250766.489 8      -844.095          50.000
R17  19373891.992 8 103673593.234 8     -1530.617          49.000    19373893.766 7  80635034.419 7     -1190.480          45.000
R18  20011372.062 8 106822161.662 8      2364.035          51.000    20011376.281 8  83083898.031 8      1838.694          49.000
R24  23001350.727 5 122998479.205 5     -4037.379          35.000
C29  22174114.031 8 115466521.209 8      1623.215          51.000
C30  22020133.289 8 114664706.598 8     -1462.832          51.000
E01  23490412.375 8 123442955.814 8        18.199          51.000    23490413.883 8  94586161.717 8        13.954          51.000
E21  25658563.164 8 134836621.647 8     -2214.551          49.000    25658566.570 8 103316386.003 8     -1696.720          48.000
E26  22482901.750 8 118148425.816 8       346.227          51.000    22482903.172 8  90529353.327 8       265.234          51.000
E33  25597722.734 8 134516956.800 8      2701.375          50.000    25597728.617 8 103071461.611 8      2069.846          51.000
> 2020 05 08 12 10  0.0000000  0 15        .000000000000
G18  21963839.000 8 115420780.763 8      3001.871          48.000    21963839.977 7  89938247.857 7      2339.120          45.000
G25  21591950.359 7 113466470.093 7     -2322.410          46.000    21591951.547 7  88415437.878 7     -1809.667          46.000
G29  20409562.227 8 107252965.626 8      -980.820          51.000    20409561.789 8  83573761.133 8      -764.276          51.000
G31  21135108.961 6 111065735.832 6       100.727          39.000    21135108.383 5  86544714.240 5        78.491          31.000
R14  22618067.391 8 120566997.101 8     -3882.879          48.000    22618066.336 7  93774319.689 7     -3020.020          42.000
R15  19314810.672 8 103212475.468 8     -1110.105          48.000    19314814.797 8  80276387.580 8      -863.415          51.000
R17  19382540.156 8 103719870.452 8     -1553.668          49.000    19382541.844 7  80671027.805 7     -1208.408          45.000
R18  19998151.375 8 106751588.820 8      2341.387          51.000    19998155.828 8  83029008.017 8      1821.079          49.000
R24  23024020.578 5 123119701.376 5     -4043.508          34.000
C29  22164806.320 8 115418052.234 8      1608.727          51.000
C30  22028601.344 8 114708801.277 8     -1476.105          51.000
E01  23490346.352 8 123442607.683 8         5.648          51.000    23490347.680 8  94585894.973 8         4.292          51.000
E21  25671234.859 8 134903208.497 8     -2223.895          51.000    25671236.805 8 103367407.066 8     -1704.017          48.000
E26  22480973.641 8 118138292.940 8       330.031          51.000    22480974.352 8  90521589.199 8       252.848          51.000
E33  25582332.891 8 134436080.406 8      2691.164          51.000    25582338.312 8 103009491.406 8      2062.064          51.000
> 2020 05 08 12 10 30.0000000  0 15        .000000000000
G18  21946720.484 7 115330822.089 7      2994.078          47.000    21946720.609 7  89868150.209 7      2333.051          44.000
G25  21605220.750 7 113536206.977 7     -2328.027          45.000    21605222.422 7  88469778.281 7     -1814.047          45.000
G29  20415181.312 8 107282494.566 8      -989.215          51.000    20415180.742 8  83596770.690 8      -770.817          51.000
G31  21134574.961 6 111062924.211 6        85.258          40.000    21134572.398 5  86542523.340 5        66.438          34.000
R14  22639929.891 7 120683534.090 7     -3887.633          46.000    22639930.023 7  93864959.505 7     -3023.717          43.000
R15  19321089.016 8 103246026.111 8     -1128.059          49.000    19321093.828 8  80302482.538 8      -877.379          50.000
R17  19391290.758 7 103766695.853 7     -1569.547          47.000    19391292.211 7  80707447.565 7     -1220.759          44.000
R18  19985031.922 8 106681555.874 8      2325.855          50.000    19985036.258 8  82974537.960 8      1808.999          49.000
R24  23046699.781 5 123240972.502 5     -4043.195          33.000
C29  22155554.953 8 115369878.718 8      1601.320          51.000
C30  22037119.172 8 114753155.764 8     -1482.363          51.000
E01  23490326.031 8 123442499.965 8         -.055          51.000    23490327.125 8  94585812.442 8          .003          51.000
E21  25683934.633 8 134969944.027 8     -2226.559          50.000    25683935.477 8 103418542.061 8     -1706.112          48.000
E26  22479112.586 8 118128512.906 8       320.539          51.000    22479113.125 8  90514095.418 8       245.593          51.000
E33  25566976.164 8 134355375.308 8      2687.719          51.000    25566980.352 8 102947652.457 8      2059.400          51.000
> 2020 05 08 12 11  0.0000000  0 15        .000000000000
G18  21929671.188 7 115241227.776 7      2977.992          47.000    21929670.648 7  89798336.504 7      2320.516          44.000
G25  21618547.984 7 113606242.364 7     -2341.797          44.000    21618550.258 7  88524351.301 7     -1824.774          44.000
G29  20420873.211 8 107312405.189 8     -1005.695          51.000    20420872.422 8  83620077.671 8      -783.659          51.000
G31  21134152.352 6 111060701.382 6        62.219          37.000    21134149.508 5  86540791.288 5        48.485          35.000
R14  22661844.164 7 120800348.697 7     -3900.770          45.000    22661845.570 7  93955815.258 7     -3033.932          44.000
R15  19327493.328 8 103280247.484 8     -1154.316          50.000    19327498.109 8  80329099.158 8      -897.799          49.000
R17  19400154.445 8 103814127.951 8     -1593.543          48.000    19400156.023 7  80744339.188 7     -1239.422          45.000
R18  19972025.469 8 106612125.757 8      2301.934          50.000    19972029.812 8  82920536.788 8      1790.396          50.000
R24  23069399.211 5 123362351.203 5     -4049.902          30.000
C29  22146371.555 8 115322060.826 8      1585.641          50.000
C30  22045697.969 8 114797828.459 8     -1496.715          51.000
E01  23490362.828 8 123442693.878 8       -13.895          51.000    23490363.938 8  94585961.031 8       -10.703          51.000
E21  25696673.156 7 135036888.295 7     -2237.332          47.000    25696674.641 8 103469836.998 8     -1714.310          50.000
E26  22477329.977 8 118119145.879 8       303.000          51.000    22477330.883 8  90506918.108 8       232.160          51.000
E33  25551663.812 8 134274903.093 8      2676.090          51.000    25551666.578 8 102885991.963 8      2050.573          51.000
> 2020 05 08 12 11 30.0000000  0 15        .000000000000
G18  21912690.148 7 115151992.906 7      2969.137          47.000    21912689.953 7  89728802.872 7      2313.616          46.000
G25  21631930.750 7 113676568.174 7     -2348.434          44.000    21631933.016 7  88579150.618 7     -1829.948          43.000
G29  20426636.008 8 107342688.611 8     -1014.891          51.000    20426635.047 8  83643675.143 8      -790.824          51.000
G31  21133839.727 5 111059060.033 5        45.691          35.000    21133836.688 5  86539512.236 5        35.601          34.000
R14  22683808.445 7 120917431.113 7     -3906.391          46.000    22683811.086 7  94046879.237 7     -3038.307          45.000
R15  19334021.734 8 103315132.170 8     -1173.113          50.000    19334026.188 8  80356231.686 8      -912.421          48.000
R17  19409129.797 7 103862156.381 7     -1610.137          47.000    19409131.453 7  80781694.640 7     -1252.326          44.000
R18  19959130.805 8 106543292.257 8      2285.273          50.000    19959134.883 8  82866999.617 8      1777.435          49.000
R24  23092116.375 4 123483919.925 4     -4050.410          29.000
C29  22137255.289 8 115274591.414 8      1577.191          51.000
C30  22054336.344 8 114842810.478 8     -1503.875          51.000
E01  23490455.609 8 123443182.632 8       -20.504          51.000    23490457.086 8  94586335.513 8       -15.705          51.000
E21  25709449.094 7 135104033.475 7     -2240.750          45.000    25709452.172 8 103521285.872 8     -1716.950          50.000
E26  22475624.453 8 118110184.060 8       292.707          51.000    22475625.961 8  90500051.258 8       224.267          51.000
E33  25536394.281 8 134194657.533 8      2671.750          51.000    25536396.047 8 102824505.134 8      2047.197          51.000
> 2020 05 08 12 12  0.0000000  0 15        .000000000000
G12  24158420.328 5 126953352.094 5     -3170.859          30.000
G18  21895800.594 8 115063238.431 8      2958.066          48.000    21895801.289 7  89659643.580 7      2304.990          47.000
G25  21645391.211 7 113747302.170 7     -2356.766          46.000    21645393.477 7  88634267.957 7     -1836.441          46.000
G29  20432491.969 8 107373461.688 8     -1026.215          51.000    20432490.969 8  83667654.172 8      -799.648          51.000
G31  21133659.844 5 111058118.981 5        27.102          34.000    21133657.180 5  86538778.973 5        21.115          32.000
R14  22705845.039 7 121034899.388 7     -3914.289          46.000    22705848.719 7  94138243.328 7     -3044.450          44.000
R15  19340696.289 8 103350800.324 8     -1194.145          50.000    19340700.938 7  80383973.536 7      -928.782          47.000
R17  19418238.172 8 103910898.928 8     -1628.707          48.000    19418239.648 7  80819605.484 7     -1266.775          43.000
R18  19946370.641 8 106475176.869 8      2266.398          51.000    19946374.203 8  82814021.006 8      1762.754          48.000
C29  22128228.758 8 115227588.111 8      1566.633          51.000
C30  22063056.414 8 114888217.625 8     -1512.984          51.000
E01  23490627.367 8 123444085.387 8       -29.352          51.000    23490629.289 8  94587027.218 8       -22.481          51.000
E21  25722286.203 7 135171497.666 7     -2246.516          47.000    25722290.188 8 103572979.165 8     -1721.296          50.000
E26  22474018.492 8 118101745.564 8       280.230          51.000    22474020.516 8  90493585.397 8       214.731          51.000
E33  25521190.211 8 134114758.245 8      2665.172          51.000    25521191.453 8 102763283.638 8      2042.169          51.000
> 2020 05 08 12 12 30.0000000  0 14        .000000000000
G18  21878954.281 8 114974708.391 8      2944.207          50.000    21878955.172 7  89590659.173 7      2294.190          47.000
G25  21658880.180 7 113818185.183 7     -2368.363          47.000    21658881.648 7  88689501.464 7     -1845.478          47.000
G29  20438391.789 8 107404465.040 8     -1040.246          51.000    20438390.789 8  83691812.632 8      -810.578          51.000
G31  21133564.469 6 111057620.004 6         6.438          37.000    21133561.797 6  86538390.240 6         5.022          36.000
R14  22727904.281 7 121152488.760 7     -3924.449          45.000    22727908.414 7  94229701.673 7     -3052.349          43.000
R15  19347468.656 8 103386989.033 8     -1218.059          51.000    19347472.992 7  80412120.272 7      -947.379          46.000
R17  19427430.766 7 103960089.207 7     -1650.176          46.000    19427432.383 7  80857864.600 7     -1283.470          43.000
R18  19933696.055 8 106407518.307 8      2244.586          51.000    19933698.602 7  82761397.715 7      1745.789          47.000
C29  22119242.469 8 115180795.010 8      1553.312          50.000
C30  22071808.344 8 114933792.199 8     -1524.949          51.000
E01  23490829.023 8 123445144.305 8       -40.891          51.000    23490830.898 8  94587838.605 8       -31.302          51.000
E21  25735136.086 8 135239021.880 8     -2254.820          50.000    25735139.883 8 103624718.472 8     -1727.734          50.000
E26  22472462.750 8 118093571.526 8       265.070          51.000    22472465.219 8  90487322.163 8       203.082          51.000
E33  25506002.625 8 134034947.830 8      2655.801          49.000    25506003.602 8 102702130.235 8      2035.000          51.000
> 2020 05 08 12 13  0.0000000  0 14        .000000000000
G18  21862181.453 8 114886563.284 8      2931.492          51.000    21862182.078 7  89521974.705 7      2284.283          47.000
G25  21672427.211 7 113889374.474 7     -2378.344          46.000    21672428.898 7  88744973.595 7     -1853.258          46.000
G29  20444365.055 8 107435854.830 8     -1053.012          51.000    20444364.156 8  83716272.186 8      -820.529          51.000
G31  21133583.969 6 111057720.774 6       -13.363          38.000    21133581.227 6  86538468.742 6       -10.410          37.000
R14  22750015.172 7 121270357.358 7     -3933.934          42.000    22750019.875 7  94321377.151 7     -3059.729          42.000
R15  19354368.508 8 103423858.702 8     -1240.520          51.000    19354372.016 7  80440796.618 7      -964.849          46.000
R17  19436735.898 7 104009885.262 7     -1670.117          47.000    19436737.852 7  80896594.862 7     -1298.980          42.000
R18  19921137.227 8 106340478.172 8      2224.066          51.000    19921139.812 8  82709255.414 8      1729.829          49.000
C29  22110326.727 8 115134368.907 8      1541.223          50.000
C30  22080622.320 8 114979689.208 8     -1535.504          51.000
E01  23491090.492 8 123446518.107 8       -51.273          51.000    23491092.266 8  94588891.243 8       -39.269          51.000
E21  25748028.016 8 135306763.762 8     -2261.969          51.000    25748030.961 8 103676624.568 8     -1733.221          50.000
E26  22470987.430 8 118085819.604 8       251.082          51.000    22470990.438 8  90481382.357 8       192.397          51.000
E33  25490861.859 8 133955385.453 8      2647.734          48.000    25490862.641 8 102641166.875 8      2028.736          51.000
> 2020 05 08 12 13 30.0000000  0 15        .000000000000
G18  21845480.500 8 114798796.951 8      2919.227          51.000    21845480.789 7  89453585.380 7      2274.722          47.000
G25  21686030.031 7 113960860.818 7     -2388.012          43.000    21686032.445 7  88800677.203 7     -1860.788          43.000
G29  20450409.891 8 107467621.091 8     -1065.238          51.000    20450409.180 8  83741025.113 8      -830.056          51.000
G31  21133715.094 5 111058413.173 5       -32.535          34.000    21133712.836 5  86539008.206 5       -25.370          32.000
R14  22772175.148 6 121388493.745 6     -3942.617          38.000    22772181.656 7  94413260.912 7     -3066.483          42.000
R15  19361394.359 8 103461400.390 8     -1262.562          51.000    19361397.305 8  80469995.688 8      -981.993          48.000
R17  19446152.391 7 104060275.474 7     -1689.605          47.000    19446154.586 6  80935787.260 6     -1314.138          41.000
R18  19908692.844 8 106274048.898 8      2204.051          51.000    19908696.242 8  82657588.229 8      1714.262          50.000
R24  23183135.242 5 123970642.109 5     -4062.406          30.000
C29  22101479.828 8 115088301.441 8      1529.582          51.000
C30  22089496.508 8 115025898.585 8     -1545.484          51.000
E01  23491410.352 8 123448198.823 8       -61.191          51.000    23491412.008 8  94590179.054 8       -46.890          51.000
E21  25760959.539 8 135374714.260 8     -2268.520          51.000    25760962.281 8 103728690.490 8     -1738.246          51.000
E26  22469590.883 8 118078480.742 8       237.742          51.000    22469594.180 8  90475759.073 8       182.145          51.000
E33  25475766.617 7 133876063.611 7      2639.984          47.000    25475767.156 8 102580387.823 8      2022.923          49.000
> 2020 05 08 12 14  0.0000000  0 15        .000000000000
G18  21828847.297 8 114711389.561 8      2906.426          49.000    21828847.891 8  89385475.744 8      2264.750          48.000
G25  21699684.727 7 114032621.024 7     -2397.523          43.000    21699688.031 7  88856594.265 7     -1868.197          43.000
G29  20456521.914 8 107499740.283 8     -1077.516          51.000    20456521.305 8  83766053.045 8      -839.623          51.000
G31  21133955.477 6 111059674.982 6       -52.738          38.000    21133952.688 5  86539991.450 5       -41.095          34.000
R14  22794379.500 5 121506872.799 5     -3950.438          35.000    22794389.406 7  94505333.522 7     -3072.559          42.000
R15  19368541.562 8 103499591.029 8     -1284.902          51.000    19368544.297 8  80499699.492 8      -999.368          49.000
R17  19455675.180 7 104111233.834 7     -1708.996          47.000    19455677.070 6  80975421.520 6     -1329.219          41.000
R18  19896358.742 8 106208209.077 8      2183.797          51.000    19896362.594 8  82606379.472 8      1698.509          49.000
R24  23205949.359 5 124092638.864 5     -4066.344          30.000
C29  22092697.867 8 115042570.612 8      1517.750          51.000
C30  22098425.977 8 115072396.552 8     -1555.680          51.000
E01  23491784.500 8 123450164.704 8       -71.242          51.000    23491786.086 8  94591685.369 8       -54.573          51.000
E21  25773926.141 8 135442850.567 8     -2275.266          51.000    25773928.812 8 103780898.783 8     -1743.352          51.000
E26  22468268.719 8 118071532.186 8       224.184          51.000    22468271.781 8  90470434.844 8       171.777          51.000
E33  25460713.336 8 133796960.970 8      2632.137          48.000    25460713.570 8 102519776.756 8      2016.811          49.000
> 2020 05 08 12 14 30.0000000  0 14        .000000000000
G18  21812282.867 8 114624345.359 8      2895.512          49.000    21812283.984 7  89317649.097 7      2256.243          47.000
G25  21713392.445 7 114104656.262 7     -2405.410          43.000    21713396.148 7  88912725.662 7     -1874.343          43.000
G29  20462701.086 8 107532212.435 8     -1088.141          51.000    20462700.375 8  83791356.025 8      -847.902          51.000
G31  21134304.703 6 111061507.940 6       -70.535          38.000    21134302.016 6  86541419.789 6       -54.959          36.000
R14  22816633.875 6 121625494.223 6     -3957.613          36.000    22816643.273 7  94597594.660 7     -3078.144          43.000
R15  19375810.742 8 103538432.289 8     -1305.461          51.000    19375813.008 8  80529909.373 8     -1015.359          49.000
R17  19465304.070 7 104162759.401 7     -1726.836          47.000    19465306.664 6  81015496.989 6     -1343.095          41.000
R18  19884135.469 8 106142961.461 8      2165.156          51.000    19884138.672 7  82555631.314 7      1684.010          47.000
C29  22083981.523 8 114997178.407 8      1507.598          51.000
C30  22107410.805 8 115119183.352 8     -1564.160          51.000
E01  23492213.336 8 123452418.283 8       -79.801          51.000    23492214.961 8  94593412.125 8       -61.140          51.000
E21  25786928.164 8 135511174.042 8     -2280.504          51.000    25786931.008 8 103833250.497 8     -1747.384          51.000
E26  22467021.195 8 118064975.349 8       212.180          51.000    22467023.922 8  90465410.766 8       162.567          51.000
E33  25445702.766 8 133718080.573 8      2625.820          49.000    25445702.867 8 102459335.952 8      2011.944          49.000
> 2020 05 08 12 15  0.0000000  0 15        .000000000000
G18  21795768.766 8 114537564.632 8      2889.070          49.000    21795770.398 8  89250027.735 8      2251.224          48.000
G25  21727133.453 7 114176863.783 7     -2408.902          43.000    21727136.781 7  88968991.204 7     -1877.067          44.000
G29  20468927.812 8 107564934.058 8     -1094.098          51.000    20468926.938 8  83816853.405 8      -852.544          51.000
G31  21134742.469 6 111063809.787 6       -84.559          37.000    21134740.633 5  86543213.446 5       -65.887          33.000
R14  22838915.695 6 121744252.177 6     -3960.543          37.000    22838923.055 7  94689961.894 7     -3080.425          43.000
R15  19383182.086 8 103577820.123 8     -1321.230          51.000    19383183.953 8  80560544.365 8     -1027.624          50.000
R17  19475018.969 7 104214744.928 7     -1739.578          47.000    19475020.469 6  81055930.166 6     -1353.008          39.000
R18  19872003.977 8 106078203.647 8      2151.285          50.000    19872006.117 7  82505264.151 7      1673.222          47.000
R24  23251580.789 5 124336575.040 5     -4063.953          31.000
C29  22075310.758 8 114952023.768 8      1502.004          51.000
C30  22116431.414 8 115166156.190 8     -1568.082          51.000
E01  23492677.508 8 123454857.987 8       -83.664          51.000    23492679.375 8  94595281.487 8       -64.133          51.000
E21  25799945.797 8 135579582.020 8     -2280.941          50.000    25799949.062 8 103885666.956 8     -1747.737          51.000
E26  22465828.688 8 118058707.593 8       204.812          51.000    22465831.297 8  90460608.209 8       156.964          51.000
E33  25430715.406 8 133639321.243 8      2623.996          48.000    25430715.539 8 102398987.921 8      2010.606          49.000
> 2020 05 08 12 15 30.0000000  0 15        .000000000000
G18  21779345.891 8 114451263.140 8      2869.121          48.000    21779347.992 7  89182779.831 7      2235.679          47.000
G25  21740947.953 7 114249456.050 7     -2425.711          45.000    21740950.641 7  89025556.573 7     -1890.164          45.000
G29  20475242.375 8 107598117.154 8     -1113.312          51.000    20475241.609 8  83842710.375 8      -867.516          51.000
G31  21135309.914 6 111066794.277 6      -109.734          36.000    21135308.969 5  86545538.989 5       -85.507          35.000
R14  22861261.172 6 121863360.410 6     -3975.734          39.000    22861268.164 6  94782601.522 6     -3092.241          40.000
R15  19390696.133 8 103617970.928 8     -1350.688          51.000    19390697.898 8  80591772.767 8     -1050.535          49.000
R17  19484859.906 7 104267404.667 7     -1766.109          47.000    19484861.195 6  81096887.745 6     -1373.641          40.000
R18  19860005.164 8 106014153.129 8      2123.594          50.000    19860007.766 8  82455447.100 8      1651.684          49.000
R24  23274416.398 5 124458684.653 5     -4072.664          30.000
C29  22066725.734 8 114907318.258 8      1483.129          51.000
C30  22125528.172 8 115213524.882 8     -1585.113          51.000
E01  23493217.922 8 123457697.841 8      -100.953          51.000    23493219.773 8  94597457.461 8       -77.330          51.000
E21  25813019.625 8 135648287.432 8     -2294.730          48.000    25813023.031 8 103938311.337 8     -1758.375          50.000
E26  22464731.703 8 118052941.870 8       184.211          51.000    22464734.219 8  90456190.337 8       141.098          51.000
E33  25415791.828 8 133560897.456 8      2609.008          48.000    25415791.953 8 102338896.997 8      1999.065          49.000
> 2020 05 08 12 16  0.0000000  0 15        .000000000000
G18  21762999.836 7 114365366.393 7      2857.387          47.000    21763002.359 7  89115847.319 7      2226.538          47.000
G25  21754820.539 7 114322355.470 7     -2434.129          44.000    21754822.648 7  89082361.270 7     -1896.727          44.000
G29  20481629.828 8 107631683.316 8     -1124.203          51.000    20481629.242 8  83868865.848 8      -875.999          51.000
G31  21135993.016 6 111070384.313 6      -128.559          38.000    21135991.727 5  86548336.425 5      -100.169          31.000
R14  22883657.312 6 121982738.450 6     -3982.598          40.000    22883662.148 6  94875451.022 6     -3097.579          36.000
R15  19398337.938 8 103658806.321 8     -1371.543          51.000    19398339.469 8  80623533.618 8     -1066.756          48.000
R17  19494811.367 8 104320657.431 8     -1783.848          48.000    19494812.867 6  81138306.584 6     -1387.437          39.000
R18  19848124.531 8 105950732.983 8      2104.543          51.000    19848127.953 8  82406120.361 8      1636.870          49.000
R24  23297267.641 5 124580887.588 5     -4073.469          32.000
C29  22058212.188 8 114862985.746 8      1472.566          51.000
C30  22134686.000 8 115261211.633 8     -1593.809          51.000
E01  23493820.016 8 123460861.505 8      -109.824          51.000    23493821.609 8  94599881.558 8       -84.151          51.000
E21  25826134.438 7 135717212.872 7     -2300.113          45.000    25826138.453 8 103991124.307 8     -1762.451          49.000
E26  22463715.523 8 118047600.752 8       172.027          51.000    22463717.836 8  90452097.816 8       131.843          51.000
E33  25400917.266 7 133482733.415 7      2602.262          47.000    25400917.531 8 102279005.083 8      1993.854          49.000
> 2020 05 08 12 16 30.0000000  0 16        .000000000000
G18  21746714.508 7 114279788.676 7      2851.574          47.000    21746716.969 7  89049163.404 7      2222.006          46.000
G25  21768734.523 7 114395473.109 7     -2436.543          44.000    21768736.203 7  89139336.010 7     -1898.605          44.000
G29  20488072.969 8 107665542.936 8     -1129.430          50.000    20488072.469 8  83895249.964 8      -880.075          50.000
G31  21136775.078 6 111074491.524 6      -141.156          38.000    21136771.859 5  86551536.899 5      -109.986          30.000
R14  22906086.711 7 122102294.591 7     -3983.922          43.000    22906088.641 6  94968438.949 6     -3098.612          36.000
R15  19406090.609 8 103700236.117 8     -1386.566          51.000    19406092.367 7  80655756.744 7     -1078.441          47.000
R17  19504856.672 7 104374410.213 7     -1795.789          46.000    19504857.148 6  81180114.226 6     -1396.725          39.000
R18  19836345.602 8 105887854.662 8      2091.203          51.000    19836349.062 8  82357214.985 8      1626.491          49.000
R24  23320120.617 5 124703091.358 5     -4068.957          30.000
C29  22049753.469 8 114818939.103 8      1467.676          51.000
C30  22143887.500 8 115309127.537 8     -1596.848          51.000
E01  23494467.039 8 123464261.483 8      -112.926          51.000    23494468.367 8  94602486.718 8       -86.581          51.000
E13  25853044.922 5 135858663.024 5     -2404.711          33.000
E21  25839274.250 7 135786269.735 7     -2299.832          46.000    25839278.570 8 104044037.987 8     -1762.200          49.000
E26  22462763.234 8 118042595.662 8       165.492          51.000    22462765.219 8  90448262.763 8       126.830          51.000
E33  25386075.125 7 133404742.009 7      2601.082          46.000    25386075.969 8 102219245.417 8      1993.097          50.000
> 2020 05 08 12 17  0.0000000  0 16        .000000000000
G18  21730505.109 8 114194608.288 8      2830.992          48.000    21730507.273 7  88982789.109 7      2205.971          46.000
G25  21782704.258 7 114468884.089 7     -2453.613          45.000    21782705.664 7  89196539.385 7     -1911.906          44.000
G29  20494586.109 8 107699770.280 8     -1148.555          50.000    20494585.633 8  83921920.630 8      -894.978          51.000
G31  21137669.938 5 111079191.956 5      -168.125          35.000    21137665.258 4  86555205.547 4      -131.003          26.000
R14  22928564.117 7 122222103.137 7     -3999.316          44.000    22928565.039 6  95061623.246 6     -3110.582          39.000
R15  19413968.711 8 103742337.111 8     -1416.180          51.000    19413970.922 7  80688501.923 7     -1101.473          46.000
R17  19515008.883 7 104428736.956 7     -1822.055          46.000    19515009.898 6  81222368.400 6     -1417.151          40.000
R18  19824682.633 8 105825596.207 8      2063.328          51.000    19824686.117 8  82308791.763 8      1604.814          49.000
R24  23342987.023 5 124825370.277 5     -4078.645          32.000
C29  22041363.617 8 114775253.525 8      1448.566          51.000
C30  22153147.086 8 115357346.126 8     -1613.906          51.000
E01  23495173.508 8 123467974.255 8      -130.742          51.000    23495174.883 8  94605331.556 8      -100.104          51.000
E13  25866825.141 5 135931082.855 5     -2419.340          34.000
E21  25852454.125 7 135855533.370 7     -2314.000          47.000    25852458.719 8 104097110.124 8     -1773.008          49.000
E26  22461889.211 8 118038001.976 8       144.582          51.000    22461890.867 8  90444742.959 8       110.703          51.000
E33  25371280.539 7 133327000.136 7      2585.578          47.000    25371282.445 8 102159676.953 8      1981.085          50.000
> 2020 05 08 12 17 30.0000000  0 16        .000000000000
G18  21714380.922 7 114109874.179 7      2822.141          47.000    21714382.953 7  88916762.569 7      2199.071          47.000
G25  21796738.406 7 114542634.268 7     -2458.703          43.000    21796739.180 7  89254007.001 7     -1915.876          44.000
G29  20501177.891 8 107734410.579 8     -1156.367          51.000    20501177.461 8  83948913.048 8      -901.065          51.000
G31  21138685.945 5 111084532.473 5      -183.875          33.000
R14  22951096.641 7 122342208.940 7     -4003.223          45.000    22951097.891 6  95155038.747 6     -3113.621          40.000
R15  19421981.219 8 103785156.125 8     -1433.984          49.000    19421983.984 7  80721805.566 7     -1115.321          46.000
R17  19525276.914 7 104483682.353 7     -1836.367          44.000    19525278.719 6  81265103.685 6     -1428.283          40.000
R18  19813144.867 8 105764005.926 8      2047.195          51.000    19813148.352 8  82260888.225 8      1592.263          49.000
R24  23365876.156 5 124947768.710 5     -4076.312          30.000
C29  22033052.164 8 114731975.374 8      1440.922          51.000
C30  22162473.570 8 115405912.030 8     -1619.488          51.000
E01  23495948.531 8 123472047.031 8      -136.633          51.000    23495949.938 8  94608452.234 8      -104.753          51.000
E13  25880653.555 5 136003750.430 5     -2421.676          33.000
E21  25865682.555 7 135925049.928 7     -2316.379          46.000    25865687.430 8 104150376.040 8     -1774.885          49.000
E26  22461102.211 8 118033865.763 8       135.418          51.000    22461103.922 8  90441573.668 8       103.750          51.000
E33  25356543.344 8 133249555.426 8      2581.590          48.000    25356546.078 8 102100336.183 8      1978.146          50.000
> 2020 05 08 12 18  0.0000000  0 16        .000000000000
G18  21698334.625 7 114025551.205 7      2813.430          46.000    21698336.719 7  88851056.353 7      2192.283          46.000
G25  21810829.867 7 114616685.367 7     -2463.773          44.000    21810830.578 7  89311709.098 7     -1919.823          44.000
G29  20507840.883 8 107769424.967 8     -1163.672          50.000    20507840.492 8  83976196.973 8      -906.757          50.000
G31  21139815.719 5 111090480.547 5      -199.133          33.000    21139811.602 5  86563993.037 5      -155.168          30.000
R14  22973676.508 7 122462571.682 7     -4006.539          44.000    22973678.625 6  95248654.118 6     -3116.200          39.000
R15  19430120.742 8 103828654.474 8     -1451.461          49.000    19430124.281 7  80755637.597 7     -1128.914          46.000
R17  19535652.422 7 104539204.944 7     -1850.496          45.000    19535654.742 6  81308287.932 6     -1439.275          38.000
R18  19801725.383 8 105703046.385 8      2031.195          51.000    19801728.891 8  82213475.242 8      1579.819          49.000
R24  23388780.070 4 125070316.960 4     -4073.488          29.000
C29  22024812.336 8 114689067.453 8      1433.637          51.000
C30  22171859.289 8 115454786.411 8     -1624.719          51.000
E01  23496785.086 8 123476442.791 8      -142.199          51.000    23496786.586 8  94611820.400 8      -108.985          51.000
E13  25894525.867 5 136076652.308 5     -2422.941          32.000
E21  25878951.555 7 135994781.354 7     -2318.305          44.000    25878957.312 8 104203806.554 8     -1776.312          50.000
E26  22460395.070 8 118030148.939 8       126.555          51.000    22460397.133 8  90438725.736 8        97.009          51.000
E33  25341856.523 8 133172371.356 8      2578.113          51.000    25341859.422 8 102041195.151 8      1975.449          50.000
> 2020 05 08 12 18 30.0000000  0 15        .000000000000
G18  21682352.477 8 113941564.689 8      2788.953          48.000    21682354.812 7  88785612.307 7      2173.210          47.000
G25  21824963.797 7 114690959.512 7     -2484.379          44.000    21824965.070 7  89369585.019 7     -1935.880          44.000
G29  20514560.141 8 107804734.859 8     -1186.812          50.000    20514559.688 8  84003711.172 8      -924.792          50.000
G31  21141045.867 5 111096947.168 5      -229.000          34.000    21141042.922 5  86569031.896 5      -178.460          31.000
R14  22996288.805 7 122583110.718 7     -4025.801          42.000    22996291.234 6  95342406.635 6     -3131.178          38.000
R15  19438373.336 8 103872753.356 8     -1484.977          51.000    19438376.977 7  80789936.744 7     -1154.985          47.000
R17  19546121.078 7 104595223.268 7     -1880.590          43.000    19546122.344 6  81351857.721 6     -1462.681          38.000
R18  19790408.859 8 105642640.725 8      1999.305          51.000    19790412.805 8  82166493.113 8      1555.015          48.000
R24  23411683.016 5 125192790.450 5     -4087.215          32.000
C29  22016628.766 8 114646453.572 8      1410.664          51.000
C30  22181289.352 8 115503891.377 8     -1645.582          51.000
E01  23497668.477 8 123481085.173 8      -163.785          51.000    23497670.008 8  94615377.533 8      -125.450          51.000
E21  25892246.945 7 136064650.117 7     -2336.211          45.000    25892253.422 8 104257342.302 8     -1790.105          50.000
E26  22459752.984 8 118026773.990 8       101.867          51.000    22459755.445 8  90436139.753 8        78.075          51.000
E33  25327205.289 8 133095371.949 8      2558.664          51.000    25327207.508 8 101982195.630 8      1960.511          50.000
> 2020 05 08 12 19  0.0000000  0 14        .000000000000
G18  21666469.203 8 113858093.814 8      2771.297          51.000    21666471.031 7  88720570.072 7      2159.452          46.000
G25  21839173.398 7 114765632.909 7     -2498.266          43.000    21839174.742 7  89427772.038 7     -1946.700          43.000
G29  20521369.109 8 107840515.705 8     -1203.012          51.000    20521368.398 8  84031592.337 8      -937.412          51.000
G31  21142409.469 6 111104115.737 6      -252.883          36.000    21142419.016 5  86574670.985 5      -197.052          30.000
R14  23018966.859 6 122704002.753 6     -4037.898          38.000    23018970.180 6  95436433.684 6     -3140.591          37.000
R15  19446772.219 8 103917632.072 8     -1511.453          51.000    19446775.305 7  80824842.398 7     -1175.575          47.000
R17  19556715.219 7 104651914.053 7     -1903.430          42.000    19556716.078 6  81395950.551 6     -1480.445          37.000
R18  19779229.742 8 105582968.984 8      1974.328          50.000    19779233.406 7  82120081.800 7      1535.592          47.000
C29  22008535.070 8 114604309.039 8      1394.598          51.000
C30  22190797.242 8 115553400.589 8     -1659.496          51.000
E01  23498632.555 8 123486151.628 8      -178.441          51.000    23498634.031 8  94619259.616 8      -136.656          51.000
E21  25905602.891 7 136134832.563 7     -2347.094          47.000    25905608.617 8 104311118.435 8     -1798.411          49.000
E26  22459209.406 8 118023917.262 8        84.141          51.000    22459212.188 8  90433950.848 8        64.507          51.000
E33  25312622.961 8 133018735.132 8      2546.031          51.000    25312623.836 8 101923473.962 8      1950.900          49.000
> 2020 05 08 12 19 30.0000000  0 15        .000000000000
G18  21650645.281 8 113774934.165 8      2769.387          51.000    21650645.836 7  88655770.377 7      2157.964          46.000
G25  21853419.570 7 114840497.964 7     -2496.293          43.000    21853421.109 7  89486108.442 7     -1945.163          43.000
G29  20528228.133 8 107876559.232 8     -1203.188          51.000    20528227.367 8  84059678.196 8      -937.549          51.000
G31  21143867.781 6 111111779.100 6      -261.641          37.000
R14  23041670.398 5 122825035.762 5     -4034.016          34.000    23041675.352 5  95530570.372 5     -3137.571          35.000
R15  19455277.711 8 103963080.041 8     -1521.762          51.000    19455280.250 8  80860190.790 8     -1183.592          48.000
R17  19567394.930 6 104709063.827 6     -1910.105          41.000    19567396.211 6  81440400.383 6     -1485.635          37.000
R18  19768148.969 8 105523822.269 8      1965.383          50.000    19768152.875 8  82074078.819 8      1528.631          48.000
C29  22000492.391 8 114562429.109 8      1394.164          51.000
C30  22200343.102 8 115603107.615 8     -1657.676          51.000
E01  23499638.094 8 123491435.992 8      -177.258          51.000    23499639.562 8  94623308.666 8      -135.776          51.000
E13  25936346.453 5 136296412.490 5     -2446.914          33.000
E21  25918979.336 8 136205121.433 8     -2342.195          48.000    25918984.109 8 104364976.107 8     -1794.636          49.000
E26  22458724.898 8 118021371.436 8        82.230          51.000    22458728.078 8  90432000.154 8        63.050          51.000
E33  25298070.258 8 132942255.185 8      2549.254          51.000    25298069.469 8 101864872.482 8      1953.312          48.000
> 2020 05 08 12 20  0.0000000  0 15        .000000000000
G18  21634894.367 8 113692159.651 8      2751.867          51.000    21634893.883 7  88591270.797 7      2144.315          45.000
G25  21867715.812 7 114915625.406 7     -2509.355          43.000    21867717.961 7  89544649.258 7     -1955.342          43.000
G29  20535150.375 8 107912935.308 8     -1218.816          51.000    20535149.836 8  84088023.199 8      -949.727          51.000
G31  21145434.266 6 111120008.391 6      -284.789          36.000    21145441.859 4  86587034.785 4      -221.911          24.000
R14  23064415.102 6 122946279.861 6     -4046.012          37.000    23064419.211 5  95624871.180 5     -3146.901          32.000
R15  19463903.273 8 104009169.272 8     -1547.801          51.000    19463905.242 8  80896037.968 8     -1203.845          49.000
R17  19578173.750 6 104766742.108 6     -1932.152          39.000    19578175.906 6  81485261.296 6     -1502.782          37.000
R18  19757180.883 8 105465273.967 8      1940.859          51.000    19757185.094 8  82028541.250 8      1509.557          50.000
C29  21992514.109 8 114520884.708 8      1378.480          51.000
C30  22209940.211 8 115653081.708 8     -1670.969          51.000
E01  23500698.773 8 123497010.356 8      -191.402          51.000    23500700.141 8  94627579.930 8      -146.683          51.000
E13  25950359.047 5 136370053.560 5     -2457.289          34.000
E21  25932389.484 8 136275587.703 8     -2352.578          49.000    25932393.680 8 104418969.711 8     -1802.625          50.000
E26  22458313.047 8 118019207.529 8        65.016          51.000    22458316.562 8  90430342.091 8        49.823          51.000
E33  25283560.773 8 132866004.628 8      2537.102          51.000    25283559.055 8 101806446.782 8      1944.007          48.000
> 2020 05 08 12 20 30.0000000  0 15        .000000000000
G18  21619215.273 8 113609763.692 8      2740.312          51.000    21619214.008 7  88527066.194 7      2135.308          45.000
G25  21882060.164 6 114991005.590 6     -2516.734          41.000    21882062.070 6  89603387.019 6     -1961.092          40.000
G29  20542133.938 8 107949633.664 8     -1228.547          51.000    20542133.414 8  84116619.324 8      -957.309          51.000
G31  21147106.562 5 111128794.364 5      -302.262          35.000
R14  23087198.477 6 123067723.370 6     -4051.324          40.000    23087199.609 4  95719327.145 4     -3151.033          29.000
R15  19472646.508 8 104055889.887 8     -1567.840          51.000    19472648.547 8  80932376.207 8     -1219.434          49.000
R17  19589048.461 6 104824936.788 6     -1948.344          39.000    19589050.250 5  81530523.782 5     -1515.382          35.000
R18  19746323.773 8 105407315.929 8      1922.113          51.000    19746327.820 8  81983462.781 8      1494.980          49.000
C29  21984598.055 8 114479667.011 8      1368.438          50.000
C30  22219586.648 8 115703312.443 8     -1678.562          51.000
E01  23501813.070 8 123502866.382 8      -199.801          51.000    23501814.328 8  94632067.017 8      -153.142          51.000
E13  25964398.688 5 136443835.279 5     -2462.082          32.000
E21  25945831.273 8 136346221.953 8     -2357.203          48.000    25945835.188 8 104473092.025 8     -1806.115          51.000
E26  22457971.773 8 118017415.990 8        53.660          51.000    22457975.688 8  90428969.352 8        41.089          51.000
E33  25269092.656 8 132789975.606 8      2530.707          49.000    25269091.164 8 101748190.808 8      1939.146          49.000
> 2020 05 08 12 21  0.0000000  0 14        .000000000000
G18  21603611.531 8 113527765.438 8      2725.934          51.000    21603609.633 7  88463171.504 7      2124.107          44.000
G25  21896455.773 6 115066654.474 6     -2526.613          40.000    21896457.531 6  89662334.183 6     -1968.790          40.000
G29  20549181.719 8 107986669.804 8     -1240.680          51.000    20549181.055 8  84145478.650 8      -966.763          51.000
G31  21148888.531 6 111138153.751 6      -322.102          37.000
R14  23110022.156 6 123189380.929 6     -4059.426          40.000    23110019.805 4  95813987.493 4     -3157.337          24.000
R15  19481510.914 8 104103258.456 8     -1590.301          51.000    19481513.141 8  80969218.409 8     -1236.901          49.000
R17  19600022.414 6 104883661.636 6     -1966.824          41.000    19600024.328 5  81576198.679 5     -1529.755          35.000
R18  19735580.719 8 105349966.018 8      1900.961          51.000    19735583.969 8  81938857.314 8      1478.528          48.000
C29  21976748.039 8 114438792.724 8      1356.188          50.000
C30  22229285.281 8 115753814.867 8     -1688.398          51.000
E01  23502984.227 8 123509021.437 8      -210.656          51.000    23502985.484 8  94636783.234 8      -161.481          51.000
E21  25959307.242 7 136417040.435 7     -2364.133          45.000    25959311.711 8 104527355.520 8     -1811.604          51.000
E26  22457704.398 8 118016013.091 8        39.766          51.000    22457708.680 8  90427894.384 8        30.482          51.000
E33  25254668.602 7 132714185.948 7      2521.754          47.000    25254668.812 8 101690118.212 8      1932.340          48.000
> 2020 05 08 12 21 30.0000000  0 14        .000000000000
G18  21588088.109 8 113446190.580 8      2712.715          51.000    21588085.523 7  88399606.746 7      2113.804          43.000
G25  21910905.984 6 115142594.740 6     -2535.730          38.000    21910908.805 6  89721508.375 6     -1975.894          38.000
G29  20556297.805 8 108024065.360 8     -1251.891          51.000    20556297.344 8  84174618.038 8      -975.499          51.000
G31  21150783.289 6 111148109.729 6      -341.211          39.000
R14  23132889.523 6 123311273.886 6     -4066.555          36.000
R15  19490500.922 8 104151298.230 8     -1611.875          51.000    19490502.969 8  81006582.684 8     -1253.678          48.000
R17  19611099.875 6 104942937.679 6     -1984.480          40.000    19611101.461 5  81622302.268 5     -1543.482          34.000
R18  19724955.789 8 105293248.609 8      1880.605          51.000    19724958.508 8  81894743.791 8      1462.693          48.000
C29  21968969.070 8 114398285.148 8      1344.801          51.000
C30  22239040.188 8 115804610.636 8     -1697.387          51.000
E01  23504216.883 8 123515499.533 8      -220.758          51.000    23504218.250 8  94641746.964 8      -169.119          51.000
E21  25972822.281 7 136488066.102 7     -2370.332          47.000    25972827.648 8 104581777.738 8     -1816.243          51.000
E26  22457515.477 8 118015021.631 8        26.773          51.000    22457520.094 8  90427134.680 8        20.518          51.000
E33  25240294.367 8 132638660.014 8      2513.785          48.000    25240296.500 8 101632247.695 8      1926.021          48.000
> 2020 05 08 12 22  0.0000000  0 13        .000000000000
G18  21572642.398 8 113365025.095 8      2698.914          49.000    21572640.148 7  88336360.957 7      2103.050          44.000
G25  21925408.852 6 115218809.291 6     -2545.066          41.000    21925412.359 6  89780896.263 6     -1983.172          41.000
G29  20563478.867 8 108061802.819 8     -1263.426          51.000    20563478.797 8  84204023.837 8      -984.488          51.000
G31  21152788.250 6 111158645.713 6      -360.789          38.000    21152787.883 4  86617141.813 4      -281.131          28.000
R15  19499613.141 8 104199991.738 8     -1633.832          51.000    19499615.750 8  81044455.384 8     -1270.758          48.000
R17  19622275.898 7 105002744.691 7     -2002.281          43.000    19622278.195 5  81668818.838 5     -1557.333          35.000
R18  19714445.875 8 105237147.746 8      1859.824          51.000    19714448.977 8  81851109.797 8      1446.530          48.000
C29  21961257.562 8 114358128.067 8      1332.859          51.000
C30  22248847.852 8 115855681.956 8     -1706.809          51.000
E01  23505507.953 8 123522284.867 8      -231.156          51.000    23505509.594 8  94646946.114 8      -177.135          51.000
E21  25986374.703 8 136559282.052 8     -2376.969          50.000    25986379.898 8 104636345.793 8     -1821.260          50.000
E26  22457401.703 8 118014424.705 8        13.445          51.000    22457406.633 8  90426677.295 8        10.308          51.000
E33  25225968.711 8 132563382.413 8      2505.270          50.000    25225971.047 8 101574567.472 8      1919.664          48.000
> 2020 05 08 12 22 30.0000000  0 14        .000000000000
G18  21557270.906 8 113284250.478 8      2687.570          48.000    21557270.039 7  88273419.698 7      2094.211          46.000
G25  21939960.422 6 115295276.444 6     -2551.477          41.000    21939963.570 6  89840481.036 6     -1988.164          41.000
G29  20570720.617 8 108099859.676 8     -1272.273          49.000    20570720.773 8  84233678.504 8      -991.382          49.000
G31  21154899.438 6 111169740.563 6      -377.430          39.000    21154899.172 5  86625787.109 5      -294.104          31.000
R14  23178751.859 5 123555759.016 5     -4077.789          33.000    23178753.352 5  96098947.729 5     -3171.614          34.000
R15  19508843.656 8 104249316.979 8     -1653.082          51.000    19508846.469 7  81082819.408 7     -1285.734          47.000
R17  19633547.805 6 105063058.577 6     -2017.117          41.000    19633549.484 5  81715729.629 5     -1568.869          35.000
R18  19704047.562 8 105181643.236 8      1841.734          49.000    19704051.188 8  81807939.622 8      1432.460          49.000
C29  21953609.281 8 114318300.844 8      1323.660          51.000
C30  22258704.203 8 115907006.603 8     -1713.383          51.000
E01  23506853.633 8 123529357.229 8      -239.020          51.000    23506855.422 8  94652365.188 8      -183.100          51.000
E21  25999959.758 8 136630666.957 8     -2380.730          51.000    25999963.773 8 104691043.307 8     -1824.208          49.000
E26  22457358.961 8 118014200.894 8         2.793          51.000    22457363.898 8  90426505.799 8         2.146          51.000
E33  25211687.766 8 132488333.396 8      2499.387          51.000    25211689.023 8 101517062.418 8      1915.100          49.000
> 2020 05 08 12 23  0.0000000  0 14        .000000000000
G18  21541981.336 7 113203907.226 7      2670.375          47.000    21541982.281 7  88210814.544 7      2080.809          46.000
G25  21954566.969 6 115372033.730 6     -2564.047          40.000    21954570.336 6  89900291.863 6     -1997.962          40.000
G29  20578030.242 8 108138272.840 8     -1287.102          49.000    20578030.461 8  84263610.826 8     -1002.936          49.000
G31  21157124.031 6 111181431.952 6      -400.191          39.000    21157121.633 5  86634897.362 5      -311.834          32.000
R14  23201735.047 5 123678289.878 5     -4089.008          34.000    23201737.188 5  96194249.359 5     -3180.342          35.000
R15  19518199.398 8 104299312.346 8     -1678.328          51.000    19518202.219 7  81121704.644 7     -1305.366          46.000
R17  19644919.766 7 105123914.944 7     -2038.039          42.000    19644922.414 5  81763062.383 5     -1585.145          34.000
R18  19693768.359 8 105126774.609 8      1817.668          50.000    19693772.812 8  81765264.042 8      1413.742          49.000
C29  21946032.141 8 114278841.484 8      1308.512          51.000
C30  22268616.219 8 115958620.927 8     -1725.883          51.000
E01  23508261.383 8 123536755.387 8      -252.570          51.000    23508263.117 8  94658033.905 8      -193.576          51.000
E21  26013584.070 8 136702258.517 8     -2390.375          51.000    26013586.281 7 104745899.146 7     -1831.631          47.000
E26  22457394.539 8 118014387.840 8       -13.711          51.000    22457399.148 8  90426649.032 8       -10.434          51.000
E33  25197458.438 8 132413552.143 8      2487.652          51.000    25197458.617 8 101459762.536 8      1906.117          50.000
> 2020 05 08 12 23 30.0000000  0 14        .000000000000
G18  21526773.297 7 113123990.890 7      2656.770          47.000    21526775.508 7  88148542.052 7      2070.210          46.000
G25  21969227.250 6 115449073.530 6     -2572.734          41.000    21969230.727 6  89960322.883 6     -2004.728          40.000
G29  20585406.281 8 108177034.257 8     -1297.664          50.000    20585406.484 8  84293814.529 8     -1011.164          50.000
G31  21159461.094 6 111193713.165 6      -419.203          40.000    21159458.172 5  86644467.127 5      -326.652          32.000
R14  23224759.266 6 123801039.945 6     -4095.012          39.000    23224762.227 5  96289721.568 5     -3185.009          34.000
R15  19527679.109 8 104349969.832 8     -1699.531          51.000    19527682.156 8  81161104.887 8     -1321.861          48.000
R17  19656392.320 6 105185303.798 6     -2054.996          39.000    19656393.281 5  81810809.212 5     -1598.327          33.000
R18  19683607.477 8 105072535.606 8      1797.516          51.000    19683611.898 7  81723078.159 7      1398.068          47.000
C29  21938524.406 8 114239743.341 8      1297.383          51.000
C30  22278582.141 8 116010516.667 8     -1734.543          51.000
E01  23509730.055 8 123544473.176 8      -262.586          51.000    23509731.586 8  94663947.534 8      -201.205          51.000
E21  26027245.953 8 136774049.445 8     -2396.340          51.000    26027245.891 7 104800907.697 7     -1836.142          45.000
E26  22457506.953 8 118014978.203 8       -26.301          51.000    22457511.469 8  90427101.400 8       -20.233          51.000
E33  25183279.156 8 132339032.940 8      2479.629          51.000    25183278.727 8 101402663.444 8      1899.957          51.000
> 2020 05 08 12 24  0.0000000  0 14        .000000000000
G18  21511639.984 8 113044463.541 8      2643.223          49.000    21511642.383 8  88086572.701 8      2059.654          48.000
G25  21983933.133 6 115526354.846 6     -2580.980          36.000    21983936.922 6  90020542.118 6     -2011.157          36.000
G29  20592840.680 8 108216102.043 8     -1308.555          51.000    20592840.859 8  84324256.972 8     -1019.653          51.000
G31  21161902.648 7 111206543.514 7      -437.969          42.000    21161900.133 5  86654464.687 5      -341.274          33.000
R14  23247817.812 6 123923966.623 6     -4101.504          38.000    23247822.234 5  96385331.138 5     -3190.062          34.000
R15  19537274.742 8 104401248.203 8     -1720.883          50.000    19537278.742 8  81200988.046 8     -1338.464          48.000
R17  19667954.391 7 105247180.833 7     -2071.824          42.000    19667957.625 5  81858935.852 5     -1611.419          33.000
R18  19673557.305 8 105018886.131 8      1777.301          50.000    19673561.344 7  81681350.788 7      1382.345          47.000
C29  21931077.734 8 114200966.579 8      1285.988          51.000
C30  22288594.320 8 116062652.457 8     -1743.027          51.000
E01  23511251.992 8 123552471.004 8      -272.406          51.000    23511253.578 8  94670075.732 8      -208.748          51.000
E21  26040937.680 8 136845999.045 8     -2402.172          51.000    26040934.781 7 104856037.767 7     -1840.634          44.000
E26  22457688.273 8 118015931.207 8       -38.934          51.000    22457692.742 8  90427831.635 8       -29.832          51.000
E33  25169142.047 8 132264736.615 8      2471.664          51.000    25169141.562 8 101345735.130 8      1893.920          51.000
> 2020 05 08 12 24 30.0000000  0 14        .000000000000
G18  21496594.742 8 112965397.542 8      2625.070          51.000    21496596.484 7  88024962.866 7      2045.512          46.000
G25  21998697.883 6 115603947.202 6     -2594.535          38.000    21998701.750 6  90081003.660 6     -2021.716          38.000
G29  20600346.500 8 108255544.794 8     -1323.746          51.000    20600346.602 8  84354991.578 8     -1031.490          51.000
G31  21164462.312 7 111219992.600 7      -461.387          43.000    21164459.086 6  86664944.494 6      -359.522          36.000
R14  23270921.172 4 124047137.947 4     -4112.734          29.000    23270928.430 6  96481131.006 6     -3198.790          36.000
R15  19546999.773 8 104453217.783 8     -1746.715          51.000    19547004.008 8  81241408.841 8     -1358.556          49.000
R17  19679621.883 6 105309614.485 6     -2093.109          39.000    19679623.914 5  81907495.284 5     -1627.977          31.000
R18  19663631.047 8 104965897.889 8      1752.371          51.000    19663635.164 7  81640137.751 7      1362.955          47.000
C29  21923705.906 8 114162580.687 8      1270.242          51.000
C30  22298665.602 8 116115096.229 8     -1755.988          51.000
E01  23512840.711 8 123560819.536 8      -286.961          51.000    23512842.656 8  94676472.633 8      -219.882          51.000
E21  26054672.766 8 136918176.822 8     -2412.531          51.000    26054668.250 7 104911342.702 7     -1848.593          44.000
E26  22457951.891 8 118017316.332 8       -56.188          51.000    22457956.016 8  90428892.967 8       -43.038          51.000
E33  25155060.359 8 132190734.246 8      2459.020          51.000    25155060.078 8 101289032.050 8      1884.142          50.000
> 2020 05 08 12 25  0.0000000  0 13        .000000000000
G18  21481632.742 8 112886768.617 8      2615.980          51.000    21481633.398 7  87963693.630 7      2038.429          46.000
G25  22013517.484 6 115681823.010 6     -2598.074          40.000    22013521.227 6  90141686.092 6     -2024.473          40.000
G29  20607918.375 8 108295334.632 8     -1329.715          51.000    20607918.273 8  84385996.644 8     -1036.141          51.000
G31  21167134.344 7 111234033.641 7      -475.555          42.000    21167131.359 5  86675885.555 5      -370.562          35.000
R15  19556848.883 8 104505850.843 8     -1763.086          51.000    19556853.531 8  81282345.657 8     -1371.289          49.000
R17  19691387.016 6 105372574.439 6     -2105.148          39.000    19691389.641 5  81956464.174 5     -1637.335          33.000
R18  19653824.070 8 104913544.499 8      1736.883          51.000    19653827.641 8  81599418.473 8      1350.909          48.000
C29  21916404.383 8 114124559.345 8      1263.668          51.000
C30  22308790.328 8 116167820.030 8     -1759.855          51.000
E01  23514491.289 8 123569492.739 8      -292.223          51.000    23514493.438 8  94683118.330 8      -223.935          51.000
E21  26068445.820 8 136990555.739 8     -2413.645          50.000    26068442.625 7 104966801.809 7     -1849.449          47.000
E26  22458292.461 8 118019106.377 8       -64.113          51.000    22458296.484 8  90430264.574 8       -49.126          51.000
E33  25141029.227 8 132117000.248 8      2455.605          51.000    25141028.992 8 101232534.610 8      1881.514          49.000
> 2020 05 08 12 25 30.0000000  0 14        .000000000000
G18  21466739.773 8 112808503.329 8      2601.688          51.000    21466739.508 7  87902707.725 7      2027.289          46.000
G25  22028376.633 6 115759905.932 6     -2607.395          41.000    22028379.711 6  90202529.891 6     -2031.736          41.000
G29  20615541.672 8 108335394.627 8     -1340.824          51.000    20615541.500 8  84417212.205 8     -1044.798          51.000
G31  21169904.094 7 111248590.405 7      -494.957          42.000    21169902.016 6  86687228.432 6      -385.681          38.000
R14  23317244.266 5 124294028.199 5     -4121.004          35.000    23317250.008 6  96673139.099 6     -3205.231          41.000
R15  19566807.562 8 104559069.127 8     -1784.742          51.000    19566812.680 8  81323737.615 8     -1388.133          49.000
R17  19703235.984 6 105435980.304 6     -2121.766          38.000    19703238.172 5  82005779.779 5     -1650.265          33.000
R18  19644121.047 8 104861749.653 8      1716.156          49.000    19644124.578 8  81559133.610 8      1334.788          48.000
C29  21909158.328 8 114086827.524 8      1251.840          51.000
C30  22318954.484 8 116220747.340 8     -1768.668          51.000
E01  23516189.328 8 123578415.474 8      -302.715          51.000    23516191.359 8  94689955.201 8      -231.843          51.000
E21  26082242.031 8 137063059.520 8     -2419.922          48.000    26082241.828 8 105022356.609 8     -1854.154          49.000
E26  22458695.547 8 118021224.996 8       -77.105          51.000    22458699.578 8  90431887.937 8       -59.042          51.000
E33  25127034.344 8 132043459.935 8      2447.082          50.000    25127033.992 8 101176185.562 8      1875.031          48.000
> 2020 05 08 12 26  0.0000000  0 14        .000000000000
G18  21451930.492 8 112730679.577 8      2587.230          50.000    21451929.430 7  87842065.866 7      2016.024          46.000
G25  22043289.180 6 115838270.820 6     -2616.445          40.000    22043291.844 6  90263593.382 6     -2038.792          41.000
G29  20623230.438 8 108375799.020 8     -1352.082          51.000    20623230.414 8  84448696.153 8     -1053.570          51.000
G31  21172786.094 7 111263738.291 7      -514.168          42.000    21172784.555 6  86699031.958 6      -400.647          37.000
R14  23340459.219 6 124417761.981 6     -4127.469          40.000    23340462.711 6  96769376.343 6     -3210.257          41.000
R15  19576890.336 8 104612949.058 8     -1806.547          51.000    19576895.555 8  81365644.195 8     -1405.092          49.000
R17  19715180.383 6 105499905.773 6     -2138.645          40.000    19715185.648 5  82055499.680 5     -1663.390          35.000
R18  19634536.680 8 104810590.890 8      1695.184          49.000    19634540.586 7  81519343.475 7      1318.476          47.000
C29  21901982.227 8 114049460.229 8      1239.902          51.000
C30  22329172.016 8 116273951.620 8     -1777.562          51.000
E01  23517949.344 8 123587663.972 8      -313.242          51.000    23517951.289 8  94697041.701 8      -239.975          51.000
E21  26096075.695 7 137135763.338 7     -2426.348          45.000    26096079.180 8 105078064.714 8     -1859.099          51.000
E26  22459175.547 8 118023747.295 8       -90.309          51.000    22459179.484 8  90433820.627 8       -69.218          51.000
E33  25113090.258 8 131970189.976 8      2438.309          48.000    25113090.297 8 101120043.664 8      1868.341          48.000
> 2020 05 08 12 26 30.0000000  0 14        .000000000000
G18  21437204.156 8 112653293.108 8      2572.465          50.000    21437202.938 7  87781764.742 7      2004.518          46.000
G25  22058253.758 6 115916910.319 6     -2625.688          40.000    22058256.852 6  90324870.868 6     -2045.990          40.000
G29  20630983.156 8 108416539.426 8     -1363.328          51.000    20630983.102 8  84480441.918 8     -1062.331          51.000
G31  21175779.250 7 111279470.187 7      -533.824          43.000    21175778.070 6  86711290.584 6      -415.964          37.000
R14  23363709.695 7 124541697.111 7     -4134.352          42.000    23363713.477 6  96865770.195 6     -3215.613          41.000
R15  19587095.734 8 104667482.799 8     -1828.426          50.000    19587100.992 8  81408059.295 8     -1422.112          49.000
R17  19727221.844 7 105564341.551 7     -2156.039          42.000    19727227.398 5  82105616.348 5     -1676.922          32.000
R18  19625070.555 8 104760062.160 8      1674.000          50.000    19625074.391 7  81480043.370 7      1302.003          47.000
C29  21894874.727 8 114012451.010 8      1227.969          51.000
C30  22339441.047 8 116327424.851 8     -1786.656          51.000
E01  23519770.195 8 123597232.275 8      -323.957          51.000    23519772.422 8  94704373.246 8      -248.233          51.000
E21  26109945.914 7 137208660.151 7     -2432.688          44.000    26109953.164 8 105133920.700 8     -1864.055          51.000
E26  22459731.078 8 118026666.056 8      -103.629          51.000    22459734.742 8  90436057.087 8       -79.341          51.000
E33  25099196.273 7 131897184.839 7      2429.445          47.000    25099197.367 8 101064104.649 8      1861.556          49.000
> 2020 05 08 12 27  0.0000000  0 14        .000000000000
G18  21422559.039 8 112576333.655 8      2558.078          50.000    21422558.312 7  87721796.343 7      1993.308          47.000
G25  22073268.102 6 115995811.205 6     -2634.375          40.000    22073271.297 6  90386351.994 6     -2052.763          40.000
G29  20638797.211 8 108457602.248 8     -1374.180          51.000    20638796.984 8  84512438.892 8     -1070.789          51.000
G31  21178881.328 6 111295773.390 6      -553.098          41.000    21178880.484 6  86723994.333 6      -430.988          38.000
R14  23386994.570 6 124665818.507 6     -4140.621          41.000    23386998.523 6  96962308.872 6     -3220.492          40.000
R15  19597421.180 8 104722656.821 8     -1849.910          51.000    19597426.250 8  81450972.397 8     -1438.819          49.000
R17  19739356.070 6 105629271.285 6     -2172.660          40.000    19739360.133 5  82156117.199 5     -1689.847          34.000
R18  19615720.500 8 104710151.019 8      1653.262          50.000    19615723.836 7  81441223.618 7      1285.870          47.000
C29  21887833.375 8 113975787.540 8      1216.277          51.000
C30  22349758.891 8 116381153.135 8     -1795.184          51.000
E01  23521649.648 8 123607108.488 8      -334.398          51.000    23521652.070 8  94711940.715 8      -256.257          51.000
E21  26123850.953 7 137281736.933 7     -2438.996          43.000    26123860.820 8 105189914.578 8     -1868.778          51.000
E26  22460359.539 8 118029968.169 8      -116.516          51.000    22460362.820 8  90438587.296 8       -89.278          51.000
E33  25085351.453 8 131824432.958 8      2420.766          48.000    25085353.062 8 101008359.694 8      1854.890          50.000
> 2020 05 08 12 27 30.0000000  0 14        .000000000000
G18  21407998.195 8 112499816.890 8      2543.758          50.000    21407997.898 7  87662172.894 7      1982.146          47.000
G25  22088334.734 6 116074986.081 6     -2643.359          41.000    22088338.188 6  90448046.653 6     -2059.764          40.000
G29  20646674.859 8 108498999.346 8     -1384.875          51.000    20646674.430 8  84544696.365 8     -1079.126          51.000
G31  21182094.516 7 111312660.585 7      -572.117          43.000    21182093.742 6  86737153.130 6      -445.809          38.000
R14  23410316.023 7 124790137.162 7     -4146.680          42.000    23410319.539 6  97059000.975 6     -3225.201          38.000
R15  19607868.867 8 104778483.796 8     -1871.266          51.000    19607873.508 8  81494393.400 8     -1455.429          50.000
R17  19751584.617 6 105694705.627 6     -2189.027          41.000    19751589.992 5  82207010.635 5     -1702.577          34.000
R18  19606488.617 8 104660871.866 8      1632.660          50.000    19606491.742 7  81402895.434 7      1269.850          47.000
C29  21880861.195 8 113939483.058 8      1204.711          51.000
C30  22360127.992 8 116435148.284 8     -1803.734          51.000
E01  23523590.336 8 123617306.588 8      -344.781          51.000    23523592.750 8  94719754.827 8      -264.195          51.000
E21  26137793.484 7 137355006.569 7     -2444.977          44.000    26137804.289 8 105246056.245 8     -1873.409          51.000
E26  22461063.492 8 118033666.474 8      -129.340          51.000    22461066.508 8  90441421.079 8       -99.105          51.000
E33  25071558.711 8 131751948.768 8      2412.246          50.000    25071560.078 8 100952819.868 8      1848.261          51.000
> 2020 05 08 12 28  0.0000000  0 14        .000000000000
G18  21393519.195 8 112423730.743 8      2528.871          50.000    21393519.617 8  87602884.991 8      1970.549          48.000
G25  22103450.984 6 116154419.953 6     -2652.184          41.000    22103453.242 6  90509943.138 6     -2066.637          41.000
G29  20654613.164 8 108540715.170 8     -1395.902          51.000    20654612.594 8  84577202.194 8     -1087.716          51.000
G31  21185416.570 7 111330117.056 7      -591.797          43.000    21185415.117 6  86750755.541 6      -461.143          41.000
R14  23433670.312 6 124914636.189 6     -4152.934          38.000    23433674.852 5  97155833.420 5     -3230.062          35.000
R15  19618436.023 8 104834948.529 8     -1892.836          51.000    19618440.477 8  81538310.398 8     -1472.206          50.000
R17  19763903.727 6 105760626.525 6     -2205.637          41.000    19763907.766 5  82258282.434 5     -1715.495          31.000
R18  19597373.203 8 104612210.716 8      1611.625          51.000    19597375.984 8  81365047.859 8      1253.483          48.000
C29  21873955.602 8 113903523.448 8      1192.758          51.000
C30  22370545.469 8 116489394.623 8     -1812.531          51.000
E01  23525589.633 8 123627812.848 8      -355.434          51.000    23525591.891 8  94727805.075 8      -272.366          51.000
E21  26151770.422 7 137428454.273 7     -2451.355          44.000    26151780.977 8 105302334.362 8     -1878.296          51.000
E26  22461839.852 8 118037745.993 8      -142.453          51.000    22461842.844 8  90444546.958 8      -109.155          51.000
E33  25057814.789 8 131679718.942 8      2403.316          51.000    25057815.820 8 100897474.946 8      1841.547          51.000
> 2020 05 08 12 28 30.0000000  0 14        .000000000000
G18  21379125.375 8 112348092.449 8      2514.539          49.000    21379126.422 8  87543946.078 8      1959.384          48.000
G25  22118619.211 6 116234126.955 6     -2660.629          40.000    22118620.859 6  90572052.483 6     -2073.217          41.000
G29  20662614.758 8 108582763.413 8     -1406.375          51.000    20662614.273 8  84609967.059 8     -1095.877          51.000
G31  21188849.750 7 111348157.252 7      -610.254          43.000    21188848.242 6  86764812.794 6      -475.523          40.000
R14  23457059.414 6 125039328.319 6     -4159.008          36.000    23457066.984 5  97252816.150 5     -3234.784          32.000
R15  19629124.930 8 104892064.915 8     -1914.039          51.000    19629129.094 8  81582734.245 8     -1488.697          50.000
R17  19776316.039 7 105827046.498 7     -2221.559          43.000    19776319.023 5  82309942.387 5     -1727.879          34.000
R18  19588376.617 8 104564183.152 8      1591.129          50.000    19588379.320 8  81327693.067 8      1237.545          49.000
C29  21867119.203 8 113867923.569 8      1181.395          51.000
C30  22381013.852 8 116543905.514 8     -1820.711          51.000
E01  23527650.555 8 123638642.863 8      -365.664          51.000    23527652.867 8  94736103.386 8      -280.196          51.000
E21  26165784.500 7 137502094.509 7     -2457.195          46.000    26165793.836 8 105358759.995 8     -1882.756          51.000
E26  22462691.547 8 118042221.100 8      -154.988          51.000    22462694.312 8  90447975.941 8      -118.706          51.000
E33  25044122.258 8 131607759.522 8      2394.824          51.000    25044123.070 8 100842337.224 8      1834.968          51.000
> 2020 05 08 12 29  0.0000000  0 14        .000000000000
G18  21364813.992 8 112272886.364 8      2499.723          50.000    21364815.375 8  87485343.962 8      1947.836          48.000
G25  22133835.500 6 116314088.581 6     -2669.441          40.000    22133837.602 6  90634360.169 6     -2080.084          41.000
G29  20670675.883 8 108625124.773 8     -1417.176          51.000    20670675.336 8  84642975.904 8     -1104.293          51.000
G31  21192390.461 7 111366763.100 7      -629.531          43.000    21192388.438 6  86779310.846 6      -490.544          40.000
R14  23480482.086 5 125164192.797 5     -4164.648          31.000    23480493.219 5  97349932.990 5     -3239.174          33.000
R15  19639932.156 8 104949814.027 8     -1935.414          51.000    19639936.227 8  81627650.207 8     -1505.322          50.000
R17  19788817.680 6 105893943.915 6     -2237.641          40.000    19788820.695 5  82361973.714 5     -1740.387          34.000
R18  19579495.242 8 104516771.507 8      1570.215          51.000    19579498.023 8  81290817.347 8      1221.278          49.000
C29  21860348.453 8 113832665.754 8      1169.590          51.000
C30  22391529.352 8 116598661.806 8     -1829.125          51.000
E01  23529769.836 8 123649779.356 8      -376.277          51.000    23529771.922 8  94744636.529 8      -288.316          51.000
E21  26179832.508 8 137575908.939 8     -2463.312          48.000    26179839.633 8 105415319.074 8     -1887.410          51.000
E26  22463615.188 8 118047073.322 8      -167.922          51.000    22463617.617 8  90451693.882 8      -128.691          51.000
E33  25030477.633 8 131536053.647 8      2386.020          50.000    25030478.656 8 100787393.757 8      1828.249          51.000
> 2020 05 08 12 29 30.0000000  0 14        .000000000000
G18  21350588.078 8 112198127.932 8      2484.922          50.000    21350589.211 8  87427090.670 8      1936.303          48.000
G25  22149102.734 6 116394317.177 6     -2678.422          41.000    22149104.789 6  90696875.946 6     -2087.085          41.000
G29  20678798.719 8 108667810.838 8     -1427.945          51.000    20678797.719 8  84676237.779 8     -1112.685          51.000
G31  21196041.078 7 111385947.148 7      -648.543          43.000    21196038.820 6  86794259.461 6      -505.358          41.000
R14  23503940.602 5 125289240.971 5     -4170.766          33.000    23503952.391 5  97447192.511 5     -3243.935          35.000
R15  19650859.969 8 105008208.096 8     -1956.824          51.000    19650863.656 8  81673067.780 8     -1521.974          48.000
R17  19801409.570 6 105961329.062 6     -2253.914          41.000    19801412.352 5  82414384.377 5     -1753.047          32.000
R18  19570731.727 8 104469989.673 8      1549.320          51.000    19570734.508 8  81254431.480 8      1205.027          48.000
C29  21853646.086 8 113797763.078 8      1157.957          51.000
C30  22402094.180 8 116653675.115 8     -1837.648          51.000
E01  23531950.078 8 123661236.100 8      -386.680          51.000    23531951.914 8  94753415.062 8      -296.296          51.000
E21  26193916.164 8 137649910.263 8     -2469.309          49.000    26193921.266 8 105472021.361 8     -1892.041          51.000
E26  22464612.719 8 118052315.230 8      -180.754          51.000    22464615.258 8  90455710.409 8      -138.452          51.000
E33  25016883.406 8 131464615.515 8      2377.273          49.000    25016885.117 8 100732655.432 8      1821.568          51.000
> 2020 05 08 12 30  0.0000000  0 14        .000000000000
G18  21336445.258 8 112123805.829 8      2469.730          51.000    21336445.836 8  87369177.390 8      1924.468          48.000
G25  22164418.180 7 116474798.568 7     -2687.277          42.000    22164419.898 7  90759588.692 7     -2093.982          42.000
G29  20686980.500 8 108710806.979 8     -1438.703          51.000    20686979.359 8  84709741.280 8     -1121.067          51.000
G31  21199799.133 7 111405695.184 7      -668.008          45.000    21199796.914 7  86809647.523 7      -520.529          42.000
R14  23527431.828 5 125414456.298 5     -4176.742          31.000    23527441.906 6  97544582.032 6     -3248.583          37.000
R15  19661905.555 8 105067232.407 8     -1978.293          51.000    19661908.609 7  81718975.545 7     -1538.675          46.000
R17  19814090.250 6 106029185.267 6     -2269.988          37.000    19814092.336 5  82467161.362 5     -1765.546          34.000
R18  19562083.117 8 104423824.430 8      1528.238          49.000    19562085.961 8  81218525.188 8      1188.630          48.000
C29  21847009.453 8 113763202.152 8      1146.098          51.000
C30  22412705.469 8 116708930.579 8     -1846.191          51.000
E01  23534188.805 8 123673000.200 8      -397.707          51.000    23534190.383 8  94762429.094 8      -304.656          51.000
E21  26208032.242 8 137724084.519 8     -2475.719          51.000    26208036.320 8 105528856.103 8     -1896.994          51.000
E26  22465681.703 8 118057932.635 8      -193.906          51.000    22465684.562 8  90460014.650 8      -148.586          51.000
E33  25003337.172 8 131393432.636 8      2368.129          49.000    25003340.047 8 100678112.705 8      1814.504          51.000
> 2020 05 08 12 30 30.0000000  0 14        .000000000000
G18  21322388.203 8 112049934.135 8      2454.762          51.000    21322388.211 7  87311615.063 7      1912.801          47.000
G25  22179784.047 6 116555543.846 6     -2695.852          41.000    22179785.641 6  90822507.049 6     -2100.667          41.000
G29  20695223.305 8 108754123.708 8     -1449.289          51.000    20695222.414 8  84743494.575 8     -1129.316          51.000
G31  21203666.914 7 111426018.479 7      -687.160          46.000    21203664.500 6  86825483.843 6      -535.449          41.000
R14  23550955.211 5 125539848.648 5     -4183.117          34.000    23550966.156 6  97642109.170 6     -3253.542          38.000
R15  19673070.805 8 105126897.952 8     -1999.688          51.000    19673073.445 7  81765382.036 7     -1555.316          45.000
R17  19826859.578 6 106097521.214 6     -2285.824          40.000    19826862.977 5  82520311.588 5     -1777.866          35.000
R18  19553551.680 8 104378288.008 8      1507.363          49.000    19553555.656 8  81183107.997 8      1172.394          49.000
C29  21840440.562 8 113728994.756 8      1134.273          51.000
C30  22423365.109 8 116764438.488 8     -1854.562          51.000
E01  23536488.438 8 123685084.080 8      -408.262          51.000    23536489.742 8  94771688.157 8      -312.791          51.000
E21  26222183.102 8 137798442.981 8     -2481.832          51.000    26222186.219 8 105585832.011 8     -1901.583          50.000
E26  22466824.203 8 118063936.790 8      -206.594          51.000    22466827.531 8  90464615.230 8      -158.320          51.000
E33  24989842.078 8 131322517.854 8      2359.242          49.000    24989845.805 8 100623775.405 8      1807.743          51.000
> 2020 05 08 12 31  0.0000000  0 14        .000000000000
G18  21308416.016 8 111976508.106 8      2439.477          51.000    21308415.242 7  87254399.993 7      1900.891          47.000
G25  22195197.984 6 116636545.204 6     -2705.156          36.000    22195200.320 6  90885624.976 6     -2107.914          36.000
G29  20703525.531 8 108797752.636 8     -1460.172          51.000    20703524.859 8  84777491.157 8     -1137.796          51.000
G31  21207642.570 7 111446909.498 7      -706.414          45.000    21207640.094 7  86841762.579 7      -550.449          42.000
R14  23574509.773 5 125665407.988 5     -4189.375          32.000    23574521.797 5  97739766.281 5     -3258.412          35.000
R15  19684354.750 8 105187196.621 8     -2021.168          51.000    19684357.031 7  81812280.958 7     -1572.023          45.000
R17  19839717.523 6 106166326.849 6     -2302.332          37.000    19839720.188 5  82573827.039 5     -1790.703          35.000
R18  19545137.211 8 104333373.903 8      1486.133          49.000    19545142.000 8  81148174.819 8      1155.878          48.000
C29  21833938.062 8 113695133.990 8      1122.215          51.000
C30  22434071.523 8 116820190.519 8     -1863.176          51.000
E01  23538847.516 8 123697481.363 8      -419.141          51.000    23538848.750 8  94781187.356 8      -321.160          51.000
E21  26236367.312 8 137872978.190 8     -2488.117          51.000    26236369.328 8 105642943.379 8     -1906.473          49.000
E26  22468038.758 8 118070320.080 8      -219.754          51.000    22468042.250 8  90469506.319 8      -168.371          51.000
E33  24976396.906 8 131251865.206 8      2350.105          49.000    24976400.961 8 100569638.966 8      1800.655          51.000
> 2020 05 08 12 31 30.0000000  0 14        .000000000000
G18  21294531.969 8 111903546.465 8      2424.703          50.000    21294530.742 7  87197546.766 7      1889.379          46.000
G25  22210661.805 5 116717818.428 5     -2712.691          32.000    22210666.211 5  90948954.781 5     -2113.782          34.000
G29  20711890.117 8 108841708.961 8     -1470.129          51.000    20711889.406 8  84811742.838 8     -1145.555          51.000
G31  21211728.844 7 111468384.601 7      -725.188          43.000    21211727.117 7  86858496.413 7      -565.081          42.000
R14  23598099.086 4 125791142.871 4     -4193.684          29.000    23598111.312 5  97837564.802 5     -3261.745          31.000
R15  19695760.570 8 105248143.978 8     -2041.891          51.000    19695762.414 7  81859684.398 7     -1588.137          47.000
R17  19852664.906 6 106235615.414 6     -2317.105          40.000    19852668.430 6  82627718.146 6     -1802.193          36.000
R18  19536842.688 8 104289099.235 8      1465.637          49.000    19536847.875 8  81113738.986 8      1139.940          48.000
C29  21827505.273 8 113661636.228 8      1111.039          51.000
C30  22444827.969 8 116876201.585 8     -1870.836          51.000
E01  23541269.336 8 123710209.154 8      -429.324          51.000    23541270.617 8  94790939.804 8      -328.978          51.000
E21  26250587.398 8 137947706.218 8     -2493.727          49.000    26250589.070 8 105700202.482 8     -1910.739          48.000
E26  22469328.602 8 118077098.421 8      -232.086          51.000    22469332.125 8  90474700.099 8      -177.847          51.000
E33  24963005.062 8 131181492.198 8      2341.531          50.000    24963008.750 8 100515716.791 8      1794.148          51.000
> 2020 05 08 12 32  0.0000000  0 13        .000000000000
G18  21280735.164 8 111831045.935 8      2409.164          49.000    21280734.617 8  87141052.835 8      1877.271          48.000
G25  22226176.562 6 116799348.417 6     -2722.121          38.000    22226182.883 6  91012491.692 6     -2121.130          39.000
G29  20720315.773 8 108885986.065 8     -1481.039          51.000    20720315.023 8  84846244.460 8     -1154.056          51.000
G31  21215924.695 7 111490437.499 7      -744.531          43.000    21215924.016 7  86875680.483 7      -580.154          43.000
R15  19707286.688 8 105309733.574 8     -2063.473          51.000    19707288.102 7  81907587.386 7     -1604.926          47.000
R17  19865702.320 6 106305378.535 6     -2333.180          39.000    19865706.227 6  82681978.325 6     -1814.695          36.000
R18  19528667.328 8 104245458.776 8      1444.312          51.000    19528672.078 7  81079796.437 7      1123.354          46.000
C29  21821140.797 8 113628496.111 8      1098.867          50.000
C30  22455632.953 8 116932464.935 8     -1879.492          51.000
E01  23543753.195 8 123723262.616 8      -440.398          51.000    23543754.594 8  94800941.799 8      -337.436          51.000
E21  26264842.156 8 138022621.124 8     -2500.055          48.000    26264844.148 7 105757604.755 7     -1915.596          47.000
E26  22470692.406 8 118084265.681 8      -245.219          51.000    22470696.336 8  90480191.900 8      -187.892          51.000
E33  24949665.961 8 131111394.423 8      2332.109          51.000    24949668.906 8 100462005.531 8      1787.001          51.000
> 2020 05 08 12 32 30.0000000  0 13        .000000000000
G18  21267020.695 8 111758978.297 8      2394.707          49.000    21267021.352 8  87084896.237 8      1866.005          49.000
G25  22241738.234 6 116881122.050 6     -2729.918          40.000    22241743.547 6  91076211.386 6     -2127.212          40.000
G29  20728796.352 8 108930551.937 8     -1490.645          51.000    20728795.562 8  84880971.103 8     -1161.541          51.000
G31  21220225.281 7 111513037.166 7      -762.668          45.000    21220224.641 7  86893290.638 7      -594.284          44.000
R15  19718926.531 8 105371933.049 8     -2083.832          51.000    19718927.773 7  81955964.769 7     -1620.758          47.000
R17  19878821.352 6 106375581.953 6     -2347.738          38.000    19878825.703 6  82736580.985 6     -1826.016          36.000
R18  19520605.766 8 104202422.123 8      1424.039          51.000    19520609.117 7  81046323.489 7      1107.586          46.000
C29  21814838.727 8 113595683.442 8      1087.941          49.000
C30  22466480.062 8 116988948.924 8     -1886.793          51.000
E01  23546293.367 8 123736611.863 8      -450.340          51.000    23546294.836 8  94811170.434 8      -345.099          51.000
E21  26279126.383 7 138097691.931 7     -2505.418          46.000    26279128.305 7 105815126.475 7     -1919.757          45.000
E26  22472124.422 8 118091790.784 8      -257.258          51.000    22472128.414 8  90485957.886 8      -197.087          51.000
E33  24936373.938 8 131041542.419 8      2323.918          51.000    24936376.234 8 100408482.597 8      1780.649          51.000
> 2020 05 08 12 33  0.0000000  0 13        .000000000000
G18  21253393.242 8 111687366.173 8      2379.402          50.000    21253394.758 8  87029094.601 8      1854.080          49.000
G25  22257348.719 7 116963150.061 7     -2738.547          42.000    22257353.031 7  91140129.201 7     -2133.936          42.000
G29  20737335.516 8 108975426.120 8     -1500.879          51.000    20737334.719 8  84915937.997 8     -1169.516          51.000
G31  21224633.844 7 111536203.225 7      -781.488          45.000    21224633.031 7  86911342.122 7      -608.952          44.000
R15  19730683.984 8 105434762.165 8     -2104.695          51.000    19730685.367 7  82004831.889 7     -1636.985          47.000
R17  19892026.844 6 106446243.352 6     -2362.984          40.000    19892030.562 5  82791539.808 5     -1837.880          35.000
R18  19512661.484 8 104160009.967 8      1403.316          51.000    19512663.812 7  81013336.275 7      1091.468          46.000
C29  21808603.570 8 113563218.559 8      1076.363          49.000
C30  22477373.062 8 117045672.475 8     -1894.848          51.000
E01  23548893.789 8 123750278.014 8      -460.832          51.000    23548895.117 8  94821641.882 8      -353.111          51.000
E21  26293444.203 7 138172938.676 7     -2511.164          46.000    26293445.516 7 105872782.966 7     -1924.013          44.000
E26  22473628.258 8 118099693.552 8      -269.664          51.000    22473632.062 8  90492013.251 8      -206.665          51.000
E33  24923132.875 8 130971957.628 8      2315.047          51.000    24923134.492 8 100355164.413 8      1773.849          51.000
> 2020 05 08 12 33 30.0000000  0 13        .000000000000
G18  21239854.195 8 111616216.880 8      2364.227          51.000    21239855.859 8  86973653.605 8      1842.254          48.000
G25  22273008.133 6 117045436.735 6     -2746.910          40.000    22273009.719 6  91204248.563 6     -2140.456          39.000
G29  20745934.055 8 109020612.240 8     -1511.121          51.000    20745933.281 8  84951147.953 8     -1177.497          51.000
G31  21229150.984 7 111559940.421 7      -800.375          45.000    21229150.102 7  86929838.592 7      -623.669          44.000
R15  19742560.258 8 105498225.176 8     -2125.691          51.000    19742561.211 7  82054191.975 7     -1653.316          46.000
R17  19905318.055 6 106517364.882 6     -2377.957          37.000    19905320.922 5  82846856.600 5     -1849.519          34.000
R18  19504835.258 8 104118228.344 8      1382.523          51.000    19504836.188 7  80980839.479 7      1075.296          46.000
C29  21802436.438 8 113531106.521 8      1064.734          49.000
C30  22488312.867 8 117102639.247 8     -1902.590          51.000
E01  23551555.484 8 123764266.777 8      -471.312          51.000    23551556.867 8  94832360.535 8      -361.082          51.000
E21  26307797.180 8 138248365.988 8     -2516.859          48.000    26307798.305 7 105930577.822 7     -1928.446          45.000
E26  22475204.727 8 118107978.485 8      -282.125          51.000    22475208.633 8  90498361.443 8      -216.105          51.000
E33  24909943.711 8 130902646.230 8      2306.281          51.000    24909944.719 8 100302055.710 8      1767.121          51.000
> 2020 05 08 12 34  0.0000000  0 14        .000000000000
G18  21226379.445 8 111545405.121 8      2359.695          51.000    21226380.719 7  86918475.643 7      1838.727          47.000
G25  22288691.852 6 117127853.935 6     -2744.398          37.000    22288690.961 6  91268469.646 6     -2138.495          37.000
G29  20754567.438 8 109065981.183 8     -1510.363          51.000    20754566.750 8  84986500.374 8     -1176.906          51.000
G31  21233752.039 7 111584120.586 7      -808.516          43.000    21233751.070 7  86948680.252 7      -630.012          43.000
R15  19754530.867 8 105562191.186 8     -2135.500          51.000    19754531.734 7  82103943.257 7     -1660.947          46.000
R17  19918669.992 6 106588813.616 6     -2382.152          40.000    19918671.828 5  82902427.814 5     -1852.788          31.000
R18  19497102.555 8 104076947.756 8      1372.664          51.000    19497102.383 7  80948732.353 7      1067.628          47.000
C29  21796312.844 8 113499221.057 8      1064.004          49.000
C30  22499274.906 8 117159721.598 8     -1899.750          51.000
E01  23554254.453 8 123778451.280 8      -471.270          51.000    23554256.258 8  94843229.170 8      -361.079          51.000
E13  26355670.094 6 138499950.968 6     -2597.148          37.000
E21  26322160.469 8 138323845.928 8     -2512.066          49.000    26322162.414 7 105988413.023 7     -1924.788          47.000
E26  22476829.609 8 118116517.489 8      -283.992          51.000    22476833.750 8  90504904.326 8      -217.646          51.000
E33  24896782.281 8 130833481.796 8      2307.918          51.000    24896782.664 8 100249059.619 8      1768.360          51.000
> 2020 05 08 12 34 30.0000000  0 14        .000000000000
G18  21213047.680 8 111475346.281 8      2332.684          49.000    21213048.477 7  86863884.393 7      1817.679          46.000
G25  22304477.266 5 117210814.025 5     -2764.445          34.000    22304477.750 5  91333113.904 5     -2154.110          33.000
G29  20763314.148 8 109111945.306 8     -1531.973          51.000    20763313.500 8  85022316.563 8     -1193.745          51.000
G31  21238515.508 7 111609156.330 7      -838.961          43.000    21238515.055 7  86968188.573 7      -653.736          43.000
R15  19766673.891 8 105627079.063 8     -2168.094          51.000    19766674.812 8  82154411.532 8     -1686.298          48.000
R17  19932161.758 6 106661007.226 6     -2408.938          37.000    19932164.422 5  82958578.425 5     -1873.615          32.000
R18  19489541.664 8 104036588.076 8      1340.203          51.000    19489541.953 8  80917341.522 8      1042.383          48.000
C29  21790311.828 8 113467971.673 8      1040.930          51.000
C30  22510337.555 8 117217327.620 8     -1919.039          51.000
E01  23557069.648 8 123793245.375 8      -493.242          51.000    23557071.570 8  94854564.900 8      -377.975          51.000
E13  26370605.984 6 138578432.357 6     -2613.129          38.000
E21  26336612.094 7 138399791.288 7     -2529.207          47.000    26336615.539 8 106046604.877 8     -1938.021          48.000
E26  22478581.297 8 118125723.141 8      -307.973          51.000    22478585.594 8  90511958.007 8      -235.970          51.000
E33  24883727.344 8 130764878.575 8      2287.426          51.000    24883727.070 8 100196493.529 8      1752.643          51.000
> 2020 05 08 12 35  0.0000000  0 14        .000000000000
G18  21199768.328 8 111405563.990 8      2318.211          48.000    21199768.750 7  86809508.620 7      1806.398          46.000
G25  22320275.766 6 117293837.930 6     -2771.895          38.000    22320277.203 6  91397807.862 6     -2159.918          39.000
G29  20772082.789 8 109158024.731 8     -1541.137          51.000    20772082.180 8  85058222.603 8     -1200.886          51.000
G31  21243351.102 7 111634568.167 7      -856.535          46.000    21243350.883 7  86987989.997 7      -667.430          46.000
R15  19778898.250 8 105692400.926 8     -2188.027          51.000    19778899.516 8  82205217.400 8     -1701.799          49.000
R17  19945700.180 6 106733455.443 6     -2422.590          39.000    19945704.992 4  83014927.051 4     -1884.243          27.000
R18  19482061.758 8 103996663.613 8      1320.180          51.000    19482063.188 8  80886289.161 8      1026.803          49.000
C29  21784342.570 8 113436884.130 8      1030.277          51.000
C30  22521409.484 8 117274981.743 8     -1925.824          51.000
E01  23559909.875 8 123808171.085 8      -503.062          51.000    23559911.906 8  94866001.474 8      -385.452          51.000
E13  26385531.805 6 138656863.602 6     -2617.023          38.000
E21  26351061.336 8 138475723.017 8     -2534.188          48.000    26351066.062 8 106104786.298 8     -1941.777          49.000
E26  22480368.672 8 118135116.219 8      -319.570          51.000    22480372.953 8  90519155.303 8      -244.866          51.000
E33  24870688.023 8 130696358.976 8      2279.250          51.000    24870687.281 8 100143991.500 8      1746.444          50.000
> 2020 05 08 12 35 30.0000000  0 14        .000000000000
G18  21186579.602 7 111336260.947 7      2302.734          45.000    21186580.547 7  86755506.257 7      1794.338          45.000
G25  22336125.766 6 117377125.457 6     -2780.246          41.000    22336126.422 7  91462707.202 7     -2166.429          42.000
G29  20780911.336 8 109204418.863 8     -1551.152          51.000    20780910.781 8  85094373.868 8     -1208.693          51.000
G31  21248296.633 7 111660556.096 7      -875.461          46.000    21248296.219 7  87008240.341 7      -682.177          46.000
R15  19791241.805 8 105758359.645 8     -2208.625          51.000    19791243.375 8  82256518.618 8     -1717.819          50.000
R17  19959324.867 5 106806359.010 5     -2437.527          33.000    19959327.211 4  83071640.777 4     -1895.849          27.000
R18  19474701.703 8 103957378.194 8      1299.383          51.000    19474704.281 8  80855733.821 8      1010.631          49.000
C29  21778442.492 8 113406157.145 8      1018.633          51.000
C30  22532528.523 8 117332881.314 8     -1933.508          51.000
E01  23562813.422 8 123823429.557 8      -513.727          51.000    23562815.523 8  94877693.020 8      -393.593          51.000
E13  26400485.547 6 138735443.792 6     -2620.980          39.000
E21  26365546.469 8 138551841.187 8     -2539.887          48.000    26365552.047 8 106163110.593 8     -1946.132          50.000
E26  22482229.844 8 118144896.613 8      -331.977          51.000    22482234.164 8  90526649.382 8      -254.384          51.000
E33  24857702.961 8 130628124.580 8      2270.238          51.000    24857702.164 8 100091707.996 8      1739.533          50.000
> 2020 05 08 12 36  0.0000000  0 14        .000000000000
G18  21173480.695 7 111267431.339 7      2287.191          45.000    21173482.656 7  86701872.782 7      1782.227          45.000
G25  22352024.195 6 117460667.901 6     -2788.398          41.000    22352025.578 6  91527805.108 6     -2172.781          41.000
G29  20789798.023 8 109251118.392 8     -1561.078          51.000    20789797.539 8  85130763.116 8     -1216.425          51.000
G31  21253350.211 7 111687111.858 7      -894.000          46.000    21253349.742 7  87028933.111 7      -696.623          46.000
R15  19803702.219 8 105824945.627 8     -2229.359          51.000    19803704.484 8  82308307.711 8     -1733.946          50.000
R17  19973030.734 6 106879707.050 6     -2451.824          40.000    19973034.312 4  83128689.297 4     -1906.977          29.000
R18  19467459.703 8 103918724.204 8      1278.531          50.000    19467463.578 8  80825669.641 8       994.413          49.000
C29  21772609.766 8 113375782.863 8      1007.129          51.000
C30  22543692.812 8 117391017.134 8     -1941.281          51.000
E01  23565779.039 8 123839013.455 8      -524.391          51.000    23565781.273 8  94889633.912 8      -401.779          51.000
E13  26415465.891 6 138814163.592 6     -2626.012          39.000
E21  26380065.883 8 138628137.376 8     -2545.598          49.000    26380071.352 8 106221571.298 8     -1950.568          50.000
E26  22484163.148 8 118155055.743 8      -344.398          51.000    22484167.438 8  90534433.653 8      -263.911          51.000
E33  24844771.055 8 130560168.378 8      2261.094          51.000    24844770.758 8 100039637.660 8      1732.505          51.000
> 2020 05 08 12 36 30.0000000  0 14        .000000000000
G18  21160472.344 7 111199072.675 7      2270.363          47.000    21160474.570 7  86648606.271 7      1769.114          46.000
G25  22367969.859 7 117544459.973 7     -2797.777          42.000    22367972.359 7  91593097.542 7     -2180.086          42.000
G29  20798741.727 8 109298117.364 8     -1571.996          51.000    20798741.250 8  85167385.691 8     -1224.932          51.000
G31  21258510.664 7 111714229.563 7      -913.680          47.000    21258509.961 7  87050063.752 7      -711.958          47.000
R15  19816278.906 8 105892152.856 8     -2250.941          51.000    19816281.609 8  82360580.006 8     -1750.732          49.000
R17  19986820.023 6 106953491.659 6     -2467.281          36.000    19986823.164 4  83186077.272 4     -1918.993          29.000
R18  19460335.766 8 103880697.020 8      1256.664          50.000    19460340.375 8  80796092.951 8       977.405          50.000
C29  21766844.008 8 113345756.781 8       994.629          51.000
C30  22554901.367 8 117449383.315 8     -1949.750          51.000
E01  23568805.961 8 123854918.787 8      -535.840          51.000    23568808.320 8  94901821.101 8      -410.588          51.000
E13  26430471.266 6 138893016.998 6     -2630.582          38.000
E21  26394618.422 8 138704606.543 8     -2552.129          49.000    26394622.844 8 106280164.540 8     -1955.545          49.000
E26  22486167.398 8 118165588.353 8      -357.598          51.000    22486171.414 8  90542504.106 8      -273.991          51.000
E33  24831891.672 8 130492486.839 8      2251.137          51.000    24831892.281 8  99987777.787 8      1724.864          51.000
> 2020 05 08 12 37  0.0000000  0 14        .000000000000
G18  21147556.766 8 111131198.288 8      2254.789          49.000    21147558.797 7  86595717.148 7      1756.982          46.000
G25  22383964.680 6 117628512.084 6     -2805.652          39.000    22383968.148 6  91658592.682 6     -2186.226          39.000
G29  20807744.359 8 109345425.946 8     -1581.633          51.000    20807743.727 8  85204249.522 8     -1232.441          51.000
G31  21263780.172 8 111741919.746 8      -932.148          48.000    21263778.484 8  87071640.512 8      -726.349          48.000
R15  19828973.953 8 105959991.801 8     -2271.445          51.000    19828977.047 8  82413343.606 8     -1766.680          49.000
R17  20000690.602 6 107027721.185 6     -2481.473          39.000    20000693.766 4  83243811.306 4     -1930.034          29.000
R18  19453331.531 8 103843308.236 8      1236.145          50.000    19453336.648 8  80767012.797 8       961.446          49.000
C29  21761146.758 8 113316089.977 8       983.391          50.000
C30  22566156.250 8 117507989.670 8     -1957.094          51.000
E01  23571896.195 8 123871157.401 8      -546.426          51.000    23571898.906 8  94914263.658 8      -418.669          51.000
E13  26445503.812 6 138972013.916 6     -2635.070          37.000
E21  26409205.797 8 138781259.444 8     -2557.590          49.000    26409208.992 8 106338898.573 8     -1959.813          49.000
E26  22488244.859 8 118176505.053 8      -369.836          51.000    22488248.367 8  90550868.852 8      -283.357          51.000
E33  24819067.078 8 130425092.221 8      2242.148          51.000    24819068.594 8  99936137.755 8      1718.022          51.000
> 2020 05 08 12 37 30.0000000  0 14        .000000000000
G18  21134730.938 8 111063795.084 8      2238.707          49.000    21134732.523 7  86543195.207 7      1744.447          46.000
G25  22400004.695 6 117712808.519 6     -2813.844          37.000    22400009.203 6  91724278.179 6     -2192.606          38.000
G29  20816802.742 8 109393027.559 8     -1591.652          51.000    20816801.969 8  85241341.689 8     -1240.249          51.000
G31  21269155.484 8 111770166.703 8      -951.055          48.000    21269153.141 8  87093651.132 8      -741.082          48.000
R15  19841783.680 8 106028445.372 8     -2292.176          51.000    19841787.312 8  82466585.196 8     -1782.803          48.000
R17  20014642.594 6 107102377.264 6     -2496.043          40.000    20014646.156 5  83301877.099 5     -1941.367          32.000
R18  19446444.172 8 103806542.465 8      1214.980          51.000    19446448.953 8  80738417.174 8       944.985          49.000
C29  21755514.977 8 113286767.440 8       971.594          50.000
C30  22577454.195 8 117566819.857 8     -1964.852          51.000
E01  23575047.094 8 123887714.660 8      -557.332          51.000    23575049.797 8  94926950.385 8      -427.103          51.000
E13  26460560.883 6 139051137.756 6     -2639.637          38.000
E21  26423824.453 8 138858080.503 8     -2563.605          48.000    26423827.516 8 106397761.396 8     -1964.366          49.000
E26  22490392.477 8 118187789.998 8      -382.438          51.000    22490395.680 8  90559515.756 8      -293.028          51.000
E33  24806294.531 8 130357970.297 8      2232.754          51.000    24806296.578 8  99884706.692 8      1710.776          51.000
> 2020 05 08 12 38  0.0000000  0 14        .000000000000
G18  21121996.258 8 110996871.586 8      2222.934          50.000    21121997.531 7  86491047.077 7      1732.159          47.000
G25  22416092.914 6 117797354.778 6     -2822.301          38.000    22416098.383 6  91790158.357 6     -2199.198          37.000
G29  20825917.758 8 109440927.402 8     -1601.520          51.000    20825917.156 8  85278666.235 8     -1247.937          51.000
G31  21274637.766 8 111798975.993 8      -969.512          48.000    21274635.562 8  87116099.911 8      -755.464          48.000
R15  19854709.602 8 106097518.847 8     -2312.660          51.000    19854713.133 8  82520308.954 8     -1798.736          48.000
R17  20028674.359 6 107177462.916 6     -2509.672          39.000    20028677.102 4  83360278.051 4     -1951.970          28.000
R18  19439675.367 8 103770406.558 8      1194.137          51.000    19439679.258 8  80710311.466 8       928.773          49.000
C29  21749950.695 8 113257795.496 8       959.961          49.000
C30  22588795.898 8 117625878.814 8     -1972.406          51.000
E01  23578259.969 8 123904597.578 8      -568.012          51.000    23578262.594 8  94939886.631 8      -435.221          51.000
E13  26475643.539 6 139130393.419 6     -2643.629          38.000
E21  26438476.141 8 138935075.531 8     -2569.293          49.000    26438479.273 8 106456757.497 8     -1968.553          48.000
E26  22492611.031 8 118199448.810 8      -394.691          51.000    22492614.172 8  90568449.151 8      -302.378          51.000
E33  24793575.453 8 130291128.437 8      2223.551          51.000    24793577.508 8  99833490.213 8      1703.727          51.000
> 2020 05 08 12 38 30.0000000  0 14        .000000000000
G18  21109352.492 8 110930426.402 8      2206.590          50.000    21109353.445 8  86439271.624 8      1719.424          48.000
G25  22432227.719 6 117882146.679 6     -2830.508          37.000    22432233.656 6  91856229.952 6     -2205.591          36.000
G29  20835088.648 8 109489120.758 8     -1611.500          51.000    20835088.336 8  85316219.485 8     -1255.714          51.000
G31  21280226.320 8 111828343.202 8      -988.449          48.000    21280224.352 8  87138983.445 8      -770.220          48.000
R15  19867750.586 8 106167207.411 8     -2333.344          49.000    19867754.125 7  82574511.140 7     -1814.826          47.000
R17  20042786.148 6 107252971.687 6     -2523.711          38.000    20042784.445 4  83418994.979 4     -1962.889          29.000
R18  19433023.727 8 103734896.821 8      1173.023          51.000    19433026.758 8  80682692.810 8       912.349          48.000
C29  21744452.984 8 113229170.666 8       948.121          48.000
C30  22600180.414 8 117685161.811 8     -1980.012          51.000
E01  23581534.266 8 123921803.223 8      -579.051          51.000    23581536.859 8  94953070.168 8      -443.685          51.000
E13  26490750.320 6 139209776.105 6     -2648.086          37.000
E21  26453160.289 8 139012240.584 8     -2575.094          49.000    26453163.094 7 106515883.880 7     -1973.133          47.000
E26  22494900.156 8 118211477.437 8      -407.199          51.000    22494902.992 8  90577665.886 8      -312.049          51.000
E33  24780909.180 8 130224564.214 8      2214.023          51.000    24780910.656 8  99782486.478 8      1696.474          51.000
> 2020 05 08 12 39  0.0000000  0 14        .000000000000
G18  21096801.438 8 110864469.354 8      2190.219          50.000    21096802.273 8  86387876.538 8      1706.667          48.000
G25  22448410.984 6 117967191.315 6     -2839.117          37.000    22448415.719 6  91922498.507 6     -2212.299          38.000
G29  20844316.641 8 109537614.315 8     -1621.590          51.000    20844316.438 8  85354006.644 8     -1263.577          51.000
G31  21285922.195 8 111858275.386 8     -1007.219          48.000    21285920.516 8  87162307.211 8      -784.846          48.000
R15  19880907.141 7 106237517.280 7     -2354.344          47.000    19880911.578 8  82629196.611 8     -1831.153          48.000
R17  20056976.781 6 107328908.449 6     -2538.770          37.000    20056977.531 5  83478057.023 5     -1974.595          33.000
R18  19426490.727 8 103700021.130 8      1151.723          51.000    19426493.328 8  80655567.250 8       895.781          48.000
C29  21739023.320 8 113200900.593 8       936.188          48.000
C30  22611609.195 8 117744675.249 8     -1987.797          51.000
E01  23584871.477 8 123939339.998 8      -590.254          51.000    23584873.977 8  94966507.432 8      -452.269          51.000
E13  26505881.812 5 139289292.277 5     -2652.910          35.000
E21  26467878.180 8 139089582.990 8     -2581.148          49.000    26467879.445 7 106575146.174 7     -1977.853          45.000
E26  22497261.086 8 118223882.929 8      -419.980          51.000    22497263.555 8  90587171.383 8      -321.806          51.000
E33  24768297.062 8 130158286.318 8      2204.285          51.000    24768297.664 8  99731702.142 8      1688.983          51.000
> 2020 05 08 12 39 30.0000000  0 14        .000000000000
G18  21084342.391 8 110798997.321 8      2174.293          49.000    21084343.352 8  86336859.399 8      1694.254          48.000
G25  22464642.047 6 118052482.786 6     -2847.297          37.000    22464642.602 6  91988959.400 6     -2218.679          37.000
G29  20853600.492 8 109586401.361 8     -1631.133          51.000    20853600.188 8  85392022.500 8     -1271.013          51.000
G31  21291724.188 7 111888766.572 7     -1025.656          47.000    21291722.711 7  87186066.552 7      -799.213          47.000
R15  19894179.406 8 106308441.855 8     -2374.375          50.000    19894183.906 7  82684360.211 7     -1846.736          47.000
R17  20071244.812 6 107405264.921 6     -2552.320          39.000    20071247.125 4  83537445.395 4     -1985.141          29.000
R18  19420075.266 8 103665774.581 8      1131.059          51.000    19420078.109 8  80628931.035 8       879.712          48.000
C29  21733661.250 8 113172980.162 8       924.930          49.000
C30  22623081.055 8 117804412.694 8     -1994.922          51.000
E01  23588270.672 8 123957203.293 8      -600.926          51.000    23588273.023 8  94980194.884 8      -460.453          51.000
E13  26521036.227 5 139368988.394 5     -2656.641          35.000
E21  26482628.227 8 139167097.101 8     -2586.688          48.000    26482627.578 7 106634540.060 7     -1982.007          44.000
E26  22499692.352 8 118236659.401 8      -432.102          51.000    22499694.844 8  90596961.168 8      -331.082          51.000
E33  24755738.109 8 130092290.601 8      2195.105          51.000    24755738.133 8  99681134.032 8      1681.961          51.000
> 2020 05 08 12 40  0.0000000  0 14        .000000000000
G18  21071974.992 8 110734006.809 8      2158.758          50.000    21071976.070 8  86286217.470 8      1682.149          48.000
G25  22480918.984 6 118138014.972 6     -2854.910          40.000    22480917.711 6  92055607.797 6     -2224.605          40.000
G29  20862939.008 8 109635475.379 8     -1640.246          51.000    20862938.648 8  85430261.973 8     -1278.114          51.000
G31  21297631.320 7 111919810.212 7     -1043.566          47.000    21297629.672 7  87210256.405 7      -813.172          47.000
R15  19907566.023 8 106379974.298 8     -2394.195          51.000    19907570.008 7  82739996.484 7     -1862.155          44.000
R17  20085592.258 5 107482032.342 5     -2565.363          33.000    20085590.680 5  83597153.282 5     -1995.280          31.000
R18  19413776.500 8 103632151.436 8      1110.824          51.000    19413778.672 7  80602779.745 7       863.974          46.000
C29  21728365.883 8 113145403.876 8       913.844          51.000
C30  22634594.703 8 117864367.408 8     -2001.719          51.000
E01  23591730.977 8 123975388.127 8      -611.020          51.000    23591733.320 8  94994128.707 8      -468.250          51.000
E13  26536213.047 6 139448751.488 6     -2660.027          36.000
E21  26497409.453 7 139244776.835 7     -2591.672          46.000    26497408.375 7 106694060.878 7     -1985.818          44.000
E26  22502193.156 8 118249800.666 8      -443.711          51.000    22502195.586 8  90607030.460 8      -339.971          51.000
E33  24743231.438 8 130026572.488 8      2186.402          50.000    24743231.914 8  99630778.628 8      1675.286          51.000
> 2020 05 08 12 40 30.0000000  0 14        .000000000000
G18  21059698.609 8 110669493.535 8      2142.449          51.000    21059699.594 8  86235947.411 8      1669.444          48.000
G25  22497240.812 7 118223780.615 7     -2862.848          42.000    22497240.336 7  92122438.124 7     -2230.790          42.000
G29  20872330.797 8 109684828.914 8     -1649.688          51.000    20872330.359 8  85468719.261 8     -1285.471          51.000
G31  21303642.031 7 111951399.128 7     -1061.969          47.000    21303640.352 7  87234871.129 7      -827.508          47.000
R15  19921065.086 8 106452106.476 8     -2414.363          51.000    19921067.758 7  82796099.231 7     -1877.838          42.000
R17  20100012.711 5 107559200.973 5     -2579.129          34.000    20100012.219 5  83657173.479 5     -2005.989          34.000
R18  19407592.977 8 103599145.244 8      1089.945          50.000    19407594.391 7  80577108.301 7       847.735          46.000
C29  21723135.586 8 113118165.363 8       902.434          50.000
C30  22646148.773 8 117924531.719 8     -2008.863          51.000
E01  23595251.570 8 123993888.726 8      -621.957          51.000    23595253.906 8  95008304.474 8      -476.484          51.000
E13  26551411.969 6 139528626.863 6     -2664.355          38.000
E21  26512220.586 7 139322615.444 7     -2597.336          45.000    26512221.195 7 106753703.407 7     -1990.008          46.000
E26  22504761.789 8 118263299.634 8      -455.852          51.000    22504764.203 8  90617373.834 8      -349.313          51.000
E33  24730776.289 8 129961126.571 8      2177.027          49.000    24730778.234 8  99580631.790 8      1668.091          51.000
> 2020 05 08 12 41  0.0000000  0 14        .000000000000
G18  21047514.734 8 110605466.027 8      2126.328          51.000    21047515.414 7  86186055.848 7      1656.879          47.000
G25  22513607.852 6 118309785.654 6     -2870.750          41.000    22513608.859 6  92189454.954 6     -2236.951          41.000
G29  20881776.727 8 109734467.309 8     -1659.223          51.000    20881776.133 8  85507398.500 8     -1292.901          51.000
G31  21309757.742 8 111983538.979 8     -1080.324          48.000    21309756.383 8  87259915.143 8      -841.814          48.000
R15  19934677.500 8 106524843.572 8     -2434.461          51.000    19934679.211 7  82852672.432 7     -1893.470          43.000
R17  20114509.234 6 107636774.662 6     -2592.371          37.000    20114509.102 5  83717508.530 5     -2016.292          34.000
R18  19401525.930 8 103566762.517 8      1069.148          48.000    19401528.266 8  80551921.748 8       831.563          48.000
C29  21717971.289 8 113091271.129 8       890.957          50.000
C30  22657744.156 8 117984910.913 8     -2016.094          51.000
E01  23598833.664 8 124012712.199 8      -632.652          51.000    23598835.836 8  95022727.631 8      -484.775          51.000
E13  26566633.977 6 139608619.675 6     -2668.164          39.000
E21  26527063.375 7 139400618.925 7     -2602.656          45.000    26527065.742 7 106813472.276 7     -1994.237          46.000
E26  22507399.500 8 118277162.186 8      -468.023          51.000    22507401.898 8  90627995.792 8      -358.573          51.000
E33  24718374.805 8 129895960.446 8      2167.699          49.000    24718378.445 8  99530699.292 8      1660.967          51.000
> 2020 05 08 12 41 30.0000000  0 14        .000000000000
G18  21035423.281 8 110541924.642 8      2110.316          50.000    21035423.562 8  86136543.088 8      1644.402          48.000
G25  22530019.891 7 118396027.637 7     -2878.148          43.000    22530021.500 7  92256656.495 7     -2242.713          43.000
G29  20891276.234 8 109784387.881 8     -1668.238          51.000    20891275.539 8  85546297.633 8     -1299.929          51.000
G31  21315978.234 8 112016227.524 8     -1098.180          48.000    21315977.531 8  87285386.717 8      -855.724          48.000
R15  19948401.945 8 106598182.359 8     -2454.133          51.000    19948404.016 7  82909713.666 7     -1908.773          46.000
R17  20129079.266 5 107714748.498 5     -2605.043          35.000    20129080.086 5  83778154.879 5     -2026.141          35.000
R18  19395575.719 8 103535001.761 8      1048.734          49.000    19395578.891 8  80527218.948 8       815.682          49.000
C29  21712872.758 8 113064719.524 8       879.762          51.000
C30  22669380.102 8 118045502.077 8     -2022.836          51.000
E01  23602476.984 8 124031857.522 8      -643.141          51.000    23602478.844 8  95037397.407 8      -492.829          51.000
E13  26581878.117 6 139688727.084 6     -2671.742          38.000
E21  26541937.562 7 139478785.243 7     -2607.840          46.000    26541941.141 7 106873365.913 7     -1998.182          47.000
E26  22510106.211 8 118291385.992 8      -479.734          51.000    22510108.625 8  90638894.556 8      -367.586          51.000
E33  24706027.195 8 129831073.401 8      2158.609          50.000    24706032.016 8  99480980.646 8      1654.014          51.000
> 2020 05 08 12 42  0.0000000  0 14        .000000000000
G18  21023424.953 8 110478873.621 8      2093.648          50.000    21023425.117 8  86087412.450 8      1631.414          48.000
G25  22546476.781 6 118482508.142 6     -2886.812          40.000    22546479.133 6  92324043.843 6     -2249.464          40.000
G29  20900829.531 8 109834591.313 8     -1677.980          51.000    20900828.969 8  85585417.174 8     -1307.517          51.000
G31  21322303.375 8 112049465.539 8     -1116.973          49.000    21322303.586 8  87311286.440 8      -870.368          49.000
R15  19962238.750 8 106672123.689 8     -2474.660          50.000    19962241.945 8  82967223.571 8     -1924.739          48.000
R17  20143724.594 6 107793122.045 6     -2618.898          39.000    20143727.203 6  83839112.028 6     -2036.924          37.000
R18  19389742.648 8 103503865.249 8      1027.625          48.000    19389746.336 8  80503001.634 8       799.261          48.000
C29  21707840.469 8 113038512.722 8       867.863          51.000
C30  22681056.945 8 118106306.164 8     -2030.176          51.000
E01  23606181.867 8 124051327.447 8      -654.301          51.000    23606183.641 8  95052315.887 8      -501.377          51.000
E13  26597144.109 6 139768949.952 6     -2675.859          38.000
E21  26556843.789 7 139557116.109 7     -2613.770          46.000    26556848.344 8 106933385.628 8     -2002.717          49.000
E26  22512881.852 8 118305972.574 8      -492.148          51.000    22512884.555 8  90650071.294 8      -377.143          51.000
E33  24693734.047 8 129766468.577 8      2148.871          51.000    24693739.141 8  99431478.255 8      1646.535          51.000
> 2020 05 08 12 42 30.0000000  0 14        .000000000000
G18  21011520.180 8 110416313.832 8      2076.852          51.000    21011520.203 8  86038664.585 8      1618.329          49.000
G25  22562977.953 6 118569225.098 6     -2894.633          39.000    22562980.812 6  92391615.419 6     -2255.558          39.000
G29  20910436.172 8 109885075.189 8     -1687.547          51.000    20910435.852 8  85624755.249 8     -1314.969          51.000
G31  21328732.898 8 112083251.389 8     -1135.434          49.000    21328733.742 8  87337613.080 8      -884.753          49.000
R15  19976187.961 8 106746664.742 8     -2494.855          51.000    19976192.062 8  83025199.960 8     -1940.443          50.000
R17  20158445.578 5 107871890.754 5     -2632.047          32.000    20158447.875 6  83900376.629 6     -2047.138          37.000
R18  19384026.055 8 103473351.456 8      1006.699          48.000    19384030.250 8  80479268.696 8       782.991          48.000
C29  21702873.734 8 113012649.478 8       856.223          51.000
C30  22692774.336 8 118167320.771 8     -2037.512          50.000
E01  23609948.484 8 124071121.390 8      -665.469          51.000    23609950.281 8  95067482.649 8      -509.893          51.000
E13  26612431.094 6 139849285.832 6     -2679.934          37.000
E21  26571781.000 7 139635609.917 7     -2619.438          47.000    26571786.969 8 106993530.173 8     -2007.000          51.000
E26  22515726.125 8 118320920.040 8      -504.508          51.000    22515729.031 8  90661524.551 8      -386.526          51.000
E33  24681494.859 8 129702145.796 8      2139.211          51.000    24681499.562 8  99382191.986 8      1639.103          51.000
> 2020 05 08 12 43  0.0000000  0 14        .000000000000
G18  20999681.906 8 110354103.488 8      2059.246          50.000    20999682.125 8  85990189.004 8      1604.607          49.000
G25  22579496.180 6 118656034.265 6     -2903.895          38.000    22579498.680 6  92459258.882 6     -2262.775          38.000
G29  20920068.680 8 109935694.942 8     -1698.129          51.000    20920068.523 8  85664199.207 8     -1323.217          51.000
G31  21335238.930 8 112117440.108 8     -1154.820          48.000    21335239.766 8  87364253.623 8      -899.863          48.000
R15  19990222.203 8 106821657.891 8     -2516.020          51.000    19990226.438 8  83083527.977 8     -1956.904          50.000
R17  20173210.250 6 107950905.327 6     -2646.586          37.000    20173212.141 5  83961832.362 5     -2058.459          35.000
R18  19378399.281 8 103443314.567 8       984.547          50.000    19378403.039 8  80455906.663 8       765.759          49.000
C29  21697945.461 8 112986987.410 8       843.625          51.000
C30  22704504.484 8 118228402.201 8     -2045.668          50.000
E01  23613749.633 8 124091096.195 8      -677.488          51.000    23613751.375 8  95082787.992 8      -519.058          51.000
E13  26627711.688 6 139929589.671 6     -2684.562          37.000
E21  26586721.672 7 139714122.448 7     -2625.926          46.000    26586729.203 8 107053689.069 8     -2012.106          51.000
E26  22518611.727 8 118336083.981 8      -517.656          51.000    22518614.695 8  90673143.681 8      -396.700          51.000
E33  24669282.016 8 129637962.327 8      2128.523          51.000    24669285.938 8  99333012.443 8      1630.956          51.000
> 2020 05 08 12 43 30.0000000  0 14        .000000000000
G18  20987976.156 8 110292589.565 8      2043.535          50.000    20987976.484 8  85942256.091 8      1592.365          49.000
G25  22596098.000 6 118743279.837 6     -2910.770          40.000    22596099.398 6  92527242.405 6     -2268.135          40.000
G29  20929792.484 8 109986794.286 8     -1706.590          51.000    20929792.320 8  85704016.873 8     -1329.810          51.000
G31  21341887.008 8 112152375.653 8     -1172.410          48.000    21341886.805 8  87391476.104 8      -913.566          48.000
R15  20004406.422 8 106897452.407 8     -2535.121          51.000    20004410.266 8  83142479.244 8     -1971.764          49.000
R17  20188087.805 5 108030514.211 5     -2658.629          35.000    20188089.531 6  84023750.364 6     -2067.819          36.000
R18  19372927.656 8 103414104.754 8       964.605          50.000    19372931.422 8  80433187.915 8       750.249          50.000
C29  21693121.633 8 112961868.362 8       832.875          51.000
C30  22716312.625 8 118289891.124 8     -2051.715          49.000
E01  23617650.930 8 124111597.459 8      -687.566          51.000    23617652.781 8  95098496.727 8      -526.825          51.000
E13  26643051.258 6 140010205.256 6     -2687.551          36.000
E21  26601731.156 7 139792998.288 7     -2630.648          46.000    26601739.891 8 107114126.314 8     -2015.731          51.000
E26  22521604.125 8 118351808.759 8      -528.816          51.000    22521607.242 8  90685192.528 8      -405.260          51.000
E33  24657160.961 8 129574264.172 8      2119.773          51.000    24657164.312 8  99284204.771 8      1624.293          51.000
> 2020 05 08 12 44  0.0000000  0 14        .000000000000
G18  20976358.375 8 110231537.289 8      2026.922          51.000    20976358.703 8  85894682.909 8      1579.420          49.000
G25  22612737.828 6 118830724.487 6     -2918.398          39.000    22612739.156 6  92595381.029 6     -2274.080          39.000
G29  20939562.375 8 110038135.551 8     -1715.859          51.000    20939562.219 8  85744023.046 8     -1337.033          51.000
G31  21348632.000 8 112187820.567 8     -1190.371          48.000    21348630.320 8  87419095.479 8      -927.565          49.000
R15  20018695.148 8 106973805.988 8     -2554.773          51.000    20018698.266 7  83201865.311 7     -1987.046          47.000
R17  20203029.008 6 108110473.081 6     -2670.996          36.000    20203033.828 6  84085940.662 6     -2077.441          36.000
R18  19367565.797 8 103385481.335 8       944.047          51.000    19367569.625 8  80410925.254 8       734.259          50.000
C29  21688357.094 8 112937057.643 8       821.469          51.000
C30  22728153.688 8 118351551.778 8     -2058.629          48.000
E01  23621607.570 8 124132388.986 8      -698.281          51.000    23621609.398 8  95114427.887 8      -535.056          51.000
E13  26658404.570 5 140090894.540 5     -2691.148          35.000
E21  26616765.047 7 139872000.146 7     -2635.926          47.000    26616773.625 8 107174660.158 8     -2019.681          49.000
E26  22524657.984 8 118367856.865 8      -540.668          51.000    22524661.281 8  90697489.139 8      -414.299          51.000
E33  24645086.562 8 129510815.561 8      2110.355          50.000    24645090.219 8  99235588.301 8      1617.121          51.000
> 2020 05 08 12 44 30.0000000  0 14        .000000000000
G18  20964836.500 8 110170988.698 8      2010.133          50.000    20964836.711 8  85847502.195 8      1566.337          49.000
G25  22629423.195 6 118918407.356 6     -2926.324          40.000    22629425.297 6  92663705.348 6     -2280.253          40.000
G29  20949385.789 8 110089757.630 8     -1725.027          51.000    20949385.484 8  85784248.045 8     -1344.177          51.000
G31  21355481.344 8 112223813.783 8     -1208.484          49.000    21355479.281 8  87447142.101 8      -941.679          49.000
R15  20033095.797 8 107050757.581 8     -2574.641          51.000    20033098.352 7  83261716.480 7     -2002.501          47.000
R17  20218043.812 6 108190820.099 6     -2684.543          36.000    20218048.203 5  84148432.724 5     -2087.978          33.000
R18  19362321.508 8 103357484.910 8       923.043          51.000    19362324.891 8  80389150.249 8       717.922          50.000
C29  21683659.320 8 112912594.964 8       809.934          51.000
C30  22740035.250 8 118413422.607 8     -2065.473          48.000
E01  23625627.172 8 124153511.416 8      -709.285          51.000    23625629.125 8  95130612.608 8      -543.496          51.000
E13  26673779.961 6 140171696.309 6     -2695.086          36.000
E21  26631830.586 7 139951167.658 7     -2641.340          47.000    26631837.594 8 107235320.975 8     -2023.929          48.000
E26  22527781.023 8 118384267.694 8      -552.828          51.000    22527784.195 8  90710063.674 8      -423.551          51.000
E33  24633066.844 8 129447657.481 8      2100.863          50.000    24633071.328 8  99187194.448 8      1609.642          51.000
> 2020 05 08 12 45  0.0000000  0 14        .000000000000
G18  20953408.312 8 110110934.430 8      1993.559          48.000    20953408.766 8  85800706.665 8      1553.422          48.000
G25  22646151.055 6 119006316.560 6     -2934.051          37.000    22646154.422 6  92732206.055 6     -2286.270          36.000
G29  20959260.312 8 110141647.985 8     -1734.109          51.000    20959259.812 8  85824682.074 8     -1351.254          51.000
G31  21362432.812 8 112260342.951 8     -1226.574          50.000    21362431.484 8  87475606.354 8      -955.775          50.000
R15  20047606.172 8 107128294.105 8     -2594.273          51.000    20047608.531 7  83322022.603 7     -2017.768          47.000
R17  20233128.992 5 108271540.344 5     -2696.934          34.000    20233131.320 5  84211215.039 5     -2097.618          33.000
R18  19357192.133 8 103330104.073 8       902.516          51.000    19357195.586 8  80367854.066 8       701.960          49.000
C29  21679026.078 8 112888469.056 8       798.629          51.000
C30  22751955.031 7 118475491.207 7     -2072.223          47.000
E01  23629707.711 8 124174953.993 8      -719.965          51.000    23629709.711 8  95147042.635 8      -551.733          51.000
E13  26689175.289 6 140252597.981 6     -2698.246          36.000
E21  26646925.117 7 140030489.070 7     -2646.387          46.000    26646931.227 8 107296099.664 8     -2027.763          48.000
E26  22530970.852 8 118401029.212 8      -564.508          51.000    22530973.758 8  90722906.909 8      -432.497          51.000
E33  24621101.125 8 129384779.576 8      2091.375          50.000    24621105.430 8  99139015.293 8      1602.473          51.000
> 2020 05 08 12 45 30.0000000  0 14        .000000000000
G18  20942074.594 7 110051380.052 7      1976.785          46.000    20942075.914 7  85754300.659 7      1540.352          46.000
G25  22662922.414 6 119094455.254 6     -2941.750          38.000    22662927.422 6  92800885.505 6     -2292.273          38.000
G29  20969186.320 8 110193808.992 8     -1743.176          51.000    20969185.648 8  85865326.994 8     -1358.322          51.000
G31  21369486.773 8 112297411.009 8     -1244.648          50.000    21369486.734 8  87504490.533 8      -969.859          50.000
R15  20062226.211 8 107206417.762 8     -2613.871          51.000    20062228.805 8  83382785.423 8     -2033.011          49.000
R17  20248279.930 4 108352631.762 4     -2708.781          28.000    20248286.289 5  84274301.575 5     -2106.821          34.000
R18  19352178.828 8 103303342.289 8       881.707          51.000    19352182.211 8  80347039.358 8       685.772          50.000
C29  21674458.141 8 112864683.586 8       787.191          51.000
C30  22763913.094 7 118537760.045 7     -2078.910          46.000
E01  23633850.141 8 124196721.002 8      -730.930          51.000    23633851.836 8  95163721.248 8      -560.111          51.000
E13  26704590.578 6 140333602.048 6     -2701.840          37.000    26704599.477 5 107528353.134 5     -2070.298          35.000
E21  26662049.211 7 140109967.627 7     -2651.867          46.000    26662054.789 7 107356998.722 7     -2031.956          46.000
E26  22534227.828 8 118418144.419 8      -576.375          51.000    22534230.648 8  90736021.161 8      -441.620          51.000
E33  24609190.492 8 129322186.494 8      2081.734          51.000    24609193.758 8  99091054.404 8      1595.077          51.000
> 2020 05 08 12 46  0.0000000  0 14        .000000000000
G18  20930837.938 8 109992333.917 8      1960.234          48.000    20930839.945 8  85708290.693 8      1527.455          48.000
G25  22679739.633 7 119182828.860 7     -2948.957          43.000    22679745.039 7  92869748.051 7     -2297.886          42.000
G29  20979164.828 8 110246246.323 8     -1751.898          51.000    20979164.117 8  85906187.248 8     -1365.116          51.000
G31  21376644.203 8 112335023.161 8     -1262.184          50.000    21376644.977 8  87533798.689 8      -983.520          50.000
R15  20076956.352 8 107285133.333 8     -2633.145          50.000    20076959.711 8  83444008.637 8     -2048.001          50.000
R17  20263509.125 5 108434104.094 5     -2721.473          35.000    20263505.180 5  84337668.877 5     -2116.701          33.000
R18  19347282.344 8 103277205.550 8       861.434          51.000    19347286.055 8  80326710.794 8       670.004          50.000
C29  21669956.648 8 112841244.836 8       776.117          51.000
C30  22775910.266 7 118600234.290 7     -2085.363          45.000
E01  23638055.680 8 124218819.368 8      -741.422          51.000    23638057.125 8  95180653.762 8      -568.186          51.000
E13  26720026.391 6 140414713.654 6     -2704.906          36.000    26720034.148 6 107590503.588 6     -2072.722          36.000
E21  26677204.742 7 140189609.201 7     -2656.855          47.000    26677209.891 7 107418022.720 7     -2035.751          47.000
E26  22537553.227 8 118435619.005 8      -587.832          51.000    22537555.930 8  90749410.789 8      -450.423          51.000
E33  24597335.938 8 129259885.601 8      2072.516          51.000    24597337.734 8  99043317.416 8      1588.011          51.000
> 2020 05 08 12 46 30.0000000  0 14        .000000000000
G18  20919698.242 8 109933794.284 8      1942.184          50.000    20919700.641 8  85662675.405 8      1513.393          49.000
G25  22696600.695 6 119271433.213 6     -2957.770          38.000    22696605.297 6  92938790.359 6     -2304.759          38.000
G29  20989194.945 8 110298954.980 8     -1761.996          51.000    20989194.336 8  85947258.921 8     -1372.984          51.000
G31  21383904.195 8 112373174.716 8     -1281.273          50.000    21383905.094 8  87563527.145 8      -998.395          50.000
R15  20091795.883 8 107364435.294 8     -2653.789          49.000    20091800.391 8  83505687.976 8     -2064.055          50.000
R17  20278804.586 5 108515947.526 5     -2734.973          33.000    20278804.172 6  84401324.859 6     -2127.198          36.000
R18  19342502.234 8 103251690.232 8       839.551          51.000    19342505.906 8  80306865.548 8       652.984          49.000
C29  21665520.914 8 112818149.221 8       763.648          51.000
C30  22787946.273 7 118662909.213 7     -2093.078          45.000
E01  23642323.406 8 124241246.140 8      -753.617          51.000    23642324.875 8  95197837.885 8      -577.450          51.000
E13  26735481.789 6 140495927.967 6     -2709.242          37.000    26735488.508 6 107652732.711 6     -2075.844          37.000
E21  26692390.812 8 140269409.794 8     -2663.301          48.000    26692395.898 7 107479168.544 7     -2040.783          47.000
E26  22540946.164 8 118453448.673 8      -600.809          51.000    22540948.617 8  90763072.467 8      -460.357          51.000
E33  24585536.609 8 129197874.312 8      2061.660          51.000    24585536.539 8  98995802.312 8      1579.717          51.000
> 2020 05 08 12 47  0.0000000  0 14        .000000000000
G18  20908657.383 8 109875773.078 8      1925.844          49.000    20908660.016 8  85617464.108 8      1500.661          49.000
G25  22713506.828 5 119360277.626 5     -2965.078          35.000    22713510.805 6  93008019.641 6     -2310.457          36.000
G29  20999278.414 8 110351944.053 8     -1770.562          51.000    20999277.891 8  85988549.106 8     -1379.659          51.000
G31  21391268.531 8 112411874.675 8     -1298.719          49.000    21391268.531 8  87593682.928 8     -1011.992          49.000
R15  20106747.547 8 107444332.474 8     -2672.723          51.000    20106751.961 8  83567830.252 8     -2078.781          49.000
R17  20294169.375 6 108598169.191 6     -2746.418          38.000    20294173.758 6  84465275.076 6     -2136.103          37.000
R18  19337840.672 8 103226806.182 8       819.383          51.000    19337843.648 8  80287511.305 8       637.298          48.000
C29  21661152.992 8 112795406.599 8       752.645          51.000
C30  22800022.891 7 118725793.551 7     -2099.293          46.000
E01  23646655.461 8 124264011.805 8      -764.109          51.000    23646656.820 8  95215281.683 8      -585.516          51.000
E13  26750958.234 5 140577253.792 5     -2712.090          35.000    26750964.359 6 107715047.310 6     -2078.364          37.000
E21  26707609.102 8 140349378.961 8     -2668.121          49.000    26707613.094 8 107540443.599 8     -2044.369          48.000
E26  22544408.258 8 118471642.687 8      -612.172          51.000    22544410.648 8  90777013.324 8      -469.061          51.000
E33  24573794.133 8 129136163.509 8      2052.316          51.000    24573792.625 8  98948517.433 8      1572.581          51.000
> 2020 05 08 12 47 30.0000000  0 14        .000000000000
G18  20897710.539 8 109818246.405 8      1909.383          49.000    20897713.102 8  85572638.183 8      1487.831          49.000
G25  22730454.305 6 119449335.605 6     -2971.812          41.000    22730458.250 6  93077415.379 6     -2315.698          40.000
G29  21009410.117 8 110405186.390 8     -1778.836          51.000    21009409.414 8  86030036.624 8     -1386.106          51.000
G31  21398732.086 8 112451096.015 8     -1315.980          49.000    21398730.398 8  87624244.997 8     -1025.439          49.000
R15  20121805.898 8 107524796.932 8     -2691.602          51.000    20121809.703 8  83630413.699 8     -2093.468          49.000
R17  20309601.320 5 108680740.192 5     -2758.418          32.000    20309602.789 5  84529496.941 5     -2145.439          35.000
R18  19333292.305 8 103202527.190 8       799.316          51.000    19333294.961 8  80268627.681 8       621.691          49.000
C29  21656848.078 8 112772991.434 8       741.824          51.000
C30  22812134.797 7 118788860.641 7     -2105.258          45.000
E01  23651047.383 8 124287091.187 8      -774.461          51.000    23651048.484 8  95232965.869 8      -593.406          51.000
E13  26766450.141 5 140658645.242 5     -2714.820          33.000    26766456.406 6 107777426.720 6     -2080.483          37.000
E21  26722854.539 8 140429490.488 8     -2672.656          50.000    26722857.562 8 107601827.693 8     -2047.859          49.000
E26  22547934.742 8 118490174.626 8      -623.281          51.000    22547937.234 8  90791213.113 8      -477.594          51.000
E33  24562103.383 8 129074728.465 8      2043.320          51.000    24562101.836 8  98901443.845 8      1565.649          51.000
> 2020 05 08 12 48  0.0000000  0 14        .000000000000
G18  20886862.617 8 109761238.954 8      1892.086          49.000    20886864.945 8  85528216.828 8      1474.356          49.000
G25  22747447.516 7 119538629.204 7     -2979.906          43.000    22747451.227 7  93146994.802 7     -2322.008          43.000
G29  21019594.203 8 110458704.125 8     -1788.020          51.000    21019593.281 8  86071738.754 8     -1393.259          51.000
G31  21406299.016 8 112490860.699 8     -1334.078          50.000    21406296.148 8  87655230.455 8     -1039.541          50.000
R15  20136973.914 8 107605849.935 8     -2710.961          51.000    20136977.672 8  83693454.876 8     -2108.528          48.000
R17  20325094.383 6 108763662.400 6     -2770.480          37.000    20325096.227 5  84593984.044 5     -2154.818          34.000
R18  19328861.492 8 103178875.717 8       778.465          51.000    19328864.414 8  80250232.085 8       605.473          50.000
C29  21652610.648 8 112750926.204 8       730.152          51.000
C30  22824285.594 7 118852131.946 7     -2111.758          44.000
E01  23655503.281 8 124310507.602 8      -785.746          51.000    23655504.547 8  95250908.297 8      -602.056          51.000
E13                                                                  26781968.781 6 107839887.478 6     -2083.030          38.000
E21  26738131.227 8 140509766.710 8     -2678.289          50.000    26738133.352 8 107663337.963 8     -2052.046          50.000
E26  22551529.773 8 118509066.517 8      -635.270          51.000    22551532.391 8  90805688.722 8      -486.783          51.000
E33  24550468.930 8 129013592.850 8      2033.328          50.000    24550468.516 8  98854599.681 8      1558.029          51.000
> 2020 05 08 12 48 30.0000000  0 14        .000000000000
G18  20876111.281 8 109704740.639 8      1874.816          48.000    20876113.812 8  85484192.191 8      1460.896          48.000
G25  22764482.969 7 119628145.864 7     -2987.598          44.000    22764486.219 7  93216747.984 7     -2327.998          44.000
G29  21029828.273 8 110512484.299 8     -1796.938          51.000    21029827.188 8  86113645.365 8     -1400.211          51.000
G31  21413966.703 8 112531155.826 8     -1352.062          50.000    21413963.781 8  87686629.239 8     -1053.555          50.000
R15  20152249.125 8 107687477.732 8     -2730.480          51.000    20152253.422 7  83756943.088 7     -2123.710          47.000
R17  20340667.164 6 108846957.290 6     -2782.367          37.000    20340667.477 6  84658768.861 6     -2164.063          37.000
R18  19324546.125 8 103155839.984 8       757.602          51.000    19324549.336 8  80232315.392 8       589.246          51.000
C29  21648438.641 8 112729199.082 8       718.641          51.000
C30  22836472.633 7 118915594.470 7     -2118.703          43.000
E01  23660020.930 8 124334249.717 8      -796.785          51.000    23660022.562 8  95269100.271 8      -610.551          51.000
E13                                                                  26797498.859 6 107902419.496 6     -2085.545          38.000
E21  26753436.867 8 140590195.187 8     -2683.500          50.000    26753438.445 8 107724964.907 8     -2056.116          51.000
E26  22555190.594 8 118528305.730 8      -647.074          51.000    22555193.484 8  90820430.455 8      -495.786          51.000
E33  24538888.938 8 128952745.749 8      2023.359          49.000    24538890.320 8  98807976.562 8      1550.399          51.000
> 2020 05 08 12 49  0.0000000  0 14        .000000000000
G18  20865458.297 8 109648760.475 8      1857.812          48.000    20865461.031 8  85440571.270 8      1447.643          48.000
G25  22781561.773 7 119717892.014 7     -2994.789          42.000    22781565.008 7  93286680.007 7     -2333.602          42.000
G29  21040113.461 8 110566532.903 8     -1805.672          51.000    21040112.422 8  86155761.149 8     -1407.017          51.000
G31  21421736.516 8 112571986.946 8     -1369.523          51.000    21421734.281 8  87718445.672 8     -1067.158          51.000
R15  20167632.758 8 107769685.599 8     -2749.508          49.000    20167637.594 7  83820882.475 7     -2138.506          47.000
R17  20356300.508 5 108930610.807 5     -2794.168          34.000    20356304.484 6  84723832.831 6     -2173.236          37.000
R18  19320347.359 8 103133426.596 8       737.246          51.000    19320350.656 8  80214882.757 8       573.414          51.000
C29  21644333.047 8 112707817.109 8       707.430          51.000
C30  22848697.531 7 118979254.150 7     -2124.730          42.000
E01  23664602.156 8 124358325.166 8      -807.586          51.000    23664603.945 8  95287547.666 8      -618.809          51.000
E13                                                                  26813047.656 6 107965027.432 6     -2087.825          37.000
E21  26768772.719 8 140670782.644 8     -2688.371          50.000    26768773.945 8 107786713.678 8     -2059.897          50.000
E26  22558919.008 8 118547898.742 8      -658.559          51.000    22558922.000 8  90835443.269 8      -504.568          51.000
E33  24527365.602 8 128892195.226 8      2013.938          50.000    24527368.523 8  98761580.695 8      1543.114          51.000
> 2020 05 08 12 49 30.0000000  0 14        .000000000000
G18  20854903.383 8 109593294.289 8      1840.051          49.000    20854906.047 8  85397350.824 8      1433.806          48.000
G25  22798682.438 7 119807860.916 7     -3003.020          42.000    22798685.555 7  93356785.605 7     -2340.015          42.000
G29  21050448.367 8 110620842.843 8     -1814.898          51.000    21050447.547 8  86198080.572 8     -1414.207          51.000
G31  21429607.273 8 112613347.185 8     -1387.727          51.000    21429605.781 8  87750674.426 8     -1081.345          51.000
R15  20183123.258 8 107852465.761 8     -2769.121          49.000    20183128.719 7  83885267.034 7     -2153.761          46.000
R17  20372000.367 6 109014614.235 6     -2806.227          37.000    20372002.219 5  84789168.796 5     -2182.624          33.000
R18  19316264.078 8 103111628.802 8       716.043          51.000    19316267.148 8  80197928.913 8       556.922          50.000
C29  21640292.227 8 112686774.285 8       695.500          51.000
C30  22860959.125 7 119043103.998 7     -2131.793          43.000
E01  23669245.906 8 124382728.558 8      -819.180          51.000    23669247.891 8  95306246.349 8      -627.689          51.000
E13                                                                  26828613.852 6 108027705.758 6     -2090.681          36.000
E21  26784137.086 8 140751522.631 8     -2694.203          48.000    26784138.656 8 107848579.349 8     -2064.318          51.000
E26  22562713.469 8 118567838.767 8      -670.785          51.000    22562716.664 8  90850721.995 8      -513.927          51.000
E33  24515898.398 8 128831936.212 8      2003.543          51.000    24515901.828 8  98715408.205 8      1535.152          51.000
> 2020 05 08 12 50  0.0000000  0 13        .000000000000
G18  20844454.492 8 109538383.528 8      1811.152          50.000    20844456.852 8  85354563.241 8      1411.291          50.000
G25  22815853.031 7 119898091.561 7     -3022.074          43.000    22815855.500 7  93427095.230 7     -2354.863          42.000
G29  21060840.328 8 110675452.741 8     -1835.250          51.000    21060839.625 8  86240633.741 8     -1430.065          51.000
G31  21437586.164 8 112655275.057 8     -1417.039          51.000    21437584.891 8  87783345.491 8     -1104.186          51.000
R15  20198728.469 8 107935856.926 8     -2800.074          50.000    20198733.883 7  83950126.843 7     -2177.832          46.000
R18  19312303.609 8 103090487.144 8       683.660          51.000    19312306.797 8  80181485.436 8       531.739          50.000
C29  21636324.094 8 112666109.953 8       672.629          51.000
C30  22873264.477 7 119107182.182 7     -2149.715          43.000
E01  23673959.805 8 124407500.108 8      -841.785          51.000    23673961.914 8  95325227.133 8      -645.001          51.000
E13                                                                  26844204.844 6 108090484.048 6     -2102.076          36.000
E21  26799536.492 7 140832454.365 7     -2710.883          44.000    26799540.344 8 107910591.941 8     -2077.083          51.000
E26  22566581.320 8 118588164.838 8      -693.891          51.000    22566584.711 8  90866296.531 8      -531.647          51.000
E33  24504495.023 8 128772009.332 8      1982.113          51.000    24504497.969 8  98669490.224 8      1518.729          51.000
> 2020 05 08 12 50 30.0000000  0 14        .000000000000
G18  20834106.156 8 109484000.187 8      1801.512          51.000    20834107.797 8  85312186.608 8      1403.775          49.000
G25  22833066.945 6 119988553.542 6     -3021.621          40.000    22833070.133 6  93497585.068 6     -2354.513          39.000
G29  21071283.438 8 110730331.617 8     -1836.102          51.000    21071282.773 8  86283396.478 8     -1430.728          51.000
G31  21445667.125 8 112697739.477 8     -1426.727          51.000    21445665.898 8  87816434.614 8     -1111.735          51.000
R15  20214442.484 8 108019826.747 8     -2811.047          51.000    20214446.992 7  84015436.635 7     -2186.373          45.000
R17  20403625.547 5 109183826.712 5     -2832.789          32.000    20403607.734 5  84920762.478 5     -2203.286          33.000
R18  19308460.203 8 103069970.643 8       671.105          51.000    19308463.680 8  80165528.144 8       521.971          50.000
C29  21632422.977 8 112645794.426 8       669.078          51.000
C30  22885607.820 7 119171458.038 7     -2148.164          43.000
E01  23678738.227 8 124432610.538 8      -844.965          51.000    23678740.211 8  95344467.577 8      -647.438          51.000
E13                                                                  26859814.445 5 108153338.481 5     -2098.319          35.000
E21  26814965.680 7 140913547.611 7     -2708.078          42.000    26814972.508 8 107972728.262 8     -2075.030          51.000
E26  22570517.078 8 118608846.410 8      -697.590          51.000    22570520.367 8  90882143.426 8      -534.496          51.000
E33  24493149.719 8 128712385.712 8      1980.133          51.000    24493151.820 8  98623804.593 8      1517.221          51.000
> 2020 05 08 12 51  0.0000000  0 14        .000000000000
G18  20823852.383 8 109430114.261 8      1785.742          51.000    20823853.477 8  85270197.591 8      1391.490          49.000
G25  22850317.570 5 120079214.235 5     -3027.574          33.000    22850321.391 5  93568229.764 5     -2359.149          33.000
G29  21081771.562 8 110785446.860 8     -1843.215          51.000    21081770.742 8  86326343.405 8     -1436.271          51.000
G31  21453843.766 8 112740707.632 8     -1442.715          51.000    21453842.359 8  87849916.255 8     -1124.196          51.000
R15  20230258.891 8 108104341.210 8     -2828.250          51.000    20230261.555 7  84081170.053 7     -2199.750          44.000
R17  20419535.945 5 109269059.735 5     -2842.367          32.000    20419497.117 5  84986976.019 5     -2210.739          30.000
R18  19304727.523 8 103050046.565 8       652.109          51.000    19304731.281 8  80150031.650 8       507.196          50.000
C29  21628582.469 8 112625796.191 8       659.234          51.000
C30  22897983.344 7 119235898.996 7     -2152.781          43.000
E01  23683574.953 8 124458028.587 8      -854.527          51.000    23683577.016 8  95363943.721 8      -654.744          51.000
E13                                                                  26875436.500 5 108216243.895 5     -2098.927          34.000
E21  26830420.797 7 140994770.096 7     -2711.621          45.000    26830429.211 8 108034963.606 8     -2077.757          51.000
E26  22574514.133 8 118629850.913 8      -707.625          51.000    22574517.523 8  90898237.797 8      -542.191          51.000
E33  24481856.391 8 128653034.451 8      1971.707          51.000    24481857.453 8  98578327.673 8      1510.771          51.000
> 2020 05 08 12 51 30.0000000  0 14        .000000000000
G18  20813688.289 8 109376700.115 8      1771.891          51.000    20813689.492 8  85228576.214 8      1380.694          50.000
G25  22867599.594 5 120170052.573 5     -3031.875          30.000    22867603.758 5  93639023.265 5     -2362.506          31.000
G29  21092299.258 8 110840770.126 8     -1848.262          51.000    21092298.250 8  86369452.431 8     -1440.204          51.000
G31  21462110.422 8 112784150.774 8     -1456.684          50.000    21462109.289 8  87883768.028 8     -1135.081          50.000
R15  20246171.680 8 108189370.500 8     -2843.711          51.000    20246173.461 7  84147303.931 7     -2211.775          45.000
R17  20435447.070 5 109354216.684 5     -2850.945          32.000    20435438.188 4  85053243.556 4     -2217.405          27.000
R18  19301100.664 8 103030686.664 8       635.156          51.000    19301104.297 8  80134973.966 8       494.010          49.000
C29  21624797.648 8 112606088.005 8       651.320          51.000
C30  22910385.195 7 119300476.856 7     -2155.809          44.000
E01  23688465.297 8 124483727.361 8      -861.922          51.000    23688467.383 8  95383634.981 8      -660.470          51.000
E13                                                                  26891065.695 5 108279179.389 5     -2098.849          33.000
E21  26845895.758 7 141076093.941 7     -2713.152          44.000    26845904.438 8 108097276.630 8     -2078.933          49.000
E26  22578567.297 8 118651150.221 8      -715.578          51.000    22578570.641 8  90914558.054 8      -548.213          51.000
E33  24470609.672 8 128593929.094 8      1965.379          51.000    24470609.766 8  98533039.176 8      1505.976          51.000
> 2020 05 08 12 52  0.0000000  0 14        .000000000000
G18  20803645.227 8 109323922.195 8      1753.277          51.000    20803646.406 8  85187450.572 8      1366.190          49.000
G25  22884946.836 5 120261209.546 5     -3040.590          32.000    22884951.375 5  93710060.091 5     -2369.294          31.000
G29  21102897.289 8 110896462.967 8     -1858.008          51.000    21102896.273 8  86412849.426 8     -1447.798          51.000
G31  21470498.125 8 112828230.401 8     -1475.414          50.000    21470497.789 8  87918115.737 8     -1149.676          50.000
R15  20262210.633 8 108275078.092 8     -2863.531          50.000    20262212.594 7  84213965.357 7     -2227.191          45.000
R17  20451491.188 5 109440019.150 5     -2862.879          30.000    20451486.117 5  85120004.617 5     -2226.687          31.000
R18  19297610.289 8 103012055.715 8       613.609          51.000    19297613.969 8  80120483.239 8       477.252          49.000
C29  21621099.555 8 112586830.984 8       638.949          51.000
C30  22922843.891 7 119365351.639 7     -2162.855          43.000
E01  23693440.320 8 124509870.085 8      -874.176          51.000    23693442.508 8  95403666.421 8      -669.814          51.000
E13                                                                  26906733.211 5 108342266.761 5     -2102.102          33.000
E21  26861421.078 7 141157681.399 7     -2719.398          44.000    26861429.250 8 108159791.651 8     -2083.593          48.000
E26  22582707.414 8 118672906.332 8      -728.137          51.000    22582710.609 8  90931228.313 8      -557.881          51.000
E33  24459440.320 8 128535233.232 8      1954.285          51.000    24459439.766 8  98488064.458 8      1497.529          51.000
> 2020 05 08 12 52 30.0000000  0 13        .000000000000
G18  20793686.898 8 109271590.130 8      1736.047          51.000    20793687.586 8  85146672.353 8      1352.764          49.000
G25  22902322.352 6 120352513.342 6     -3046.363          37.000    22902327.578 6  93781205.856 6     -2373.787          37.000
G29  21113528.844 8 110952332.069 8     -1866.164          51.000    21113527.883 8  86456383.769 8     -1454.154          51.000
G31  21478970.383 8 112872753.209 8     -1492.297          51.000    21478970.852 8  87952808.797 8     -1162.829          51.000
R15  20278339.062 8 108361266.862 8     -2881.766          49.000    20278341.109 7  84281001.029 7     -2241.376          44.000
R18  19294219.836 8 102993958.317 8       593.473          51.000    19294223.602 8  80106407.488 8       461.587          50.000
C29  21617451.523 8 112567834.815 8       627.980          51.000
C30  22935322.719 7 119430332.007 7     -2168.734          42.000
E01  23698463.188 8 124536265.219 8      -884.996          51.000    23698465.664 8  95423891.266 8      -678.084          51.000
E13  26922397.242 5 141478144.914 5     -2745.242          33.000    26922401.977 5 108405359.011 5     -2103.623          32.000
E21  26876959.578 7 141239339.893 7     -2724.121          43.000    26876967.430 7 108222361.115 7     -2087.269          47.000
E26  22586897.578 8 118694926.401 8      -739.316          51.000    22586900.703 8  90948100.843 8      -566.510          51.000
E33  24448312.102 8 128476755.736 8      1944.660          51.000    24448310.938 8  98443257.071 8      1490.049          51.000
> 2020 05 08 12 53  0.0000000  0 13        .000000000000
G18  20783827.578 8 109219778.697 8      1718.332          51.000    20783827.422 8  85106299.835 8      1338.963          49.000
G25  22919738.906 6 120444029.341 6     -3054.207          37.000    22919743.359 6  93852517.046 6     -2379.899          38.000
G29  21124207.602 8 111008449.638 8     -1874.750          51.000    21124206.867 8  86500111.737 8     -1460.844          51.000
G31  21487540.906 8 112917791.039 8     -1509.820          51.000    21487541.688 8  87987903.208 8     -1176.480          51.000
R15  20294571.742 8 108448009.287 8     -2900.664          50.000    20294573.672 7  84348467.298 7     -2256.075          44.000
R18  19290943.445 8 102976468.253 8       572.957          51.000    19290947.195 8  80092804.120 8       445.636          49.000
C29  21613867.359 8 112549171.734 8       616.547          51.000
C30  22947835.547 7 119495489.225 7     -2174.996          42.000
E01  23703547.883 8 124562986.277 8      -896.066          51.000    23703550.570 8  95444365.837 8      -686.632          51.000
E13  26938082.188 5 141560573.982 5     -2749.074          34.000    26938085.469 5 108468507.215 5     -2106.188          31.000
E21  26892525.812 7 141321141.982 7     -2729.152          43.000    26892532.289 7 108285040.651 7     -2091.154          46.000
E26  22591151.797 8 118717282.689 8      -750.777          51.000    22591154.664 8  90965230.990 8      -575.238          51.000
E33  24437239.367 8 128418570.475 8      1934.652          51.000    24437237.875 8  98398673.585 8      1482.354          51.000
> 2020 05 08 12 53 30.0000000  0 13        .000000000000
G18  20774067.891 8 109168491.183 8      1701.484          51.000    20774067.047 8  85066335.570 8      1325.835          48.000
G25  22937196.078 6 120535758.420 6     -3060.555          38.000    22937200.133 6  93923994.303 6     -2384.848          38.000
G29  21134933.773 8 111064816.442 8     -1882.387          51.000    21134933.312 8  86544033.898 8     -1466.798          51.000
G31  21496209.531 8 112963344.194 8     -1526.344          51.000    21496210.133 8  88023399.162 8     -1189.359          51.000
R15  20310908.250 8 108535304.991 8     -2918.340          51.000    20310910.672 7  84416363.891 7     -2269.823          46.000
R18  19287781.117 8 102959586.527 8       553.230          51.000    19287784.508 8  80079673.901 8       430.290          49.000
C29  21610347.211 8 112530843.317 8       606.141          51.000
C30  22960382.391 6 119560823.895 6     -2180.312          40.000
E01  23708695.250 8 124590035.432 8      -906.406          51.000    23708698.039 8  95465091.792 8      -694.576          51.000
E13  26953782.094 5 141643076.840 5     -2751.020          34.000
E21  26908120.469 7 141403088.887 7     -2733.305          45.000    26908125.898 7 108347831.085 7     -2094.428          47.000
E26  22595470.133 8 118739976.121 8      -761.480          51.000    22595472.961 8  90982619.460 8      -583.406          51.000
E33  24426222.906 8 128360680.070 8      1925.441          51.000    24426221.773 8  98354316.002 8      1475.275          51.000
> 2020 05 08 12 54  0.0000000  0 14        .000000000000
G18  20764410.312 8 109117739.670 8      1683.195          51.000    20764409.180 8  85026788.970 8      1311.581          48.000
G25  22954695.297 6 120627710.330 6     -3068.477          39.000    22954699.148 6  93995645.088 6     -2391.024          39.000
G29  21145709.219 8 111121441.884 8     -1891.367          51.000    21145708.891 8  86588157.603 8     -1473.796          51.000
G31  21504977.984 8 113009421.787 8     -1544.289          51.000    21504978.148 8  88059303.774 8     -1203.342          51.000
R15  20327350.195 8 108623162.474 8     -2937.527          51.000    20327353.227 7  84484697.430 7     -2284.743          46.000
R17  20516146.398 4 109786042.219 4     -2905.859          29.000
R18  19284734.508 8 102943323.073 8       532.211          51.000    19284737.609 8  80067024.561 8       413.942          48.000
C29  21606893.211 8 112512859.711 8       594.133          51.000
C30  22972965.070 7 119626345.205 7     -2186.840          42.000
E01  23713907.211 8 124617423.482 8      -918.246          51.000    23713909.695 8  95486077.436 8      -703.597          51.000
E13  26969498.266 6 141725667.682 6     -2753.988          36.000
E21  26923745.047 8 141485190.490 8     -2738.906          48.000    26923748.977 7 108410740.062 7     -2098.780          45.000
E26  22599854.391 8 118763016.234 8      -773.426          51.000    22599857.492 8  91000273.584 8      -592.655          51.000
E33  24415264.781 8 128303095.733 8      1914.699          51.000    24415264.648 8  98310192.930 8      1467.131          51.000
> 2020 05 08 12 54 30.0000000  0 13        .000000000000
G18  20754853.000 8 109067515.420 8      1664.961          51.000    20754851.602 8  84987653.203 8      1297.372          48.000
G25  22972233.844 6 120719873.807 6     -3075.699          39.000    22972237.578 6  94067460.746 6     -2396.652          39.000
G29  21156531.758 8 111178314.516 8     -1900.223          51.000    21156531.406 8  86632473.923 8     -1480.693          51.000
G31  21513844.023 8 113056011.938 8     -1561.930          51.000    21513843.734 8  88095607.772 8     -1217.088          51.000
R15  20343895.047 8 108711569.128 8     -2956.461          51.000    20343897.797 7  84553458.125 7     -2299.470          47.000
R18  19281801.312 8 102927666.797 8       511.414          51.000    19281804.586 8  80054847.462 8       397.766          48.000
C29  21603503.617 8 112495210.509 8       582.375          51.000
C30  22985581.883 7 119692041.734 7     -2193.254          42.000
E01  23719181.508 8 124645140.540 8      -929.758          51.000    23719183.703 8  95507315.172 8      -712.394          51.000
E13  26985229.031 6 141808330.129 6     -2756.785          36.000
E21  26939397.266 8 141567435.870 8     -2744.316          48.000    26939399.242 7 108473759.202 7     -2102.689          44.000
E26  22604302.602 8 118786391.915 8      -785.062          51.000    22604305.773 8  91018184.816 8      -601.562          51.000
E33  24404363.352 8 128245807.899 8      1904.355          51.000    24404364.227 8  98266297.068 8      1459.092          51.000
> 2020 05 08 12 55  0.0000000  0 13        .000000000000
G18  20745395.469 8 109017816.984 8      1647.680          50.000    20745394.094 7  84948927.188 7      1283.909          47.000
G25  22989811.406 6 120812245.168 6     -3082.445          40.000    22989814.781 6  94139438.248 6     -2401.912          40.000
G29  21167400.570 8 111235430.290 8     -1907.898          51.000    21167400.156 8  86676979.716 8     -1486.674          51.000
G31  21522806.859 8 113103110.481 8     -1578.438          51.000    21522806.383 8  88132307.943 8     -1229.951          51.000
R15  20360541.188 8 108800519.917 8     -2974.098          51.000    20360543.641 8  84622642.050 8     -2313.187          48.000
R18  19278981.828 8 102912614.227 8       491.535          51.000    19278984.695 8  80043139.918 8       382.308          48.000
C29  21600177.953 8 112477892.636 8       571.691          51.000
C30  22998231.773 6 119757909.438 6     -2198.504          41.000
E01  23724517.836 8 124673184.088 8      -940.164          51.000    23724519.797 8  95528803.066 8      -720.430          51.000
E13  27000973.375 6 141891064.987 6     -2759.184          36.000
E21  26955075.844 7 141649821.540 7     -2748.668          47.000    26955076.242 7 108536885.833 7     -2106.056          42.000
E26  22608814.000 8 118810099.345 8      -795.789          51.000    22608817.102 8  91036350.252 8      -609.707          51.000
E33  24393518.172 8 128188814.422 8      1894.863          51.000    24393519.570 8  98222626.759 8      1451.896          51.000
> 2020 05 08 12 55 30.0000000  0 13        .000000000000
G18  20736041.633 8 108968664.136 8      1629.898          50.000    20736040.531 8  84910626.265 8      1270.048          48.000
G25  23007432.523 6 120904841.780 6     -3089.805          40.000    23007434.000 6  94211591.252 6     -2407.643          40.000
G29  21178318.867 8 111292806.494 8     -1916.383          51.000    21178318.508 8  86721688.428 8     -1493.285          51.000
G31  21531869.398 8 113150733.919 8     -1595.688          51.000    21531869.156 8  88169417.090 8     -1243.393          51.000
R15  20377291.922 8 108890031.498 8     -2992.441          51.000    20377294.531 8  84692262.122 8     -2327.454          49.000
R18  19276278.664 8 102898183.047 8       471.238          51.000    19276281.352 8  80031915.684 8       366.519          49.000
C29  21596919.398 8 112460923.925 8       560.363          51.000
C30  23010917.070 6 119823965.273 6     -2204.457          38.000
E01  23729920.047 8 124701572.714 8      -951.645          51.000    23729921.656 8  95550555.356 8      -729.128          51.000
E13  27016734.688 5 141973889.329 5     -2761.984          35.000
E21  26970783.641 7 141732365.145 7     -2753.652          46.000    26970781.078 6 108600133.452 6     -2109.926          39.000
E26  22613391.797 8 118834155.907 8      -807.258          51.000    22613395.125 8  91054783.206 8      -618.548          51.000
E33  24382732.570 8 128132134.323 8      1884.602          51.000    24382734.008 8  98179196.555 8      1444.000          51.000
> 2020 05 08 12 56  0.0000000  0 13        .000000000000
G18  20726785.172 8 108920023.805 8      1615.109          50.000    20726784.906 8  84872724.700 8      1258.527          48.000
G25  23025089.883 6 120997628.147 6     -3093.969          36.000    23025090.477 6  94283892.263 6     -2410.888          36.000
G29  21189279.867 8 111350407.115 8     -1921.359          51.000    21189279.477 8  86766572.009 8     -1497.163          51.000
G31  21541024.742 8 113198846.389 8     -1609.590          51.000    21541024.852 8  88206907.314 8     -1254.226          51.000
R15  20394140.375 8 108980066.136 8     -3007.438          49.000    20394143.336 8  84762289.054 8     -2339.118          48.000
R17  20581846.055 5 110137600.301 5     -2944.191          34.000
R18  19273685.133 8 102884337.303 8       454.094          51.000    19273687.570 8  80021146.760 8       353.184          48.000
C29  21593721.414 8 112444269.895 8       552.184          51.000
C30  23023630.414 5 119890173.800 5     -2207.422          32.000
E01  23735381.367 8 124730272.135 8      -959.508          51.000    23735383.141 8  95572545.786 8      -735.213          51.000
E21  26986514.508 7 141815031.487 7     -2755.297          47.000    26986510.820 6 108663475.067 6     -2111.396          40.000
E26  22618029.375 8 118858526.101 8      -815.191          51.000    22618032.750 8  91073456.477 8      -624.633          51.000
E33  24371999.797 8 128075733.703 8      1877.699          51.000    24372001.164 8  98135980.506 8      1438.727          51.000
> 2020 05 08 12 56 30.0000000  0 12        .000000000000
G18  20717639.133 8 108871962.839 8      1591.695          49.000    20717639.633 8  84835274.608 8      1240.282          49.000
G25  23042793.930 5 121090668.963 5     -3105.773          31.000    23042795.906 5  94356391.553 5     -2420.083          31.000
G29  21200295.906 8 111408296.953 8     -1935.168          51.000    21200295.453 8  86811680.963 8     -1507.926          51.000
G31  21550285.328 8 113247511.994 8     -1632.078          50.000    21550285.359 8  88244828.531 8     -1271.752          50.000
R15  20411098.586 8 109070688.215 8     -3031.180          49.000    20411102.156 8  84832772.920 8     -2357.581          49.000
R18  19271213.344 8 102871142.816 8       428.211          51.000    19271215.977 8  80010884.397 8       333.053          49.000
C29  21590596.383 8 112427995.165 8       535.473          51.000
C30  23036384.398 5 119956598.679 5     -2218.379          31.000
E01  23740914.227 8 124759348.136 8      -976.145          51.000    23740916.312 8  95594824.749 8      -747.919          51.000
E21  27002281.531 7 141897885.314 7     -2765.480          46.000    27002277.992 7 108726960.314 7     -2119.109          42.000
E26  22622738.930 8 118883274.452 8      -831.863          51.000    22622742.102 8  91092419.493 8      -637.438          51.000
E33  24361332.383 8 128019678.748 8      1862.094          51.000    24361333.781 8  98093029.318 8      1426.787          51.000
> 2020 05 08 12 57  0.0000000  0 13        .000000000000
G18  20708592.156 8 108824421.203 8      1576.391          51.000    20708593.031 8  84798229.216 8      1228.356          50.000
G25  23060533.914 5 121183928.700 5     -3110.801          33.000    23060537.906 5  94429040.553 5     -2423.995          32.000
G29  21211355.039 8 111466413.093 8     -1940.543          51.000    21211354.531 8  86856966.241 8     -1512.111          51.000
G31  21559639.148 8 113296667.473 8     -1646.219          50.000    21559638.641 8  88283131.471 8     -1282.771          50.000
R15  20428154.828 8 109161833.334 8     -3046.469          50.000    20428159.227 8  84903663.552 8     -2369.476          48.000
R18  19268851.750 8 102858536.390 8       410.793          51.000    19268854.609 8  80001079.401 8       319.506          49.000
R19  21893145.812 6 117113564.880 6      3355.195          36.000    21893146.094 6  91088331.437 6      2609.593          41.000
C29  21587532.258 8 112412038.606 8       526.922          51.000
C30  23049170.664 5 120023177.859 5     -2221.617          30.000
E01  23746507.180 8 124788739.642 8      -984.629          51.000    23746508.977 8  95617345.499 8      -754.462          51.000
E21  27018072.344 7 141980864.613 7     -2767.695          45.000    27018070.477 7 108790541.741 7     -2120.648          44.000
E26  22627508.484 8 118908338.605 8      -840.320          51.000    22627511.539 8  91111624.502 8      -643.867          51.000
E33  24350719.094 8 127963908.773 8      1854.590          51.000    24350720.906 8  98050296.517 8      1421.061          51.000
> 2020 05 08 12 57 30.0000000  0 12        .000000000000
G18  20699644.766 8 108777401.434 8      1558.273          51.000    20699645.617 8  84761590.455 8      1214.239          50.000
G25  23078310.867 5 121277353.716 5     -3118.008          33.000    23078314.898 5  94501839.285 5     -2429.616          32.000
G29  21222457.203 8 111524755.336 8     -1948.922          51.000    21222456.695 8  86902427.725 8     -1518.640          51.000
G31  21569086.102 8 113346312.350 8     -1663.281          51.000    21569085.008 8  88321815.751 8     -1296.066          51.000
R15  20445309.328 8 109253500.249 8     -3064.641          51.000    20445313.695 8  84974960.007 8     -2383.612          48.000
R18  19266600.094 8 102846518.179 8       390.406          50.000    19266603.195 8  79991731.901 8       303.649          49.000
R19  21874362.703 6 117013084.648 6      3343.309          36.000    21874364.711 6  91010179.711 6      2600.354          41.000
C29  21584529.422 8 112396401.029 8       515.637          51.000
E01  23752160.461 8 124818447.969 8      -995.891          51.000    23752161.836 8  95640109.011 8      -763.061          51.000
E21  27033886.281 7 142063969.820 7     -2772.562          43.000    27033887.750 7 108854219.652 7     -2124.380          47.000
E26  22632338.234 8 118933718.697 8      -851.555          51.000    22632341.328 8  91131071.595 8      -652.469          51.000
E33  24340160.766 8 127908425.500 8      1844.281          51.000    24340162.914 8  98007783.376 8      1413.186          51.000
> 2020 05 08 12 58  0.0000000  0 12        .000000000000
G18  20690803.156 8 108730937.129 8      1540.422          51.000    20690803.914 8  84725384.521 8      1200.329          50.000
G29  21233608.375 8 111583354.986 8     -1956.746          51.000    21233607.805 8  86948089.776 8     -1524.740          51.000
G31  21578632.227 8 113396477.655 8     -1679.957          50.000    21578630.875 8  88360905.569 8     -1309.060          51.000
R15  20462567.430 8 109345719.426 8     -3082.250          51.000    20462571.430 8  85046685.999 8     -2397.306          48.000
R18  19264464.781 8 102835120.200 8       370.504          51.000    19264467.867 8  79982866.802 8       288.170          49.000
R19  21855647.180 6 116912979.540 6      3331.809          36.000    21855649.438 6  90932320.187 6      2591.407          39.000
C29  21581593.953 8 112381114.111 8       504.586          51.000
C30  23074838.047 5 120156721.770 5     -2232.234          33.000
E01  23757880.172 8 124848505.643 8     -1006.941          51.000    23757881.688 8  95663140.204 8      -771.520          51.000
E21  27049729.117 7 142147232.431 7     -2777.066          42.000    27049735.000 8 108918018.206 8     -2127.987          49.000
E26  22637234.031 8 118959446.060 8      -862.500          51.000    22637237.188 8  91150784.771 8      -660.898          51.000
E33  24329663.727 8 127853261.877 8      1834.301          51.000    24329665.812 8  97965515.141 8      1405.497          51.000
> 2020 05 08 12 58 30.0000000  0 13        .000000000000
G18  20682061.000 8 108684995.553 8      1522.266          51.000    20682061.648 8  84689585.901 8      1186.181          50.000
G25  23113987.047 5 121464809.725 5     -3131.535          35.000    23113995.062 5  94647933.081 5     -2440.154          35.000
G29  21244801.906 8 111642177.071 8     -1964.918          51.000    21244801.125 8  86993925.159 8     -1531.102          51.000
G31  21588270.734 8 113447127.378 8     -1696.887          51.000    21588269.305 8  88400372.868 8     -1322.249          51.000
R15  20479921.648 8 109438453.893 8     -3100.113          51.000    20479925.242 7  85118812.770 7     -2411.199          47.000
R18  19262438.930 8 102824306.955 8       350.375          50.000    19262442.250 8  79974456.530 8       272.514          49.000
R19  21836995.062 5 116813216.470 5      3318.945          35.000    21836998.297 6  90854726.700 6      2581.402          39.000
C29  21578719.055 8 112366143.793 8       493.195          51.000
C30  23087721.812 5 120223790.354 5     -2238.859          33.000
E01  23763659.773 8 124878878.886 8     -1018.031          50.000    23763661.719 8  95686413.188 8      -780.086          51.000
E21  27065594.844 6 142230617.754 6     -2781.875          41.000    27065604.203 8 108981910.847 8     -2131.635          49.000
E26  22642189.070 8 118985485.623 8      -873.559          51.000    22642192.156 8  91170737.162 8      -669.371          51.000
E33  24319221.336 8 127798384.475 8      1824.008          51.000    24319223.070 8  97923466.217 8      1397.658          51.000
> 2020 05 08 12 59  0.0000000  0 13        .000000000000
G18  20673420.672 8 108639590.351 8      1504.211          49.000    20673421.461 8  84654205.233 8      1172.115          48.000
G25  23131885.703 6 121558846.930 6     -3138.488          39.000    23131889.805 6  94721208.815 6     -2445.575          38.000
G29  21256039.898 8 111701232.829 8     -1972.805          51.000    21256039.023 8  87039942.629 8     -1537.250          51.000
G31  21598003.648 8 113498272.149 8     -1713.445          51.000    21598002.109 8  88440225.920 8     -1335.152          51.000
R15  20497373.945 8 109531713.968 8     -3117.852          51.000    20497376.805 7  85191348.327 7     -2424.999          45.000
R18  19260524.805 8 102814090.146 8       330.148          50.000    19260528.180 8  79966510.124 8       256.782          49.000
R19  21818410.398 5 116713809.496 5      3307.320          35.000    21818416.250 6  90777410.199 6      2572.363          40.000
C29  21575907.195 8 112351501.917 8       482.129          51.000
C30  23100633.602 5 120291019.962 5     -2244.039          31.000
E01  23769501.867 8 124909580.276 8     -1029.215          51.000    23769503.906 8  95709937.618 8      -788.637          51.000
E21  27081487.422 7 142314137.451 7     -2786.617          44.000    27081498.070 8 109045906.414 8     -2135.239          49.000
E26  22647205.664 8 119011848.694 8      -884.504          51.000    22647208.602 8  91190937.425 8      -677.719          51.000
E33  24308835.781 8 127743806.249 8      1813.855          51.000    24308836.969 8  97881646.531 8      1389.897          51.000
> 2020 05 08 12 59 30.0000000  0 15        .000000000000
G18  20664885.102 8 108594738.000 8      1485.152          48.000    20664886.266 8  84619255.337 8      1157.262          48.000
G25  23149822.922 6 121653098.503 6     -3145.922          41.000    23149825.258 6  94794651.582 6     -2451.368          41.000
G29  21267325.008 8 111760536.027 8     -1981.516          50.000    21267324.180 8  87086152.903 8     -1544.038          50.000
G31  21607833.250 8 113549925.571 8     -1730.832          50.000    21607831.727 8  88480475.330 8     -1348.700          50.000
R15  20514926.891 8 109625512.708 8     -3136.254          51.000    20514928.836 7  85264302.826 7     -2439.312          44.000
R16  19423946.156 5 103759243.809 5       977.949          34.000    19423946.906 4  80701637.074 4       760.624          29.000
R17  20698892.211 4 110763952.114 4     -3018.750          29.000    20698892.891 4  86149743.411 4     -2347.917          28.000
R18  19258725.039 8 102804484.024 8       309.406          50.000    19258728.750 8  79959038.692 8       240.649          49.000
R19  21799897.109 6 116614776.050 6      3294.258          36.000    21799904.133 6  90700384.196 6      2562.201          39.000
C29  21573161.453 8 112337203.245 8       470.297          51.000
C30  23113576.234 5 120358463.644 5     -2250.863          31.000
E01  23775409.609 8 124940625.180 8     -1041.082          51.000    23775411.531 8  95733725.270 8      -797.739          51.000
E21  27097409.789 7 142397805.973 7     -2791.977          47.000    27097419.781 8 109110016.024 8     -2139.408          48.000
E26  22652286.523 8 119038549.513 8      -896.164          51.000    22652289.711 8  91211396.495 8      -686.704          51.000
E33  24298510.109 8 127689542.996 8      1802.945          51.000    24298510.836 8  97840068.201 8      1381.484          51.000
