     3.02           OBSERVATION DATA    M (MIXED)           RINEX VERSION / TYPE
SAVERINEX           SC600               20200513 095931 LCL PGM / RUN BY / DATE
       G = GPS       R = GLONASS       C = COMPASS          COMMENT
       S = SBAS      J = QZSS          E = GALILEO          COMMENT
BEAN                                                        MARKER NAME
1                                                           MARKER NUMBER
GEODETIC                                                    MARKER TYPE
Unige DICCA         GTER                                    OBSERVER / AGENCY
SC60291900056       SC600               2.12(191226)        REC # / TYPE / VERS
                    HEMA45          NONE                    ANT # / TYPE
  4509407.8091   693652.4678  4442337.6214                  APPROX POSITION XYZ
        0.0000        0.0000        0.0000                  ANTENNA: DELTA H/E/N
G    8 C1C L1C D1C S1C C2Y L2Y D2Y S2Y                      SYS / # / OBS TYPES
R    8 C1C L1C D1C S1C C2P L2P D2P S2P                      SYS / # / OBS TYPES
C    4 C1I L1I D1I S1I                                      SYS / # / OBS TYPES
E    8 C1C L1C D1C S1C C7Q L7Q D7Q S7Q                      SYS / # / OBS TYPES
DBHZ                                                        COMMENT
     30.000                                                 INTERVAL
  2020    05    13    07    00    0.0000000     GPS         TIME OF FIRST OBS
  2020    05    13    07    59   30.0000000     GPS         TIME OF LAST OBS
     0                                                      RCV CLOCK OFFS APPL
G L1C  0.00000                                              SYS / PHASE SHIFT
G L2Y  0.00000                                              SYS / PHASE SHIFT
R L1C  0.00000                                              SYS / PHASE SHIFT
R L2P  0.25000                                              SYS / PHASE SHIFT
C L1I  0.00000                                              SYS / PHASE SHIFT
E L1C  0.50000                                              SYS / PHASE SHIFT
E L7Q -0.25000                                              SYS / PHASE SHIFT
 12 R05  1 R06 -4 R07  5 R08  6 R09 -2 R10 -7 R11  0 R16 -1 GLONASS SLOT / FRQ #
    R17  4 R18 -3 R19  3 R20  2                             GLONASS SLOT / FRQ #
 C1C   71.950 C2C   71.950 C2P   71.950                     GLONASS COD/PHS/BIS
    18                                                      LEAP SECONDS
*** Above antenna height is from mark to ANTENNA BOTTOM.    COMMENT
    17     4        0.0000        ANT MEASURE TYPE/HEIGT    COMMENT
    0.0000    0.0000    0.0458    0.0405    0.0000          COMMENT
                    BASE STATION                            COMMENT
                                                            END OF HEADER
> 2020 05 13 07 00  0.0000000  0 15        .000000000000
G12  21612838.906 8 113576253.776 8      2691.637          51.000    21612836.688 8  88500958.373 8      2097.379          51.000
G13  23016401.711 7 120952015.499 7     -3488.691          43.000    23016405.438 7  94248325.207 7     -2718.464          42.000
G15  21650489.031 8 113774076.804 8     -2724.895          50.000    21650488.086 8  88655129.381 8     -2123.294          50.000
G19  21634795.328 6 113691615.073 6       766.820          38.000    21634797.672 5  88590869.182 5       597.531          33.000
G25  24226002.062 6 127308518.793 6      3527.195          39.000    24225999.844 5  99201402.607 5      2748.470          30.000
R07  22725111.961 5 121649268.785 5     -4433.469          32.000    22725109.719 4  94616100.473 4     -3448.250          25.000
R08  20321998.070 8 108823357.986 8     -1919.285          49.000    20321998.727 7  84640404.610 7     -1492.777          44.000
R09  20593253.461 6 109966808.942 6     -2136.781          41.000    20593254.195 6  85529739.090 6     -1661.941          41.000
R11  22389619.852 5 119643343.543 5      2812.547          33.000    22389619.367 5  93055941.232 5      2187.536          31.000
C22  25593343.547 6 133271240.624 6     -3266.766          36.000
C29  24399975.203 7 127057091.054 7      2832.441          47.000
E05  24555067.469 8 129037736.387 8     -2014.180          51.000    24555070.453 8  98873077.161 8     -1543.279          51.000
E24  22020811.805 8 115720138.962 8     -1051.188          51.000    22020824.258 8  88668770.527 8      -805.410          51.000
E25  24408660.344 5 128268375.092 5      1344.375          32.000    24408656.742 6  98283516.752 6      1029.938          39.000
E31  27328586.000 5 143612674.916 5     -2438.699          34.000    27328588.148 5 110040898.766 5     -1868.934          31.000
> 2020 05 13 07 00 30.0000000  0 17        .000000000000
G12  21597505.508 8 113495675.851 8      2679.184          51.000    21597502.594 8  88438170.396 8      2087.676          51.000
G13  23036338.672 7 121056783.604 7     -3496.797          44.000    23036342.234 7  94329962.662 7     -2724.777          43.000
G15  21666080.312 8 113856008.645 8     -2738.312          51.000    21666079.047 8  88718972.364 8     -2133.750          51.000
G19  21630475.664 5 113668918.410 5       744.879          34.000    21630476.648 5  88573183.433 5       580.428          30.000
G20  24010064.492 5 126173735.626 5     -2047.742          31.000
G24  20346431.656 5 106921225.678 5       928.621          32.000    20346431.453 5  83315217.877 5       723.601          32.000
G25  24205875.531 6 127202766.385 6      3521.645          39.000    24205876.633 5  99118998.143 5      2744.142          31.000
R07  22749967.852 5 121782341.839 5     -4439.422          33.000    22749969.508 4  94719601.647 4     -3452.887          26.000
R08  20332819.211 8 108881303.594 8     -1944.598          49.000    20332819.391 7  84685473.404 7     -1512.468          44.000
R09  20605276.406 6 110031012.492 6     -2144.621          36.000    20605277.734 6  85579675.125 6     -1668.039          40.000
C21  23745267.648 6 123647896.712 6     -1529.805          36.000
C22  25612171.062 5 133369267.916 5     -3269.621          35.000
C29  24383675.016 7 126972218.585 7      2824.559          45.000
E05  24566594.828 8 129098314.039 8     -2025.387          51.000    24566597.602 8  98919493.804 8     -1551.887          51.000
E24  22026828.336 8 115751755.572 8     -1057.594          51.000    22026840.555 8  88692996.230 8      -810.379          51.000
E25  24401015.969 5 128228145.735 5      1336.617          35.000    24401001.406 6  98252691.575 6      1024.287          37.000
E31  27342507.852 5 143685838.812 5     -2439.309          35.000    27342511.000 4 110096961.314 4     -1869.018          29.000
> 2020 05 13 07 01  0.0000000  0 14        .000000000000
G12  21582243.984 8 113415476.476 8      2661.836          51.000    21582241.133 8  88375677.417 8      2074.158          51.000
G13  23056322.742 7 121161799.263 7     -3509.695          44.000    23056326.008 7  94411793.067 7     -2734.828          44.000
G15  21681748.508 8 113938344.466 8     -2756.340          51.000    21681746.773 8  88783130.155 8     -2147.797          51.000
G25  24185769.695 6 127097082.851 6      3511.320          36.000
R07  22774858.969 5 121915600.259 5     -4449.730          31.000    22774863.539 4  94823247.065 4     -3460.905          27.000
R08  20343781.984 8 108940008.881 8     -1974.809          50.000    20343781.648 7  84731133.031 7     -1535.962          44.000
R09  20617343.789 6 110095454.102 6     -2157.398          37.000    20617345.641 6  85629796.308 6     -1677.977          40.000
C21  23754118.047 6 123694000.516 6     -1549.309          37.000
C22  25631009.484 5 133467370.854 5     -3276.574          35.000
C29  24367420.477 7 126887584.281 7      2812.117          45.000
E05  24578187.156 8 129159236.648 8     -2041.582          51.000    24578190.422 8  98966174.774 8     -1564.374          51.000
E24  22032882.961 8 115783572.207 8     -1069.062          51.000    22032895.039 8  88717375.186 8      -819.116          51.000
E25  24393410.250 6 128188231.657 6      1324.855          36.000
E31                                                                  27356438.062 5 110153039.460 5     -1872.933          30.000
> 2020 05 13 07 01 30.0000000  0 17        .000000000000
G12  21567064.195 8 113335707.509 8      2670.180          49.000    21567062.312 8  88313519.808 8      2080.659          50.000
G13  23076363.445 7 121267111.762 7     -3496.996          45.000    23076366.242 7  94493854.731 7     -2724.932          45.000
G15  21697502.867 8 114021132.793 8     -2748.812          51.000    21697500.844 8  88847640.515 8     -2141.932          51.000
G20  24033585.688 5 126297307.190 5     -2054.680          33.000
G24  20335973.766 5 106866243.994 5       919.812          31.000
G25  24165718.609 5 126991725.069 5      3526.707          33.000    24165722.172 5  98954596.691 5      2748.077          32.000
R07  22799794.898 5 122049091.517 5     -4434.719          30.000    22799802.977 4  94927073.536 4     -3449.226          27.000
R08  20354895.227 8 108999522.898 8     -1978.547          49.000    20354895.445 7  84777421.690 7     -1538.867          45.000
R09  20629465.406 6 110160184.259 6     -2144.031          39.000    20629467.789 6  85680141.992 6     -1667.580          39.000
R11  22342406.438 4 119391080.994 4      2809.195          29.000    22342412.125 4  92859724.993 4      2184.930          29.000
C21  23763066.461 6 123740608.088 6     -1543.828          37.000
C22  25649871.547 6 133565597.568 6     -3258.148          36.000
C29  24351222.805 7 126803241.026 7      2824.707          46.000
E05  24589854.430 8 129220553.926 8     -2032.078          51.000    24589858.453 8  99013158.137 8     -1557.056          51.000
E09  26012934.156 5 136698895.251 5     -3185.156          32.000
E24  22038985.164 8 115815638.957 8     -1054.594          51.000    22038997.195 8  88741945.795 8      -808.017          51.000
E25  24385836.320 6 128148485.689 6      1338.340          40.000
> 2020 05 13 07 02  0.0000000  0 17        .000000000000
G12  21551932.555 8 113256190.408 8      2644.141          50.000    21551932.078 8  88251558.447 8      2060.366          50.000
G13  23096426.297 8 121372539.169 8     -3518.441          48.000    23096428.484 7  94576005.907 7     -2741.646          45.000
G15  21713308.781 8 114104191.589 8     -2775.391          51.000    21713306.516 8  88912361.635 8     -2162.642          51.000
G19  21618279.242 6 113604837.828 6       681.086          36.000
G20  24045423.047 5 126359556.857 5     -2079.820          35.000
G24  20330833.203 6 106839222.130 6       894.602          37.000    20330836.742 6  83251364.807 6       697.092          38.000
G25  24145678.727 6 126886412.842 6      3507.574          40.000    24145680.352 6  98872535.209 6      2733.175          36.000
R07  22824739.773 5 122182628.533 5     -4453.535          30.000    22824749.773 4  95030935.621 4     -3463.861          27.000
R08  20366124.914 8 109059659.799 8     -2017.199          49.000    20366126.641 7  84824194.842 7     -1568.933          47.000
R09  20641606.977 6 110225019.160 6     -2165.043          40.000    20641609.984 6  85730569.156 6     -1683.922          40.000
R11  22326733.781 5 119307285.433 5      2790.258          34.000    22326733.148 5  92794550.682 5      2170.204          31.000
C21  23772078.000 6 123787539.377 6     -1571.863          37.000
C22  25668723.117 6 133663767.381 6     -3273.598          36.000
C29  24335048.289 8 126719013.159 8      2803.316          49.000
E05  24601562.898 8 129282084.777 8     -2056.879          51.000    24601567.016 8  99060305.135 8     -1575.939          51.000
E24  22045100.547 8 115847775.198 8     -1074.602          51.000    22045112.586 8  88766569.646 8      -823.366          51.000
E25  24378288.492 7 128108844.694 7      1317.484          43.000    24378288.016 6  98161243.032 6      1009.609          36.000
> 2020 05 13 07 02 30.0000000  0 16        .000000000000
G12  21536869.539 8 113177032.893 8      2632.645          51.000    21536870.195 8  88189877.232 8      2051.405          51.000
G13  23116530.844 7 121478186.120 7     -3525.121          47.000    23116532.383 7  94658328.152 7     -2746.851          44.000
G15  21729185.969 8 114187625.338 8     -2787.332          51.000    21729183.680 8  88977374.916 8     -2171.947          51.000
G19  21614443.609 6 113584709.323 6       659.973          39.000
G20  24057326.625 5 126422128.685 5     -2090.504          35.000
G24  20325758.930 6 106812551.344 6       883.227          39.000    20325760.039 6  83230582.307 6       688.225          39.000
G25  24125667.891 7 126781253.688 7      3502.816          43.000    24125668.289 5  98790593.044 5      2729.464          34.000
R07  22849711.570 5 122316315.424 5     -4458.945          32.000
R08  20377491.578 8 109120525.319 8     -2040.930          50.000    20377494.031 7  84871534.668 7     -1587.393          47.000
R09  20653788.812 6 110290066.368 6     -2171.527          40.000    20653791.383 6  85781161.403 6     -1688.966          40.000
C21  23781172.609 6 123834898.615 6     -1585.629          40.000
C22  25687582.781 5 133761983.759 5     -3274.641          33.000
C29  24318917.250 8 126635008.987 8      2796.395          50.000
E05  24613332.703 8 129343934.641 8     -2066.941          51.000    24613336.008 8  99107696.569 8     -1583.700          51.000
E24  22051249.273 8 115880086.825 8     -1079.977          51.000    22051261.344 8  88791327.902 8      -827.541          51.000
E25  24370781.359 6 128069403.287 6      1311.301          40.000    24370784.234 5  98131021.614 5      1004.787          35.000
> 2020 05 13 07 03  0.0000000  0 14        .000000000000
G12  21521880.531 8 113098263.722 8      2621.176          51.000    21521881.242 8  88128498.661 8      2042.472          51.000
G13  23136681.570 7 121584077.933 7     -3531.840          47.000    23136682.969 7  94740841.215 7     -2752.086          45.000
G15  21745139.062 8 114271459.222 8     -2799.109          51.000    21745136.977 8  89042699.978 8     -2181.127          51.000
G19  21610739.734 7 113565256.092 7       639.078          42.000    21610732.930 4  88492348.991 4       498.001          26.000
G24  20320756.039 6 106786259.565 6       872.289          37.000    20320754.516 6  83210095.160 6       679.703          36.000
G25  24105691.766 7 126676276.626 7      3498.039          44.000    24105690.609 6  98708792.787 6      2725.748          36.000
R08  20388999.273 8 109182144.862 8     -2064.480          50.000    20389001.297 7  84919460.923 7     -1605.707          46.000
R09  20666015.938 6 110355352.758 6     -2178.148          41.000    20666016.875 6  85831939.613 6     -1694.115          38.000
C21  23790354.945 6 123882711.468 6     -1599.312          40.000
C22  25706456.547 5 133860271.758 5     -3275.621          35.000
C29  24302834.539 8 126551258.424 8      2789.438          49.000
E05  24625168.609 8 129406129.943 8     -2076.848          51.000    24625170.836 8  99155352.671 8     -1591.381          51.000
E24  22057436.492 8 115912600.718 8     -1085.145          51.000    22057448.641 8  88816241.141 8      -831.483          51.000
E25                                                                  24363325.219 5  98100974.149 5      1000.136          34.000
> 2020 05 13 07 03 30.0000000  0 13        .000000000000
G12  21506953.867 8 113019822.713 8      2608.340          51.000    21506953.516 8  88067375.803 8      2032.473          51.000
G13  23156866.586 7 121690151.601 7     -3539.590          47.000    23156868.422 7  94823495.978 7     -2758.125          44.000
G15  21761156.141 8 114355630.067 8     -2812.215          51.000    21761154.273 8  89108287.596 8     -2191.339          51.000
G19  21607154.422 6 113546417.606 6       616.887          40.000    21607152.109 5  88477669.581 5       480.694          32.000
G24  20315813.414 6 106760286.555 6       859.340          36.000    20315811.094 6  83189856.483 6       669.619          36.000
G25  24085738.656 7 126571421.520 7      3492.086          44.000    24085737.008 6  98627087.532 6      2721.106          36.000
R08  20400634.422 8 109244453.202 8     -2089.344          48.000    20400636.617 7  84967922.919 7     -1625.048          46.000
R09  20678275.641 6 110420814.848 6     -2186.066          41.000    20678273.695 6  85882854.589 6     -1700.271          38.000
C21  23799612.930 6 123930915.292 6     -1614.020          39.000
C22  25725333.398 5 133958567.997 5     -3277.969          34.000
C29  24286788.406 8 126467703.088 8      2780.977          48.000
E05  24637058.383 8 129468607.958 8     -2088.219          51.000    24637059.852 8  99203225.400 8     -1600.067          51.000
E24  22063650.359 8 115945254.638 8     -1091.668          51.000    22063662.570 8  88841261.665 8      -836.488          51.000
> 2020 05 13 07 04  0.0000000  0 13        .000000000000
G12  21492096.633 8 112941746.393 8      2596.047          51.000    21492094.633 8  88006537.136 8      2022.897          51.000
G13  23177092.344 7 121796440.149 7     -3546.930          47.000    23177094.367 7  94906318.191 7     -2763.844          42.000
G15  21777243.648 8 114440170.411 8     -2824.543          51.000    21777242.133 8  89174163.145 8     -2200.943          51.000
G19  21603693.367 6 113528230.041 6       595.105          38.000    21603693.695 5  88463497.649 5       463.725          35.000
G24  20310937.672 5 106734668.442 5       847.414          35.000    20310936.992 6  83169894.335 6       660.329          36.000
G25  24065815.336 7 126466724.953 7      3486.668          43.000    24065813.992 6  98545505.806 6      2716.887          39.000
R08  20412403.445 8 109307482.963 8     -2113.305          48.000    20412407.023 7  85016946.054 7     -1643.681          47.000
R09  20690573.867 6 110486487.588 6     -2192.879          39.000    20690572.391 6  85933933.345 6     -1705.572          39.000
C21  23808952.023 6 123979543.195 6     -1628.410          38.000
C22  25744218.656 5 134056905.164 5     -3278.660          34.000
C29  24270786.672 7 126384380.403 7      2773.035          46.000
E05  24649008.305 8 129531402.653 8     -2098.801          51.000    24649009.484 8  99251340.788 8     -1608.190          51.000
E24  22069897.453 8 115978083.037 8     -1097.562          51.000    22069909.625 8  88866415.877 8      -840.942          51.000
> 2020 05 13 07 04 30.0000000  0 14        .000000000000
G12  21477310.211 8 112864042.924 8      2583.281          51.000    21477307.586 8  87945989.013 8      2012.946          51.000
G13  23197360.273 8 121902948.653 8     -3554.473          48.000    23197361.336 6  94989311.777 6     -2769.722          40.000
G15  21793402.383 8 114525085.488 8     -2837.336          51.000    21793401.422 8  89240330.701 8     -2210.911          51.000
G19  21600357.836 5 113510701.845 5       572.734          35.000    21600356.969 5  88449839.180 5       446.271          32.000
G24  20306130.047 5 106709413.724 5       834.941          33.000    20306132.117 5  83150215.358 5       650.601          32.000
G25  24045923.641 7 126362195.598 7      3480.738          42.000    24045923.273 6  98464054.366 6      2712.264          41.000
R08  20424309.148 8 109371238.977 8     -2137.809          49.000    20424313.562 7  85066534.070 7     -1662.740          47.000
R09  20702912.117 6 110552377.353 6     -2200.672          39.000    20702912.656 6  85985180.968 6     -1711.634          39.000
C21  23818373.961 6 124028600.725 6     -1643.035          40.000
C22  25763113.359 4 134155288.213 4     -3281.262          29.000
C29  24254831.258 7 126301300.209 7      2764.594          45.000
E05  24661019.383 8 129594520.111 8     -2109.836          51.000    24661020.883 8  99299703.496 8     -1616.693          51.000
E24  22076178.969 8 116011092.530 8     -1103.980          51.000    22076191.078 8  88891708.855 8      -845.874          51.000
E25  24341144.352 5 127913576.177 5      1284.102          34.000    24341155.266 6  98011739.268 6       983.943          39.000
> 2020 05 13 07 05  0.0000000  0 13        .000000000000
G12  21462593.867 8 112786710.299 8      2572.449          48.000    21462591.773 8  87885729.854 8      2004.506          48.000
G13  23217669.500 8 122009672.032 8     -3560.086          50.000    23217668.781 6  95072472.775 6     -2774.096          39.000
G15  21809631.188 8 114610369.956 8     -2848.059          50.000    21809631.125 8  89306786.113 8     -2219.266          51.000
G17  22661183.711 6 119085272.003 6     -1315.164          37.000
G24  20301391.875 5 106684519.962 5       824.492          35.000    20301395.094 6  83130817.635 6       642.458          36.000
G25  24026063.742 7 126257831.592 7      3476.828          45.000    24026064.219 6  98382731.758 6      2709.217          41.000
R08  20436350.227 8 109435715.057 8     -2160.195          51.000    20436354.258 7  85116682.120 7     -1680.152          46.000
R09  20715290.664 6 110618479.956 6     -2205.730          36.000    20715291.320 6  86036594.104 6     -1715.571          38.000
C21  23827877.922 7 124078083.097 7     -1655.656          43.000
C29  24238923.031 7 126218461.863 7      2757.965          46.000
E05  24673090.398 8 129657955.862 8     -2119.000          50.000    24673092.977 8  99348310.110 8     -1623.589          51.000
E24  22082494.234 8 116044279.190 8     -1108.309          51.000    22082506.297 8  88917137.593 8      -849.203          51.000
E25  24333828.281 5 127875131.025 5      1277.918          30.000    24333839.273 6  97982288.037 6       979.699          37.000
> 2020 05 13 07 05 30.0000000  0 13        .000000000000
G12  21447943.148 8 112709723.486 8      2559.855          49.000    21447941.883 8  87825740.140 8      1994.693          49.000
G13  23238014.422 8 122116581.793 8     -3567.246          51.000    23238012.391 6  95155778.988 6     -2779.675          39.000
G15  21825924.641 8 114695995.122 8     -2860.262          50.000    21825925.578 8  89373507.025 8     -2228.775          50.000
G17  22668744.500 5 119125053.286 5     -1332.715          32.000    22668739.336 5  92824679.551 5     -1038.494          31.000
G24  20296717.977 6 106659960.710 6       812.695          36.000    20296721.211 5  83111680.538 5       633.269          35.000
G25  24006230.750 8 126153607.770 8      3471.293          48.000    24006231.602 6  98301518.425 6      2704.904          41.000
R08  20448520.242 8 109500881.068 8     -2184.242          50.000    20448522.562 7  85167366.775 7     -1698.855          45.000
R09  20727703.969 6 110684767.732 6     -2213.223          40.000    20727705.961 6  86088151.222 6     -1721.395          36.000
C21  23837458.438 7 124127962.307 7     -1669.668          43.000
C29  24223057.172 7 126135841.755 7      2749.914          47.000
E05  24685216.148 8 129721682.199 8     -2129.555          50.000    24685220.109 8  99397139.393 8     -1631.701          51.000
E24  22088837.992 8 116077615.806 8     -1114.129          51.000    22088850.125 8  88942681.235 8      -853.692          51.000
E25                                                                  24326554.688 5  97952961.885 5       974.458          30.000
> 2020 05 13 07 06  0.0000000  0 13        .000000000000
G12  21433358.641 8 112633081.636 8      2548.527          51.000    21433357.898 8  87766019.216 8      1985.865          51.000
G13  23258393.992 8 122223674.366 8     -3573.199          51.000    23258391.938 6  95239227.664 6     -2784.314          40.000
G15  21842282.391 8 114781957.131 8     -2871.441          51.000    21842283.664 8  89440490.409 8     -2237.487          51.000
G19  21591092.047 6 113461942.708 6       509.703          38.000
G24  20292108.562 6 106635736.557 6       801.660          38.000    20292111.367 6  83092804.554 6       624.670          38.000
G25  23986424.445 8 126049523.897 8      3466.812          48.000    23986425.242 7  98220414.142 7      2701.412          42.000
R08  20460817.336 7 109566733.010 7     -2206.836          47.000    20460818.609 7  85218584.898 7     -1716.428          45.000
R09  20740151.547 6 110751237.704 6     -2219.039          36.000    20740154.828 6  86139850.122 6     -1725.922          36.000
R11  22202442.586 5 118643078.545 5      2745.703          32.000    22202458.383 4  92278034.212 4      2135.547          26.000
C21  23847114.086 7 124178234.924 7     -1682.539          45.000
C29  24207233.312 8 126053440.765 8      2742.566          48.000
E05  24697396.938 8 129785696.241 8     -2138.949          51.000    24697401.641 8  99446189.118 8     -1638.944          51.000
E24  22095209.734 8 116111100.029 8     -1118.980          51.000    22095222.016 8  88968337.976 8      -857.386          51.000
> 2020 05 13 07 06 30.0000000  0 13        .000000000000
G12  21418849.672 8 112556834.926 8      2535.043          51.000    21418849.273 8  87706606.207 8      1975.358          51.000
G13  23278817.148 8 122330996.798 8     -3581.238          51.000    23278815.695 6  95322855.455 6     -2790.575          41.000
G15  21858713.516 8 114868302.860 8     -2884.527          51.000    21858714.258 8  89507772.785 8     -2247.684          51.000
G19  21588249.461 6 113447014.156 6       486.312          41.000
G24  20287572.570 6 106611896.596 6       788.266          39.000    20287574.836 6  83074227.929 6       614.233          39.000
G25  23966654.367 7 125945630.530 7      3460.000          47.000    23966655.016 7  98139458.295 7      2696.104          42.000
R08  20473250.078 7 109633317.235 7     -2231.543          45.000    20473252.516 7  85270372.626 7     -1735.645          46.000
R09  20752642.141 6 110817939.245 6     -2227.062          39.000    20752647.039 5  86191729.029 5     -1732.160          34.000
R11  22187059.016 5 118560829.723 5      2738.457          31.000    22187065.656 4  92214063.009 4      2129.911          26.000
C21  23856854.195 7 124228948.021 7     -1697.730          45.000
C29  24191461.609 8 125971310.195 8      2733.227          49.000
E05  24709642.320 8 129850045.893 8     -2150.438          51.000    24709646.695 8  99495495.994 8     -1647.693          51.000
E24  22101618.703 8 116144780.293 8     -1125.844          51.000    22101631.195 8  88994144.926 8      -862.648          51.000
> 2020 05 13 07 07  0.0000000  0 12        .000000000000
G12  21404415.742 8 112480982.718 8      2523.316          51.000    21404415.422 8  87647500.566 8      1966.221          51.000
G13  23299283.180 8 122438544.673 8     -3587.207          51.000    23299282.000 6  95406658.937 6     -2795.226          41.000
G15  21875217.070 8 114955027.700 8     -2895.621          51.000    21875216.680 8  89575350.549 8     -2256.328          51.000
G19  21585537.562 7 113432765.207 7       464.922          43.000    21585532.336 5  88389167.815 5       362.274          34.000
G24  20283109.625 6 106588439.952 6       777.062          41.000    20283111.148 7  83055950.011 7       605.503          42.000
G25  23946920.148 7 125841926.598 7      3455.066          47.000    23946921.125 7  98058650.046 7      2692.260          43.000
R08  20485818.273 7 109700628.765 7     -2254.332          45.000    20485822.789 7  85322726.047 7     -1753.369          46.000
R09  20765176.031 6 110884868.836 6     -2233.340          37.000    20765181.562 5  86243785.361 5     -1737.042          35.000
C21  23866677.891 7 124280097.431 7     -1710.789          45.000
C29  24175741.703 8 125889450.245 8      2725.578          48.000
E05  24721951.328 8 129914727.589 8     -2160.203          51.000    24721954.875 8  99545057.276 8     -1655.179          51.000
E24  22108064.453 8 116178653.600 8     -1130.828          51.000    22108077.156 8  89020099.786 8      -866.500          51.000
> 2020 05 13 07 07 30.0000000  0 14        .000000000000
G12  21390047.273 8 112405475.858 8      2510.652          50.000    21390047.109 8  87588664.030 8      1956.352          50.000
G13  23319782.039 8 122546265.936 8     -3594.055          51.000    23319780.773 6  95490597.543 6     -2800.565          40.000
G15  21891782.883 8 115042079.446 8     -2907.559          51.000    21891781.328 8  89643183.062 8     -2265.630          51.000
G19  21582945.906 7 113419146.059 7       443.082          42.000    21582942.203 5  88378555.498 5       345.256          34.000
G24  20278710.156 6 106565317.611 6       764.879          40.000    20278711.461 6  83037932.598 6       596.006          40.000
G25  23927212.516 7 125738363.348 7      3449.227          46.000    23927214.164 7  97977951.444 7      2687.709          43.000
R08  20498513.703 7 109768613.776 7     -2277.773          47.000    20498518.578 7  85375603.230 7     -1771.605          46.000
R09  20777742.820 5 110951974.861 5     -2240.016          34.000    20777749.023 5  86295978.847 5     -1742.234          35.000
C21  23876575.086 7 124331631.811 7     -1724.758          45.000
C22  25876587.609 5 134746178.533 5     -3285.961          30.000
C29  24160063.625 7 125807813.737 7      2717.039          47.000
E05  24734313.797 8 129979689.902 8     -2170.570          51.000    24734316.586 8  99594833.572 8     -1663.176          51.000
E24  22114537.414 8 116212669.101 8     -1136.754          51.000    22114550.156 8  89046163.585 8      -871.004          51.000
E25  24297800.367 6 127685800.523 6      1245.211          37.000
> 2020 05 13 07 08  0.0000000  0 14        .000000000000
G12  21375747.977 8 112330331.112 8      2498.273          51.000    21375747.484 8  87530109.684 8      1946.707          51.000
G13  23340316.359 8 122654174.443 8     -3600.672          49.000    23340314.891 6  95574682.034 6     -2805.718          39.000
G15  21908413.094 8 115129471.520 8     -2919.230          50.000    21908411.180 8  89711280.770 8     -2274.725          50.000
G19  21580477.125 6 113406173.488 6       421.152          38.000    21580473.734 6  88368447.060 6       328.171          36.000
G24  20274377.281 7 106542545.597 7       752.660          42.000    20274378.500 7  83020188.130 7       586.488          42.000
G25  23907534.961 7 125634957.937 7      3443.793          47.000    23907537.312 7  97897375.841 7      2683.478          43.000
R08  20511338.547 7 109837284.487 7     -2300.828          47.000    20511342.812 7  85429013.745 7     -1789.536          47.000
R09  20790345.344 5 111019272.449 5     -2246.895          34.000    20790350.828 5  86348321.363 5     -1747.585          32.000
C21  23886548.102 7 124383564.993 7     -1738.172          45.000
C22  25895516.539 5 134844734.934 5     -3286.094          33.000
C29  24144432.594 7 125726419.018 7      2708.707          47.000
E05  24746732.406 8 130044947.396 8     -2180.609          51.000    24746734.383 8  99644836.032 8     -1670.833          51.000
E24  22121040.383 8 116246841.883 8     -1142.160          51.000    22121053.070 8  89072347.907 8      -875.168          51.000
E25  24290709.672 6 127648526.015 6      1238.996          41.000
> 2020 05 13 07 08 30.0000000  0 15        .000000000000
G12  21361521.484 8 112255569.364 8      2486.016          50.000    21361520.703 8  87471853.797 8      1937.158          50.000
G13  23360889.422 7 122762287.733 7     -3606.949          46.000    23360887.727 6  95658926.106 6     -2810.613          38.000
G15  21925111.023 8 115217221.488 8     -2930.625          49.000    21925109.320 8  89779657.362 8     -2283.604          49.000
G17  22716130.547 5 119374070.909 5     -1435.363          33.000
G19  21578135.484 5 113393868.093 5       399.469          35.000    21578132.984 5  88358858.407 5       311.268          35.000
G24  20270115.102 7 106520144.436 7       740.738          43.000    20270115.930 7  83002732.650 7       577.199          43.000
G25  23887891.547 7 125531731.453 7      3438.207          46.000    23887894.703 7  97816939.676 7      2679.125          44.000
R08  20524294.367 8 109906658.254 8     -2323.914          48.000    20524298.469 7  85482971.127 7     -1807.486          47.000
R09  20802988.484 5 111086780.613 5     -2253.168          34.000    20802991.867 5  86400827.605 5     -1752.470          33.000
C21  23896600.281 7 124435914.752 7     -1751.539          44.000
C22  25914447.156 5 134943319.910 5     -3286.066          32.000
C29  24128852.727 8 125645288.186 8      2700.277          48.000
E05  24759210.570 8 130110518.523 8     -2190.555          51.000    24759211.742 8  99695078.808 8     -1678.504          51.000
E24  22127576.844 8 116281191.045 8     -1147.566          51.000    22127589.578 8  89098667.378 8      -879.286          51.000
E25  24283657.477 6 127611459.217 6      1232.363          40.000    24283657.992 5  97780221.220 5       943.955          35.000
> 2020 05 13 07 09  0.0000000  0 14        .000000000000
G12  21347366.500 8 112181185.638 8      2475.551          48.000    21347365.398 8  87413892.444 8      1929.004          49.000
G13  23381499.164 7 122870597.878 7     -3611.062          42.000    23381498.391 6  95743323.588 6     -2813.815          37.000
G15  21941875.766 8 115305321.195 8     -2939.910          51.000    21941874.320 8  89848306.469 8     -2290.839          50.000
G19  21575927.141 5 113382262.360 5       379.176          35.000    21575919.055 4  88349773.520 4       295.471          29.000
G24  20265922.266 7 106498109.700 7       730.664          43.000    20265922.547 7  82985562.714 7       569.346          42.000
G25  23868281.344 7 125428679.351 7      3434.711          44.000    23868285.531 7  97736639.370 7      2676.398          44.000
R08  20537379.633 8 109976726.208 8     -2344.641          48.000    20537383.625 7  85537468.413 7     -1823.609          47.000
R09  20815669.531 6 111154492.542 6     -2257.965          38.000    20815674.109 5  86453492.464 5     -1756.195          31.000
C21  23906730.070 7 124488673.412 7     -1763.148          42.000
C22  25933382.867 5 135041925.266 5     -3284.512          35.000
C29  24113322.844 8 125564417.939 8      2693.621          48.000
E05  24771746.883 8 130176396.094 8     -2198.625          51.000    24771747.195 8  99745556.380 8     -1684.709          51.000
E24  22134145.555 8 116315709.972 8     -1151.070          51.000    22134158.438 8  89125116.923 8      -882.004          51.000
E25  24276641.211 6 127574594.048 6      1228.078          37.000    24276642.148 5  97751973.835 5       941.025          34.000
> 2020 05 13 07 09 30.0000000  0 13        .000000000000
G12  21333283.539 8 112107180.549 8      2459.199          51.000    21333281.969 8  87356226.157 8      1916.259          51.000
G13  23402144.547 6 122979102.193 6     -3621.117          38.000    23402146.492 6  95827872.474 6     -2821.647          38.000
G15  21958706.781 8 115393767.902 8     -2955.324          51.000    21958705.688 8  89917225.947 8     -2302.850          51.000
G24  20261798.758 6 106476441.577 6       714.969          41.000    20261798.680 6  82968678.474 6       557.119          41.000
G25  23848704.578 7 125325802.422 7      3425.027          43.000    23848709.516 7  97656475.568 7      2668.852          43.000
R08  20550594.430 8 110047484.418 8     -2371.406          48.000    20550597.430 7  85592502.540 7     -1844.430          47.000
R09  20828388.148 6 111222406.845 6     -2268.543          36.000    20828388.602 4  86506314.719 4     -1764.419          28.000
C21  23916937.867 7 124541838.667 7     -1780.199          44.000
C22  25952321.430 5 135140548.282 5     -3289.055          30.000
C29  24097843.062 8 125483810.277 8      2681.266          49.000
E05  24784340.992 8 130242578.326 8     -2212.414          51.000    24784340.242 8  99796267.410 8     -1695.256          50.000
E24  22140746.266 8 116350397.520 8     -1160.312          51.000    22140759.375 8  89151695.670 8      -889.056          51.000
E25  24269661.711 6 127537929.866 6      1217.512          37.000    24269662.625 5  97723880.446 5       932.923          34.000
> 2020 05 13 07 10  0.0000000  0 13        .000000000000
G12  21319272.414 8 112033553.040 8      2448.082          50.000    21319271.133 8  87298854.088 8      1907.596          50.000
G13  23422827.258 6 123087796.348 6     -3625.934          41.000    23422830.336 5  95912569.267 5     -2825.400          35.000
G15  21975602.914 8 115482556.645 8     -2965.070          51.000    21975602.211 8  89986411.934 8     -2310.447          51.000
G24  20257744.648 7 106455138.457 7       704.141          42.000    20257744.867 7  82952078.656 7       548.684          42.000
G25  23829160.883 7 125223099.625 7      3420.781          42.000    23829165.836 7  97576447.425 7      2665.544          42.000
R08  20563935.766 7 110118927.383 7     -2392.574          46.000    20563938.312 7  85648069.274 7     -1860.891          45.000
R09  20841144.711 6 111290520.297 6     -2273.594          40.000    20841140.984 4  86559301.909 4     -1768.354          29.000
R11  22080227.875 5 117990032.578 5      2698.379          31.000
C21  23927224.469 7 124595406.324 7     -1792.105          46.000
C29  24082413.375 8 125403465.348 8      2673.902          49.000
E05  24796992.109 8 130309061.438 8     -2220.824          51.000    24796990.383 8  99847208.979 8     -1701.700          49.000
E24  22147378.469 8 116385250.526 8     -1164.266          51.000    22147391.734 8  89178401.199 8      -892.100          51.000
E25  24262722.195 6 127501464.138 6      1212.344          39.000    24262723.797 6  97695939.139 6       928.993          37.000
> 2020 05 13 07 10 30.0000000  0 13        .000000000000
G12  21305330.141 8 111960286.679 8      2436.129          50.000    21305329.758 8  87241763.399 8      1898.282          50.000
G13  23443543.977 7 123196661.374 7     -3631.578          44.000    23443545.984 5  95997399.115 5     -2829.798          31.000
G15  21992560.328 8 115571667.916 8     -2975.734          51.000    21992560.211 8  90055849.240 8     -2318.754          51.000
G19  21570023.758 5 113351239.800 5       311.656          35.000
G24  20253757.000 7 106434184.359 7       692.688          43.000    20253757.742 7  82935750.776 7       539.756          43.000
G25  23809647.180 7 125120555.139 7      3415.285          43.000    23809651.445 7  97496542.636 7      2661.261          43.000
R08  20577400.461 7 110191034.215 7     -2414.656          47.000    20577402.859 7  85704152.317 7     -1878.069          44.000
R09  20853934.742 6 111358814.241 6     -2279.504          37.000    20853930.578 4  86612419.523 4     -1772.941          27.000
C21  23937585.891 7 124649357.537 7     -1804.742          47.000
C29  24067031.391 7 125323368.704 7      2665.539          47.000
E05  24809696.617 8 130375827.010 8     -2230.277          51.000    24809694.734 8  99898366.986 8     -1708.887          49.000
E24  22154038.844 8 116420251.167 8     -1169.207          51.000    22154052.125 8  89205219.852 8      -895.844          51.000
E25  24255818.234 6 127465179.545 6      1206.352          40.000    24255821.531 6  97668136.664 6       924.476          41.000
> 2020 05 13 07 11  0.0000000  0 13        .000000000000
G12  21291460.852 8 111887401.526 8      2423.051          51.000    21291460.961 8  87184969.757 8      1888.092          51.000
G13  23464297.016 7 123305714.209 7     -3638.359          45.000    23464295.398 4  96082375.212 4     -2835.094          27.000
G15  22009582.289 8 115661118.935 8     -2987.363          51.000    22009582.711 8  90125551.303 8     -2327.816          51.000
G19  21568308.258 6 113342225.782 6       289.477          37.000
G24  20249839.406 7 106413598.723 7       679.809          42.000    20249840.773 7  82919710.020 7       529.721          42.000
G25  23790167.523 7 125018189.173 7      3409.316          43.000    23790170.898 7  97416776.992 7      2656.613          43.000
R08  20590993.188 7 110263821.221 7     -2437.625          47.000    20590995.406 7  85760764.424 7     -1895.931          45.000
R09  20866760.406 5 111427307.353 5     -2286.402          35.000
C21  23948024.508 7 124703709.292 7     -1818.555          45.000
C29  24051701.219 8 125243541.643 8      2656.410          48.000
E05  24822457.898 8 130442892.686 8     -2240.613          51.000    24822457.406 8  99949754.952 8     -1716.825          49.000
E24  22160730.828 8 116455417.741 8     -1175.027          51.000    22160744.047 8  89232165.656 8      -900.340          51.000
E25  24248951.219 5 127429094.920 5      1199.945          33.000    24248957.484 6  97640487.449 6       918.948          41.000
> 2020 05 13 07 11 30.0000000  0 15        .000000000000
G12  21277663.195 8 111814892.233 8      2409.383          51.000    21277663.086 8  87128469.022 8      1877.441          51.000
G13  23485084.422 7 123414945.723 7     -3645.348          46.000    23485076.883 4  96167490.526 4     -2840.528          24.000
G15  22026667.328 8 115750900.664 8     -2999.445          50.000    22026668.008 8  90195511.068 8     -2337.233          50.000
G19  21566717.164 5 113333869.383 5       266.434          35.000
G20  24281615.000 4 127600749.191 4     -2269.266          29.000
G24  20245990.844 7 106393375.886 7       666.840          42.000    20245992.969 7  82903951.953 7       519.615          42.000
G25  23770720.977 6 124915996.374 6      3402.340          41.000    23770723.773 7  97337146.288 7      2651.174          42.000
R08  20604710.914 7 110337278.036 7     -2461.059          47.000    20604713.586 7  85817897.498 7     -1914.160          46.000
R09  20879622.320 5 111495992.136 5     -2294.199          31.000
R11  22034926.180 5 117747961.208 5      2679.121          32.000
C21  23958537.430 7 124758452.983 7     -1832.492          43.000
C29  24036422.211 8 125163980.100 8      2646.242          48.000
E05  24835274.883 8 130510250.414 8     -2251.434          51.000    24835276.664 8 100001366.710 8     -1725.112          51.000
E24  22167453.008 8 116490742.867 8     -1181.441          51.000    22167466.117 8  89259232.953 8      -905.257          51.000
E25                                                                  24242128.938 6  97612986.186 6       913.351          38.000
> 2020 05 13 07 12  0.0000000  0 16        .000000000000
G12  21263937.672 8 111742763.756 8      2398.289          51.000    21263936.961 8  87072265.048 8      1868.800          51.000
G13  23505906.172 7 123524358.271 7     -3649.605          45.000    23505897.656 4  96252746.963 4     -2843.845          28.000
G15  22043815.523 8 115841014.341 8     -3008.773          51.000    22043816.281 8  90265729.517 8     -2344.499          51.000
G17  22775871.047 6 119688017.081 6     -1552.680          36.000
G19  21565252.312 6 113326174.982 6       246.227          36.000    21565247.742 5  88306084.725 5       191.874          32.000
G24  20242211.961 7 106373520.286 7       656.145          42.000    20242214.719 7  82888480.013 7       511.281          42.000
G25  23751308.289 6 124813981.987 6      3397.918          39.000    23751311.320 6  97257654.575 6      2647.728          39.000
R08  20618554.266 7 110411405.375 7     -2481.520          47.000    20618556.867 7  85875552.083 7     -1930.071          45.000
R09  20892520.750 5 111564871.580 5     -2299.039          31.000
R10  19638698.734 5 104685335.918 5      -205.816          34.000
R11  22019899.383 5 117667642.693 5      2674.945          34.000
C21  23969124.914 7 124813590.579 7     -1844.121          42.000
C29  24021195.398 8 125084690.361 8      2638.902          48.000
E05  24848148.539 8 130577902.753 8     -2259.590          51.000    24848152.445 8 100053204.214 8     -1731.389          51.000
E24  22174206.008 8 116526229.752 8     -1185.219          51.000    22174218.992 8  89286424.198 8      -908.188          51.000
E25  24235330.211 6 127357514.776 6      1186.762          37.000    24235335.609 6  97585635.780 6       909.244          36.000
> 2020 05 13 07 12 30.0000000  0 15        .000000000000
G12  21250286.078 8 111671026.849 8      2385.406          50.000    21250285.273 8  87016366.183 8      1858.758          50.000
G13  23526763.320 7 123633959.349 7     -3655.805          46.000    23526758.047 5  96338150.322 5     -2848.685          33.000
G15  22061028.453 8 115931467.883 8     -3020.109          51.000    22061029.219 8  90336212.787 8     -2353.332          51.000
G17  22784784.641 5 119734858.802 5     -1569.078          35.000
G19  21563915.578 5 113319153.218 5       223.230          34.000    21563917.312 5  88300613.063 5       173.946          32.000
G24  20238505.461 7 106354043.875 7       643.555          43.000    20238508.219 7  82873303.575 7       501.471          43.000
G25  23731930.758 5 124712157.502 5      3391.941          30.000    23731935.031 4  97178310.825 4      2643.074          29.000
R08  20632523.195 7 110486210.420 7     -2504.070          46.000    20632525.984 7  85933733.781 7     -1947.607          44.000
R09  20905457.430 5 111633974.589 5     -2305.629          30.000
R10  19639889.797 5 104691700.191 5      -217.293          35.000
C21  23979790.492 7 124869130.327 7     -1857.438          45.000
C29  24006023.359 8 125005685.033 8      2629.410          50.000
E05  24861080.484 8 130645858.560 8     -2269.578          51.000    24861086.047 8 100105274.230 8     -1738.985          51.000
E24  22180991.562 8 116561887.885 8     -1190.793          51.000    22181004.531 8  89313746.644 8      -912.408          51.000
E25  24228579.805 6 127322027.098 6      1180.195          39.000    24228580.391 5  97558443.903 5       904.449          34.000
> 2020 05 13 07 13  0.0000000  0 13        .000000000000
G12  21236699.805 8 111599633.092 8      2373.293          51.000    21236699.297 8  86960734.660 8      1849.319          51.000
G13  23547646.531 7 123743697.378 7     -3660.871          46.000    23547644.352 6  96423660.440 6     -2852.627          37.000
G15  22078296.125 8 116022209.093 8     -3030.289          51.000    22078296.742 8  90406920.181 8     -2361.267          51.000
G24  20234861.789 7 106334896.594 7       631.938          45.000    20234864.359 7  82858383.616 7       492.419          45.000
G25  23712582.992 5 124610466.600 5      3386.820          34.000    23712583.477 5  97099073.293 5      2639.087          33.000
R08  20646608.445 7 110561639.110 7     -2525.527          47.000    20646610.766 7  85992400.497 7     -1964.299          43.000
R09  20918423.961 5 111703210.358 5     -2311.324          34.000
R10  19641139.688 5 104698356.869 5      -226.965          33.000
C21  23990524.242 7 124925020.999 7     -1869.617          46.000
C29  23990897.219 8 124926917.403 8      2620.828          51.000
E05  24874060.797 8 130714066.719 8     -2278.609          51.000    24874067.008 8 100157537.609 8     -1745.921          51.000
E24  22187800.125 8 116597666.873 8     -1195.328          51.000    22187813.117 8  89341161.700 8      -915.895          51.000
E25  24221856.203 6 127286696.499 6      1174.180          37.000    24221855.398 6  97531372.433 6       899.666          36.000
> 2020 05 13 07 13 30.0000000  0 14        .000000000000
G12  21223190.695 8 111528642.304 8      2364.078          51.000    21223190.039 8  86905417.155 8      1842.139          51.000
G13  23568566.617 7 123853629.523 7     -3663.012          46.000    23568565.703 6  96509321.838 6     -2854.295          37.000
G15  22095629.430 8 116113294.982 8     -3037.430          51.000    22095629.570 8  90477896.166 8     -2366.828          51.000
G17  22802885.305 6 119829970.818 6     -1598.055          38.000
G19  21561622.844 5 113307086.930 5       184.078          34.000    21561616.086 5  88291211.972 5       143.438          32.000
G24  20231292.469 7 106316138.794 7       623.227          46.000    20231294.867 7  82843767.148 7       485.628          46.000
G25  23693271.281 6 124508985.260 6      3383.680          41.000    23693271.953 6  97019997.008 6      2636.637          40.000
R08  20660821.648 8 110637748.418 8     -2543.707          48.000    20660822.336 7  86051596.567 7     -1978.442          42.000
R10  19642454.750 4 104705365.586 4      -234.297          29.000
C21  24001336.312 7 124981319.309 7     -1879.035          45.000
C29  23975828.039 8 124848448.482 8      2615.090          50.000
E05  24887100.125 8 130782584.989 8     -2284.605          51.000    24887106.117 8 100210038.603 8     -1750.581          51.000
E24  22194642.797 8 116633625.139 8     -1197.004          51.000    22194655.828 8  89368714.121 8      -917.227          51.000
E25  24215172.828 6 127251581.969 6      1171.074          38.000    24215172.445 6  97504466.373 6       897.933          37.000
> 2020 05 13 07 14  0.0000000  0 14        .000000000000
G12  21209749.008 8 111458004.944 8      2345.922          51.000    21209747.719 8  86850375.066 8      1827.994          51.000
G13  23589513.547 7 123963703.163 7     -3674.527          45.000    23589513.016 6  96595093.478 6     -2863.268          38.000
G15  22113018.164 8 116204672.600 8     -3053.570          51.000    22113017.789 8  90549099.485 8     -2379.405          51.000
G17  22812073.273 6 119878248.403 6     -1619.727          37.000    22812084.734 5  93411664.254 5     -1262.115          30.000
G19  21560652.930 6 113302003.795 6       155.766          36.000    21560643.117 5  88287241.082 5       121.382          33.000
G24  20227787.844 7 106297721.260 7       605.512          46.000    20227790.344 7  82829415.823 7       471.827          46.000
G25  23673989.094 7 124407656.360 7      3372.586          44.000    23673989.555 6  96941039.538 6      2627.995          39.000
R08  20675151.352 8 110714482.805 8     -2570.965          48.000    20675151.469 7  86111278.843 7     -1999.639          42.000
R10  19643825.047 5 104712674.191 5      -251.211          33.000
C21  24012216.266 7 125037973.057 7     -1897.262          44.000
C29  23960806.742 8 124770230.600 8      2600.301          49.000
E05  24900188.492 8 130851361.392 8     -2299.648          51.000    24900193.250 8 100262737.356 8     -1762.029          51.000
E24  22201509.891 8 116669711.452 8     -1207.863          51.000    22201522.867 8  89396364.659 8      -925.506          51.000
E25  24208522.273 6 127216632.648 6      1159.293          41.000    24208520.227 6  97477686.901 6       888.696          36.000
> 2020 05 13 07 14 30.0000000  0 15        .000000000000
G12  21196389.727 8 111387800.154 8      2334.230          51.000    21196387.930 8  86795670.067 8      1818.881          51.000
G13  23610501.641 7 124073993.908 7     -3678.633          44.000    23610501.336 6  96681034.300 6     -2866.467          37.000
G15  22130476.609 8 116296417.665 8     -3062.930          51.000    22130475.961 8  90620589.124 8     -2386.698          51.000
G17  22821364.070 6 119927065.545 6     -1635.480          36.000    22821383.852 5  93449740.559 5     -1274.406          33.000
G19  21559817.906 5 113297631.495 5       135.145          32.000    21559809.453 5  88283834.053 5       105.314          31.000
G24  20224362.875 7 106279722.745 7       594.195          45.000    20224365.469 7  82815390.990 7       463.006          45.000
G25  23654751.008 7 124306559.331 7      3367.195          44.000    23654752.344 6  96862262.696 6      2623.792          41.000
R08  20689611.852 8 110791918.834 8     -2591.500          48.000    20689612.625 7  86171506.829 7     -2015.611          43.000
R09  20957548.016 5 111912127.837 5     -2330.965          34.000    20957575.719 4  87042857.612 4     -1812.976          28.000
R10  19645266.727 6 104720361.175 6      -261.191          36.000
C21  24023178.609 7 125095057.697 7     -1908.758          44.000
C29  23945849.148 8 124692343.562 8      2591.961          49.000
E05  24913340.383 8 130920472.542 8     -2307.961          51.000    24913342.531 8 100315692.586 8     -1768.360          49.000
E24  22208416.039 8 116706003.109 8     -1211.812          51.000    22208429.008 8  89424172.532 8      -928.514          51.000
E25  24201918.156 6 127181926.336 6      1154.027          40.000    24201914.578 6  97451093.715 6       884.488          38.000
> 2020 05 13 07 15  0.0000000  0 16        .000000000000
G12  21183099.375 8 111317958.005 8      2322.215          51.000    21183097.586 8  86741247.625 8      1809.518          51.000
G13  23631517.273 7 124184429.210 7     -3683.207          43.000    23631516.750 5  96767087.748 5     -2870.031          34.000
G15  22147990.977 8 116388457.209 8     -3072.754          51.000    22147990.273 8  90692308.218 8     -2394.357          51.000
G17  22830744.180 6 119976349.592 6     -1650.398          36.000    22830729.398 5  93488026.170 5     -1286.019          35.000
G19  21559105.664 5 113293899.922 5       114.020          35.000    21559100.844 5  88280926.334 5        88.852          33.000
G24  20221004.320 7 106262073.152 7       582.617          46.000    20221006.633 7  82801638.056 7       453.990          46.000
G25  23635543.602 6 124205624.628 6      3361.926          40.000    23635546.406 6  96783612.324 6      2619.682          41.000
R08  20704189.688 8 110869981.038 8     -2612.250          48.000    20704190.766 7  86232221.874 7     -2031.753          42.000
R09  20970663.875 5 111982139.379 5     -2336.031          34.000    20970695.695 4  87097310.879 4     -1816.919          25.000
R10  19646766.875 6 104728355.158 6      -271.094          36.000
C21  24034209.797 7 125152501.140 7     -1920.488          45.000
C22  26160661.586 4 136225456.110 4     -3285.484          28.000
C29  23930942.180 8 124614719.725 8      2583.223          49.000
E05  24926541.898 8 130989846.287 8     -2316.688          51.000    24926540.992 8 100368849.017 8     -1775.058          48.000
E24  22215347.641 8 116742428.698 8     -1216.219          51.000    22215360.641 8  89452083.045 8      -931.896          51.000
E25  24195346.094 6 127147392.154 6      1148.426          40.000    24195342.844 6  97424632.499 6       880.052          39.000
> 2020 05 13 07 15 30.0000000  0 13        .000000000000
G12  21169876.570 8 111248472.321 8      2307.156          51.000    21169875.367 8  86687102.934 8      1797.784          51.000
G13  23652558.297 6 124294999.941 6     -3691.496          41.000    23652557.156 5  96853246.786 5     -2876.490          31.000
G15  22165559.656 8 116480781.506 8     -3085.418          51.000    22165558.820 8  90764249.180 8     -2404.225          51.000
G19  21558514.508 5 113290802.132 5        89.602          34.000    21558513.250 4  88278512.516 4        69.822          28.000
G24  20217710.922 7 106244765.446 7       568.082          47.000    20217712.586 7  82788151.551 7       442.661          47.000
G25  23616365.562 6 124104846.475 6      3353.637          38.000    23616369.211 6  96705083.851 6      2613.220          38.000
R08  20718882.523 8 110948658.044 8     -2636.055          49.000    20718883.281 7  86293415.079 7     -2050.265          42.000
R10  19648322.930 5 104736647.605 5      -284.531          34.000
C21  24045308.078 7 125210294.427 7     -1935.453          45.000
C29  23916084.859 8 124537354.553 8      2571.250          48.000
E05  24939791.250 8 131059474.149 8     -2328.199          51.000    24939788.750 8 100422200.166 8     -1783.948          48.000
E24  22222303.211 8 116778980.495 8     -1223.570          51.000    22222316.281 8  89480090.252 8      -937.496          51.000
E25  24188805.430 6 127113022.944 6      1139.816          38.000    24188802.859 6  97398297.683 6       873.432          39.000
> 2020 05 13 07 16  0.0000000  0 15        .000000000000
G12  21156745.367 8 111179467.698 8      2296.336          51.000    21156743.875 8  86633333.100 8      1789.353          51.000
G13  23673647.430 6 124405827.185 6     -3694.465          40.000    23673647.172 4  96939626.722 4     -2878.795          26.000
G15  22183205.672 8 116573511.446 8     -3093.430          51.000    22183204.445 8  90836506.232 8     -2410.465          51.000
G19  21558067.938 5 113288461.904 5        69.215          32.000    21558067.945 4  88276688.894 4        53.934          29.000
G24  20214506.391 7 106227924.815 7       557.762          47.000    20214507.633 7  82775028.999 7       434.620          47.000
G25  23597241.250 6 124004349.451 6      3349.438          41.000    23597244.766 6  96626774.504 6      2609.951          41.000
R08  20733712.258 8 111028072.505 8     -2655.055          48.000    20733713.188 7  86355181.892 7     -2065.046          43.000
R09  20996993.227 5 112122749.882 5     -2349.027          32.000    20997018.273 4  87206676.157 4     -1827.027          29.000
R10  19649958.539 5 104745363.674 5      -293.133          35.000
R11  21900849.586 4 117031498.513 4      2627.652          28.000
C21  24056496.719 7 125268557.772 7     -1945.703          45.000
C29  23901300.789 7 124460372.717 7      2563.898          46.000
E05  24953111.781 8 131129478.096 8     -2335.441          50.000    24953109.805 8 100475839.509 8     -1789.524          49.000
E24  22229306.133 8 116815781.167 8     -1226.566          51.000    22229319.234 8  89508288.167 8      -939.852          51.000
E25  24182318.633 5 127078942.020 5      1135.703          35.000    24182318.125 6  97372183.647 6       870.229          40.000
> 2020 05 13 07 16 30.0000000  0 13        .000000000000
G12  21143675.320 8 111110783.340 8      2284.699          51.000    21143672.617 8  86579812.861 8      1780.285          51.000
G13  23694753.773 6 124516747.515 6     -3698.520          40.000
G15  22200897.711 8 116666483.313 8     -3102.535          51.000    22200896.016 8  90908951.805 8     -2417.563          51.000
G24  20211360.102 8 106211390.567 8       546.477          48.000    20211361.422 8  82762145.173 8       425.829          48.000
G25  23578140.227 7 123903973.342 7      3344.438          43.000    23578143.359 7  96548559.390 7      2606.055          43.000
R08  20748648.250 8 111108056.371 8     -2674.996          49.000    20748649.484 7  86417391.504 7     -2080.553          44.000
R09  21010213.109 5 112193328.498 5     -2354.031          33.000    21010215.430 4  87261496.387 4     -1830.916          26.000
R10  19651643.648 5 104754338.754 5      -303.242          32.000
C21  24067744.656 7 125327129.205 7     -1956.984          45.000
C29  23886559.812 7 124383616.743 7      2555.305          45.000
E05  24966472.953 8 131199695.241 8     -2343.609          51.000    24966472.625 8 100529642.225 8     -1795.768          50.000
E24  22236325.555 8 116852668.619 8     -1230.426          51.000    22236338.633 8  89536552.563 8      -942.788          51.000
E25  24175856.383 5 127044987.537 5      1129.793          35.000    24175857.883 6  97346166.556 6       866.149          40.000
> 2020 05 13 07 17  0.0000000  0 15        .000000000000
G12  21130677.891 8 111042481.504 8      2271.148          51.000    21130675.148 8  86526590.690 8      1769.726          51.000
G13  23715889.195 6 124627820.041 6     -3704.387          39.000    23715893.391 5  97112631.612 5     -2886.538          32.000
G15  22218646.859 8 116759756.082 8     -3113.285          51.000    22218645.102 8  90981631.845 8     -2425.940          51.000
G17  22869187.594 5 120178392.225 5     -1714.301          34.000
G19  21557533.148 5 113285588.742 5        26.102          35.000
G24  20208283.641 8 106195224.310 8       533.500          48.000    20208285.445 8  82749548.066 8       415.714          48.000
G25  23559074.375 7 123803780.721 7      3337.371          43.000    23559077.477 7  96470487.245 7      2600.549          42.000
R08  20763702.242 8 111188668.176 8     -2696.738          50.000    20763703.297 7  86480089.532 7     -2097.466          45.000
R09  21023464.000 5 112264075.406 5     -2359.984          34.000
R11  21871415.727 4 116874213.083 4      2615.801          29.000
C21  24079062.547 7 125386067.396 7     -1969.895          45.000
C29  23871874.227 7 124307149.739 7      2544.512          45.000
E05  24979886.484 8 131270185.458 8     -2353.555          51.000    24979887.867 8 100583654.187 8     -1803.280          51.000
E24  22243373.070 8 116889703.448 8     -1236.191          51.000    22243386.000 8  89564929.874 8      -947.215          51.000
E25  24169430.492 6 127011220.524 6      1123.438          39.000    24169433.148 6  97320293.200 6       860.633          40.000
> 2020 05 13 07 17 30.0000000  0 13        .000000000000
G12  21117757.688 8 110974586.184 8      2257.277          51.000    21117755.977 8  86473685.223 8      1758.917          51.000
G13  23737058.141 6 124739065.744 6     -3710.191          40.000    23737062.242 5  97199316.558 5     -2891.058          30.000
G15  22236457.023 8 116853350.347 8     -3124.379          50.000    22236455.438 8  91054562.391 8     -2434.584          50.000
G24  20205281.883 8 106179450.418 8       520.066          49.000    20205284.078 8  82737256.691 8       405.244          49.000
G25  23540048.008 7 123703795.799 7      3330.160          43.000    23540051.516 7  96392576.948 7      2594.933          42.000
R08  20778877.469 8 111269927.868 8     -2718.625          50.000    20778878.555 7  86543291.474 7     -2114.489          45.000
R09  21036751.430 5 112335018.083 5     -2367.473          35.000    21036760.672 4  87371758.248 4     -1841.374          28.000
R10  19655194.219 5 104773239.969 5      -325.852          30.000
C21  24090454.992 7 125445393.177 7     -1983.125          46.000
C29  23857249.961 7 124230996.962 7      2534.059          47.000
E05  24993356.398 8 131340970.316 8     -2363.578          51.000    24993359.305 8 100637891.926 8     -1811.065          51.000
E24  22250452.914 8 116926908.034 8     -1242.230          51.000    22250465.688 8  89593437.263 8      -951.878          51.000
E25  24163045.664 7 126977664.041 7      1115.988          42.000    24163047.773 6  97294581.134 6       854.982          40.000
> 2020 05 13 07 18  0.0000000  0 13        .000000000000
G12  21104908.133 8 110907061.362 8      2243.617          51.000    21104907.094 8  86421068.463 8      1748.270          51.000
G13  23758253.125 6 124850445.580 6     -3716.297          40.000    23758258.266 6  97286106.026 6     -2895.816          36.000
G15  22254320.938 8 116947226.798 8     -3134.992          48.000    22254319.680 8  91127712.838 8     -2442.851          48.000
G19  21557498.641 5 113285438.655 5       -19.582          32.000
G24  20202347.875 8 106164032.174 8       507.012          49.000    20202350.148 8  82725242.478 8       395.074          49.000
G25  23521054.312 7 123603983.076 7      3323.254          44.000    23521058.141 7  96314800.821 7      2589.548          42.000
R08  20794166.000 8 111351794.414 8     -2740.035          49.000    20794166.992 7  86606965.428 7     -2131.138          44.000
C21  24101914.820 7 125505068.071 7     -1995.992          46.000
C22  26274210.102 4 136816624.705 4     -3282.461          28.000
C29  23842680.250 8 124155124.392 8      2523.398          49.000
E05  25006875.320 8 131412011.591 8     -2373.289          51.000    25006879.508 8 100692326.140 8     -1818.560          51.000
E24  22257557.906 8 116964244.930 8     -1247.801          51.000    22257570.680 8  89622046.040 8      -956.119          51.000
E25  24156694.242 7 126944281.100 7      1108.762          44.000    24156694.312 6  97269002.058 6       849.592          38.000
> 2020 05 13 07 18 30.0000000  0 14        .000000000000
G12  21092134.914 8 110839936.829 8      2230.293          51.000    21092133.070 8  86368763.628 8      1737.891          51.000
G13  23779479.422 6 124961986.584 6     -3721.125          41.000    23779482.508 5  97373020.996 5     -2899.578          30.000
G15  22272243.477 7 117041412.371 7     -3145.133          46.000    22272242.711 7  91201104.145 7     -2450.753          46.000
G19  21557674.078 5 113286343.563 5       -42.242          33.000
G24  20199487.320 8 106148999.679 8       494.238          49.000    20199489.391 8  82713528.841 8       385.121          49.000
G25  23502099.000 7 123504372.717 7      3316.406          44.000    23502102.758 7  96237182.375 7      2584.213          42.000
R08  20809572.180 8 111434293.683 8     -2760.953          48.000    20809572.961 7  86671131.510 7     -2147.408          44.000
R09  21063439.398 5 112477540.143 5     -2380.355          31.000
R11  21827533.000 5 116639683.587 5      2595.559          31.000    21827537.625 4  90719790.779 4      2018.771          27.000
C21  24113447.469 8 125565118.679 8     -2008.383          48.000
C29  23828170.594 8 124079563.147 8      2513.016          50.000
E05  25020448.398 8 131483336.789 8     -2382.758          51.000    25020453.508 8 100746977.907 8     -1825.729          51.000
E24  22264693.422 8 117001742.393 8     -1253.133          51.000    22264706.391 8  89650777.834 8      -960.148          51.000
E25  24150380.930 7 126911100.390 7      1102.270          43.000    24150380.156 6  97243577.927 6       844.623          40.000
> 2020 05 13 07 19  0.0000000  0 13        .000000000000
G12  21079434.609 8 110773195.258 8      2219.598          51.000    21079431.594 8  86316757.237 8      1729.557          51.000
G13  23800733.039 7 125073668.145 7     -3723.777          42.000    23800735.531 5  97460045.503 5     -2901.648          32.000
G15  22290220.141 7 117135886.351 7     -3152.570          44.000    22290220.289 7  91274720.258 7     -2456.548          44.000
G19  21557973.289 5 113287913.251 5       -61.855          34.000    21557969.992 5  88276286.370 5       -48.205          31.000
G24  20196696.852 8 106134335.471 8       483.887          50.000    20196698.570 8  82702102.178 8       377.055          51.000
G25  23483178.711 7 123404947.710 7      3312.508          44.000    23483182.367 7  96159708.362 7      2581.175          43.000
R08  20825091.648 7 111517403.483 7     -2779.125          47.000    20825092.023 7  86735772.462 7     -2161.542          42.000
C21  24125048.430 7 125625524.947 7     -2018.156          47.000
C22  26312018.922 4 137013566.363 4     -3278.336          29.000
C29  23813717.594 8 124004297.562 8      2505.172          50.000
E05  25034071.750 8 131554926.253 8     -2389.461          51.000    25034077.406 8 100801832.157 8     -1830.901          51.000
E24  22271855.867 8 117039381.584 8     -1255.707          51.000    22271869.148 8  89679618.233 8      -962.180          51.000
E25  24144101.773 6 126878103.573 6      1097.965          40.000    24144102.336 6  97218294.686 6       841.244          41.000
> 2020 05 13 07 19 30.0000000  0 11        .000000000000
G12  21066814.523 8 110706875.590 8      2204.566          51.000    21066811.633 8  86265079.587 8      1717.844          51.000
G13  23822020.609 7 125185526.535 7     -3730.430          43.000    23822021.414 5  97547207.837 5     -2906.831          30.000
G15  22308258.945 7 117230683.771 7     -3164.227          47.000    22308259.461 7  91348588.377 7     -2465.631          47.000
G24  20193983.938 8 106120078.865 8       469.488          50.000    20193985.422 8  82690993.132 8       365.835          50.000
G25  23464301.445 7 123305747.369 7      3303.977          45.000    23464304.414 7  96082409.405 7      2574.527          42.000
R08  20840731.664 8 111601158.783 8     -2801.492          48.000    20840731.836 7  86800915.458 7     -2178.938          42.000
C21  24136723.898 7 125686322.479 7     -2032.066          46.000
C29  23799328.703 8 123929367.766 8      2493.066          49.000
E05  25047752.133 8 131626816.541 8     -2400.223          50.000    25047757.953 8 100856916.897 8     -1839.132          51.000
E24  22279052.438 8 117077199.878 8     -1262.520          51.000    22279065.961 8  89708595.869 8      -967.358          51.000
E25  24137863.367 6 126845328.489 6      1089.785          38.000    24137866.602 6  97193181.255 6       835.312          41.000
> 2020 05 13 07 20  0.0000000  0 12        .000000000000
G12  21054261.898 8 110640911.862 8      2192.215          51.000    21054259.820 8  86213679.276 8      1708.219          51.000
G13  23843328.547 6 125297492.537 6     -3734.664          41.000    23843328.523 5  97634454.039 5     -2910.122          31.000
G15  22326347.211 8 117325735.898 8     -3173.289          49.000    22326347.406 8  91422654.930 8     -2472.696          49.000
G19  21558955.500 5 113293060.879 5      -107.715          35.000    21558949.844 5  88280288.168 5       -83.934          32.000
G24  20191336.047 8 106106163.675 8       457.516          51.000    20191337.516 8  82680150.119 8       356.506          51.000
G25  23445454.672 7 123206705.990 7      3298.113          45.000    23445456.930 7  96005234.376 7      2569.961          42.000
R08  20856479.305 7 111685488.014 7     -2821.172          47.000    20856480.227 7  86866504.840 7     -2194.248          44.000
C21  24148460.734 7 125747442.946 7     -2043.285          45.000
C29  23784991.375 8 123854709.910 8      2483.375          48.000
E05  25061476.461 8 131698939.363 8     -2408.652          49.000    25061482.234 8 100912179.810 8     -1845.591          51.000
E24  22286270.289 8 117115129.798 8     -1266.867          51.000    22286283.914 8  89737659.045 8      -970.710          51.000
E25  24131654.508 6 126812708.203 6      1084.090          40.000    24131659.523 6  97168186.419 6       830.684          41.000
> 2020 05 13 07 20 30.0000000  0 12        .000000000000
G12  21041779.789 8 110575319.623 8      2179.805          51.000    21041778.094 8  86162568.418 8      1698.549          51.000
G13  23864658.820 6 125409579.126 6     -3738.500          40.000    23864657.078 5  97721794.122 5     -2913.129          33.000
G15  22344486.594 8 117421055.144 8     -3182.082          50.000    22344486.438 8  91496929.613 8     -2479.547          50.000
G24  20188756.055 8 106092605.327 8       445.652          51.000    20188757.562 8  82669585.168 8       347.262          51.000
G25  23426641.148 7 123107839.772 7      3292.195          45.000    23426643.188 7  95928195.803 7      2565.347          42.000
R08  20872336.469 7 111770402.384 7     -2840.719          46.000    20872338.477 7  86932549.318 7     -2209.448          45.000
R09  21117184.195 5 112764508.961 5     -2401.812          34.000    21117187.742 4  87705815.156 4     -1868.073          26.000
C21  24160262.430 7 125808899.067 7     -2054.520          46.000
C29  23770709.234 8 123780341.158 8      2473.762          48.000
E05  25075247.055 7 131771308.091 7     -2416.816          47.000    25075252.844 8 100967631.154 8     -1851.798          51.000
E24  22293512.156 8 117153185.561 8     -1270.961          51.000    22293525.594 8  89766818.632 8      -973.844          51.000
E25  24125479.852 7 126780257.256 7      1078.605          44.000    24125483.773 6  97143321.382 6       826.494          40.000
> 2020 05 13 07 21  0.0000000  0 12        .000000000000
G12  21029378.820 8 110510152.159 8      2165.262          51.000    21029377.227 8  86111788.586 8      1687.217          51.000
G13  23886020.992 6 125521836.085 6     -3744.547          38.000
G15  22362686.203 8 117516691.347 8     -3193.031          51.000    22362685.773 8  91571451.282 8     -2488.076          51.000
G24  20186253.953 8 106079456.461 8       431.516          51.000    20186255.500 8  82659339.292 8       336.246          51.000
G25  23407871.055 7 123009202.015 7      3284.125          44.000    23407873.406 7  95851335.241 7      2559.055          43.000
R08  20888314.727 8 111855974.943 8     -2862.227          49.000    20888316.281 7  86999096.068 7     -2226.176          46.000
R09  21130705.789 5 112836701.067 5     -2409.754          31.000    21130705.633 4  87761964.509 4     -1874.262          25.000
C21  24172138.430 7 125870740.421 7     -2067.812          47.000
C29  23756492.930 7 123706315.621 7      2461.754          47.000
E05  25089073.219 7 131843973.395 7     -2427.004          45.000    25089079.555 8 101023309.775 8     -1859.685          51.000
E24  22300787.734 8 117191418.744 8     -1277.293          51.000    22300800.867 8  89796114.168 8      -978.726          51.000
E25  24119348.266 7 126748027.700 7      1070.766          45.000    24119349.188 6  97118625.988 6       820.370          38.000
> 2020 05 13 07 21 30.0000000  0 12        .000000000000
G12  21017056.703 8 110445398.375 8      2152.254          51.000    21017055.805 8  86061331.126 8      1677.084          51.000
G13  23907412.945 6 125634250.300 6     -3749.199          38.000    23907412.836 5  97896857.613 5     -2921.454          31.000
G15  22380943.188 8 117612630.094 8     -3202.359          51.000    22380942.383 8  91646208.715 8     -2495.348          51.000
G24  20183827.703 8 106066706.688 8       418.984          51.000    20183829.227 8  82649404.394 8       326.481          51.000
G25  23389142.328 7 122910782.452 7      3277.738          44.000    23389145.367 7  95774644.682 7      2554.082          43.000
R08  20904406.695 8 111942142.623 8     -2881.867          48.000    20904407.516 7  87066115.334 7     -2241.455          46.000
R09  21144258.398 5 112909088.861 5     -2415.668          32.000    21144260.391 5  87818266.063 5     -1878.859          31.000
C21  24184085.539 7 125932953.386 7     -2079.191          46.000
C29  23742340.719 7 123632624.124 7      2451.613          47.000
E05  25102954.172 7 131916922.209 7     -2435.617          47.000    25102960.289 8 101079205.629 8     -1866.276          51.000
E24  22308094.695 8 117229817.093 8     -1282.000          51.000    22308107.500 8  89825536.268 8      -982.336          51.000
E25  24113256.539 7 126716007.719 7      1064.418          44.000    24113255.586 6  97094091.206 6       815.539          38.000
> 2020 05 13 07 22  0.0000000  0 12        .000000000000
G12  21004808.648 8 110381034.306 8      2139.203          51.000    21004808.539 8  86011177.312 8      1666.912          51.000
G13  23928829.641 6 125746794.129 6     -3753.273          41.000    23928825.750 4  97984532.041 4     -2924.629          25.000
G15  22399252.516 8 117708844.772 8     -3211.441          51.000    22399251.258 8  91721181.158 8     -2502.422          51.000
G24  20181472.703 8 106054331.846 8       406.590          50.000    20181474.336 8  82639761.645 8       316.823          50.000
G25  23370450.633 7 122812557.163 7      3271.246          44.000    23370454.469 7  95698105.528 7      2549.023          44.000
R08  20920605.852 7 112028899.707 7     -2901.355          44.000    20920608.328 7  87133593.060 7     -2256.607          45.000
R09  21157842.711 5 112981699.362 5     -2421.113          30.000    21157851.141 4  87874699.448 4     -1883.100          29.000
C21  24196098.422 7 125995511.130 7     -2090.711          47.000
C29  23728248.859 7 123559244.371 7      2441.160          47.000
E05  25116885.461 8 131990128.135 8     -2444.215          50.000    25116890.234 8 101135298.444 8     -1872.825          51.000
E24  22315428.164 8 117268354.952 8     -1286.582          51.000    22315440.773 8  89855065.257 8      -985.835          51.000
E25  24107199.273 7 126684172.132 7      1058.582          43.000    24107198.367 6  97069697.749 6       811.020          37.000
> 2020 05 13 07 22 30.0000000  0 11        .000000000000
G12  20992641.070 8 110317093.069 8      2125.551          50.000    20992640.609 8  85961352.946 8      1656.273          50.000
G13  23950277.164 6 125859498.161 6     -3758.758          40.000    23950272.172 3  98072360.356 3     -2928.890          23.000
G15  22417619.711 8 117805364.494 8     -3221.227          51.000    22417618.234 8  91796391.294 8     -2510.047          51.000
G24  20179195.195 8 106042364.550 8       393.098          50.000    20179197.055 8  82630436.477 8       306.310          50.000
G25  23351802.547 7 122714559.817 7      3263.762          46.000    23351806.953 7  95621743.988 7      2543.194          45.000
R08  20936920.352 7 112116275.879 7     -2921.672          45.000    20936924.719 7  87201552.303 7     -2272.414          44.000
C21  24208184.156 7 126058443.584 7     -2102.797          47.000
C29  23714223.070 7 123486210.794 7      2429.754          47.000
E05  25130872.172 8 132063622.015 8     -2453.457          51.000    25130875.359 8 101191611.898 8     -1879.943          51.000
E24  22322794.125 8 117307064.138 8     -1292.039          51.000    22322806.867 8  89884725.523 8      -989.977          51.000
E25  24101182.641 7 126652553.263 7      1051.559          43.000    24101182.219 6  97045470.367 6       805.500          36.000
> 2020 05 13 07 23  0.0000000  0 12        .000000000000
G12  20980540.250 8 110253503.442 8      2112.582          48.000    20980538.438 8  85911802.569 8      1646.168          48.000
G13  23971740.820 6 125972287.585 6     -3762.289          39.000
G15  22436030.688 8 117902114.734 8     -3230.121          51.000    22436029.211 8  91871781.056 8     -2516.977          51.000
G24  20176981.789 8 106030733.994 8       380.734          50.000    20176983.883 8  82621373.690 8       296.676          50.000
G25  23333184.305 7 122616719.501 7      3257.453          45.000    23333189.250 7  95545504.805 7      2538.278          44.000
R08  20953338.352 7 112204193.348 7     -2940.926          45.000    20953342.406 7  87269932.534 7     -2287.387          43.000
R11  21697713.719 5 115946001.832 5      2541.125          32.000
C21  24220327.945 8 126121677.238 8     -2114.094          49.000
C29  23700250.688 8 123413454.265 8      2419.219          49.000
E05  25144899.773 8 132137330.274 8     -2461.785          51.000    25144901.469 8 101248089.609 8     -1886.276          51.000
E24  22330178.875 8 117345871.911 8     -1296.504          51.000    22330191.906 8  89914461.333 8      -993.413          51.000
E25  24095192.797 6 126621078.749 6      1045.773          41.000    24095192.078 6  97021353.591 6       801.029          36.000
> 2020 05 13 07 23 30.0000000  0 13        .000000000000
G12  20968512.969 8 110190300.666 8      2109.676          48.000    20968511.219 8  85862553.683 8      1643.906          48.000
G13  23993227.008 5 126085195.468 5     -3755.578          35.000
G15  22454491.719 8 117999128.249 8     -3228.680          50.000    22454490.695 8  91947375.970 8     -2515.854          50.000
G17  23004087.586 5 120887263.494 5     -1907.254          33.000    23004079.344 4  94197842.886 4     -1486.172          28.000
G24  20174839.281 8 106019475.319 8       378.457          51.000    20174841.547 8  82612600.681 8       294.902          51.000
G25  23314602.617 7 122519072.077 7      3261.105          45.000    23314607.773 7  95469415.917 7      2541.121          44.000
R08  20969863.195 7 112292683.769 7     -2949.547          44.000    20969867.000 7  87338758.380 7     -2294.095          43.000
R09  21198794.477 5 113200354.248 5     -2428.273          35.000    21198790.742 4  88044728.823 4     -1888.648          25.000
C21  24232535.641 8 126185244.317 8     -2115.102          48.000
C29  23686338.969 8 123341011.563 8      2418.816          49.000
E05  25158974.250 8 132211286.056 8     -2459.738          51.000    25158974.711 8 101304756.991 8     -1884.770          51.000
E24  22337588.930 8 117384812.370 8     -1290.711          51.000    22337602.219 8  89944298.818 8      -988.983          51.000
E25  24089235.930 6 126589783.176 6      1049.723          39.000    24089236.172 6  96997373.862 6       804.309          38.000
> 2020 05 13 07 24  0.0000000  0 12        .000000000000
G12  20956558.812 8 110127481.356 8      2069.598          51.000    20956558.578 8  85813603.581 8      1612.673          51.000
G15  22473001.398 8 118096398.152 8     -3264.656          50.000    22473000.828 8  92023170.702 8     -2543.885          50.000
G17  23015072.781 5 120945023.167 5     -1949.605          32.000    23015070.820 4  94242866.135 4     -1519.188          25.000
G24  20172766.992 8 106008585.364 8       338.711          51.000    20172769.344 8  82604114.987 8       263.931          51.000
G25  23296056.961 7 122421614.683 7      3227.500          45.000    23296061.758 7  95393475.122 7      2514.938          45.000
R08  20986493.023 7 112381739.216 7     -2996.227          47.000    20986497.156 7  87408023.699 7     -2330.401          43.000
C21  24244805.844 8 126249138.591 8     -2153.172          48.000
C29  23672487.523 8 123268880.932 8      2381.324          49.000
C30  23936255.758 6 124642356.462 6      -480.082          36.000
E05  25173094.242 8 132285483.785 8     -2495.297          51.000    25173094.219 8 101361609.761 8     -1911.957          51.000
E24  22345023.453 8 117423890.738 8     -1322.398          51.000    22345036.781 8  89974196.299 8     -1013.254          51.000
E25  24083311.992 6 126558662.243 6      1016.414          40.000    24083315.180 6  96973527.909 6       778.984          40.000
> 2020 05 13 07 24 30.0000000  0 14        .000000000000
G12  20944706.922 8 110065197.957 8      2067.684          51.000    20944707.531 8  85765071.071 8      1611.182          51.000
G15  22491588.078 8 118194073.750 8     -3261.949          49.000    22491588.336 8  92099281.556 8     -2541.779          49.000
G19  21569640.766 5 113349197.072 5      -312.066          32.000
G24  20170793.953 8 105998216.404 8       337.555          51.000    20170796.141 8  82596035.266 8       263.030          51.000
G25  23277576.516 7 122324499.975 7      3231.797          45.000    23277579.977 7  95317801.352 7      2518.283          45.000
R08  21003257.727 8 112471510.313 8     -3003.645          48.000    21003262.320 7  87477845.607 7     -2336.171          45.000
R09  21226258.219 4 113347033.807 4     -2455.902          28.000    21226251.102 4  88158773.533 4     -1910.146          29.000
R10  19686867.172 4 104942078.929 4      -481.523          28.000
C21  24257167.438 8 126313508.000 8     -2152.902          48.000
C29  23658725.336 8 123197214.829 8      2381.676          49.000
C30  23938997.867 5 124656627.720 5      -485.742          31.000
E05  25187288.125 8 132360073.374 8     -2492.254          51.000    25187288.516 8 101418762.795 8     -1909.661          51.000
E24  22352511.203 8 117463237.960 8     -1315.660          51.000    22352524.250 8  90004345.461 8     -1008.052          51.000
E25  24077451.484 7 126527867.209 7      1021.754          42.000    24077456.703 6  96949931.674 6       782.878          41.000
> 2020 05 13 07 25  0.0000000  0 12        .000000000000
G12  20932916.523 8 110003239.119 8      2060.301          50.000    20932916.438 8  85716791.488 8      1605.432          50.000
G15  22510211.203 8 118291940.208 8     -3264.887          49.000    22510212.102 8  92175541.130 8     -2544.068          49.000
G24  20168879.820 8 105988156.732 8       330.668          51.000    20168881.789 8  82588196.559 8       257.663          51.000
G25  23259121.320 7 122227517.059 7      3231.039          46.000    23259123.367 7  95242230.248 7      2517.693          46.000
R08  21020115.547 8 112561776.683 8     -3016.535          48.000    21020119.922 7  87548052.755 7     -2346.194          45.000
R11  21640911.250 5 115642454.015 5      2518.738          33.000
C21  24269579.820 8 126378140.292 8     -2158.246          49.000
C29  23645012.047 8 123125805.503 8      2376.504          49.000
C30  23941818.852 6 124671336.975 6      -497.199          37.000
E05  25201515.438 8 132434841.269 8     -2494.672          51.000    25201516.914 8 101476052.462 8     -1911.493          51.000
E24  22360011.469 8 117502651.344 8     -1314.367          51.000    22360024.461 8  90034545.327 8     -1007.107          51.000
E25  24071613.680 6 126497185.753 6      1021.137          41.000    24071618.773 6  96926422.525 6       782.534          40.000
> 2020 05 13 07 25 30.0000000  0 14        .000000000000
G12  20921171.352 8 109941518.994 8      2044.777          49.000    20921169.430 8  85668697.926 8      1593.333          49.000
G13  24079414.539 5 126538177.155 5     -3784.113          30.000
G15  22528853.992 8 118389908.651 8     -3275.770          50.000    22528855.070 8  92251880.150 8     -2552.548          49.000
G24  20167008.289 8 105978321.107 8       315.621          51.000    20167010.203 8  82580532.433 8       245.939          51.000
G25  23240674.992 7 122130580.329 7      3221.918          47.000    23240676.539 8  95166695.172 8      2510.588          48.000
R08  21037048.195 7 112652446.164 7     -3037.684          47.000    21037052.297 7  87618573.459 7     -2362.643          44.000
R09  21253827.281 5 113494253.586 5     -2463.230          34.000    21253833.250 5  88273329.849 5     -1915.843          32.000
R11  21626764.508 5 115566869.451 5      2510.824          32.000
C21  24282025.828 8 126442947.335 8     -2171.598          50.000
C29  23631332.086 8 123054569.312 8      2363.180          49.000
C30  23944711.055 5 124686398.013 5      -515.809          33.000
E05  25215759.648 8 132509699.188 8     -2505.211          50.000    25215762.539 8 101533411.125 8     -1919.604          51.000
E24  22367507.703 8 117542043.565 8     -1321.223          51.000    22367520.719 8  90064728.976 8     -1012.380          51.000
E25  24065781.086 7 126466530.992 7      1012.844          42.000    24065783.742 6  96902933.813 6       776.168          38.000
> 2020 05 13 07 26  0.0000000  0 12        .000000000000
G12  20909547.016 8 109880433.679 8      2029.688          49.000    20909545.531 8  85621098.992 8      1581.575          49.000
G13  24101039.508 5 126651816.376 5     -3790.062          31.000
G15  22547591.242 8 118488372.112 8     -3286.160          50.000    22547592.320 8  92328604.883 8     -2560.644          50.000
G24  20165254.703 8 105969105.402 8       300.977          51.000    20165256.508 8  82573351.350 8       234.527          51.000
G25  23222313.016 8 122034086.586 8      3213.293          48.000    23222314.586 8  95091505.272 8      2503.865          48.000
R08  21054130.516 8 112743917.964 8     -3058.180          48.000    21054133.797 7  87689718.149 7     -2378.587          44.000
R11  21612700.367 5 115491718.898 5      2502.582          33.000
C21  24294580.016 8 126508318.886 8     -2184.379          51.000
C29  23617761.281 8 122983900.524 8      2350.227          49.000
E05  25230095.906 8 132585041.150 8     -2515.391          50.000    25230100.148 8 101591140.674 8     -1927.437          51.000
E24  22375074.945 8 117581809.512 8     -1327.746          51.000    22375088.102 8  90095198.976 8     -1017.304          51.000
E25  24060028.328 6 126436298.303 6      1004.746          39.000    24060028.023 5  96879768.542 5       769.691          35.000
> 2020 05 13 07 26 30.0000000  0 12        .000000000000
G12  20897976.328 8 109819629.283 8      2022.156          50.000    20897976.391 8  85573718.935 8      1575.706          50.000
G13  24122664.891 5 126765451.237 5     -3787.895          34.000
G15  22566354.789 8 118586973.467 8     -3288.867          50.000    22566355.625 8  92405437.057 8     -2562.757          50.000
G24  20163551.750 8 105960155.776 8       293.949          51.000    20163553.430 8  82566377.608 8       229.051          51.000
G25  23203968.078 8 121937682.572 8      3212.023          48.000    23203969.695 8  95016385.280 8      2502.875          48.000
R08  21071293.820 7 112835826.592 7     -3070.750          46.000    21071297.289 7  87761202.565 7     -2388.364          44.000
R09  21281586.109 4 113642481.392 4     -2469.164          27.000    21281560.039 5  88388514.009 5     -1920.443          31.000
C21  24307174.289 8 126573901.600 8     -2189.391          50.000
C29  23604232.203 7 122913450.296 7      2344.773          47.000
E05  25244456.844 8 132660511.244 8     -2517.719          51.000    25244461.797 8 101648968.399 8     -1929.170          51.000
E24  22382645.672 8 117621594.223 8     -1326.293          51.000    22382658.852 8  90125683.349 8     -1016.283          51.000
E25  24054288.023 6 126406133.175 6      1004.211          38.000    24054286.406 5  96856655.013 5       769.906          33.000
> 2020 05 13 07 27  0.0000000  0 14        .000000000000
G12  20886493.328 8 109759284.494 8      2006.035          51.000    20886493.938 8  85526697.019 8      1563.144          51.000
G13  24144322.094 6 126879256.671 6     -3794.340          36.000
G15  22585178.023 8 118685888.181 8     -3300.121          50.000    22585178.414 8  92482513.418 8     -2571.523          50.000
G24  20161933.375 8 105951650.842 8       278.336          51.000    20161935.086 8  82559750.379 8       216.882          51.000
G25  23185674.328 8 121841547.282 8      3202.301          48.000    23185675.438 8  94941474.684 8      2495.299          48.000
R08  21088571.188 7 112928349.874 7     -3091.934          47.000    21088575.203 7  87833165.113 7     -2404.840          44.000
R09  21295475.891 5 113716651.160 5     -2478.398          32.000    21295470.461 5  88446266.308 5     -1927.640          31.000
R11  21584642.438 6 115341776.328 6      2492.848          37.000
C21  24319842.445 8 126639869.567 8     -2203.109          50.000
C29  23590778.852 7 122843397.160 7      2330.727          47.000
C30  23954052.375 5 124735043.333 5      -566.488          34.000
E05  25258876.258 8 132736285.748 8     -2528.543          51.000    25258881.008 8 101707029.349 8     -1937.524          51.000
E24  22390253.633 8 117661575.015 8     -1333.711          51.000    22390266.688 8  90156317.976 8     -1021.937          51.000
E25  24048593.883 6 126376213.202 6       996.059          36.000    24048593.125 5  96833729.411 5       762.867          34.000
> 2020 05 13 07 27 30.0000000  0 14        .000000000000
G12  20875079.742 8 109699304.081 8      1992.387          51.000    20875079.523 8  85479959.063 8      1552.512          51.000
G13  24165991.750 5 126993144.488 5     -3797.918          33.000
G15  22604042.078 8 118785018.108 8     -3308.574          50.000    22604042.016 8  92559757.483 8     -2578.110          50.000
G19  21582387.023 6 113416222.417 6      -439.281          36.000
G24  20160381.484 8 105943495.612 8       265.199          51.000    20160383.227 8  82553395.642 8       206.649          51.000
G25  23167413.508 8 121745585.895 8      3194.957          48.000    23167414.250 8  94866699.633 8      2489.580          48.000
R08  21105945.367 8 113021385.697 8     -3110.582          49.000    21105948.266 7  87905526.244 7     -2419.342          42.000
R11  21570666.867 6 115267082.555 6      2486.527          37.000
C21  24332565.883 8 126706125.393 8     -2214.242          50.000
C29  23577382.938 7 122773648.359 7      2318.969          46.000
C30  23957363.930 5 124752280.396 5      -584.070          32.000
E05  25273335.344 8 132812267.179 8     -2536.984          51.000    25273339.422 8 101765248.834 8     -1943.944          51.000
E24  22397880.523 8 117701655.247 8     -1338.570          51.000    22397893.375 8  90187028.784 8     -1025.622          51.000
E25  24042927.836 5 126346442.339 5       989.117          35.000    24042931.422 6  96810917.986 6       757.796          38.000
> 2020 05 13 07 28  0.0000000  0 15        .000000000000
G12  20863746.484 8 109639746.111 8      1979.441          51.000    20863745.234 8  85433550.283 8      1542.422          51.000
G13  24187685.125 6 127107151.233 6     -3800.785          36.000
G15  22622957.281 8 118884417.694 8     -3316.574          50.000    22622956.562 8  92637211.648 8     -2584.344          50.000
G19  21584956.961 6 113429736.046 6      -460.184          36.000    21584956.336 5  88386783.487 5      -358.588          34.000
G24  20158907.125 8 105935747.868 8       252.617          51.000    20158908.734 8  82547358.433 8       196.845          51.000
G25  23149196.633 7 121649856.769 7      3188.418          47.000    23149197.539 7  94792105.545 7      2484.482          46.000
R08  21123425.984 8 113114988.023 8     -3128.344          48.000    21123425.641 6  87978328.000 6     -2433.159          41.000
R10  19707067.852 5 105049750.672 5      -549.301          31.000
R11  21556731.711 5 115192594.531 5      2481.016          30.000
C21  24345355.398 8 126772723.526 8     -2224.449          50.000
C29  23564057.477 8 122704262.688 8      2307.867          49.000
C30  23960777.695 5 124770045.923 5      -599.668          34.000
E05  25287844.625 8 132888511.101 8     -2544.730          51.000    25287847.656 8 101823669.444 8     -1949.822          51.000
E24  22405537.125 8 117741891.504 8     -1342.641          51.000    22405549.719 8  90217859.155 8     -1028.786          50.000
E25  24037301.883 6 126316877.440 6       983.129          37.000    24037308.836 6  96788264.333 6       753.447          41.000
> 2020 05 13 07 28 30.0000000  0 15        .000000000000
G12  20852488.891 8 109580587.272 8      1965.613          51.000    20852487.586 8  85387452.485 8      1531.647          51.000
G13  24209397.766 6 127221259.919 6     -3804.953          37.000
G15  22641918.656 8 118984060.841 8     -3325.000          50.000    22641917.117 8  92714855.613 8     -2590.912          50.000
G19  21587652.125 5 113443901.453 5      -483.000          35.000    21587649.188 5  88397821.575 5      -376.361          30.000
G24  20157505.984 8 105928384.781 8       239.285          51.000    20157507.453 8  82541620.950 8       186.456          51.000
G25  23131019.414 7 121554337.460 7      3180.809          46.000    23131020.820 7  94717674.915 7      2478.552          46.000
R08  21141006.328 7 113209129.195 7     -3146.562          46.000    21141005.234 7  88051548.854 7     -2447.326          42.000
R09  21337397.711 5 113940478.150 5     -2494.711          35.000
R10  19710190.836 5 105066412.787 5      -560.770          31.000
R11  21542823.500 5 115118320.593 5      2474.488          34.000    21542818.539 4  89536441.679 4      1924.602          25.000
C21  24358205.758 8 126839638.407 8     -2235.422          50.000
C29  23550798.805 8 122635219.080 8      2295.996          50.000
E05  25302398.984 8 132964992.338 8     -2552.996          51.000    25302401.023 8 101882271.907 8     -1956.168          51.000
E24  22413218.867 8 117782259.627 8     -1347.453          51.000    22413231.352 8  90248790.554 8     -1032.431          50.000
E25  24031711.195 6 126287494.725 6       976.586          38.000    24031718.758 6  96765750.230 6       748.598          40.000
> 2020 05 13 07 29  0.0000000  0 15        .000000000000
G12  20841309.281 8 109521839.712 8      1950.809          51.000    20841308.281 8  85341675.163 8      1520.111          51.000
G13  24231131.516 5 127335455.635 5     -3809.172          35.000
G15  22660927.969 8 119083956.530 8     -3334.625          49.000    22660925.742 8  92792696.339 8     -2598.412          49.000
G17  23129736.992 5 121547583.202 5     -2082.598          34.000
G19  21590475.109 6 113458732.302 6      -506.066          41.000    21590474.406 5  88409378.047 5      -394.334          35.000
G24  20156180.359 8 105921418.431 8       225.016          51.000    20156181.797 8  82536192.611 8       175.337          51.000
G25  23112884.617 7 121459040.430 7      3172.465          46.000    23112886.344 7  94643417.516 7      2472.051          46.000
R08  21158687.570 7 113303816.534 7     -3165.922          47.000    21158687.828 7  88125194.559 7     -2462.384          44.000
R11  21528950.305 5 115044209.214 5      2466.539          35.000    21528954.781 4  89478825.701 4      1918.422          24.000
C21  24371118.719 8 126906879.019 8     -2247.359          50.000
C29  23537608.367 8 122566531.068 8      2283.086          50.000
C30  23967923.406 5 124807255.540 5      -635.508          35.000
E05  25317000.219 8 133041720.693 8     -2562.273          51.000    25317001.781 8 101941063.726 8     -1963.300          51.000
E24  22420927.789 8 117822770.380 8     -1353.266          51.000    22420940.508 8  90279831.241 8     -1036.870          50.000
E25  24026157.117 6 126258305.333 6       969.352          39.000    24026163.773 6  96743384.291 6       742.738          40.000
> 2020 05 13 07 29 30.0000000  0 15        .000000000000
G12  20830174.773 8 109463328.733 8      1936.773          51.000    20830173.578 8  85296082.205 8      1509.174          51.000
G13  24252852.695 5 127449602.064 5     -3813.238          32.000
G15  22679951.227 8 119183926.552 8     -3343.129          48.000    22679948.938 8  92870594.993 8     -2605.039          48.000
G17  23141635.141 5 121610091.292 5     -2097.203          34.000    23141642.016 5  94761184.703 5     -1634.190          35.000
G19  21593390.570 6 113474052.134 6      -528.496          41.000    21593387.992 5  88421315.454 5      -411.818          31.000
G24  20154896.852 8 105914673.388 8       211.496          51.000    20154898.172 8  82530936.726 8       164.802          51.000
G25  23094759.227 7 121363791.144 7      3164.480          46.000    23094760.539 7  94569197.342 7      2465.832          46.000
R08  21176437.188 8 113398867.026 8     -3184.082          48.000    21176438.664 7  88199122.662 7     -2476.508          44.000
R10  19716586.414 5 105100502.514 5      -582.922          31.000
C21  24384059.953 8 126974269.136 8     -2258.367          48.000
C29  23524452.906 8 122498026.904 8      2270.812          49.000
C30  23971597.242 5 124826383.236 5      -653.242          31.000
E05  25331614.633 8 133118518.954 8     -2570.695          51.000    25331616.164 8 101999909.113 8     -1969.736          51.000
E24  22428630.359 8 117863247.552 8     -1358.211          51.000    22428643.320 8  90310846.199 8     -1040.695          50.000
E25  24020605.930 6 126229133.445 6       962.324          38.000    24020611.023 6  96721031.794 6       737.602          39.000
> 2020 05 13 07 30  0.0000000  0 14        .000000000000
G12  20819190.648 8 109405606.310 8      1925.746          51.000    20819189.555 8  85251103.705 8      1500.581          51.000
G15  22699093.109 8 119284520.145 8     -3348.730          48.000    22699091.461 8  92948979.579 8     -2609.400          49.000
G17  23153683.398 5 121673429.357 5     -2109.910          34.000    23153688.164 5  94810527.330 5     -1644.086          34.000
G19  21596503.820 5 113490411.829 5      -547.891          33.000    21596500.781 5  88434063.265 5      -426.925          33.000
G24  20153760.711 8 105908702.815 8       200.879          51.000    20153761.961 8  82526284.320 8       156.529          51.000
G25  23076748.211 7 121269142.479 7      3159.758          45.000    23076749.359 7  94495445.166 7      2462.149          46.000
R08  21194359.766 7 113494838.571 7     -3199.305          47.000    21194361.102 7  88273767.165 7     -2488.351          44.000
R10  19719932.000 6 105118326.521 6      -591.176          37.000
R11  21501333.688 5 114896603.505 5      2456.309          32.000
C21  24397133.922 7 127042353.143 7     -2266.336          47.000
C29  23511437.594 7 122430255.518 7      2261.359          47.000
E05  25346346.828 8 133195937.281 8     -2576.152          51.000    25346348.719 8 102059229.608 8     -1973.932          51.000
E24  22436431.391 8 117904242.261 8     -1360.312          51.000    22436444.500 8  90342257.720 8     -1042.296          51.000
E25  24015161.688 5 126200529.556 5       958.406          35.000    24015165.844 6  96699115.312 6       734.686          38.000
> 2020 05 13 07 30 30.0000000  0 14        .000000000000
G12  20808232.320 8 109348018.624 8      1910.719          51.000    20808231.461 8  85206230.175 8      1488.872          51.000
G13  24296448.078 5 127678695.410 5     -3818.719          34.000
G15  22718228.867 8 119385080.388 8     -3358.023          49.000    22718228.188 8  93027338.174 8     -2616.642          49.000
G17  23165762.094 5 121736902.255 5     -2125.465          33.000    23165764.352 5  94859992.855 5     -1656.203          32.000
G19  21599690.500 7 113507156.607 7      -571.094          42.000    21599688.898 4  88447111.138 4      -445.020          27.000
G24  20152647.562 8 105902852.955 8       186.324          51.000    20152648.812 8  82521725.975 8       145.188          51.000
G25  23058727.008 7 121174441.049 7      3150.926          43.000    23058728.977 7  94421651.871 7      2455.267          43.000
R08  21212329.117 7 113591060.383 7     -3218.238          47.000    21212330.039 7  88348606.317 7     -2503.074          44.000
R10  19723282.867 6 105136186.730 6      -602.648          37.000
C21  24410216.406 8 127110480.251 8     -2278.199          48.000
C29  23498439.234 8 122362570.600 8      2248.055          48.000
E05  25361071.906 8 133273319.536 8     -2585.371          51.000    25361074.586 8 102118522.472 8     -1980.885          51.000
E24  22444206.250 8 117945099.443 8     -1366.094          51.000    22444219.523 8  90373563.858 8     -1046.765          51.000
E25  24009700.328 5 126171841.004 5       951.223          35.000    24009704.352 6  96677133.226 6       728.973          37.000
> 2020 05 13 07 31  0.0000000  0 15        .000000000000
G12  20797333.867 8 109290745.429 8      1903.016          51.000    20797332.633 8  85161601.682 8      1482.869          51.000
G13  24318230.969 5 127793165.889 5     -3816.707          34.000
G15  22737392.219 8 119485783.941 8     -3360.043          50.000    22737392.336 8  93105808.434 8     -2618.218          50.000
G17  23177905.477 5 121800718.266 5     -2133.316          34.000    23177905.594 5  94909719.549 5     -1662.321          31.000
G19  21602984.461 6 113524465.506 6      -586.949          38.000    21602982.062 4  88460598.453 4      -457.378          27.000
G24  20151591.445 8 105897302.786 8       179.199          51.000    20151592.719 8  82517401.154 8       139.636          51.000
G25  23040729.906 7 121079867.028 7      3149.516          44.000    23040733.047 7  94347957.825 7      2454.168          44.000
R08  21230378.711 7 113687710.615 7     -3229.566          46.000    21230379.008 7  88423778.693 7     -2511.885          43.000
R10  19726673.383 5 105154264.196 5      -607.152          35.000
C21  24423341.609 8 127178825.550 8     -2282.660          48.000
C29  23485492.430 8 122295151.734 8      2242.027          48.000
C30  23983291.375 6 124887285.435 6      -696.957          36.000
E05  25375823.570 8 133350843.145 8     -2587.238          48.000    25375827.414 8 102177923.661 8     -1982.405          51.000
E24  22451988.984 8 117985997.542 8     -1364.742          50.000    22452002.414 8  90404901.351 8     -1045.765          51.000
E25  24004257.961 6 126143245.731 6       950.852          38.000    24004260.422 6  96655222.537 6       728.500          36.000
> 2020 05 13 07 31 30.0000000  0 14        .000000000000
G12  20786527.109 8 109233955.318 8      1882.496          51.000    20786525.062 8  85117349.643 8      1466.880          51.000
G15  22756614.438 8 119586795.956 8     -3374.562          51.000    22756614.797 8  93184519.052 8     -2629.532          51.000
G17  23190143.758 5 121865035.125 5     -2155.047          32.000
G19  21606417.797 6 113542505.443 6      -616.336          40.000    21606416.273 5  88474655.582 5      -480.259          34.000
G24  20150624.477 8 105892221.102 8       159.094          51.000    20150625.625 8  82513441.396 8       123.969          51.000
G25  23022789.836 7 120985589.441 7      3135.383          47.000    23022793.086 7  94274494.776 7      2443.158          47.000
R08  21248538.742 7 113784956.297 7     -3253.852          44.000    21248539.188 7  88499414.193 7     -2530.773          43.000
R09  21422031.039 5 114392411.932 5     -2529.883          30.000
R10  19730136.156 5 105172728.903 5      -624.117          34.000
C21  24436540.531 8 127247553.343 8     -2299.688          48.000
C29  23472628.578 7 122228167.570 7      2223.070          47.000
E05  25390633.734 8 133428674.516 8     -2601.953          48.000    25390638.703 8 102237560.676 8     -1993.716          51.000
E24  22459811.359 8 118027103.969 8     -1376.094          50.000    22459824.969 8  90436398.479 8     -1054.445          51.000
E25  23998866.688 6 126114911.416 6       937.848          39.000    23998866.930 6  96633511.816 6       718.054          36.000
> 2020 05 13 07 32  0.0000000  0 14        .000000000000
G12  20775850.289 8 109177849.290 8      1872.500          51.000    20775847.562 8  85073630.701 8      1459.091          50.000
G15  22775933.023 8 119688314.879 8     -3378.691          50.000    22775933.594 8  93263624.655 8     -2632.747          50.000
G19  21610028.227 6 113561476.115 6      -634.270          39.000
G24  20149785.031 8 105887809.505 8       149.574          51.000    20149785.977 8  82510003.776 8       116.551          51.000
G25  23004944.734 7 120891810.162 7      3131.359          47.000    23004947.258 7  94201420.043 7      2440.023          47.000
R08  21266846.750 7 113882997.849 7     -3267.371          45.000    21266847.883 7  88575668.740 7     -2541.289          43.000
R09  21436286.875 5 114468539.606 5     -2531.387          33.000
R10  19733711.195 5 105191784.325 5      -631.285          33.000
C21  24449851.008 8 127316860.153 8     -2306.254          50.000
C29  23459887.281 8 122161819.240 8      2214.566          49.000
C30  23991605.055 5 124930558.286 5      -734.074          32.000
E05  25405540.773 8 133507012.708 8     -2605.941          48.000    25405546.281 8 102297586.044 8     -1996.802          51.000
E24  22467711.469 8 118068618.890 8     -1376.797          50.000    22467725.211 8  90468208.608 8     -1055.050          51.000
E25  23993563.992 6 126087038.505 6       935.012          39.000    23993563.047 6  96612154.611 6       716.668          38.000
> 2020 05 13 07 32 30.0000000  0 13        .000000000000
G12  20765209.281 8 109121932.200 8      1855.895          50.000    20765206.812 8  85030058.966 8      1446.152          50.000
G15  22795252.906 8 119789842.033 8     -3389.133          49.000    22795253.820 8  93342736.693 8     -2640.883          49.000
G19  21613721.375 6 113580881.073 6      -659.203          36.000    21613718.688 5  88504564.581 5      -513.650          31.000
G24  20148978.781 8 105883572.687 8       133.625          51.000    20148979.648 8  82506702.359 8       104.123          51.000
G25  22987100.234 7 120798034.421 7      3121.004          47.000    22987102.352 8  94128348.063 8      2431.954          48.000
R08  21285207.758 7 113981325.829 7     -3287.074          46.000    21285209.977 7  88652146.074 7     -2556.613          45.000
R10  19737302.875 6 105210927.037 6      -644.430          36.000
C21  24463177.625 8 127386252.327 8     -2319.258          49.000
C29  23447174.375 8 122095617.556 8      2199.527          51.000
C30  23995895.148 5 124952875.179 5      -753.285          34.000
E05  25420450.203 8 133585360.219 8     -2616.523          49.000    25420455.492 8 102357618.530 8     -2004.854          51.000
E24  22475594.766 8 118110045.821 8     -1384.277          50.000    22475608.547 8  90499951.299 8     -1060.638          51.000
E25  23988254.398 6 126059130.918 6       926.086          39.000    23988254.344 6  96590770.896 6       709.619          40.000
> 2020 05 13 07 33  0.0000000  0 14        .000000000000
G12  20754646.719 8 109066427.053 8      1843.668          50.000    20754645.203 8  84986808.196 8      1436.621          50.000
G15  22814615.930 8 119891597.558 8     -3395.266          48.000    22814617.367 8  93422026.707 8     -2645.662          48.000
G19  21617539.797 6 113600942.220 6      -679.027          36.000    21617545.531 4  88520196.750 4      -529.109          27.000
G24  20148248.320 8 105879734.207 8       121.668          51.000    20148249.211 8  82503711.336 8        94.806          51.000
G25  22969298.547 7 120704485.672 7      3114.723          46.000    22969301.172 7  94055452.948 7      2427.057          46.000
R08  21303664.922 7 114080162.898 7     -3302.738          47.000    21303667.328 7  88729019.325 7     -2568.799          45.000
R09  21464791.180 5 114620749.722 5     -2542.980          32.000    21464803.023 4  89149481.136 4     -1977.883          28.000
R10  19740951.578 4 105230381.748 4      -652.668          29.000
C21  24476562.023 8 127455947.922 8     -2327.902          49.000
C29  23434532.398 8 122029785.041 8      2188.570          51.000
C30  24000281.430 5 124975699.640 5      -768.941          30.000
E05  25435403.578 8 133663937.866 8     -2622.680          51.000    25435408.250 8 102417827.351 8     -2009.619          51.000
E24  22483503.562 8 118151606.616 8     -1387.250          49.000    22483517.102 8  90531796.574 8     -1062.976          51.000
E25  23982980.453 6 126031410.927 6       921.199          41.000    23982981.922 7  96569530.906 7       705.573          42.000
> 2020 05 13 07 33 30.0000000  0 12        .000000000000
G12  20744168.695 8 109011364.604 8      1826.988          51.000    20744167.938 8  84943902.390 8      1423.627          50.000
G15  22834027.773 8 119993609.189 8     -3405.785          48.000    22834029.469 8  93501516.269 8     -2653.859          48.000
G24  20147599.375 8 105876323.960 8       105.484          51.000    20147600.297 8  82501053.993 8        82.196          51.000
G25  22951545.664 7 120611195.193 7      3104.445          45.000    22951549.023 7  93982759.077 7      2419.045          45.000
R08  21322222.594 8 114179535.418 8     -3322.281          48.000    21322225.062 7  88806309.008 7     -2584.000          45.000
R09  21479097.430 4 114697181.481 4     -2552.262          26.000    21479101.188 4  89208919.767 4     -1985.105          28.000
C21  24490009.828 8 127525974.607 8     -2340.832          49.000
C29  23421967.180 8 121964353.788 8      2173.215          51.000
C30  24004764.727 5 124999060.703 5      -788.797          35.000
E05  25450406.203 8 133742774.244 8     -2633.293          51.000    25450409.914 8 102478234.395 8     -2017.661          51.000
E24  22491443.445 8 118193330.897 8     -1394.566          50.000    22491456.727 8  90563767.117 8     -1068.576          51.000
E25  23977747.766 6 126003908.465 6       912.188          40.000    23977750.375 7  96548457.552 7       698.886          43.000
> 2020 05 13 07 34  0.0000000  0 12        .000000000000
G12  20733767.680 8 108956706.639 8      1815.574          51.000    20733767.250 8  84901311.770 8      1414.733          51.000
G15  22853480.914 8 120095835.574 8     -3410.664          49.000    22853482.273 8  93581173.188 8     -2657.660          49.000
G24  20147024.898 8 105873304.694 8        94.605          51.000    20147025.773 8  82498701.316 8        73.719          51.000
G25  22933834.875 7 120518125.539 7      3098.961          45.000    22933838.047 7  93910237.284 7      2414.778          46.000
R08  21340872.219 7 114279399.906 7     -3336.691          47.000    21340873.883 7  88883981.343 7     -2595.204          44.000
R10  19748435.727 5 105270256.652 5      -674.602          34.000
C21  24503513.883 8 127596291.806 8     -2348.348          50.000
C29  23409471.922 8 121899287.722 8      2163.156          51.000
C30  24009345.602 5 125022919.396 5      -803.180          32.000
E05  25465450.336 8 133821829.071 8     -2638.449          51.000    25465452.938 8 102538808.818 8     -2021.660          51.000
E24  22499407.070 8 118235179.533 8     -1396.586          50.000    22499420.109 8  90595832.948 8     -1070.150          51.000
E25  23972547.953 6 125976584.757 6       908.023          38.000    23972551.812 7  96527521.181 7       695.953          43.000
> 2020 05 13 07 34 30.0000000  0 12        .000000000000
G12  20723436.664 8 108902416.921 8      1803.703          50.000    20723436.078 8  84859008.070 8      1405.483          50.000
G15  22872967.891 8 120198237.584 8     -3416.070          50.000    22872968.422 8  93660966.950 8     -2661.873          50.000
G24  20146517.836 8 105870639.577 8        83.109          51.000    20146518.641 8  82496624.610 8        64.764          51.000
G25  22916159.484 7 120425240.670 7      3093.277          46.000    22916161.906 7  93837859.486 7      2410.346          46.000
R08  21359604.883 7 114379713.941 7     -3350.891          45.000    21359606.453 7  88962003.327 7     -2606.251          44.000
R09  21507802.250 6 114850424.874 6     -2557.859          38.000    21507833.102 4  89328265.624 4     -1989.446          25.000
R10  19752258.742 6 105290622.434 6      -683.074          38.000
C21  24517066.492 8 127666860.522 8     -2356.188          50.000
C29  23397040.539 8 121834552.396 8      2152.504          51.000
E05  25480528.711 8 133901063.757 8     -2643.809          51.000    25480530.250 8 102599521.045 8     -2025.713          51.000
E24  22507387.375 8 118277114.986 8     -1399.016          49.000    22507400.148 8  90627965.260 8     -1071.967          51.000
E25  23967373.914 6 125949402.588 6       904.301          38.000    23967379.148 7  96506693.299 7       692.732          42.000
> 2020 05 13 07 35  0.0000000  0 12        .000000000000
G12  20713171.195 8 108848470.054 8      1793.402          51.000    20713170.188 8  84816971.543 8      1397.456          51.000
G15  22892482.914 8 120300786.281 8     -3419.855          50.000    22892482.031 8  93740874.988 8     -2664.825          50.000
G24  20146073.477 8 105868303.976 8        73.211          51.000    20146074.250 8  82494804.658 8        57.047          51.000
G25  22898514.500 7 120332515.680 7      3089.207          45.000    22898516.844 7  93765606.281 7      2407.174          45.000
R08  21378415.281 7 114480447.299 7     -3363.805          44.000    21378416.891 7  89040351.454 7     -2616.296          43.000
R10  19756125.492 6 105311225.929 6      -689.754          37.000
C21  24530661.672 8 127737652.611 8     -2362.559          50.000
C29  23384667.844 8 121770124.067 8      2143.336          51.000
C30  24018763.055 5 125071951.202 5      -831.230          34.000
E05  25495635.914 8 133980450.592 8     -2647.930          51.000    25495636.898 8 102660349.862 8     -2028.957          51.000
E24  22515379.094 8 118319110.594 8     -1400.137          48.000    22515391.758 8  90660143.664 8     -1072.781          51.000
E25  23962222.305 6 125922335.740 6       901.121          39.000    23962227.609 6  96485953.731 6       690.565          41.000
> 2020 05 13 07 35 30.0000000  0 13        .000000000000
G12  20703027.555 8 108795162.612 8      1774.414          51.000    20703026.586 8  84775433.301 8      1382.660          51.000
G15  22912081.672 8 120403775.795 8     -3432.129          50.000    22912077.469 8  93821126.451 8     -2674.389          48.000
G24  20145748.219 8 105866594.378 8        54.688          51.000    20145748.992 8  82493472.500 8        42.614          51.000
G25  22880956.281 7 120240248.170 7      3076.082          43.000    22880959.172 7  93693709.524 7      2396.947          44.000
R08  21397359.211 7 114581897.999 7     -3385.223          44.000    21397361.484 7  89119257.525 7     -2632.951          44.000
R09  21536635.719 5 115004432.095 5     -2570.312          32.000    21536641.156 5  89447913.580 5     -1999.132          30.000
R10  19760091.984 6 105332368.424 6      -705.254          39.000
C21  24544355.305 8 127808959.556 8     -2377.383          49.000
C29  23372410.242 8 121706298.692 8      2125.508          49.000
C30  24023666.891 5 125097431.482 5      -853.066          31.000
E05  25510827.961 8 134060284.447 8     -2660.402          51.000    25510829.117 8 102721521.194 8     -2038.520          51.000
E24  22523438.430 8 118361462.377 8     -1409.480          48.000    22523451.203 8  90692595.007 8     -1080.006          51.000
E25  23957149.820 6 125895680.466 6       889.859          40.000    23957153.977 6  96465529.563 6       681.846          41.000
> 2020 05 13 07 36  0.0000000  0 14        .000000000000
G12  20692925.930 8 108742077.145 8      1770.398          51.000    20692925.445 8  84734068.010 8      1379.531          51.000
G15  22931684.070 8 120506785.698 8     -3429.328          50.000    22931678.008 8  93901393.769 8     -2672.210          49.000
G24  20145462.625 8 105865093.452 8        51.211          51.000    20145463.508 8  82492302.937 8        39.905          51.000
G25  22863405.570 7 120148021.227 7      3078.391          44.000    22863409.297 7  93621844.350 7      2398.746          44.000
R08  21416357.938 7 114683635.576 7     -3391.258          46.000    21416360.539 7  89198386.709 7     -2637.645          44.000
R09  21551071.141 4 115081516.028 4     -2565.992          29.000    21551097.961 4  89507906.081 4     -1995.778          25.000
R10  19764080.195 6 105353625.055 6      -705.957          38.000
R11  21338486.695 5 114026392.116 5      2387.930          34.000    21338491.188 4  88687219.408 4      1857.273          28.000
C21  24558067.578 8 127880364.884 8     -2377.242          49.000
C29  23360189.586 8 121642664.267 8      2122.527          50.000
C30  24028620.109 5 125123224.138 5      -860.941          30.000
E05  25526024.828 8 134140145.721 8     -2657.898          50.000    25526026.820 8 102782713.538 8     -2036.604          51.000
E24  22531485.680 7 118403751.811 7     -1404.055          47.000    22531498.859 8  90724998.581 8     -1075.774          51.000
E25  23952076.906 6 125869018.584 6       893.434          41.000    23952078.453 6  96445100.335 6       684.612          40.000
> 2020 05 13 07 36 30.0000000  0 14        .000000000000
G12  20682889.938 8 108689337.888 8      1745.676          51.000    20682889.688 8  84692972.455 8      1360.264          50.000
G13  24559231.453 6 129059627.461 6     -3853.070          37.000
G15  22951313.008 8 120609936.974 8     -3447.117          48.000    22951309.422 8  93981771.310 8     -2686.065          48.000
G17  23317040.523 5 122531862.312 5     -2291.789          33.000    23317041.539 5  95479386.527 5     -1785.810          31.000
G24  20145240.367 8 105863925.315 8        26.875          51.000    20145241.250 8  82491392.691 8        20.942          51.000
G25  22845886.742 7 120055959.418 7      3059.438          45.000    22845890.727 7  93550107.889 7      2383.980          46.000
R08  21435433.023 7 114785781.562 7     -3418.316          46.000    21435436.148 7  89277833.541 7     -2658.694          45.000
R10  19768112.047 6 105375120.883 6      -727.105          38.000
C21  24571821.914 8 127951988.674 8     -2397.488          48.000
C29  23348029.750 8 121579345.278 8      2098.934          50.000
C30  24033654.195 5 125149450.635 5      -887.965          32.000
E05  25541249.766 8 134220156.233 8     -2675.883          48.000    25541252.719 8 102844020.266 8     -2050.373          51.000
E24  22539544.352 7 118446101.898 7     -1419.160          46.000    22539558.070 8  90757448.648 8     -1087.408          51.000
E25  23947026.477 7 125842473.491 7       876.309          42.000    23947025.125 6  96424760.598 6       671.472          40.000
> 2020 05 13 07 37  0.0000000  0 14        .000000000000
G12  20672958.852 8 108637151.304 8      1733.090          50.000    20672958.422 8  84652307.602 8      1350.460          50.000
G13  24581233.320 5 129175240.674 5     -3854.863          35.000
G15  22971007.406 8 120713433.061 8     -3452.730          48.000    22971006.836 8  94062417.573 8     -2690.439          48.000
G17  23330160.422 5 122600805.163 5     -2304.520          33.000    23330164.008 5  95533120.143 5     -1795.730          32.000
G24  20145120.820 8 105863296.728 8        14.691          51.000    20145121.641 8  82490902.873 8        11.448          51.000
G25  22828439.078 7 119964269.877 7      3052.930          47.000    22828442.219 7  93478661.518 7      2378.906          47.000
R08  21454623.445 7 114888541.831 7     -3432.672          47.000    21454626.062 7  89357758.164 7     -2669.859          44.000
R10  19772227.820 6 105397064.620 6      -736.129          37.000
C21  24585656.992 8 128024032.789 8     -2405.648          48.000
C29  23335970.094 8 121516548.073 8      2087.309          49.000
E05  25556540.945 7 134300520.459 7     -2681.820          45.000    25556545.492 8 102905598.052 8     -2054.874          51.000
E11  26958047.180 7 141665492.915 7      2969.086          44.000    26958046.367 7 108548882.432 7      2275.131          42.000
E24  22547653.828 7 118488718.206 7     -1422.234          45.000    22547667.828 8  90790102.712 8     -1089.713          51.000
E25  23942037.320 6 125816251.049 6       871.789          41.000    23942035.188 7  96404668.091 7       667.839          42.000
> 2020 05 13 07 37 30.0000000  0 15        .000000000000
G12  20663101.305 8 108585350.756 8      1716.781          51.000    20663100.492 8  84611943.567 8      1337.752          51.000
G13  24603243.781 6 129290894.115 6     -3859.078          36.000
G15  22990735.281 8 120817104.221 8     -3462.137          49.000    22990736.469 8  94143200.267 8     -2697.769          49.000
G17  23343350.289 4 122670133.329 4     -2320.141          29.000
G24  20145072.078 8 105863040.683 8        -1.227          51.000    20145073.023 8  82490703.353 8         -.959          51.000
G25  22811030.641 7 119872786.474 7      3042.559          46.000    22811032.945 7  93407375.793 7      2370.828          46.000
R08  21473895.508 7 114991741.784 7     -3450.824          47.000    21473897.828 7  89438024.751 7     -2683.974          45.000
R10  19776396.117 6 105419286.055 6      -748.930          37.000
C21  24599540.703 8 128096329.180 8     -2417.441          48.000
C29  23323979.109 8 121454108.947 8      2071.777          50.000
C30  24044060.086 5 125203719.821 5      -922.191          35.000
E05  25571866.641 7 134381069.504 7     -2691.594          44.000    25571872.805 8 102967317.454 8     -2062.222          51.000
E11  26941092.984 7 141576403.234 7      2967.023          43.000    26941092.570 7 108480618.941 7      2273.269          42.000
E24  22555782.242 7 118531432.951 7     -1428.816          45.000    22555796.125 8  90822832.203 8     -1094.873          51.000
E25  23937076.922 6 125790183.835 6       863.031          39.000    23937076.594 7  96384694.510 7       661.131          43.000
> 2020 05 13 07 38  0.0000000  0 15        .000000000000
G12  20653341.836 8 108534064.245 8      1708.461          51.000    20653340.688 8  84571980.064 8      1331.268          51.000
G13  24625285.102 5 129406713.809 5     -3855.809          34.000
G15  23010520.461 8 120921075.813 8     -3463.254          48.000    23010522.625 8  94224217.063 8     -2698.639          48.000
G24  20145118.703 8 105863286.482 8        -9.121          51.000    20145119.875 8  82490894.871 8        -7.107          51.000
G25  22793685.812 7 119781637.983 7      3040.152          46.000    22793687.922 7  93336351.019 7      2368.950          46.000
R08  21493273.742 8 115095507.367 8     -3460.734          49.000    21493275.219 7  89518731.267 7     -2691.682          44.000
R09  21609194.031 5 115391881.137 5     -2593.027          30.000
R10  19780640.102 5 105441914.416 5      -753.480          34.000
C21  24613496.578 7 128169002.103 7     -2421.332          47.000
C29  23312082.055 8 121392156.724 8      2064.258          51.000
C30  24049427.922 6 125231651.551 6      -933.590          37.000
E05  25587253.188 7 134461929.502 7     -2693.020          47.000    25587258.570 8 103029275.085 8     -2063.524          50.000
E11  26924156.562 7 141487409.198 7      2972.191          42.000    26924157.250 6 108412428.718 6      2277.492          41.000
E24  22563953.602 7 118574373.429 7     -1427.645          45.000    22563967.195 8  90855734.634 8     -1093.894          50.000
E25  23932169.406 6 125764399.367 6       862.402          39.000    23932171.781 7  96364937.580 7       660.634          43.000
> 2020 05 13 07 38 30.0000000  0 15        .000000000000
G12  20643636.836 8 108483064.036 8      1691.816          51.000    20643635.664 8  84532239.656 8      1318.298          51.000
G13  24647312.359 5 129522468.823 5     -3860.941          34.000
G15  23030318.891 8 121025116.938 8     -3472.574          48.000    23030321.609 8  94305288.041 8     -2705.902          48.000
G24  20145217.352 8 105863805.519 8       -25.250          51.000    20145218.672 8  82491299.294 8       -19.675          51.000
G25  22776361.328 7 119690597.116 7      3029.520          46.000    22776363.766 7  93265410.126 7      2360.665          46.000
R08  21512712.719 8 115199600.922 8     -3478.648          49.000    21512713.898 7  89599692.878 7     -2705.618          45.000
R09  21623793.914 4 115469801.407 4     -2600.465          29.000
R10  19784917.375 5 105464717.337 5      -766.641          35.000
C21  24627480.680 7 128241822.843 7     -2433.199          47.000
C29  23300235.398 8 121330467.047 8      2048.508          50.000
C30  24054865.992 5 125259952.997 5      -953.199          32.000
E05  25602656.359 8 134542870.373 8     -2702.824          50.000    25602660.312 8 103091294.674 8     -2070.917          51.000
E11  26907195.461 7 141398284.363 7      2969.758          43.000    26907197.211 6 108344138.258 6      2275.508          41.000
E24  22572124.281 7 118617310.699 7     -1434.680          46.000    22572137.508 8  90888634.601 8     -1099.198          50.000
E25  23927272.508 6 125738669.084 6       853.395          41.000    23927276.312 7  96345222.135 7       653.879          43.000
> 2020 05 13 07 39  0.0000000  0 15        .000000000000
G12  20634026.094 8 108432559.186 8      1678.418          51.000    20634024.945 8  84492885.247 8      1307.858          51.000
G13  24669371.227 5 129638420.573 5     -3862.551          34.000
G15  23050169.258 7 121129433.482 7     -3478.465          44.000    23050172.547 7  94386573.652 7     -2710.492          43.000
G19  21673008.398 5 113892443.194 5      -938.043          32.000
G24  20145407.820 8 105864806.888 8       -38.242          51.000    20145409.195 8  82492079.579 8       -29.799          51.000
G25  22759097.289 7 119599873.381 7      3021.906          46.000    22759099.523 7  93194716.332 7      2354.732          46.000
R08  21532252.156 8 115304231.385 8     -3493.430          49.000    21532253.219 7  89681072.068 7     -2717.112          45.000
R09  21638432.688 5 115548014.396 5     -2605.930          33.000
R10  19789267.727 5 105487906.725 5      -776.277          35.000
C21  24641532.570 7 128314995.640 7     -2441.902          47.000
C29  23288479.039 8 121269248.593 8      2035.852          49.000
E05  25618114.836 8 134624099.004 8     -2709.219          51.000    25618118.102 8 103153534.751 8     -2075.847          51.000
E11  26890250.234 7 141309239.386 7      2969.793          43.000    26890252.305 6 108275908.988 6      2275.663          41.000
E24  22580333.930 7 118660452.744 7     -1438.258          46.000    22580346.805 8  90921691.494 8     -1102.048          49.000
E25  23922426.016 6 125713201.312 6       847.723          41.000    23922430.828 7  96325707.866 7       649.470          43.000
> 2020 05 13 07 39 30.0000000  0 12        .000000000000
G12  20624500.969 8 108382504.106 8      1663.484          51.000    20624499.711 8  84453881.281 8      1296.222          51.000
G15  23070062.297 7 121233977.093 7     -3486.082          42.000    23070066.383 7  94468036.206 7     -2716.425          42.000
G24  20145681.602 8 105866246.139 8       -52.812          51.000    20145682.961 8  82493201.063 8       -41.153          51.000
G25  22741884.859 7 119509422.109 7      3012.996          44.000    22741886.391 7  93124234.859 7      2347.789          43.000
R08  21551882.352 7 115409347.329 7     -3509.336          47.000    21551883.258 7  89762828.891 7     -2729.484          45.000
R10  19793681.312 5 105511435.862 5      -787.422          35.000
C21  24655643.133 7 128388472.935 7     -2451.879          47.000
C29  23276804.945 8 121208458.175 8      2021.645          50.000
E05  25633619.203 8 134705568.026 8     -2717.168          51.000    25633622.383 8 103215959.023 8     -2081.959          51.000
E11  26873312.453 7 141220230.619 7      2968.902          44.000    26873314.422 7 108207707.479 7      2274.861          42.000
E24  22588573.680 7 118703753.387 7     -1443.344          45.000    22588586.414 8  90954869.927 8     -1106.085          49.000
E25  23917621.234 6 125687950.176 6       840.660          41.000    23917626.711 7  96306359.579 7       644.247          42.000
> 2020 05 13 07 40  0.0000000  0 15        .000000000000
G12  20615025.234 8 108332709.720 8      1651.238          51.000    20615023.922 8  84415080.440 8      1286.679          51.000
G15  23089962.188 7 121338555.722 7     -3490.738          42.000    23089966.531 7  94549526.097 7     -2720.053          42.000
G19  21683972.922 5 113950041.382 5      -980.105          34.000    21683963.227 5  88792202.739 5      -763.719          31.000
G24  20146002.617 8 105867933.609 8       -64.594          51.000    20146004.047 8  82494515.965 8       -50.333          51.000
G25  22724688.148 6 119419054.615 6      3006.688          40.000    22724688.734 6  93053818.652 6      2342.873          40.000
R08  21571565.883 7 115514751.507 7     -3522.492          45.000    21571566.867 7  89844809.880 7     -2739.719          44.000
R09  21667772.656 6 115704589.127 6     -2615.203          36.000    21667762.000 4  89992504.624 4     -2034.050          26.000
R10  19798122.844 5 105535111.320 5      -795.688          33.000
C21  24669775.922 8 128462064.256 8     -2459.262          48.000
C29  23265177.430 8 121147909.829 8      2010.074          49.000
C30  24071767.445 5 125347966.874 5     -1001.410          32.000
E05  25649132.781 8 134787085.958 8     -2722.336          51.000    25649135.938 8 103278420.786 8     -2085.973          51.000
E11  26856346.320 7 141131070.600 7      2970.117          46.000    26856348.172 7 108139390.076 7      2275.720          42.000
E24  22596807.586 7 118747022.397 7     -1446.105          43.000    22596820.227 8  90988024.076 8     -1107.959          48.000
E25  23912821.531 6 125662725.706 6       836.191          41.000    23912827.109 7  96287031.746 7       640.491          42.000
> 2020 05 13 07 40 30.0000000  0 14        .000000000000
G12  20605650.414 8 108283445.266 8      1635.316          51.000    20605649.164 8  84376692.556 8      1274.273          51.000
G15  23109920.781 7 121443435.838 7     -3498.762          44.000    23109923.891 7  94631250.858 7     -2726.311          44.000
G19  21689643.125 6 113979843.781 6     -1003.723          37.000
G24  20146422.203 8 105870139.310 8       -80.113          51.000    20146423.781 8  82496234.669 8       -62.426          51.000
G25  22707558.828 6 119329040.890 6      2996.637          40.000    22707558.867 6  92983678.129 6      2335.042          40.000
R08  21591353.281 7 115620713.343 7     -3539.234          45.000    21591353.812 7  89927224.613 7     -2752.738          42.000
R10  19802643.602 6 105559205.864 6      -807.766          37.000
C21  24683981.680 8 128536033.729 8     -2469.859          48.000
C29  23253646.859 7 121087872.081 7      1994.750          46.000
C30  24077597.219 5 125378320.156 5     -1019.383          32.000
E05  25664706.164 8 134868920.127 8     -2730.949          51.000    25664709.148 8 103341124.857 8     -2092.531          51.000
E11  26839403.070 7 141042030.234 7      2968.145          47.000    26839405.117 7 108071164.333 7      2274.278          42.000
E24  22605086.594 6 118790528.218 6     -1451.934          40.000    22605099.219 8  91021359.679 8     -1112.604          48.000
E25  23908077.781 6 125637796.618 6       827.996          40.000    23908083.086 7  96267930.206 7       634.624          42.000
> 2020 05 13 07 41  0.0000000  0 14        .000000000000
G12  20596346.047 8 108234549.724 8      1623.535          51.000    20596345.055 8  84338592.134 8      1265.092          51.000
G15  23129906.242 7 121548453.727 7     -3503.105          45.000    23129907.117 7  94713082.935 7     -2729.693          46.000
G19  21695426.922 6 114010237.239 6     -1023.027          38.000    21695427.656 5  88839150.549 5      -797.158          34.000
G24  20146909.773 8 105872701.940 8       -91.582          51.000    20146911.383 8  82498231.502 8       -71.363          51.000
G25  22690466.289 6 119239220.615 6      2990.445          39.000    22690466.883 6  92913688.308 6      2330.217          39.000
R08  21611212.930 7 115727064.405 7     -3551.672          45.000    21611213.562 6  90009942.052 6     -2762.411          41.000
R10  19807212.461 6 105583555.599 6      -816.203          37.000
C21  24698229.250 8 128610219.181 8     -2476.641          49.000
C29  23242183.703 7 121028187.073 7      1983.375          46.000
C30  24083511.938 4 125409119.049 4     -1034.164          29.000
E05  25680308.242 8 134950907.512 8     -2735.703          51.000    25680310.961 8 103403946.321 8     -2096.185          51.000
E11  26822452.172 7 140952950.406 7      2969.586          45.000    26822454.422 6 108002908.353 6      2275.304          41.000
E24  22613379.383 6 118834108.991 6     -1454.355          38.000    22613392.461 7  91054752.733 7     -1114.304          47.000
E25  23903359.680 6 125613001.436 6       823.934          40.000    23903364.336 7  96248931.304 7       631.475          42.000
> 2020 05 13 07 41 30.0000000  0 15        .000000000000
G12  20587120.906 8 108186070.808 8      1608.453          51.000    20587120.086 8  84300816.365 8      1253.340          51.000
G13  24779755.094 5 130218491.304 5     -3871.211          30.000
G15  23149926.344 7 121653653.692 7     -3510.301          47.000    23149924.672 7  94795056.874 7     -2735.302          47.000
G19  21701332.188 5 114041267.887 5     -1046.082          33.000    21701323.789 4  88863330.229 4      -815.138          28.000
G24  20147474.469 8 105875669.562 8      -106.266          51.000    20147475.992 8  82500543.921 8       -82.804          51.000
G25  22673420.414 6 119149641.987 6      2981.246          41.000    22673422.055 6  92843886.760 6      2323.049          41.000
R08  21631153.844 7 115833848.022 7     -3567.199          45.000    21631154.570 6  90092995.906 6     -2774.491          41.000
R10  19811837.867 6 105608207.965 6      -827.727          36.000
C21  24712526.438 8 128684664.925 8     -2486.535          48.000
C29  23230798.664 8 120968903.514 8      1968.816          49.000
C30  24089521.617 5 125440452.372 5     -1051.633          30.000
E05  25695947.414 8 135033093.575 8     -2743.531          50.000    25695949.938 8 103466920.003 8     -2102.162          51.000
E11  26805503.031 7 140863880.313 7      2968.234          45.000    26805504.930 6 107934659.789 6      2274.589          40.000
E24  22621695.031 6 118877811.378 6     -1459.523          38.000    22621708.594 7  91088238.971 7     -1118.270          46.000
E25  23898675.820 6 125588387.081 6       816.719          40.000    23898679.359 6  96230070.980 6       625.977          41.000
> 2020 05 13 07 42  0.0000000  0 15        .000000000000
G12  20577977.758 8 108138023.973 8      1597.328          50.000    20577976.508 8  84263377.261 8      1244.671          50.000
G15  23169983.281 7 121759048.863 7     -3513.371          46.000    23169980.234 7  94877182.961 7     -2737.692          46.000
G19  21707360.352 6 114072947.050 6     -1064.098          39.000
G24  20148119.172 8 105879057.587 8      -117.066          51.000    20148120.609 8  82503183.926 8       -91.224          51.000
G25  22656423.539 7 119060321.110 7      2975.973          42.000    22656426.484 7  92774286.103 7      2318.940          42.000
R08  21651177.633 7 115941075.583 7     -3578.625          44.000    21651178.977 6  90176395.083 6     -2783.378          41.000
R09  21726794.383 5 116019811.718 5     -2634.102          32.000    21726773.820 4  90237598.272 4     -2048.749          29.000
R10  19816522.336 6 105633177.763 6      -834.367          37.000
C21  24726874.992 7 128759383.623 7     -2492.266          45.000
C29  23219494.828 8 120910038.489 8      1958.125          50.000
C30  24095633.234 4 125472247.929 4     -1065.469          29.000
E05  25711626.211 8 135115491.771 8     -2747.113          48.000    25711628.688 8 103530056.244 8     -2104.877          50.000
E11  26788559.078 7 140774837.353 7      2970.445          45.000    26788559.812 6 107866432.040 6      2276.038          41.000
E24  22630036.703 6 118921650.082 6     -1460.871          39.000    22630050.680 7  91121829.681 7     -1119.129          46.000
E25  23894028.859 6 125563968.555 6       813.770          40.000    23894030.391 6  96211360.712 6       623.490          39.000
> 2020 05 13 07 42 30.0000000  0 14        .000000000000
G12  20568908.523 8 108090366.382 8      1579.805          50.000    20568906.742 8  84226241.482 8      1231.017          50.000
G15  23190068.125 7 121864593.161 7     -3522.797          46.000    23190065.148 7  94959425.249 7     -2745.037          45.000
G19  21713505.906 6 114105234.845 6     -1088.695          37.000    21713505.516 5  88913149.115 5      -848.334          30.000
G24  20148835.766 8 105882823.472 8      -134.195          51.000    20148837.156 8  82506118.368 8      -104.568          51.000
G25  22639467.625 6 118971215.825 6      2964.141          41.000    22639471.156 6  92704853.471 6      2309.726          41.000
R08  21671274.617 7 116048698.488 7     -3596.297          42.000    21671277.383 6  90260101.759 6     -2797.123          41.000
R10  19821257.633 6 105658420.903 6      -848.406          36.000
R11  21167991.234 4 113115325.629 4      2292.176          27.000
C21  24741266.203 7 128834330.073 7     -2504.402          43.000
C29  23208263.727 8 120851551.130 8      1941.000          50.000
E05  25727336.328 7 135198057.247 7     -2757.141          47.000    25727339.039 8 103593320.669 8     -2112.647          49.000
E11  26771612.438 7 140685780.423 7      2966.664          44.000    26771612.250 7 107798193.620 7      2273.170          43.000
E24  22638396.508 6 118965581.401 6     -1467.957          37.000    22638410.641 7  91155491.400 7     -1124.981          46.000
E25  23889411.648 7 125539702.567 7       803.895          43.000    23889410.492 6  96192767.281 6       615.893          38.000
> 2020 05 13 07 43  0.0000000  0 13        .000000000000
G12  20559925.570 8 108043161.543 8      1566.477          50.000    20559923.773 8  84189458.502 8      1220.631          50.000
G15  23210192.391 7 121970346.734 7     -3527.902          46.000    23210190.477 7  95041830.637 7     -2749.015          42.000
G19  21719776.594 5 114138190.429 5     -1109.148          35.000    21719774.805 5  88938846.122 5      -864.241          32.000
G24  20149636.398 8 105887030.674 8      -147.000          51.000    20149637.836 8  82509396.699 8      -114.545          51.000
G25  22622564.898 6 118882390.053 6      2956.637          39.000    22622566.984 6  92635638.606 6      2303.873          40.000
R08  21691457.430 7 116156776.681 7     -3609.609          44.000    21691460.914 7  90344162.531 7     -2807.474          42.000
R10  19826054.883 5 105684001.391 5      -857.699          34.000
C21  24755712.914 7 128909564.067 7     -2511.914          44.000
C29  23197117.422 8 120793505.700 8      1928.008          51.000
E05  25743090.195 7 135280851.195 7     -2762.992          47.000    25743092.977 8 103656760.167 8     -2117.125          49.000
E11  26754675.398 7 140596774.530 7      2966.484          43.000    26754675.023 7 107729994.324 7      2273.018          44.000
E24  22646786.359 6 119009667.836 6     -1471.578          39.000    22646800.281 7  91189271.905 7     -1127.501          46.000
E25  23884835.492 7 125515651.684 7       798.770          44.000    23884833.219 6  96174338.682 6       612.059          39.000
> 2020 05 13 07 43 30.0000000  0 13        .000000000000
G12  20551020.195 8 107996363.528 8      1553.125          51.000    20551018.969 8  84152992.544 8      1210.227          51.000
G15  23230346.969 7 122076261.486 7     -3533.074          44.000    23230350.180 7  95124361.761 7     -2753.042          42.000
G19  21726165.359 5 114171767.122 5     -1128.832          34.000    21726154.109 4  88964967.347 4      -879.609          25.000
G24  20150512.445 8 105891634.170 8      -159.934          51.000    20150514.008 8  82512983.825 8      -124.624          51.000
G25  22605706.547 6 118793798.962 6      2948.828          40.000    22605706.609 6  92566606.625 6      2297.785          40.000
R08  21711716.617 7 116265258.690 7     -3622.629          44.000    21711719.758 7  90428537.372 7     -2817.603          42.000
R10  19830905.836 5 105709871.658 5      -867.492          32.000
C21  24770207.500 7 128985037.871 7     -2519.695          44.000
C29  23186047.414 8 120735858.711 8      1914.922          51.000
E05  25758879.477 8 135363826.042 8     -2768.809          48.000    25758881.875 8 103720338.251 8     -2121.492          48.000
E11  26737739.430 7 140507775.862 7      2966.652          42.000    26737739.672 7 107661800.589 7      2273.086          44.000
E24  22655196.695 6 119053862.946 6     -1475.047          40.000    22655210.742 7  91223135.685 7     -1130.147          46.000
E25  23880290.648 7 125491769.859 7       793.113          42.000    23880289.859 6  96156039.639 6       607.791          39.000
> 2020 05 13 07 44  0.0000000  0 13        .000000000000
G12  20542194.305 8 107949982.272 8      1539.223          51.000    20542193.367 8  84116851.310 8      1199.394          51.000
G15  23250533.227 7 122182344.143 7     -3538.836          42.000    23250541.883 7  95207023.625 7     -2757.534          42.000
G19  21732674.398 6 114205972.797 6     -1150.434          36.000    21732682.945 5  88991702.372 5      -896.442          32.000
G24  20151465.625 8 105896643.286 8      -173.570          51.000    20151467.359 8  82516887.022 8      -135.250          51.000
G25  22588894.719 6 118705452.873 6      2940.918          37.000    22588893.305 6  92497765.565 6      2291.624          37.000
R08  21732052.555 6 116374150.223 6     -3636.461          41.000    21732055.008 6  90513230.757 6     -2828.359          41.000
R10  19835812.938 5 105736041.298 5      -877.277          31.000
C21  24784749.625 7 129060758.406 7     -2527.930          45.000
C29  23175055.750 8 120678621.434 8      1901.195          51.000
E05  25774705.633 8 135446989.488 8     -2775.016          48.000    25774707.312 8 103784060.848 8     -2126.290          49.000
E11  26720807.039 7 140418796.091 7      2965.562          42.000    26720807.805 7 107593621.317 7      2272.521          45.000
E24  22663629.656 6 119098175.696 6     -1478.793          40.000    22663643.492 7  91257089.636 7     -1133.125          46.000
E25  23875779.414 6 125468066.324 6       787.312          41.000    23875780.555 6  96137877.204 6       603.469          38.000
> 2020 05 13 07 44 30.0000000  0 13        .000000000000
G12  20533446.453 8 107904010.608 8      1525.559          51.000    20533445.383 8  84081029.224 8      1188.747          51.000
G15  23270749.586 7 122288584.946 7     -3544.039          42.000    23270760.016 6  95289808.697 6     -2761.589          41.000
G19  21739301.867 5 114240801.627 5     -1171.391          33.000
G24  20152494.617 8 105902051.064 8      -186.926          51.000    20152496.500 8  82521100.853 8      -145.659          51.000
G25  22572128.867 6 118617345.596 6      2933.344          36.000    22572128.516 5  92429110.572 5      2285.722          35.000
R08  21752460.883 6 116483438.968 6     -3649.461          38.000    21752464.711 7  90598233.088 7     -2838.470          42.000
R10  19840777.164 5 105762502.701 5      -886.992          34.000
C21  24799337.070 7 129136716.046 7     -2535.828          46.000
C29  23164141.805 8 120621788.680 8      1887.727          51.000
E05  25790566.266 8 135530332.608 8     -2780.984          49.000    25790567.695 8 103847921.120 8     -2130.875          49.000
E11  26703877.383 7 140329829.967 7      2965.367          42.000    26703878.266 7 107525452.532 7      2272.269          45.000
E24  22672083.812 7 119142598.407 7     -1482.574          42.000    22672096.961 7  91291127.807 7     -1135.963          45.000
E25  23871301.180 7 125444533.651 7       781.625          42.000    23871302.148 6  96119845.646 6       598.758          36.000
> 2020 05 13 07 45  0.0000000  0 14        .000000000000
G12  20524778.016 8 107858457.287 8      1510.996          51.000    20524776.766 8  84045533.120 8      1177.400          51.000
G15  23290997.359 6 122394989.807 6     -3549.938          39.000    23291008.031 6  95372721.586 6     -2766.188          39.000
G19  21746047.703 5 114276260.988 5     -1192.941          35.000
G24  20153601.344 8 105907867.065 8      -201.219          51.000    20153603.336 8  82525632.787 8      -156.794          51.000
G25  22555409.305 5 118529486.286 5      2923.992          34.000    22555411.797 5  92360648.752 5      2278.432          34.000
R08  21772941.156 5 116593129.298 5     -3663.355          32.000    21772948.734 7  90683547.749 7     -2849.280          42.000
R09  21816152.492 5 116496991.690 5     -2666.043          30.000    21816142.344 5  90608772.870 5     -2073.580          33.000
R10  19845798.141 6 105789263.698 6      -897.215          37.000
C21  24813970.797 7 129212916.508 7     -2544.586          46.000
C29  23153307.000 8 120565370.438 8      1873.113          50.000
E05  25806462.164 8 135613861.872 8     -2787.875          49.000    25806464.148 8 103911924.024 8     -2136.131          50.000
E11  26686952.727 7 140240887.899 7      2963.918          42.000    26686953.211 7 107457302.222 7      2270.833          46.000
E24  22680560.008 7 119187138.736 7     -1487.047          42.000    22680572.852 7  91325256.111 7     -1139.417          45.000
E25  23866857.336 7 125421179.809 7       774.992          42.000    23866857.656 6  96101951.109 6       593.816          37.000
> 2020 05 13 07 45 30.0000000  0 14        .000000000000
G12  20516178.320 8 107813266.453 8      1500.719          51.000    20516177.148 8  84010319.483 8      1169.391          51.000
G15  23311264.828 6 122501499.428 6     -3551.438          36.000    23311275.508 6  95455716.138 6     -2767.351          36.000
G24  20154775.164 8 105914035.309 8      -211.059          51.000    20154777.164 8  82530439.193 8      -164.461          51.000
G25  22538725.422 5 118441819.508 5      2919.402          30.000    22538730.648 5  92292337.021 5      2274.862          32.000
R08  21793487.047 6 116703159.184 6     -3672.469          37.000    21793495.703 6  90769126.527 6     -2856.365          41.000
R09  21831118.148 5 116576951.522 5     -2666.223          32.000    21831120.664 4  90670972.757 4     -2073.729          28.000
R10  19850864.859 6 105816266.772 6      -903.859          39.000
C21  24828639.859 7 129289301.477 7     -2548.617          46.000
C29  23142541.180 8 120509312.719 8      1863.129          49.000
C30  24140957.391 4 125708299.062 4     -1177.668          29.000
E05  25822382.289 8 135697519.198 8     -2790.137          49.000    25822385.375 8 103976025.065 8     -2137.780          50.000
E11  26670022.703 7 140151915.714 7      2967.047          43.000    26670022.391 7 107389128.756 7      2273.431          45.000
E24  22689047.477 7 119231739.892 7     -1487.242          43.000    22689060.172 7  91359431.029 7     -1139.527          45.000
E25  23862436.758 6 125397948.191 6       772.953          41.000    23862438.117 6  96084150.285 6       592.391          37.000
> 2020 05 13 07 46  0.0000000  0 15        .000000000000
G12  20507683.633 8 107768627.010 8      1489.449          51.000    20507682.609 8  83975535.502 8      1160.610          51.000
G15  23331586.781 5 122608300.447 5     -3553.086          31.000    23331598.164 5  95538937.769 5     -2768.635          32.000
G19  21759925.312 5 114349184.833 5     -1228.164          33.000
G24  20156051.930 8 105920744.252 8      -221.926          51.000    20156053.867 8  82535666.929 8      -172.929          51.000
G25  22522115.289 5 118354535.222 5      2913.312          34.000    22522120.562 5  92224323.199 5      2270.108          33.000
R08  21814133.227 6 116813716.651 6     -3683.219          39.000    21814141.445 6  90855115.678 6     -2864.726          41.000
R09  21846156.328 5 116657291.914 5     -2669.223          32.000    21846167.797 4  90733469.769 4     -2076.077          28.000
R10  19856013.180 6 105843703.267 6      -910.848          41.000
C21  24843379.281 7 129366055.637 7     -2553.895          45.000
C29  23131880.977 8 120453804.634 8      1851.688          49.000
C30  24147827.492 4 125744070.201 4     -1191.270          28.000
E05  25838362.359 8 135781491.673 8     -2793.578          49.000    25838366.344 8 104040367.585 8     -2140.579          50.000
E11  26653122.609 7 140063104.394 7      2968.160          43.000    26653121.961 7 107321078.549 7      2274.382          44.000
E24  22697582.156 7 119276590.283 7     -1488.672          42.000    22697595.047 7  91393796.924 7     -1140.563          44.000
E25  23858075.734 7 125375027.609 7       769.316          42.000    23858076.820 6  96066587.764 6       589.575          36.000
> 2020 05 13 07 46 30.0000000  0 13        .000000000000
G12  20499270.547 8 107724415.491 8      1471.152          51.000    20499269.500 8  83941084.965 8      1146.352          51.000
G15  23351941.031 5 122715277.458 5     -3563.738          34.000    23351952.523 5  95622288.017 5     -2776.936          34.000
G24  20157408.383 8 105927871.897 8      -239.977          51.000    20157410.180 8  82541220.940 8      -186.995          51.000
G25  22505555.328 6 118267510.523 6      2901.141          37.000    22505559.188 6  92156511.694 6      2260.626          38.000
R08  21834854.336 6 116924671.308 6     -3700.348          41.000    21834862.086 6  90941413.722 6     -2878.048          41.000
R10  19861218.828 7 105871447.399 7      -925.297          42.000
C21  24858165.367 7 129443054.069 7     -2566.207          45.000
C29  23121303.070 8 120398725.416 8      1833.301          48.000
C30  24154786.938 5 125780303.492 5     -1211.625          34.000
E05  25854378.570 8 135865653.940 8     -2803.996          50.000    25854382.750 8 104104855.531 8     -2148.570          49.000
E11  26636229.203 7 139974332.198 7      2963.184          42.000    26636228.766 7 107253058.287 7      2270.431          43.000
E24  22706140.555 7 119321565.753 7     -1496.770          42.000    22706154.023 7  91428258.640 7     -1146.941          44.000
E25  23853750.773 7 125352294.056 7       759.414          43.000    23853747.656 5  96049168.568 5       581.488          33.000
> 2020 05 13 07 47  0.0000000  0 14        .000000000000
G12  20490913.133 8 107680497.168 8      1456.184          51.000    20490912.125 8  83906862.894 8      1134.689          51.000
G15  23372301.516 6 122822271.145 6     -3569.801          36.000    23372311.734 6  95705659.739 6     -2781.663          36.000
G24  20158818.742 8 105935282.954 8      -254.742          51.000    20158820.438 8  82546995.786 8      -198.500          51.000
G25  22489019.727 6 118180611.466 6      2891.648          41.000    22489022.523 6  92088798.112 6      2253.233          41.000
R08  21855623.398 6 117035880.960 6     -3714.293          41.000    21855630.297 6  91027910.108 6     -2888.895          39.000
R10  19866456.391 7 105899361.864 7      -936.422          43.000
R11  21053650.398 5 112504330.616 5      2233.891          31.000
C21  24872972.953 7 129520160.503 7     -2574.910          46.000
C29  23110781.859 8 120343943.187 8      1818.227          48.000
C30  24161816.039 5 125816892.065 5     -1228.898          32.000
E05  25870404.977 8 135949869.260 8     -2811.031          51.000    25870408.750 8 104169384.103 8     -2153.859          48.000
E11  26619317.562 7 139885466.585 7      2960.434          42.000    26619318.227 7 107184966.434 7      2268.483          44.000
E24  22714696.930 7 119366530.808 7     -1501.719          44.000    22714711.188 7  91462712.366 7     -1150.611          43.000
E25  23849435.570 7 125329612.405 7       751.898          44.000    23849428.891 5  96031767.080 5       576.711          34.000
> 2020 05 13 07 47 30.0000000  0 14        .000000000000
G12  20482640.078 8 107637022.186 8      1444.305          51.000    20482638.883 8  83872986.300 8      1125.432          51.000
G15  23392695.859 6 122929439.978 6     -3572.465          37.000    23392704.984 6  95789167.922 6     -2783.736          37.000
G24  20160311.734 8 105943128.360 8      -266.168          51.000    20160313.422 8  82553109.080 8      -207.404          51.000
G25  22472536.484 6 118093988.862 6      2885.387          39.000    22472539.289 6  92021299.988 6      2248.353          39.000
R08  21876467.859 6 117147494.025 6     -3724.609          38.000    21876473.461 6  91114720.221 6     -2896.921          37.000
R10  19871754.195 7 105927598.354 7      -944.000          42.000
R11  21041133.633 4 112437437.426 4      2229.320          28.000
C21  24887829.953 8 129597521.188 8     -2580.520          48.000
C29  23100347.125 8 120289608.376 8      1806.168          49.000
C30  24168939.609 5 125854014.191 5     -1241.621          30.000
E05  25886469.641 8 136034285.834 8     -2814.637          51.000    25886472.648 7 104234066.880 7     -2156.730          47.000
E11  26602416.930 7 139796659.375 7      2962.000          43.000    26602419.086 7 107116919.345 7      2269.635          43.000
E24  22723279.922 7 119411634.906 7     -1503.230          44.000    22723294.836 7  91497272.674 7     -1151.871          42.000
E25  23845157.883 6 125307132.307 6       748.625          41.000    23845152.516 5  96014542.088 5       573.640          35.000
> 2020 05 13 07 48  0.0000000  0 15        .000000000000
G12  20474454.148 8 107594003.793 8      1425.680          51.000    20474452.555 8  83839465.480 8      1110.919          51.000
G15  23413126.336 6 123036793.953 6     -3582.125          38.000    23413133.328 6  95872820.425 6     -2791.263          38.000
G17  23637217.938 5 124214414.847 5     -2581.266          32.000
G24  20161889.703 8 105951421.006 8      -284.586          51.000    20161891.602 8  82559570.888 8      -221.755          51.000
G25  22456107.117 5 118007639.500 5      2872.613          30.000    22456111.703 5  91954028.064 5      2238.400          32.000
R08  21897388.484 6 117259519.244 6     -3741.715          39.000    21897393.078 5  91201850.877 5     -2910.226          33.000
R10  19877114.570 7 105956169.736 7      -958.613          42.000
R11  21028651.328 5 112370742.402 5      2217.340          34.000    21028651.359 4  87399454.814 4      1724.595          28.000
C21  24902737.945 8 129675146.273 8     -2592.461          49.000
C29  23090001.859 8 120235735.540 8      1787.445          50.000
C30  24176160.547 5 125891619.238 5     -1262.926          33.000
E05  25902574.430 8 136118914.817 8     -2825.109          51.000    25902576.844 7 104298912.389 7     -2164.712          47.000
E11  26585530.781 7 139707925.691 7      2955.633          43.000    26585533.508 6 107048928.583 6      2264.754          40.000
E24  22731892.039 7 119456890.563 7     -1511.746          44.000    22731906.531 6  91531949.057 6     -1158.399          41.000
E25  23840920.125 6 125284866.470 6       738.016          41.000    23840918.312 6  95997481.296 6       565.331          36.000
> 2020 05 13 07 48 30.0000000  0 11        .000000000000
G12  20466339.844 8 107551362.387 8      1408.457          51.000    20466338.211 8  83806238.405 8      1097.499          51.000
G15  23433576.531 6 123144251.156 6     -3589.961          38.000    23433581.648 6  95956553.352 6     -2797.369          37.000
G24  20163537.594 8 105960081.266 8      -301.293          51.000    20163539.672 8  82566319.138 8      -234.777          51.000
R08  21918370.461 6 117371871.342 6     -3757.023          40.000    21918372.789 5  91289235.686 5     -2922.135          30.000
R10  19882521.984 6 105984995.084 6      -971.691          40.000
C21  24917680.992 8 129752954.439 8     -2603.051          50.000
C29  23079730.500 8 120182247.567 8      1770.094          51.000
E05  25918703.789 8 136203674.800 8     -2834.086          50.000    25918705.656 7 104363858.284 7     -2171.581          47.000
E11  26568644.617 7 139619187.954 7      2951.676          44.000    26568646.820 6 106980934.687 6      2261.596          39.000
E24  22740517.617 7 119502217.589 7     -1518.598          45.000    22740531.188 6  91566680.149 6     -1163.783          39.000
E25  23836707.992 7 125262735.117 7       728.973          42.000    23836707.398 5  95980523.503 5       558.333          34.000
> 2020 05 13 07 49  0.0000000  0 16        .000000000000
G12  20458315.766 8 107509196.250 8      1401.062          51.000    20458314.461 8  83773381.676 8      1091.737          51.000
G15  23454064.047 6 123251906.682 6     -3588.141          40.000    23454068.516 6  96040440.799 6     -2795.954          40.000
G19  21804298.625 5 114582356.886 5     -1356.203          33.000
G24  20165274.273 8 105969207.831 8      -308.547          51.000    20165276.266 8  82573430.755 8      -240.426          51.000
G25  22423389.266 5 117835716.468 5      2858.574          34.000    22423392.922 5  91820044.912 5      2227.467          33.000
R08  21939431.711 6 117484645.177 6     -3762.613          41.000    21939432.820 5  91376948.567 5     -2926.483          31.000
R09  21936831.117 6 117141404.294 6     -2702.949          36.000    21936829.734 4  91110009.402 4     -2102.294          27.000
R10  19887995.523 6 106014172.984 6      -975.066          40.000
R11  21003818.383 5 112238023.561 5      2207.145          32.000
C21  24932676.953 8 129831040.179 8     -2604.008          48.000
C29  23069552.234 8 120129243.255 8      1762.156          51.000
C30  24190867.469 5 125968168.032 5     -1291.004          34.000
E05  25934875.992 8 136288661.895 8     -2833.238          48.000    25934877.656 7 104428978.198 7     -2170.938          47.000
E11  26551777.203 7 139530546.259 7      2956.379          44.000    26551778.664 6 106913014.425 6      2265.367          40.000
E24  22749175.227 7 119547713.497 7     -1515.879          45.000    22749187.875 6  91601540.596 6     -1161.467          38.000
E25  23832540.531 6 125240835.860 6       729.762          41.000    23832538.180 5  95963743.492 5       559.138          34.000
> 2020 05 13 07 49 30.0000000  0 14        .000000000000
G12  20450365.062 8 107467414.630 8      1383.449          51.000    20450363.680 8  83740824.572 8      1078.012          51.000
G15  23474571.359 7 123359667.335 7     -3596.695          42.000    23474575.656 7  96124410.113 7     -2802.620          42.000
G19  21812106.617 5 114623393.633 5     -1380.137          30.000
G24  20167082.531 8 105978710.398 8      -325.922          51.000    20167084.352 8  82580835.359 8      -253.965          51.000
G25  22407102.172 6 117750126.396 6      2846.516          36.000    22407104.523 6  91753351.448 6      2218.064          36.000
R08  21960552.969 6 117597743.400 6     -3777.996          40.000    21960555.836 5  91464913.764 5     -2938.441          35.000
R10  19893517.180 6 106043610.954 6      -988.633          37.000
C21  24947707.891 7 129909310.920 7     -2614.906          46.000
C29  23059449.617 8 120076634.189 8      1744.203          51.000
C30  24198357.648 5 126007175.218 5     -1310.758          34.000
E05  25951073.445 7 136373783.334 7     -2842.402          45.000    25951075.367 7 104494201.080 7     -2178.049          47.000
E11  26534910.898 7 139441911.629 7      2951.781          42.000    26534911.445 6 106845099.663 6      2261.734          39.000
E24  22757847.547 7 119593286.797 7     -1523.238          46.000    22757859.383 6  91636460.345 6     -1167.276          37.000
E25  23828400.320 7 125219077.463 7       719.785          42.000    23828398.305 5  95947071.501 5       551.581          35.000
> 2020 05 13 07 50  0.0000000  0 15        .000000000000
G12  20442481.156 8 107425985.419 8      1375.715          50.000    20442479.648 8  83708542.074 8      1071.986          50.000
G15  23495091.758 6 123467498.115 6     -3594.961          41.000    23495095.727 6  96208434.103 6     -2801.268          41.000
G17  23696622.406 5 124526591.330 5     -2621.004          32.000    23696626.188 5  97033717.991 5     -2042.347          31.000
G19  21820018.336 6 114664968.856 6     -1394.219          37.000
G24  20168956.375 8 105988557.495 8      -333.340          51.000    20168958.117 8  82588508.416 8      -259.745          51.000
G25  22390851.898 6 117664725.558 6      2844.242          38.000    22390853.391 6  91686805.412 6      2216.293          38.000
R08  21981727.781 7 117711129.483 7     -3783.719          42.000    21981731.820 6  91553102.883 6     -2942.892          37.000
R10  19899081.289 5 106073276.064 5      -992.145          34.000
C21  24962767.406 7 129987732.419 7     -2615.934          45.000
C29  23049416.875 8 120024390.404 8      1735.969          51.000
C30  24205926.477 5 126046587.972 5     -1320.379          30.000
E05  25967289.891 7 136459005.360 7     -2841.859          43.000    25967292.664 8 104559501.017 8     -2177.529          48.000
E11  26518039.766 6 139353254.297 6      2956.047          40.000    26518039.172 6 106777167.499 6      2264.933          39.000
E24  22766528.328 7 119638904.936 7     -1520.883          45.000    22766539.898 6  91671414.453 6     -1165.202          37.000
E25  23824281.414 7 125197427.689 7       720.375          42.000    23824280.562 6  95930482.727 6       552.158          37.000
> 2020 05 13 07 50 30.0000000  0 15        .000000000000
G12  20434711.320 8 107385156.590 8      1360.383          50.000    20434710.031 8  83676727.398 8      1060.039          50.000
G15  23515671.844 6 123575645.036 6     -3600.875          41.000    23515676.773 6  96292704.389 6     -2805.880          40.000
G17  23711659.859 5 124605611.617 5     -2632.848          31.000    23711664.180 4  97095292.098 4     -2051.591          29.000
G19  21828080.578 6 114707335.168 6     -1416.273          36.000
G24  20170943.062 8 105998997.013 8      -348.391          51.000    20170944.797 8  82596643.093 8      -271.473          51.000
G25  22374685.211 6 117579762.893 6      2834.316          39.000    22374684.703 6  91620600.727 6      2208.558          39.000
R08  22003002.859 6 117825051.138 6     -3796.715          41.000    22003007.000 6  91641708.574 6     -2953.003          36.000
R09  21982535.781 5 117385466.786 5     -2715.105          32.000
R10  19904734.883 5 106103420.089 5     -1003.324          31.000
C21  24977902.430 7 130066547.903 7     -2624.398          46.000
C29  23039501.953 8 119972759.487 8      1720.203          51.000
E05  25983572.391 6 136544574.188 6     -2848.719          41.000    25983576.438 8 104625066.695 8     -2182.617          48.000
E11  26501211.633 6 139264824.298 6      2953.324          41.000    26501210.391 6 106709409.455 6      2263.119          41.000
E24  22775264.719 7 119684815.572 7     -1525.719          45.000    22775276.695 6  91706592.699 6     -1168.994          38.000
E25  23820230.023 6 125176134.432 6       713.051          38.000    23820229.711 6  95914167.148 6       546.612          36.000
> 2020 05 13 07 51  0.0000000  0 12        .000000000000
G12  20427003.633 8 107344651.554 8      1342.383          51.000    20427002.508 8  83645165.024 8      1046.013          51.000
G15  23536258.469 7 123683828.119 7     -3608.934          42.000    23536264.344 6  96377002.835 6     -2812.159          37.000
G24  20172989.969 8 106009752.441 8      -366.105          51.000    20172991.641 8  82605023.940 8      -285.277          51.000
G25  22358549.258 6 117494961.929 6      2821.535          36.000    22358549.039 6  91554522.085 6      2198.602          36.000
R08  22024325.211 6 117939221.661 6     -3812.141          41.000    22024327.836 6  91730507.831 6     -2965.001          36.000
R10  19910426.477 5 106133760.861 5     -1017.277          35.000
C21  24993059.969 7 130145480.146 7     -2635.348          46.000
C29  23029651.805 8 119921468.262 8      1701.781          50.000
E05  25999867.188 6 136630210.711 6     -2857.953          37.000    25999873.219 7 104690684.280 7     -2189.818          47.000
E11  26484373.617 6 139176346.548 6      2947.582          37.000    26484374.523 7 106641614.865 7      2258.519          44.000
E24  22784004.039 7 119730740.928 7     -1533.359          46.000    22784016.375 6  91741782.247 6     -1174.834          38.000
E25  23816191.484 5 125154920.043 5       703.637          34.000    23816191.961 5  95897911.979 5       539.258          35.000
> 2020 05 13 07 51 30.0000000  0 15        .000000000000
G12  20419366.625 8 107304517.496 8      1329.258          51.000    20419365.523 8  83613891.750 8      1035.785          51.000
G15  23556860.039 6 123792091.744 6     -3612.617          39.000    23556867.336 5  96461364.078 5     -2815.023          32.000
G19  21844505.258 5 114793643.565 5     -1459.191          33.000
G24  20175105.891 8 106020870.752 8      -379.066          51.000    20175107.375 8  82613687.547 8      -295.376          51.000
G25  22342452.367 5 117410370.774 5      2813.434          31.000    22342453.734 5  91488606.889 5      2192.286          31.000
R08  22045702.867 6 118053684.553 6     -3822.684          40.000    22045702.430 5  91819534.468 5     -2973.198          35.000
R09  22013121.016 5 117548803.690 5     -2727.684          34.000    22013128.039 4  91426854.060 4     -2121.526          29.000
R10  19916164.633 6 106164346.328 6     -1026.246          36.000
C21  25008248.844 7 130224573.418 7     -2641.461          46.000
C29  23019876.227 8 119870565.294 8      1687.848          51.000
C30  24229234.531 5 126167920.744 5     -1371.578          32.000
E05                                                                  26016191.352 7 104756388.577 7     -2193.320          47.000
E11  26467535.453 5 139087870.259 5      2947.035          34.000    26467540.055 7 106573821.441 7      2258.019          46.000
E24  22792754.906 7 119776727.730 7     -1536.246          45.000    22792768.227 6  91777018.874 6     -1177.016          38.000
E25  23812172.336 5 125133810.638 5       698.609          32.000    23812177.445 5  95881753.308 5       535.217          35.000
> 2020 05 13 07 52  0.0000000  0 11        .000000000000
G12  20411817.164 8 107264844.667 8      1313.262          51.000    20411815.672 8  83582977.858 8      1023.318          51.000
G15  23577493.859 6 123900523.453 6     -3618.664          39.000    23577504.406 5  96545936.336 5     -2819.744          34.000
G24  20177308.125 8 106032442.912 8      -394.781          51.000    20177309.586 8  82622704.805 8      -307.622          51.000
R08  22067153.320 6 118168527.197 6     -3835.957          37.000    22067148.414 5  91908856.415 5     -2983.525          35.000
R10  19921965.711 6 106195268.022 6     -1037.773          38.000
C21  25023485.211 7 130303914.492 7     -2650.344          45.000
C29  23010192.453 8 119820141.500 8      1671.367          50.000
E05                                                                  26032547.289 7 104822247.240 7     -2199.136          45.000
E11                                                                  26450723.031 7 106506099.898 7      2254.852          44.000
E24  22801534.688 7 119822865.674 7     -1542.043          45.000    22801548.391 6  91812371.289 6     -1181.449          38.000
E25  23808202.461 6 125112943.123 6       690.566          36.000    23808203.773 5  95865760.043 5       529.273          34.000
> 2020 05 13 07 52 30.0000000  0 13        .000000000000
G12  20404303.773 8 107225360.414 8      1298.297          51.000    20404301.711 8  83552210.891 8      1011.660          51.000
G15  23598107.445 6 124008848.142 6     -3623.773          37.000
G17  23772316.625 5 124924361.418 5     -2684.234          35.000    23772326.742 5  97343704.842 5     -2091.626          34.000
G24  20179544.711 8 106044196.053 8      -409.488          51.000    20179546.266 8  82631863.078 8      -319.085          51.000
R08  22088622.820 5 118283467.258 5     -3847.824          34.000    22088612.266 5  91998254.109 5     -2992.758          32.000
R10  19927777.695 6 106226247.959 6     -1048.203          41.000
C21  25038716.258 7 130383230.618 7     -2657.945          44.000
C29  23000548.969 8 119769928.293 8      1655.688          50.000
C30  24245159.469 5 126250913.586 5     -1405.070          30.000
E05  26048887.523 5 136887871.363 5     -2876.145          33.000    26048888.211 7 104888049.887 7     -2203.688          43.000
E11  26433861.312 5 138910878.702 5      2940.566          33.000    26433871.125 7 106438242.810 7      2252.967          44.000
E24  22810291.266 7 119868881.508 7     -1546.523          45.000    22810304.312 6  91847630.149 6     -1184.834          37.000
E25  23804221.711 6 125092013.353 6       684.113          36.000    23804219.719 5  95849722.980 5       524.161          35.000
> 2020 05 13 07 53  0.0000000  0 14        .000000000000
G12  20396940.289 8 107186663.657 8      1287.172          51.000    20396938.305 8  83522057.596 8      1002.994          51.000
G15  23618814.320 5 124117661.916 5     -3625.105          35.000
G17  23787673.055 5 125005072.632 5     -2691.363          35.000    23787689.531 4  97406596.758 4     -2097.160          28.000
G24  20181929.922 8 106056730.342 8      -420.375          51.000    20181931.461 8  82641630.042 8      -327.565          51.000
R08  22110223.398 5 118399110.130 5     -3856.535          32.000    22110206.219 4  92088228.881 4     -2999.536          27.000
R09  22059184.469 5 117794847.969 5     -2741.180          31.000    22059190.961 5  91618214.795 5     -2132.026          34.000
R10  19933714.953 7 106257893.745 7     -1055.535          43.000
C21  25054056.141 7 130463112.759 7     -2661.902          44.000
C29  22991060.992 8 119720520.860 8      1643.812          51.000
C30  24253303.047 5 126293342.442 5     -1418.031          31.000
E05  26065322.844 5 136974201.678 5     -2878.457          35.000    26065327.156 6 104954254.115 6     -2205.346          39.000
E11  26417091.266 6 138822743.808 6      2940.934          39.000    26417099.547 7 106370710.846 7      2253.535          44.000
E24  22819138.555 7 119915373.802 7     -1547.398          46.000    22819150.758 6  91883254.105 6     -1185.564          36.000
E25                                                                  23800340.789 6  95834100.840 6       521.880          37.000
> 2020 05 13 07 53 30.0000000  0 14        .000000000000
G12  20389632.805 8 107148262.806 8      1271.574          50.000    20389631.344 8  83492134.879 8       990.837          50.000
G15  23639520.266 5 124226516.958 5     -3631.176          32.000
G17  23803069.250 5 125085973.223 5     -2703.477          32.000    23803088.469 5  97469665.635 5     -2106.614          31.000
G19  21878756.898 5 114973625.817 5     -1541.188          34.000
G24  20184370.070 8 106069553.506 8      -435.734          51.000    20184371.602 8  82651622.102 8      -339.533          51.000
G25  22278574.625 5 117074697.144 5      2777.289          35.000    22278575.133 5  91227030.310 5      2164.121          35.000
R09  22074600.039 5 117877166.473 5     -2747.754          31.000    22074606.406 5  91682240.339 5     -2137.139          34.000
R10  19939683.352 7 106289706.619 7     -1066.754          44.000
C21  25069411.297 7 130543071.235 7     -2669.859          45.000
C29  22981634.867 8 119671433.644 8      1627.441          51.000
E05  26081771.305 6 137060634.503 6     -2885.125          36.000    26081770.656 6 105020481.762 6     -2210.414          37.000
E11  26400308.797 6 138734543.526 6      2937.668          41.000    26400314.992 6 106303128.844 6      2251.147          41.000
E24  22827982.797 7 119961850.403 7     -1552.508          45.000    22827995.773 6  91918866.035 6     -1189.557          36.000
E25  23796471.656 5 125051299.414 5       673.961          33.000    23796471.734 6  95818516.707 6       516.370          38.000
> 2020 05 13 07 54  0.0000000  0 12        .000000000000
G12  20382407.031 8 107110292.594 8      1260.566          50.000    20382405.680 8  83462547.693 8       982.260          50.000
G17  23818531.469 5 125167229.286 5     -2710.797          34.000
G24  20186890.969 8 106082801.224 8      -446.449          51.000    20186892.516 8  82661944.982 8      -347.883          51.000
G25  22262738.305 6 116991475.290 6      2771.664          40.000    22262740.961 6  91162182.164 6      2159.741          39.000
R10  19945708.180 7 106321822.226 7     -1073.211          43.000
R11  20881902.383 5 111586565.690 5      2137.508          34.000    20881891.023 4  86789513.268 4      1662.500          26.000
C21  25084806.578 7 130623236.725 7     -2673.426          46.000
C29  22972295.766 8 119622801.457 8      1615.707          51.000
E05  26098252.422 6 137147230.562 6     -2886.773          36.000    26098246.828 6 105086834.494 6     -2212.078          36.000
E11  26383539.656 7 138646414.518 7      2938.453          43.000    26383542.180 6 106235601.432 6      2251.659          39.000
E24  22836849.445 7 120008445.335 7     -1553.023          45.000    22836864.312 5  91954568.607 5     -1189.919          35.000
E25  23792636.016 5 125031145.781 5       671.215          32.000    23792638.219 6  95803073.513 6       513.987          40.000
> 2020 05 13 07 54 30.0000000  0 13        .000000000000
G12  20375257.734 8 107072724.417 8      1244.742          50.000    20375256.328 8  83433273.789 8       969.929          50.000
G17  23834049.609 6 125248774.789 6     -2724.121          36.000
G24  20189487.227 8 106096444.869 8      -462.109          51.000    20189488.562 8  82672576.377 8      -360.088          51.000
G25  22246947.969 6 116908498.947 6      2760.801          40.000    22246952.094 6  91097525.333 6      2151.276          40.000
R08  22175273.305 5 118747539.418 5     -3888.098          34.000    22175281.469 5  92359233.781 5     -3024.079          31.000
R10  19951784.180 7 106354211.959 7     -1084.953          43.000
C21  25100235.984 7 130703578.575 7     -2681.836          47.000
C29  22963039.016 8 119574597.796 8      1598.820          51.000
C30  24278217.234 5 126423030.945 5     -1465.219          30.000
E05  26114757.953 5 137233959.619 5     -2894.262          34.000    26114751.875 6 105153289.141 6     -2217.549          37.000
E11  26366779.312 7 138558330.494 7      2934.629          44.000    26366779.133 6 106168108.484 6      2248.630          41.000
E24  22845733.086 7 120055129.666 7     -1558.465          44.000    22845750.828 5  91990339.689 5     -1194.190          33.000
E25                                                                  23788834.258 6  95787749.238 6       508.118          41.000
> 2020 05 13 07 55  0.0000000  0 13        .000000000000
G12  20368180.516 8 107035534.398 8      1232.871          50.000    20368179.344 8  83404294.571 8       960.679          50.000
G15  23701768.586 5 124553617.621 5     -3639.023          30.000    23701766.516 5  97054765.744 5     -2835.591          30.000
G17  23849620.273 6 125330595.497 6     -2732.574          37.000    23849621.664 5  97660209.783 5     -2129.279          34.000
G24  20192154.180 8 106110460.290 8      -473.801          51.000    20192155.414 8  82683497.471 8      -369.195          51.000
G25  22231200.055 6 116825744.796 6      2754.523          38.000    22231203.570 6  91033041.685 6      2146.385          38.000
R08  22197078.078 6 118864273.720 6     -3896.059          37.000    22197084.477 5  92450027.137 5     -3030.268          33.000
R10  19957906.953 7 106386850.528 7     -1092.434          44.000
C21  25115694.031 7 130784070.263 7     -2685.984          47.000
C29  22953859.898 8 119526800.230 8      1586.020          51.000
E05                                                                  26131279.914 6 105219825.765 6     -2219.306          39.000
E11  26350022.383 7 138470269.363 7      2934.406          42.000    26350022.492 7 106100633.131 7      2248.411          42.000
E24  22854629.148 7 120101878.795 7     -1559.809          43.000
E25                                                                  23785054.000 6  95772525.229 6       505.358          39.000
> 2020 05 13 07 55 30.0000000  0 14        .000000000000
G12  20361221.641 8 106998965.653 8      1208.512          51.000    20361220.625 8  83375799.447 8       941.697          51.000
G15  23722587.258 5 124663028.576 5     -3652.086          34.000    23722589.406 5  97140021.013 5     -2845.781          34.000
G17  23865289.008 6 125412932.072 6     -2753.102          36.000    23865291.633 6  97724368.094 6     -2145.280          36.000
G24  20194938.352 8 106125091.687 8      -498.020          51.000    20194939.727 8  82694898.547 8      -388.067          51.000
G25  22215541.773 5 116743457.166 5      2735.242          35.000    22215542.695 5  90968921.497 5      2131.364          34.000
R08  22218975.234 5 118981518.762 5     -3916.656          34.000    22218982.211 5  92541217.750 5     -3046.285          33.000
R09  22136540.656 5 118207890.523 5     -2773.059          33.000    22136536.797 4  91939454.053 4     -2156.823          26.000
R10  19964123.062 7 106419985.002 7     -1112.758          46.000
C21  25131226.469 7 130864950.366 7     -2702.543          47.000
C29  22944805.578 8 119479651.509 8      1560.684          51.000
E05  26147877.102 5 137408014.196 5     -2911.824          32.000    26147874.289 6 105286629.522 6     -2231.357          41.000
E11  26333316.367 7 138382476.585 7      2922.066          44.000    26333316.844 7 106033363.366 7      2238.863          43.000
E24  22863583.742 7 120148935.647 7     -1573.789          43.000
E25                                                                  23781341.945 6  95757587.711 6       492.817          36.000
> 2020 05 13 07 56  0.0000000  0 14        .000000000000
G12  20354281.156 8 106962492.653 8      1210.316          51.000    20354279.664 8  83347378.918 8       943.104          51.000
G15  23743366.867 5 124772221.305 5     -3640.113          34.000    23743370.422 5  97225106.209 5     -2836.455          35.000
G17  23880955.734 6 125495256.426 6     -2747.781          37.000    23880957.055 6  97788516.902 6     -2141.128          37.000
G24  20197739.766 8 106139813.628 8      -496.234          51.000    20197741.492 8  82706370.165 8      -386.676          51.000
G25  22199872.500 5 116661111.050 5      2741.938          32.000    22199871.992 5  90904755.691 5      2136.575          30.000
R08  22240865.461 5 119098734.357 5     -3910.949          31.000    22240873.555 5  92632385.483 5     -3041.843          30.000
R09  22152059.875 5 118290757.396 5     -2761.488          34.000    22152056.156 4  92003910.511 4     -2147.824          25.000
R10  19970332.055 7 106453081.068 7     -1106.453          47.000
C21  25146732.992 7 130945695.377 7     -2693.254          47.000
C29  22935775.914 8 119432632.190 8      1561.281          51.000
C30  24303901.539 5 126556785.188 5     -1502.324          32.000
E05                                                                  26164433.539 7 105353296.109 7     -2223.021          42.000
E11  26316561.758 7 138294428.609 7      2935.066          44.000    26316562.375 7 105965898.022 7      2249.001          45.000
E24  22872496.578 7 120195774.053 7     -1561.582          44.000
> 2020 05 13 07 56 30.0000000  0 15        .000000000000
G12  20347442.516 8 106926532.073 8      1187.012          51.000
G15  23764187.539 5 124881630.281 5     -3653.219          32.000    23764189.469 5  97310359.929 5     -2846.667          30.000
G17  23896702.898 6 125578003.077 6     -2767.324          37.000    23896702.328 6  97852994.739 6     -2156.360          37.000
G24  20200641.719 8 106155063.286 8      -519.152          51.000    20200643.547 8  82718253.000 8      -404.534          51.000
R08  22262838.594 4 119216487.656 4     -3929.430          29.000    22262847.531 4  92723961.627 4     -3056.220          27.000
R09  22167610.312 5 118373827.214 5     -2775.918          31.000
R10  19976617.062 7 106486582.525 7     -1125.555          46.000
R11  20822392.820 5 111268594.160 5      2098.957          30.000    20822394.641 4  86542215.381 4      1632.522          25.000
C21  25162296.578 8 131026736.053 8     -2708.340          48.000
C29  22926854.789 8 119386177.109 8      1537.012          51.000
C30  24312628.344 5 126602241.904 5     -1526.191          32.000
E05                                                                  26181040.195 7 105420159.113 7     -2233.736          42.000
E11  26299841.891 7 138206564.608 7      2923.887          43.000    26299843.477 7 105898573.729 7      2240.306          47.000
E24  22881451.180 7 120242830.768 7     -1574.070          42.000
E25  23773919.016 5 124932792.647 5       638.465          34.000    23773919.633 6  95727715.025 6       489.276          37.000
> 2020 05 13 07 57  0.0000000  0 12        .000000000000
G12  20340758.773 8 106891409.949 8      1162.039          51.000    20340757.312 8  83291997.149 8       905.485          51.000
G17  23912586.594 5 125661476.052 5     -2788.480          34.000
G24  20203698.555 8 106171126.488 8      -543.977          51.000    20203700.195 8  82730769.772 8      -423.878          51.000
G25  22168799.703 5 116497838.666 5      2704.094          35.000    22168807.133 6  90777539.238 6      2107.089          36.000
R08  22284934.828 5 119334812.982 5     -3950.723          35.000    22284942.609 5  92815992.570 5     -3072.781          31.000
R10  19983032.180 7 106520778.262 7     -1146.316          47.000
C21  25177971.289 8 131108352.772 8     -2725.176          49.000
C29  22918096.688 8 119340570.638 8      1511.012          51.000
E05                                                                  26197748.180 7 105487435.895 7     -2245.505          42.000
E11  26283212.125 7 138119172.386 7      2910.031          43.000    26283214.031 7 105831610.861 7      2229.851          46.000
E24  22890501.914 7 120290390.910 7     -1588.629          43.000
E25                                                                  23770345.805 6  95713316.307 6       476.810          37.000
> 2020 05 13 07 57 30.0000000  0 11        .000000000000
G12  20334082.031 8 106856324.674 8      1164.277          50.000    20334080.883 8  83264657.972 8       907.229          50.000
G24  20206761.297 8 106187220.562 8      -541.652          51.000    20206762.531 8  82743310.600 8      -422.067          51.000
G25  22153308.750 6 116416422.373 6      2710.996          38.000    22153312.203 6  90714097.941 6      2112.464          39.000
R08  22307010.844 6 119453034.798 6     -3943.855          36.000    22307016.266 5  92907942.878 5     -3067.443          35.000
R10  19989428.617 7 106554874.597 7     -1139.703          46.000
C21  25193607.594 8 131189768.121 8     -2715.094          49.000
C29  22909352.969 8 119295039.424 8      1511.746          51.000
E05  26214412.172 6 137757666.446 6     -2918.930          36.000    26214409.234 7 105554525.888 7     -2236.774          42.000
E11  26266522.688 6 138031471.969 6      2923.641          40.000    26266525.445 7 105764411.820 7      2240.357          47.000
E24  22899499.203 7 120337671.978 7     -1576.062          44.000
E25  23766724.438 6 124894974.405 6       632.250          36.000    23766728.695 6  95698755.161 6       484.652          36.000
> 2020 05 13 07 58  0.0000000  0 13        .000000000000
G12  20327480.719 8 106821634.637 8      1159.145          51.000    20327479.461 8  83237626.771 8       903.230          51.000
G24  20209898.438 8 106203705.591 8      -546.633          51.000    20209899.266 8  82756156.062 8      -425.948          51.000
G25  22137863.070 6 116335250.427 6      2710.781          38.000    22137863.016 6  90650847.101 6      2112.294          39.000
R08  22329136.641 6 119571514.533 6     -3944.070          37.000    22329139.281 5  93000093.740 5     -3067.613          35.000
R09  22214507.750 5 118624198.943 5     -2774.258          31.000
R10  19995874.680 7 106589236.479 7     -1140.273          45.000
C21  25209272.938 8 131271335.222 8     -2712.070          48.000
C29  22900692.109 8 119249940.636 8      1505.422          51.000
C30  24339412.539 5 126741694.756 5     -1557.621          31.000
E05  26231093.672 6 137845337.961 6     -2914.715          38.000    26231091.961 7 105621702.739 7     -2233.389          42.000
E11  26249843.359 6 137943824.461 6      2930.059          39.000    26249847.469 8 105697253.372 8      2244.987          48.000
E24  22908511.430 7 120385032.559 7     -1570.508          42.000    22908529.648 6  92243134.988 6     -1203.625          36.000
E25  23763139.469 6 124876117.590 6       635.461          41.000    23763137.641 5  95684306.397 5       486.909          35.000
> 2020 05 13 07 58 30.0000000  0 13        .000000000000
G12  20320957.242 8 106787353.165 8      1131.074          51.000    20320956.000 8  83210913.945 8       881.360          51.000
G24  20213112.508 8 106220595.093 8      -574.582          51.000    20213113.172 8  82769316.707 8      -447.726          51.000
G25  22122465.055 6 116254336.890 6      2687.848          37.000    22122461.141 6  90587797.591 6      2094.430          36.000
R08  22351312.242 6 119690261.007 6     -3967.801          36.000    22351313.719 5  93092452.064 5     -3086.067          34.000
R10  20002372.633 7 106623876.012 7     -1164.188          45.000
R11  20775556.406 5 111018279.915 5      2071.043          31.000
C21  25224968.773 8 131353064.644 8     -2731.910          48.000
C29  22892117.109 8 119205288.938 8      1476.090          51.000
C30  24348486.242 5 126788934.207 5     -1586.188          33.000
E05  26247798.133 6 137933134.231 6     -2933.441          37.000    26247798.922 7 105688975.217 7     -2247.828          42.000
E11  26233175.430 5 137856245.292 5      2913.305          35.000    26233182.141 7 105630147.250 7      2232.344          46.000
E24  22917541.555 7 120432485.506 7     -1588.270          42.000    22917559.805 6  92279495.007 6     -1217.037          36.000
E25  23759582.867 6 124857420.520 6       615.777          40.000    23759579.469 6  95669980.043 6       471.554          38.000
> 2020 05 13 07 59  0.0000000  0 13        .000000000000
G12  20314554.898 8 106753708.357 8      1122.238          51.000    20314554.031 8  83184697.221 8       874.474          51.000
G15  23868670.070 5 125430701.385 5     -3663.941          32.000    23868679.102 5  97738255.996 5     -2855.031          31.000
G24  20216446.898 8 106238116.849 8      -583.316          51.000    20216447.469 8  82782970.017 8      -454.532          51.000
G25  22107160.141 6 116173910.364 6      2684.152          38.000    22107155.461 6  90525127.600 6      2091.550          38.000
R08  22373580.109 5 119809501.930 5     -3971.355          34.000    22373579.867 5  93185194.894 5     -3088.838          30.000
R10  20008966.086 7 106659024.326 7     -1168.695          44.000
C21  25240737.711 8 131435179.539 8     -2732.277          48.000
C29  22883671.500 8 119161311.519 8      1465.879          51.000
C30  24357688.703 4 126836835.443 4     -1596.109          29.000
E05  26264570.039 6 138021281.244 6     -2932.691          38.000    26264573.414 7 105756516.451 7     -2247.064          43.000
E11  26216563.828 5 137768973.417 5      2915.789          35.000    26216572.375 7 105563269.648 7      2234.101          45.000
E24  22926632.414 7 120480258.195 7     -1586.453          42.000    22926652.289 6  92316100.056 6     -1215.211          36.000
E25  23756096.281 6 124839110.737 6       615.234          37.000    23756097.000 6  95655950.481 6       471.392          40.000
> 2020 05 13 07 59 30.0000000  0 13        .000000000000
G12  20308213.172 8 106720381.866 8      1107.945          51.000    20308212.453 8  83158728.541 8       863.334          51.000
G15  23889615.750 5 125540771.320 5     -3666.895          33.000    23889615.391 5  97824024.803 5     -2857.323          32.000
G24  20219841.195 8 106255953.545 8      -597.387          51.000    20219841.523 8  82796868.722 8      -465.496          51.000
G25  22091888.188 6 116093653.617 6      2674.691          39.000    22091884.961 6  90462589.901 6      2084.178          39.000
R08  22395877.336 4 119928908.993 4     -3980.391          28.000    22395879.594 4  93278066.881 4     -3095.868          27.000
R10  20015594.680 7 106694358.539 7     -1178.320          45.000
R11  20752392.852 4 110894535.341 4      2061.582          29.000
C21  25256518.258 7 131517362.319 7     -2738.199          47.000
C29  22875295.117 8 119117694.727 8      1450.215          51.000
E05  26281349.211 6 138109459.169 6     -2937.289          39.000    26281354.523 7 105824081.358 7     -2250.602          43.000
E11  26199952.172 6 137681672.999 6      2912.723          38.000    26199958.430 7 105496374.599 7      2231.868          45.000
E24  22935723.273 6 120528032.186 6     -1590.020          41.000    22935744.016 5  92352706.112 5     -1218.354          35.000
E25  23752624.203 6 124820870.094 6       609.293          39.000    23752627.648 7  95641973.902 7       466.840          42.000
