     3.02           OBSERVATION DATA    M (MIXED)           RINEX VERSION / TYPE
SAVERINEX           SC600               20200510 155930 LCL PGM / RUN BY / DATE
       G = GPS       R = GLONASS       C = COMPASS          COMMENT
       S = SBAS      J = QZSS          E = GALILEO          COMMENT
BEAN                                                        MARKER NAME
1                                                           MARKER NUMBER
GEODETIC                                                    MARKER TYPE
Unige DICCA         GTER                                    OBSERVER / AGENCY
SC60291900056       SC600               2.12(191226)        REC # / TYPE / VERS
                    HEMA45          NONE                    ANT # / TYPE
  4509407.8091   693652.4678  4442337.6214                  APPROX POSITION XYZ
        0.0000        0.0000        0.0000                  ANTENNA: DELTA H/E/N
G    8 C1C L1C D1C S1C C2Y L2Y D2Y S2Y                      SYS / # / OBS TYPES
R    8 C1C L1C D1C S1C C2P L2P D2P S2P                      SYS / # / OBS TYPES
C    8 C1I L1I D1I S1I C7I L7I D7I S7I                      SYS / # / OBS TYPES
E    8 C1C L1C D1C S1C C7Q L7Q D7Q S7Q                      SYS / # / OBS TYPES
DBHZ                                                        COMMENT
     30.000                                                 INTERVAL
  2020    05    10    13    00    0.0000000     GPS         TIME OF FIRST OBS
  2020    05    10    13    59   30.0000000     GPS         TIME OF LAST OBS
     0                                                      RCV CLOCK OFFS APPL
G L1C  0.00000                                              SYS / PHASE SHIFT
G L2Y  0.00000                                              SYS / PHASE SHIFT
R L1C  0.00000                                              SYS / PHASE SHIFT
R L2P  0.25000                                              SYS / PHASE SHIFT
C L1I  0.00000                                              SYS / PHASE SHIFT
C L7I  0.00000                                              SYS / PHASE SHIFT
E L1C  0.50000                                              SYS / PHASE SHIFT
E L7Q -0.25000                                              SYS / PHASE SHIFT
 13 R04  6 R05  1 R06 -4 R07  5 R09 -2 R10 -7 R11  0 R15  0 GLONASS SLOT / FRQ #
    R16 -1 R18 -3 R19  3 R20  2 R21  4                      GLONASS SLOT / FRQ #
 C1C   71.950 C2C   71.950 C2P   71.950                     GLONASS COD/PHS/BIS
    18                                                      LEAP SECONDS
*** Above antenna height is from mark to ANTENNA BOTTOM.    COMMENT
    17     4        0.0000        ANT MEASURE TYPE/HEIGT    COMMENT
    0.0000    0.0000    0.0458    0.0405    0.0000          COMMENT
                    BASE STATION                            COMMENT
                                                            END OF HEADER
> 2020 05 10 13 00  0.0000000  0 15        .000000000000
G18  20544118.062 8 107960067.311 8      1212.488          49.000    20544119.188 8  84124808.402 8       944.796          49.000
G21  20777646.930 8 109187335.422 8       812.062          51.000    20777645.984 8  85081025.511 8       632.776          50.000
G25  23476806.102 7 123371446.718 7     -3259.508          43.000    23476808.562 7  96133600.849 7     -2539.876          43.000
G31  21795341.742 8 114535289.648 8     -2013.004          51.000    21795341.477 8  89248260.361 8     -1568.574          51.000
R09  20052153.883 8 107077393.870 8     -2751.598          51.000    20052154.320 8  83282438.391 8     -2140.132          48.000
R10  19298762.094 8 102873281.333 8       363.957          49.000
R20  19371639.812 6 103588891.828 6        60.500          38.000    19371643.492 7  80569152.564 7        47.056          45.000
R21  22313579.000 8 119404481.018 8      3389.719          48.000    22313580.414 7  92870144.902 7      2636.451          42.000
C05  39624763.859 5 206336543.548 5        16.434          35.000    39624765.445 6 159552511.240 6        12.430          38.000
C27  21806946.578 8 113554484.459 8      1036.551          51.000
C28  22407851.117 8 116683600.036 8     -1797.449          51.000
C30  25520986.508 7 132894478.277 7      2814.258          42.000
E11  23392942.195 8 122930730.689 8     -1608.535          51.000    23392941.078 8  94193666.965 8     -1232.487          49.000
E25  24226506.312 8 127311139.229 8     -1704.098          51.000    24226510.766 8  97550136.815 8     -1305.758          51.000
E36  23398575.656 8 122960361.389 8      1132.770          51.000    23398579.156 8  94216392.597 8       867.924          51.000
> 2020 05 10 13 00 30.0000000  0 15        .000000000000
G18  20537246.703 8 107923958.730 8      1194.285          50.000    20537247.820 8  84096671.834 8       930.612          50.000
G21  20773056.820 8 109163214.027 8       795.613          51.000    20773055.594 8  85062229.625 8       619.958          50.000
G25  23495429.906 7 123469314.861 7     -3265.430          43.000    23495431.414 7  96209861.670 7     -2544.491          43.000
G31  21806875.805 8 114595901.956 8     -2028.164          51.000    21806875.930 8  89295490.738 8     -1580.388          51.000
R09  20067666.188 8 107160230.093 8     -2771.320          50.000    20067667.969 8  83346866.547 8     -2155.471          50.000
R10  19296782.930 8 102862731.907 8       339.043          49.000
R20  19371354.570 6 103587366.003 6        40.996          37.000    19371358.227 7  80567965.803 7        31.886          45.000
R21  22294602.367 8 119302933.348 8      3379.742          48.000    22294602.836 6  92791163.458 6      2628.688          41.000
C05  39624669.898 5 206336054.228 5        16.164          35.000    39624671.547 6 159552132.861 6        12.478          38.000
C27  21801003.680 8 113523540.310 8      1026.094          51.000
C28  22418225.750 8 116737623.047 8     -1804.480          51.000
C30  25504783.789 7 132810103.911 7      2810.273          42.000
E11  23402147.867 8 122979106.845 8     -1616.797          51.000    23402146.727 8  94230734.414 8     -1238.874          49.000
E25  24236261.555 8 127362401.848 8     -1713.805          51.000    24236265.789 8  97589415.969 8     -1313.217          51.000
E36  23392139.484 8 122926538.313 8      1121.770          51.000    23392142.555 8  94190476.224 8       859.544          51.000
> 2020 05 10 13 01  0.0000000  0 17        .000000000000
G18  20530479.977 8 107888399.568 8      1176.262          51.000    20530481.273 8  84068963.387 8       916.568          51.000
G21  20768560.641 8 109139586.151 8       779.484          51.000    20768559.203 8  85043818.326 8       607.390          50.000
G25  23514086.625 7 123567355.851 7     -3270.809          42.000    23514087.703 7  96286257.167 7     -2548.685          42.000
G26  20959295.867 5 110141833.051 5      1839.516          31.000
G29  21499286.508 6 112979559.055 6     -2128.207          37.000    21499284.930 6  88035982.097 6     -1658.343          37.000
G31  21818495.695 8 114656964.968 8     -2042.781          51.000    21818495.578 8  89343072.316 8     -1591.778          51.000
R09  20083288.516 8 107243654.673 8     -2790.508          51.000    20083291.273 8  83411752.294 8     -2170.398          50.000
R10  19294944.281 8 102852931.046 8       314.336          49.000
R20  19371177.594 6 103586422.019 6        21.734          37.000    19371181.898 7  80567231.604 7        16.905          46.000
R21  22275681.930 8 119201688.102 8      3369.914          49.000    22275682.703 7  92712417.208 7      2621.047          43.000
C05  39624574.617 5 206335558.336 5        17.035          35.000    39624576.359 6 159551749.405 6        12.895          38.000
C27  21795121.594 8 113492910.643 8      1015.871          51.000
C28  22428640.711 8 116791857.079 8     -1811.188          51.000
C30  25488602.750 6 132725844.946 6      2806.719          41.000
E11  23411401.438 8 123027734.400 8     -1625.238          51.000    23411400.242 8  94267994.483 8     -1245.309          49.000
E25  24246072.812 8 127413959.645 8     -1723.527          51.000    24246076.836 8  97628921.281 8     -1320.667          51.000
E36  23385766.023 8 122893046.176 8      1110.980          51.000    23385768.930 8  94164813.449 8       851.208          51.000
> 2020 05 10 13 01 30.0000000  0 16        .000000000000
G18  20523825.375 8 107853429.552 8      1156.645          51.000    20523826.719 8  84041714.030 8       901.281          51.000
G21  20764165.625 8 109116490.529 8       761.805          51.000    20764164.234 8  85025821.746 8       593.614          50.000
G25  23532783.203 6 123665607.525 6     -3277.559          41.000    23532784.523 6  96362816.853 6     -2553.945          39.000
G29  21511463.016 6 113043548.105 6     -2136.035          36.000    21511461.688 6  88085843.665 6     -1664.443          36.000
G31  21830208.578 8 114718515.725 8     -2059.004          51.000    21830207.922 8  89391033.937 8     -1604.419          51.000
R09  20099028.484 8 107327704.891 8     -2811.273          51.000    20099031.391 8  83477124.674 8     -2186.546          50.000
R10  19293253.531 8 102843919.586 8       288.004          49.000
R20  19371117.070 6 103586097.835 6         1.855          36.000    19371121.398 7  80566979.446 7         1.443          45.000
R21  22256825.820 8 119100786.427 8      3358.414          49.000    22256828.391 7  92633938.191 7      2612.103          45.000
C05  39624485.562 6 206335093.562 6        15.855          36.000    39624487.242 6 159551390.813 6        12.167          37.000
C27  21789307.344 8 113462633.924 8      1004.188          51.000
C28  22439103.258 8 116846339.456 8     -1819.363          51.000
C30  25472450.945 6 132641740.589 6      2801.406          41.000
E11  23420710.000 8 123076650.898 8     -1634.594          51.000    23420708.844 8  94305475.948 8     -1252.403          49.000
E25  24255947.422 8 127465851.183 8     -1734.410          51.000    24255950.844 8  97668682.323 8     -1328.943          51.000
E36  23379463.203 8 122859924.026 8      1098.707          51.000    23379465.859 8  94139434.153 8       841.845          51.000
> 2020 05 10 13 02  0.0000000  0 16        .000000000000
G18  20517275.414 8 107819009.049 8      1138.242          51.000    20517276.531 8  84014892.875 8       886.942          51.000
G21  20759864.203 8 109093886.882 8       745.438          51.000    20759862.891 8  85008208.510 8       580.860          49.000
G25  23551511.906 6 123764028.350 6     -3283.754          41.000    23551513.633 7  96439508.335 7     -2558.772          42.000
G29  21523676.789 6 113107738.004 6     -2142.867          39.000    21523675.484 6  88135861.742 6     -1669.767          39.000
G31  21842006.242 8 114780511.416 8     -2073.812          51.000    21842005.023 8  89439342.264 8     -1615.958          51.000
R09  20114877.719 8 107412337.174 8     -2830.609          51.000    20114880.234 8  83542949.763 8     -2201.585          49.000
R10  19291703.555 8 102835658.198 8       262.957          48.000
R20  19371164.305 6 103586350.870 6       -18.000          37.000    19371168.688 7  80567176.282 7       -14.000          45.000
R21  22238026.500 8 119000188.700 8      3348.332          49.000    22238031.211 7  92555695.559 7      2604.258          44.000
C05  39624395.023 5 206334622.971 5        16.367          35.000    39624396.648 6 159551026.140 6        12.418          38.000
C27  21783553.219 8 113432669.975 8       993.730          51.000
C28  22449605.805 8 116901028.862 8     -1826.281          51.000
C30  25456321.180 6 132557751.362 6      2797.621          40.000
E11  23430065.539 8 123125814.505 8     -1642.621          51.000    23430064.531 8  94343146.756 8     -1258.614          49.000
E25  24265877.891 8 127518035.751 8     -1744.383          51.000    24265880.664 8  97708667.880 8     -1336.506          51.000
E36  23373223.039 8 122827131.476 8      1087.688          51.000    23373225.586 8  94114307.396 8       833.420          51.000
> 2020 05 10 13 02 30.0000000  0 16        .000000000000
G18  20510831.836 8 107785146.571 8      1119.531          51.000    20510832.453 8  83988506.548 8       872.362          50.000
G21  20755657.680 8 109071782.783 8       728.672          51.000    20755656.672 8  84990984.552 8       567.799          50.000
G25  23570274.258 7 123862624.899 7     -3289.562          42.000    23570276.547 7  96516336.746 7     -2563.298          42.000
G29  21535930.633 5 113172135.482 5     -2150.230          34.000    21535929.898 5  88186041.617 5     -1675.507          34.000
G31  21853889.609 8 114842957.908 8     -2088.910          51.000    21853887.914 8  89488001.872 8     -1627.722          51.000
R09  20130836.852 8 107497557.054 8     -2850.328          51.000    20130838.969 8  83609231.872 8     -2216.922          49.000
R10  19290295.883 8 102828155.858 8       237.496          49.000
R20  19371321.078 6 103587187.610 6       -37.539          36.000    19371325.062 7  80567827.086 7       -29.197          44.000
R21  22219285.188 8 118899904.251 8      3337.727          48.000    22219291.695 7  92477696.549 7      2596.010          43.000
C05  39624304.281 5 206334150.280 5        15.957          35.000    39624305.992 6 159550661.388 6        12.466          38.000
C27  21777860.781 8 113403026.330 8       982.887          51.000
C28  22460149.500 8 116955931.725 8     -1833.523          51.000
C30  25440215.773 6 132473885.622 6      2793.387          40.000
E11  23439469.312 8 123175231.686 8     -1651.391          51.000    23439468.203 8  94381011.871 8     -1265.399          49.000
E25  24275865.469 8 127570520.767 8     -1754.316          51.000    24275868.086 8  97748883.635 8     -1344.234          51.000
E36  23367046.891 8 122794676.312 8      1076.363          51.000    23367049.617 8  94089439.160 8       824.743          51.000
> 2020 05 10 13 03  0.0000000  0 16        .000000000000
G18  20504493.922 8 107751840.569 8      1100.816          50.000    20504494.109 8  83962553.848 8       857.782          50.000
G21  20751545.727 8 109050176.128 8       711.809          50.000    20751545.078 8  84974148.201 8       554.656          49.000
G25  23589069.352 7 123961393.770 7     -3295.273          42.000    23589071.945 7  96593299.423 7     -2567.746          42.000
G29  21548223.570 5 113236737.170 5     -2157.137          34.000    21548223.547 5  88236380.675 5     -1680.883          33.000
G31  21865857.594 8 114905850.642 8     -2103.980          49.000    21865855.898 8  89537009.209 8     -1639.468          49.000
R09  20146904.820 8 107583359.867 8     -2869.906          50.000    20146906.727 8  83675967.381 8     -2232.149          49.000
R10  19289030.797 8 102821411.764 8       211.961          49.000
R20  19371585.891 6 103588604.199 6       -56.887          37.000    19371589.648 7  80568928.895 7       -44.245          44.000
R21  22200602.422 7 118799932.173 7      3327.027          45.000    22200608.359 6  92399940.537 6      2587.691          41.000
C05  39624213.148 5 206333675.234 5        15.723          35.000    39624214.977 6 159550293.854 6        12.176          37.000
C27  21772229.320 8 113373700.563 8       972.086          51.000
C28  22470733.391 8 117011044.525 8     -1840.672          51.000
C30  25424134.414 7 132390141.632 7      2789.336          42.000
E11  23448920.641 8 123224898.758 8     -1659.977          51.000    23448919.211 8  94419068.453 8     -1271.906          49.000
E25  24285909.898 8 127623303.564 8     -1764.516          51.000    24285912.125 8  97789327.574 8     -1352.037          51.000
E36  23360934.695 8 122762556.265 8      1064.984          51.000    23360937.484 8  94064827.709 8       815.994          51.000
> 2020 05 10 13 03 30.0000000  0 16        .000000000000
G18  20498262.531 8 107719094.675 8      1082.184          50.000    20498262.281 8  83937037.597 8       843.260          50.000
G21  20747529.250 8 109029069.878 8       695.160          50.000    20747528.578 8  84957701.783 8       541.686          48.000
G25  23607897.445 7 124060336.728 7     -3301.105          43.000    23607899.781 7  96670397.800 7     -2572.290          43.000
G29  21560556.539 4 113301544.872 4     -2164.125          29.000    21560557.078 5  88286880.145 5     -1686.334          30.000
G31  21877910.352 8 114969190.367 8     -2118.875          49.000    21877908.867 8  89586364.809 8     -1651.071          49.000
R09  20163081.773 8 107669746.009 8     -2889.340          49.000    20163083.961 8  83743156.602 8     -2247.264          49.000
R10  19287908.617 8 102815429.696 8       186.633          49.000
R20  19371959.781 6 103590602.756 6       -76.613          36.000    19371963.336 7  80570483.332 7       -59.588          44.000
R21  22181980.023 7 118700276.947 7      3316.473          47.000    22181982.602 6  92322431.023 6      2579.482          40.000
C05  39624122.312 5 206333202.807 5        16.266          35.000    39624123.898 6 159549927.784 6        12.037          37.000
C27  21766659.188 8 113344695.415 8       961.402          51.000
C28  22481357.719 8 117066368.866 8     -1847.762          51.000
C30  25408077.531 7 132306522.949 7      2785.031          43.000
E11  23458419.766 8 123274817.220 8     -1668.035          51.000    23458418.281 8  94457317.654 8     -1278.105          49.000
E25  24296011.492 8 127676386.738 8     -1774.457          51.000    24296013.812 8  97830001.684 8     -1359.700          51.000
E36  23354887.094 8 122730774.293 8      1053.707          51.000    23354889.883 8  94040475.297 8       807.407          51.000
> 2020 05 10 13 04  0.0000000  0 16        .000000000000
G18  20492137.594 8 107686908.037 8      1063.777          49.000    20492137.258 8  83911957.112 8       828.917          49.000
G21  20743607.734 8 109008462.305 8       678.934          50.000    20743606.992 8  84941643.954 8       529.039          49.000
G25  23626758.047 7 124159451.041 7     -3306.457          43.000    23626759.938 7  96747629.690 7     -2576.460          43.000
G29  21572928.406 5 113366501.798 5     -2170.262          33.000    21572928.969 5  88337534.065 5     -1691.110          33.000
G31  21890047.805 8 115032973.181 8     -2133.137          50.000    21890046.289 8  89636065.681 8     -1662.184          50.000
R09  20179367.094 8 107756711.310 8     -2908.176          48.000    20179369.633 8  83810796.275 8     -2261.914          49.000
R10  19286929.508 8 102810209.698 8       161.602          49.000
R20  19372441.719 5 103593179.203 5       -95.203          35.000    19372444.938 7  80572487.242 7       -74.047          43.000
R21  22163417.172 7 118600938.456 7      3306.301          47.000    22163417.148 6  92245167.854 6      2571.570          40.000
C05  39624031.203 6 206332727.612 6        15.641          36.000    39624032.617 6 159549561.040 6        12.698          37.000
C27  21761150.492 8 113316009.148 8       951.113          51.000
C28  22492022.047 8 117121901.907 8     -1854.320          51.000
C30  25392044.625 7 132223028.544 7      2781.410          43.000
E11  23467966.164 8 123324984.160 8     -1676.086          51.000    23467964.992 8  94495757.253 8     -1284.354          49.000
E25  24306169.742 8 127729768.289 8     -1784.035          51.000    24306171.875 8  97870904.433 8     -1367.021          51.000
E36  23348903.234 8 122699328.800 8      1042.832          51.000    23348906.422 8  94016380.710 8       799.002          51.000
> 2020 05 10 13 04 30.0000000  0 16        .000000000000
G18  20486118.883 7 107655282.351 7      1045.238          47.000    20486119.250 7  83887313.704 7       814.471          47.000
G21  20739781.305 8 108988354.510 8       662.352          50.000    20739780.516 8  84925975.584 8       516.118          48.000
G25  23645651.516 7 124258736.594 7     -3312.074          45.000    23645653.055 7  96824995.020 7     -2580.837          44.000
G29  21585338.625 5 113431716.201 5     -2177.480          33.000    21585338.750 5  88388350.524 5     -1696.741          33.000
G31  21902269.578 8 115097198.264 8     -2147.898          51.000    21902267.914 8  89686111.176 8     -1673.687          51.000
R09  20195760.375 7 107844254.590 7     -2927.480          47.000    20195763.516 8  83878885.452 8     -2276.932          48.000
R10  19286093.484 8 102805753.749 8       136.098          48.000
R20  19373031.688 5 103596334.005 5      -114.516          35.000    19373034.945 7  80574940.969 7       -89.068          43.000
R21  22144913.328 7 118501918.997 7      3295.672          45.000    22144913.594 6  92168152.777 6      2563.300          41.000
C05  39623940.070 6 206332253.494 6        16.000          36.000    39623941.500 6 159549194.425 6        12.596          37.000
C27  21755703.273 8 113287642.614 8       940.523          51.000
C28  22502726.461 8 117177643.444 8     -1861.191          51.000
C30  25376035.406 7 132139660.118 7      2777.055          42.000
E11  23477559.883 8 123375399.248 8     -1684.668          51.000    23477558.859 8  94534386.986 8     -1290.826          49.000
E25  24316384.883 8 127783448.920 8     -1794.270          51.000    24316386.492 8  97912036.339 8     -1374.845          50.000
E36  23342983.227 8 122668220.832 8      1031.465          51.000    23342987.008 8  93992544.752 8       790.241          51.000
> 2020 05 10 13 05  0.0000000  0 16        .000000000000
G18  20480208.672 7 107624227.203 7      1025.559          47.000    20480209.938 7  83863114.885 7       799.137          47.000
G21  20736051.727 8 108968755.114 8       644.895          51.000    20736050.797 8  84910703.353 8       502.515          48.000
G25  23664579.250 7 124358201.293 7     -3318.727          45.000    23664581.125 7  96902499.907 7     -2586.021          45.000
G29  21597788.836 6 113497141.626 6     -2184.285          36.000    21597789.562 5  88439331.377 5     -1702.043          35.000
G31  21914576.586 8 115161872.185 8     -2163.215          51.000    21914575.094 8  89736506.422 8     -1685.622          51.000
R09  20212263.367 8 107932382.138 8     -2947.203          48.000    20212266.609 7  83947429.098 7     -2292.269          47.000
R10  19285402.633 7 102802072.139 7       109.762          47.000
R20  19373731.562 5 103600074.546 5      -133.949          35.000    19373734.195 7  80577850.258 7      -104.183          42.000
R21  22126468.891 7 118403229.509 7      3284.094          43.000    22126472.227 6  92091394.232 6      2554.292          41.000
C05  39623850.820 6 206331788.537 6        15.402          36.000    39623852.195 6 159548834.922 6        12.028          37.000
C27  21750318.867 8 113259604.529 8       929.062          51.000
C28  22513472.500 8 117233601.144 8     -1868.934          51.000
C30  25360050.812 6 132056427.072 6      2772.344          40.000
E11  23487202.250 8 123426069.989 8     -1693.109          51.000    23487200.945 8  94573212.609 8     -1297.345          49.000
E25  24326658.523 8 127837437.202 8     -1804.641          51.000    24326659.352 8  97953403.966 8     -1382.750          50.000
E36  23337129.312 8 122637459.387 8      1019.680          51.000    23337133.320 8  93968974.294 8       781.298          51.000
> 2020 05 10 13 05 30.0000000  0 16        .000000000000
G18  20474406.695 8 107593737.441 8      1006.848          49.000    20474408.055 8  83839356.619 8       784.560          49.000
G21  20732417.844 8 108949658.246 8       628.199          51.000    20732416.758 8  84895822.714 8       489.506          49.000
G25  23683539.922 7 124457838.069 7     -3323.777          46.000    23683541.953 7  96980138.899 7     -2589.956          46.000
G29  21610277.773 6 113562771.397 6     -2191.148          37.000    21610278.852 6  88490471.440 6     -1707.394          37.000
G31  21926967.352 8 115226987.114 8     -2177.824          51.000    21926966.250 8  89787245.316 8     -1697.006          51.000
R09  20228875.156 8 108021085.938 8     -2966.398          50.000    20228877.961 8  84016420.945 8     -2307.199          48.000
R10  19284856.234 8 102799159.996 8        84.234          48.000
R20  19374539.031 5 103604393.201 5      -153.359          35.000    19374541.781 6  80581209.222 6      -119.280          41.000
R21  22108088.695 7 118304865.174 7      3273.395          45.000    22108091.773 7  92014888.620 7      2545.974          43.000
C05  39623761.992 5 206331326.067 5        15.172          35.000    39623763.688 6 159548478.097 6        11.717          37.000
C27  21744996.328 8 113231888.936 8       918.516          51.000
C28  22524258.750 8 117289767.943 8     -1875.652          51.000
C30  25344091.250 6 131973324.232 6      2767.895          40.000
E11  23496891.867 8 123476989.281 8     -1701.359          51.000    23496890.227 8  94612228.678 8     -1303.567          49.000
E25  24336989.539 8 127891727.009 8     -1814.789          51.000    24336989.414 8  97995002.606 8     -1390.448          49.000
E36  23331340.422 8 122607038.633 8      1008.398          51.000    23331344.219 8  93945664.891 8       772.684          51.000
> 2020 05 10 13 06  0.0000000  0 16        .000000000000
G18  20468711.281 8 107563806.702 8       988.395          50.000    20468712.336 8  83816033.963 8       770.181          50.000
G21  20728878.297 8 108931057.114 8       611.793          51.000    20728876.922 8  84881328.354 8       476.725          49.000
G25  23702531.664 7 124557638.888 7     -3329.531          45.000    23702533.977 7  97057905.711 7     -2594.440          45.000
G29  21622804.227 6 113628597.318 6     -2197.465          39.000    21622804.266 6  88541764.374 6     -1712.307          38.000
G31  21939440.312 8 115292533.724 8     -2192.090          51.000    21939439.648 8  89838320.577 8     -1708.122          51.000
R09  20245593.461 8 108110356.192 8     -2985.016          51.000    20245595.586 8  84085853.330 8     -2321.679          48.000
R10  19284453.234 8 102797011.626 8        58.895          48.000
R20  19375452.992 5 103609281.689 5      -172.387          35.000    19375455.594 6  80585011.377 6      -134.079          41.000
R21  22089769.125 7 118206820.357 7      3262.785          47.000    22089770.719 7  91938631.609 7      2537.725          43.000
C05  39623672.773 5 206330861.256 5        15.711          35.000    39623674.484 6 159548118.689 6        11.844          37.000
C27  21739734.234 8 113204488.819 8       908.137          51.000
C28  22535083.680 8 117346135.750 8     -1882.289          51.000
C30  25328156.531 6 131890345.363 6      2763.895          40.000
E11  23506627.219 8 123528148.819 8     -1709.516          51.000    23506625.578 8  94651428.848 8     -1309.928          49.000
E25  24347376.750 8 127946310.914 8     -1824.297          51.000    24347375.742 8  98036826.609 8     -1397.910          49.000
E36  23325614.898 8 122576951.592 8       997.273          51.000    23325618.422 8  93922611.210 8       764.106          51.000
> 2020 05 10 13 06 30.0000000  0 16        .000000000000
G18  20463123.781 8 107534442.577 8       969.215          51.000    20463124.695 8  83793152.837 8       755.232          51.000
G21  20725434.406 8 108912958.484 8       594.820          51.000    20725432.789 8  84867225.539 8       463.496          49.000
G25  23721555.211 7 124657609.443 7     -3335.324          43.000    23721558.141 7  97135804.805 7     -2598.957          43.000
G29  21635369.281 6 113694625.382 6     -2204.562          38.000    21635369.055 6  88593214.781 6     -1717.835          38.000
G31  21951996.508 8 115358517.080 8     -2206.773          51.000    21951996.328 8  89889736.170 8     -1719.564          51.000
R09  20262418.344 8 108200197.155 8     -3004.320          51.000    20262420.172 8  84155729.598 8     -2336.697          48.000
R10  19284195.172 8 102795634.935 8        32.898          49.000
R20  19376474.938 5 103614745.286 5      -191.793          35.000    19376477.516 6  80589260.864 6      -149.172          41.000
R21  22071509.273 7 118109103.502 7      3251.586          47.000    22071509.867 7  91862629.662 7      2529.011          43.000
C05  39623584.211 6 206330401.066 6        15.473          36.000    39623585.836 6 159547762.061 6        11.702          37.000
C27  21734533.945 8 113177410.836 8       897.098          51.000
C28  22545948.336 8 117402710.233 8     -1889.316          51.000
C30  25312246.516 6 131807497.912 6      2759.133          39.000
E11  23516409.312 8 123579554.092 8     -1717.637          51.000    23516407.969 8  94690817.301 8     -1316.129          49.000
E25  24357821.328 8 128001195.538 8     -1834.652          51.000    24357819.906 8  98078881.030 8     -1405.767          50.000
E36  23319954.523 8 122547205.197 8       985.805          51.000    23319957.789 8  93899818.531 8       755.336          51.000
> 2020 05 10 13 07  0.0000000  0 16        .000000000000
G18  20457646.438 8 107505656.973 8       949.988          51.000    20457647.250 8  83770722.524 8       740.254          51.000
G21  20722088.109 8 108895373.208 8       577.773          50.000    20722086.156 8  84853522.717 8       450.213          49.000
G25  23740612.695 7 124757760.040 7     -3341.164          43.000    23740615.945 7  97213844.161 7     -2603.508          43.000
G29  21647974.305 6 113760865.584 6     -2211.066          38.000    21647974.188 6  88644830.521 6     -1722.906          37.000
G31  21964637.367 8 115424945.773 8     -2221.625          50.000    21964637.383 8  89941498.800 8     -1731.136          49.000
R09  20279351.648 8 108290618.206 8     -3023.582          51.000    20279353.445 8  84226057.062 8     -2351.675          48.000
R10  19284084.570 8 102795042.532 8         6.773          49.000
R20  19377605.836 5 103620793.834 5      -211.035          35.000    19377608.664 6  80593965.316 6      -164.138          40.000
R21  22053311.273 7 118011727.546 7      3240.273          45.000    22053311.469 7  91786892.860 7      2520.213          42.000
C05  39623498.469 5 206329953.806 5        14.730          35.000    39623500.016 6 159547416.994 6        11.342          37.000
C27  21729397.906 8 113150666.062 8       886.055          51.000
C28  22556854.625 8 117459501.422 8     -1896.570          51.000
C30  25296362.492 6 131724793.714 6      2754.406          38.000
E11  23526240.062 8 123631215.165 8     -1726.102          51.000    23526238.914 8  94730401.756 8     -1322.627          49.000
E25  24368325.039 8 128056391.801 8     -1844.922          51.000    24368323.656 8  98121174.239 8     -1413.680          50.000
E36  23314361.305 8 122517810.781 8       973.996          51.000    23314364.539 8  93877295.543 8       746.267          51.000
> 2020 05 10 13 07 30.0000000  0 16        .000000000000
G18  20452275.992 8 107477434.061 8       931.375          51.000    20452276.492 8  83748730.669 8       725.750          50.000
G21  20718836.266 8 108878285.085 8       561.199          50.000    20718834.125 8  84840207.288 8       437.298          49.000
G25  23759701.469 7 124858073.094 7     -3346.320          44.000    23759704.359 7  97292010.107 7     -2607.525          44.000
G29  21660616.227 5 113827301.107 5     -2217.539          35.000    21660617.625 5  88696598.465 5     -1727.956          35.000
G31  21977359.219 7 115491801.358 7     -2235.656          47.000    21977359.656 7  89993594.037 7     -1742.070          47.000
R09  20296390.133 8 108381600.014 8     -3042.047          51.000    20296391.703 8  84296820.678 8     -2366.036          48.000
R10  19284117.945 8 102795218.641 8       -18.648          49.000
R20  19378842.352 5 103627409.386 5      -229.961          34.000    19378845.930 6  80599110.722 6      -178.859          41.000
R21  22035173.125 7 117914677.251 7      3229.648          45.000    22035173.609 7  91711409.313 7      2511.949          42.000
C05  39623412.430 5 206329506.368 5        15.188          35.000    39623414.023 6 159547068.012 6        11.572          37.000
C27  21724322.227 8 113124238.122 8       875.621          51.000
C28  22567799.180 8 117516491.864 8     -1903.059          51.000
C30  25280503.352 6 131642217.110 6      2750.328          41.000
E11  23536116.156 8 123683114.296 8     -1734.086          51.000    23536114.852 8  94770168.601 8     -1328.661          49.000
E25  24378884.750 8 128111882.941 8     -1854.707          51.000    24378883.867 8  98163693.391 8     -1421.121          51.000
E36  23308831.773 8 122488751.911 8       963.047          51.000    23308835.047 8  93855029.665 8       737.898          51.000
> 2020 05 10 13 08  0.0000000  0 16        .000000000000
G18  20447012.719 8 107449774.990 8       912.410          51.000    20447012.766 8  83727178.176 8       710.969          49.000
G21  20715679.117 8 108861694.610 8       544.590          50.000    20715676.797 8  84827279.661 8       424.356          49.000
G25  23778821.375 7 124958548.082 7     -3351.992          44.000    23778823.656 7  97370302.233 7     -2611.942          44.000
G29  21673295.047 6 113893931.128 6     -2224.109          36.000    21673297.008 5  88748517.914 5     -1733.072          34.000
G31  21990162.008 7 115559082.240 7     -2249.812          47.000    21990162.445 7  90046020.668 7     -1753.104          47.000
R09  20313533.609 8 108473140.203 8     -3060.859          51.000    20313534.719 8  84368018.564 8     -2380.671          48.000
R10  19284295.836 8 102796164.834 8       -44.566          49.000
R20  19380185.516 5 103634590.697 5      -248.535          34.000    19380189.047 6  80604696.200 6      -193.305          41.000
R21  22017098.039 8 117817954.518 8      3218.559          48.000    22017098.500 7  91636180.553 7      2503.326          44.000
C05  39623326.406 6 206329058.378 6        14.617          36.000    39623328.195 6 159546721.574 6        11.587          38.000
C27  21719307.344 8 113098127.342 8       864.996          51.000
C28  22578781.922 8 117573680.910 8     -1909.734          51.000
C30  25264669.703 7 131559769.268 7      2745.855          43.000
E11  23546037.414 8 123735250.675 8     -1742.020          51.000    23546035.977 8  94810117.253 8     -1334.716          50.000
E25  24389500.547 8 128167669.109 8     -1864.562          51.000    24389500.633 8  98206438.633 8     -1428.670          51.000
E36  23303366.188 8 122460029.154 8       951.762          51.000    23303369.219 8  93833021.316 8       729.251          51.000
> 2020 05 10 13 08 30.0000000  0 17        .000000000000
G18  20441856.547 8 107422678.542 8       893.848          51.000    20441856.547 8  83706064.092 8       696.505          50.000
G20  24507085.320 6 128785631.959 6      3333.059          36.000
G21  20712616.453 8 108845599.606 8       528.223          50.000    20712613.766 8  84814738.080 8       411.602          49.000
G25  23797971.609 7 125059182.019 7     -3357.105          45.000    23797974.164 7  97448718.208 7     -2615.929          45.000
G29  21686010.477 5 113960752.610 5     -2230.367          33.000    21686012.672 5  88800586.563 5     -1737.955          34.000
G31  22003045.320 8 115626784.565 8     -2263.730          50.000    22003045.617 8  90098775.691 8     -1763.949          50.000
R09  20330780.625 8 108565234.884 8     -3079.039          51.000    20330781.266 8  84439647.726 8     -2394.808          48.000
R10  19284617.484 8 102797880.359 8       -70.059          48.000
R20  19381633.844 5 103642334.749 5      -267.684          34.000    19381637.008 7  80610719.345 7      -208.198          42.000
R21  21999084.797 7 117721558.979 7      3207.762          47.000    21999085.922 7  91561206.306 7      2494.929          45.000
C05  39623239.875 5 206328607.134 5        14.340          35.000    39623241.922 6 159546373.428 6        11.357          38.000
C27  21714353.664 8 113072331.787 8       854.516          51.000
C28  22589802.109 8 117631065.629 8     -1916.148          51.000
C30  25248861.156 7 131477449.024 7      2741.879          45.000
E11  23556003.195 8 123787621.130 8     -1749.469          51.000    23556001.891 8  94850245.276 8     -1340.502          50.000
E25  24400171.922 8 128223748.135 8     -1874.273          51.000    24400172.781 8  98249408.274 8     -1436.114          51.000
E36  23297964.203 8 122431640.721 8       940.586          51.000    23297967.008 8  93811269.142 8       720.733          51.000
> 2020 05 10 13 09  0.0000000  0 17        .000000000000
G18  20436806.062 8 107396138.111 8       875.586          51.000    20436806.016 8  83685383.275 8       682.278          50.000
G20  24488052.594 5 128685626.022 5      3334.426          35.000
G21  20709646.508 8 108829993.013 8       512.223          50.000    20709643.789 8  84802577.112 8       399.135          48.000
G25  23817150.273 7 125159966.681 7     -3361.848          44.000    23817153.523 7  97527251.647 7     -2619.622          44.000
G29  21698761.086 5 114027757.781 5     -2236.605          34.000    21698763.734 5  88852798.419 5     -1742.812          32.000
G31  22016007.344 8 115694898.739 8     -2277.191          51.000    22016007.141 8  90151851.636 8     -1774.435          50.000
R09  20348128.500 8 108657873.865 8     -3096.938          51.000    20348129.656 7  84511700.231 7     -2408.729          47.000
R10  19285082.125 8 102800358.634 8       -95.191          48.000
R20  19383185.211 5 103650632.565 5      -285.293          34.000    19383189.086 6  80617173.184 6      -221.898          41.000
R21  21981129.953 7 117625484.749 7      3197.328          45.000    21981132.938 7  91486481.930 7      2486.811          45.000
C05  39623151.727 5 206328148.679 5        15.742          35.000    39623153.758 6 159546018.174 6        12.200          37.000
C27  21709459.445 8 113046844.297 8       844.531          51.000
C28  22600858.148 8 117688637.821 8     -1921.938          51.000
C30  25233075.945 7 131395250.050 7      2738.059          45.000
E11  23566011.945 8 123840217.399 8     -1756.832          51.000    23566010.859 8  94890546.313 8     -1346.246          49.000
E25  24410897.578 8 128280112.581 8     -1883.402          51.000    24410898.859 8  98292596.608 8     -1443.183          51.000
E36  23292624.297 8 122403579.479 8       930.035          51.000    23292627.055 8  93789767.690 8       712.591          51.000
> 2020 05 10 13 09 30.0000000  0 18        .000000000000
G18  20431866.266 8 107370179.839 8       856.074          51.000    20431866.078 8  83665156.066 8       667.074          50.000
G20  24469019.336 5 128585572.564 5      3333.820          33.000
G21  20706774.453 8 108814900.223 8       495.020          51.000    20706771.742 8  84790816.509 8       385.730          49.000
G25  23836362.188 7 125260926.589 7     -3367.910          44.000    23836366.188 7  97605921.671 7     -2624.346          44.000
G29  21711551.867 5 114094971.229 5     -2243.883          33.000    21711553.531 5  88905172.450 5     -1748.483          33.000
G31  22029052.305 8 115763448.100 8     -2291.699          51.000    22029051.586 8  90205266.703 8     -1785.740          51.000
R09  20365582.523 8 108751080.727 8     -3115.844          51.000    20365584.461 8  84584194.418 8     -2423.437          48.000
R10  19285695.227 8 102803626.550 8      -121.582          49.000
R20  19384844.766 5 103659508.592 5      -304.953          33.000    19384849.055 6  80624076.765 6      -237.186          41.000
R21  21963239.578 7 117529759.415 7      3185.633          45.000    21963244.484 7  91412028.859 7      2477.714          45.000
C05  39623066.695 5 206327705.634 5        15.383          35.000    39623068.688 6 159545675.619 6        11.445          37.000
C27  21704628.898 8 113021690.056 8       833.367          51.000
C28  22611954.789 8 117746421.676 8     -1929.312          51.000
C30  25217318.648 7 131313198.265 7      2733.066          45.000
E02  23542564.820 7 123717012.041 7       837.125          42.000
E11  23576068.328 8 123893063.640 8     -1765.391          51.000    23576067.188 8  94931038.881 8     -1352.654          49.000
E25  24421682.359 8 128336787.595 8     -1893.867          51.000    24421683.898 8  98336022.899 8     -1451.139          51.000
E36  23287351.438 8 122375871.001 8       918.168          51.000    23287353.898 8  93768536.528 8       703.546          51.000
> 2020 05 10 13 10  0.0000000  0 17        .000000000000
G18  20427035.172 8 107344792.965 8       836.738          50.000    20427035.023 8  83645374.075 8       652.004          50.000
G21  20703998.039 8 108800309.632 8       478.109          51.000    20703995.461 8  84779447.243 8       372.553          49.000
G25  23855605.297 7 125362049.347 7     -3373.434          46.000    23855609.688 7  97684718.572 7     -2628.653          45.000
G29  21724380.141 5 114162385.493 5     -2249.742          31.000    21724382.047 5  88957699.125 5     -1753.052          31.000
G31  22042177.375 8 115832419.238 8     -2305.945          51.000    22042176.672 8  90259010.432 8     -1796.841          50.000
R09  20383140.977 8 108844841.123 8     -3134.434          51.000    20383142.859 7  84657119.138 7     -2437.893          46.000
R10  19286454.656 8 102807673.600 8      -147.809          48.000
R20  19386610.523 5 103668949.775 5      -323.410          32.000    19386614.531 6  80631419.872 6      -251.541          41.000
R21  21945414.352 8 117434372.804 8      3173.977          48.000    21945418.727 7  91337839.316 7      2468.648          44.000
C05  39622982.789 5 206327268.893 5        15.070          35.000    39622984.625 6 159545337.117 6        11.285          37.000
C27  21699859.977 8 112996857.743 8       822.410          51.000
C28  22623089.727 8 117804404.889 8     -1936.078          50.000
C30  25201587.742 7 131231283.110 7      2728.273          46.000
E02  23537818.594 7 123692071.868 7       825.609          42.000    23537814.633 6  94777026.034 6       632.777          38.000
E11  23586169.836 8 123946147.268 8     -1773.266          51.000    23586168.453 8  94971713.349 8     -1358.754          49.000
E25  24432524.133 8 128393761.537 8     -1904.191          51.000    24432526.180 8  98379678.232 8     -1459.071          51.000
E36  23282143.477 8 122348503.992 8       906.590          51.000    23282145.594 8  93747567.010 8       694.630          51.000
> 2020 05 10 13 10 30.0000000  0 17        .000000000000
G18  20422309.852 8 107319962.415 8       818.531          50.000    20422309.961 8  83626025.588 8       637.817          50.000
G21  20701314.000 8 108786205.635 8       462.098          51.000    20701311.977 8  84768457.138 8       360.076          50.000
G25  23874876.648 8 125463318.266 8     -3377.984          48.000    23874880.969 8  97763629.353 8     -2632.196          48.000
G29  21737242.445 5 114229974.576 5     -2255.676          31.000    21737244.695 5  89010365.887 5     -1757.672          31.000
G31  22055379.156 8 115901794.163 8     -2319.160          51.000    22055378.445 8  90313068.788 8     -1807.138          51.000
R09  20400799.414 8 108939136.825 8     -3152.105          51.000    20400801.117 7  84730460.179 7     -2451.641          46.000
R10  19287357.383 8 102812484.927 8      -173.105          49.000
R20  19388478.133 5 103678938.575 5      -342.109          34.000    19388482.422 6  80639188.964 6      -266.085          41.000
R21  21927650.320 8 117339310.355 8      3163.402          50.000    21927653.344 7  91263901.904 7      2460.424          45.000
C05  39622896.812 5 206326821.272 5        14.926          35.000    39622898.711 6 159544990.964 6        11.714          37.000
C27  21695150.398 8 112972331.771 8       812.539          51.000
C28  22634259.797 8 117862570.920 8     -1941.816          50.000
C30  25185880.766 8 131149489.827 8      2724.414          48.000
E02  23533131.453 6 123667450.513 6       815.379          40.000    23533129.750 6  94758160.328 6       624.810          38.000
E11  23596313.266 8 123999451.515 8     -1780.391          51.000    23596311.805 8  95012556.854 8     -1364.204          49.000
E25  24443419.656 8 128451018.435 8     -1913.129          51.000    24443421.984 8  98423550.375 8     -1465.910          51.000
E36  23276997.461 8 122321462.865 8       895.992          51.000    23276999.609 8  93726847.195 8       686.557          51.000
> 2020 05 10 13 11  0.0000000  0 17        .000000000000
G18  20417692.211 8 107295697.178 8       799.285          50.000    20417692.289 8  83607117.599 8       622.817          50.000
G21  20698724.125 8 108772596.412 8       445.309          50.000    20698722.492 8  84757852.568 8       346.994          50.000
G25  23894177.234 8 125564740.769 8     -3383.367          48.000    23894181.266 8  97842659.807 8     -2636.393          48.000
G29  21750140.508 5 114297750.495 5     -2262.535          35.000    21750142.000 5  89063178.243 5     -1763.017          35.000
G31  22068658.891 8 115971579.307 8     -2332.988          49.000    22068657.930 8  90367446.820 8     -1817.916          49.000
R09  20418558.688 8 109033973.614 8     -3170.227          51.000    20418560.352 7  84804222.101 7     -2465.732          46.000
R10  19288405.258 8 102818070.011 8      -199.117          49.000
R20  19390450.234 5 103689482.051 5      -360.664          34.000    19390453.789 6  80647389.414 6      -280.516          41.000
R21  21909948.320 8 117244581.987 8      3151.938          49.000    21909950.820 7  91190224.313 7      2451.507          45.000
C05  39622810.633 6 206326372.183 6        14.848          36.000    39622812.492 6 159544643.697 6        11.759          37.000
C27  21690501.328 8 112948120.449 8       801.793          51.000
C28  22645466.594 8 117920927.068 8     -1948.418          51.000
C30  25170199.141 8 131067827.440 8      2719.875          49.000
E02  23528506.195 6 123643157.747 6       804.293          38.000    23528508.352 6  94739546.356 6       616.282          39.000
E11  23606499.977 8 124052983.568 8     -1788.398          51.000    23606498.719 8  95053574.912 8     -1370.289          48.000
E25  24454370.375 8 128508566.467 8     -1923.207          51.000    24454373.094 8  98467645.595 8     -1473.599          51.000
E36  23271915.211 8 122294756.141 8       884.652          51.000    23271917.758 8  93706383.629 8       677.824          51.000
> 2020 05 10 13 11 30.0000000  0 18        .000000000000
G18  20413184.070 8 107272006.650 8       780.977          51.000    20413183.852 8  83588657.447 8       608.553          50.000
G20  24392884.430 5 128185465.723 5      3335.746          30.000
G21  20696230.055 8 108759490.669 8       429.469          50.000    20696228.586 8  84747640.307 8       334.651          50.000
G25  23913508.266 7 125666324.694 7     -3387.863          47.000    23913512.016 7  97921816.051 7     -2639.893          47.000
G29  21763075.297 6 114365721.557 6     -2268.402          37.000    21763075.125 6  89116142.701 6     -1767.586          37.000
G31  22082017.672 8 116041781.519 8     -2346.211          48.000    22082016.969 8  90422149.840 8     -1828.216          48.000
R09  20436421.086 8 109129357.830 8     -3187.625          51.000    20436422.266 7  84878409.835 7     -2479.264          47.000
R10  19289599.539 7 102824438.719 7      -224.480          47.000
R20  19392527.625 5 103700587.904 5      -378.891          35.000    19392531.117 6  80656027.317 6      -294.693          41.000
R21  21892310.672 8 117150198.552 8      3141.250          49.000    21892313.305 7  91116814.981 7      2443.194          47.000
C05  39622725.875 5 206325930.807 5        15.391          35.000    39622727.641 6 159544302.414 6        12.046          37.000
C27  21685913.859 8 112924232.501 8       791.801          51.000
C28  22656711.562 8 117979481.167 8     -1954.133          50.000
C30  25154544.352 8 130986305.540 8      2715.965          48.000
E02  23523946.375 6 123619203.848 6       793.426          39.000    23523951.195 6  94721191.999 6       608.279          39.000
E11  23616731.531 8 124106751.084 8     -1795.098          51.000    23616730.406 8  95094773.391 8     -1375.497          48.000
E25  24465377.781 8 128566414.175 8     -1932.234          50.000    24465381.406 8  98511970.452 8     -1480.537          51.000
E36  23266898.234 8 122268392.788 8       873.992          51.000    23266901.188 8  93686183.151 8       669.703          51.000
> 2020 05 10 13 12  0.0000000  0 18        .000000000000
G18  20408782.398 8 107248875.733 8       761.215          51.000    20408782.109 8  83570633.368 8       593.154          51.000
G20  24373841.648 5 128085412.406 5      3334.609          33.000
G21  20693828.852 8 108746872.942 8       411.988          50.000    20693827.680 8  84737808.318 8       321.033          50.000
G25  23932866.562 7 125768053.349 7     -3393.957          45.000    23932870.164 7  98001085.086 7     -2644.642          45.000
G29  21776043.602 5 114433871.392 5     -2275.027          34.000    21776043.641 5  89169246.468 5     -1772.755          34.000
G31  22095452.625 8 116112382.989 8     -2360.613          49.000    22095452.188 8  90477163.989 8     -1839.439          49.000
R09  20454382.812 8 109225271.298 8     -3206.453          51.000    20454384.000 8  84953009.165 8     -2493.911          48.000
R10  19290938.211 8 102831575.770 8      -251.133          48.000
R20  19394706.688 5 103712238.652 5      -398.148          33.000    19394710.234 6  80665089.015 6      -309.671          41.000
R21  21874735.359 8 117056145.364 8      3129.012          50.000    21874737.406 7  91043662.548 7      2433.679          46.000
C05  39622639.508 5 206325481.805 5        14.934          35.000    39622641.242 6 159543955.231 6        11.276          37.000
C27  21681385.070 8 112900652.334 8       780.297          51.000
C28  22667991.359 8 118038216.606 8     -1961.363          50.000
C30  25138913.547 8 130904909.283 8      2710.566          49.000
E02  23519449.352 6 123595574.381 6       781.383          40.000    23519454.398 6  94703086.300 6       598.964          40.000
E11  23627004.781 8 124160737.208 8     -1803.574          51.000    23627003.500 7  95136139.372 7     -1381.989          47.000
E25  24476439.086 8 128624545.631 8     -1943.094          49.000    24476443.469 8  98556512.729 8     -1488.837          51.000
E36  23261943.406 8 122242357.156 8       861.902          51.000    23261946.602 8  93666233.781 8       660.332          51.000
> 2020 05 10 13 12 30.0000000  0 17        .000000000000
G18  20404493.773 8 107226338.277 8       741.855          51.000    20404493.492 8  83553071.712 8       578.069          51.000
G20  24354807.914 5 127985387.286 5      3334.238          30.000
G21  20691526.758 8 108734775.940 8       395.066          50.000    20691525.734 8  84728382.094 8       307.847          50.000
G25  23952258.227 7 125869959.051 7     -3399.461          44.000    23952262.070 7  98080492.069 7     -2648.931          44.000
G31  22108969.867 8 116183414.531 8     -2374.324          50.000    22108969.031 8  90532513.235 8     -1850.126          51.000
R09  20472449.367 8 109321745.171 8     -3224.594          51.000    20472450.953 8  85028044.358 8     -2508.020          48.000
R10  19292427.625 7 102839515.594 7      -277.453          47.000
R20  19396993.383 5 103724466.389 5      -416.520          34.000    19396996.672 6  80674599.473 6      -323.960          41.000
R21  21857227.805 8 116962457.820 8      3117.340          50.000    21857228.852 7  90970794.491 7      2424.598          45.000
C05                                                                  39622559.797 6 159543628.889 6        10.823          37.000
C27  21676922.219 8 112877412.861 8       769.418          51.000
C28  22679311.969 8 118097165.397 8     -1967.969          49.000
C30  25123313.227 8 130823672.424 8      2705.684          49.000
E02  23515021.570 6 123572303.998 6       770.094          41.000    23515025.492 6  94685255.777 6       590.236          40.000
E11  23637325.805 8 124214974.121 8     -1811.652          50.000    23637324.258 7  95177697.511 7     -1388.134          47.000
E25  24487561.047 8 128682993.801 8     -1952.965          50.000    24487565.984 8  98601297.686 8     -1496.383          51.000
E36  23257057.531 8 122216682.633 8       850.340          51.000    23257060.875 8  93646561.099 8       651.586          51.000
> 2020 05 10 13 13  0.0000000  0 18        .000000000000
G18  20400312.148 8 107204363.394 8       723.555          51.000    20400311.852 8  83535948.443 8       563.812          50.000
G20  24335773.750 5 127885350.978 5      3333.520          31.000
G21  20689318.094 8 108723168.367 8       379.145          51.000    20689316.531 8  84719337.209 8       295.437          50.000
G25  23971677.047 7 125972009.443 7     -3404.008          42.000    23971681.867 7  98160011.799 7     -2652.474          42.000
G29  21802095.094 4 114570782.666 4     -2285.734          29.000
G31  22122562.656 8 116254842.790 8     -2387.141          51.000    22122561.094 8  90588171.580 8     -1860.113          51.000
R09  20490614.141 8 109418744.882 8     -3241.660          50.000    20490616.062 8  85103488.539 8     -2521.291          48.000
R10  19294061.797 8 102848227.423 8      -302.902          48.000
R20  19399381.375 5 103737237.853 5      -434.152          34.000    19399385.289 7  80684532.875 7      -337.674          42.000
R21  21839781.773 8 116869105.393 8      3106.547          49.000    21839782.727 7  90898187.066 7      2416.203          43.000
C05  39622475.609 5 206324627.974 5        14.863          35.000    39622477.375 6 159543297.561 6        11.472          37.000
C27  21672519.062 8 112854482.971 8       759.566          51.000
C28  22690666.922 7 118156295.499 7     -1973.566          47.000
C30  25107737.578 8 130742564.621 8      2701.844          48.000
E02  23510656.969 7 123549362.836 7       759.672          42.000    23510659.695 6  94667677.485 6       582.086          40.000
E11  23647688.398 8 124269429.252 8     -1818.441          51.000    23647686.703 7  95219422.863 7     -1393.279          47.000
E25  24498737.719 8 128741727.046 8     -1962.121          51.000    24498742.750 8  98646301.096 8     -1503.479          51.000
E36  23252234.719 8 122191337.977 8       839.723          51.000    23252238.453 8  93627141.159 8       643.460          51.000
> 2020 05 10 13 13 30.0000000  0 16        .000000000000
G18  20396242.797 8 107182979.087 8       704.090          51.000    20396242.516 8  83519285.362 8       548.641          49.000
G21  20687207.758 8 108712077.409 8       362.176          51.000    20687205.961 8  84710694.900 8       282.215          50.000
G25  23991128.516 6 126074230.983 6     -3409.301          41.000    23991134.133 6  98239664.909 6     -2656.598          41.000
G31  22136235.609 8 116326692.889 8     -2400.828          51.000    22136233.047 8  90644158.618 8     -1870.775          51.000
R09  20508881.656 8 109516295.739 8     -3259.711          49.000    20508884.008 7  85179361.406 7     -2535.331          47.000
R10  19295846.594 8 102857739.877 8      -329.125          50.000
R20  19401876.836 5 103750579.279 5      -453.031          34.000    19401879.984 7  80694909.515 7      -352.358          42.000
R21  21822404.867 8 116776117.522 8      3094.695          51.000    21822404.812 7  90825863.154 7      2406.985          43.000
C05  39622397.578 5 206324221.815 5        14.523          35.000    39622399.469 6 159542983.503 6        10.892          37.000
C27  21668180.195 8 112831889.872 8       748.598          51.000
C28  22702061.523 7 118215633.152 7     -1980.062          46.000
C30  25092191.961 8 130661613.867 8      2696.855          48.000
E02  23506360.516 7 123526779.703 7       747.781          42.000    23506362.016 6  94650373.517 6       573.128          41.000
E11  23658097.492 8 124324128.895 8     -1826.031          51.000    23658095.828 7  95261335.571 7     -1399.203          46.000
E25  24509973.953 8 128800772.599 8     -1972.266          51.000    24509978.734 8  98691543.772 8     -1511.214          51.000
E36  23247479.914 8 122166350.679 8       828.059          51.000    23247483.852 8  93607995.053 8       634.489          51.000
> 2020 05 10 13 14  0.0000000  0 18        .000000000000
G18  20392272.836 8 107162116.642 8       685.500          51.000    20392272.547 8  83503028.918 8       534.159          49.000
G20  24297703.773 5 127685294.803 5      3333.715          31.000
G21  20685182.500 8 108701433.705 8       346.098          51.000    20685180.664 8  84702401.116 8       269.686          50.000
G25  24010599.625 6 126176553.467 6     -3413.492          41.000    24010605.539 6  98319396.677 6     -2659.864          40.000
G29  21828282.820 5 114708393.457 5     -2299.922          32.000    21828281.438 5  89383154.955 5     -1792.147          32.000
G31  22149975.086 8 116398893.645 8     -2413.715          51.000    22149971.844 8  90700418.916 8     -1880.817          51.000
R09  20527238.930 8 109614324.750 8     -3276.812          49.000    20527241.219 7  85255606.170 7     -2548.632          47.000
R10  19297768.320 8 102867982.866 8      -354.855          48.000
R20  19404464.664 5 103764418.640 5      -470.508          34.000    19404468.305 7  80705673.497 7      -365.951          43.000
R21  21805083.727 8 116683425.229 8      3083.590          50.000    21805083.617 7  90753769.208 7      2398.351          44.000
C05  39622310.719 5 206323768.768 5        14.363          35.000    39622312.727 6 159542633.957 6        10.959          37.000
C27  21663892.859 8 112809564.934 8       738.418          51.000
C28  22713482.977 7 118275108.828 7     -1985.977          45.000
C30  25076662.930 8 130580752.359 8      2692.496          48.000
E02  23502118.594 7 123504486.708 7       737.012          42.000    23502119.805 7  94633291.893 7       564.672          42.000
E11  23668539.648 8 124379002.789 8     -1833.289          50.000    23668538.227 7  95303381.787 7     -1404.740          46.000
E25  24521256.508 8 128860060.866 8     -1981.574          51.000    24521260.742 8  98736972.435 8     -1518.328          51.000
E36  23242780.078 8 122141651.596 8       817.238          51.000    23242783.516 8  93589069.775 8       626.187          51.000
> 2020 05 10 13 14 30.0000000  0 18        .000000000000
G18  20388416.852 8 107141853.939 8       666.508          50.000    20388416.891 8  83487239.826 8       519.357          50.000
G20  24278675.898 5 127585300.190 5      3333.809          33.000
G21  20683257.164 8 108691314.608 8       329.664          51.000    20683254.594 8  84694516.107 8       256.881          48.000
G25  24030104.891 7 126279053.373 7     -3418.512          42.000    24030110.203 7  98399266.675 7     -2663.778          42.000
G29  21841429.719 5 114777494.192 5     -2305.285          35.000    21841434.609 5  89437022.245 5     -1796.329          32.000
G31  22163795.227 8 116471520.240 8     -2426.848          51.000    22163792.359 8  90757011.041 8     -1891.050          51.000
R09  20545700.539 8 109712908.125 8     -3294.219          50.000    20545702.281 7  85332282.104 7     -2562.173          46.000
R10  19299841.477 8 102879036.282 8      -380.852          48.000
R20  19407160.617 5 103778833.340 5      -488.703          34.000    19407164.164 7  80716884.912 7      -380.102          42.000
R21  21787832.242 8 116591108.783 8      3072.062          50.000    21787832.617 7  90681967.569 7      2389.382          44.000
C05  39622229.883 5 206323347.801 5        14.508          35.000    39622231.789 6 159542308.424 6        11.079          36.000
C27  21659671.828 8 112787584.775 8       728.078          51.000
C28  22724945.953 7 118334798.334 7     -1992.156          46.000
C30  25061165.695 8 130500057.511 8      2688.125          48.000
E02  23497946.289 6 123482562.682 6       725.496          40.000    23497948.156 7  94616492.944 7       556.049          42.000
E11  23679029.297 8 124434127.152 8     -1840.664          49.000    23679028.125 7  95345619.925 7     -1410.313          46.000
E25  24532600.047 8 128919669.026 8     -1991.234          51.000    24532603.680 8  98782646.206 8     -1525.724          51.000
E36  23238150.078 8 122117318.247 8       806.129          51.000    23238152.898 8  93570424.737 8       617.686          51.000
> 2020 05 10 13 15  0.0000000  0 17        .000000000000
G18  20384667.711 8 107122153.612 8       646.922          51.000    20384667.953 8  83471888.936 8       504.092          50.000
G20  24259650.898 5 127485318.590 5      3332.652          34.000
G21  20681424.281 8 108681682.238 8       312.582          51.000    20681420.875 8  84687010.367 8       243.570          48.000
G25  24049636.805 7 126381691.875 7     -3424.113          43.000    24049640.852 7  98479244.647 7     -2668.143          43.000
G31  22177688.664 8 116544532.427 8     -2440.566          51.000    22177687.023 8  90813903.649 8     -1901.737          51.000
R09  20564258.203 8 109812004.588 8     -3312.141          50.000    20564259.367 7  85409357.098 7     -2576.109          46.000
R10  19302059.711 8 102890862.237 8      -407.402          49.000
R20  19409955.945 5 103793783.106 5      -507.914          33.000    19409959.203 7  80728512.524 7      -395.044          42.000
R21  21770643.359 8 116499131.136 8      3059.785          49.000    21770644.734 7  90610429.459 7      2379.836          44.000
C05  39622147.891 6 206322920.712 6        14.121          36.000    39622149.812 6 159541978.189 6        10.702          37.000
C27  21655509.617 8 112765911.892 8       716.930          51.000
C28  22736442.773 7 118394663.207 7     -1998.781          46.000
C30  25045693.727 8 130419492.633 8      2682.957          48.000
E02  23493837.273 7 123460971.166 7       713.637          42.000    23493839.609 7  94599948.768 7       546.929          42.000
E11  23689559.188 8 124489462.970 8     -1848.289          49.000    23689557.930 7  95388020.090 7     -1416.260          45.000
E25  24543997.297 8 128979558.926 8     -2001.418          51.000    24544000.562 8  98828535.834 8     -1533.512          51.000
E36  23233582.328 8 122093312.880 8       794.297          51.000    23233584.906 8  93552031.024 8       608.647          51.000
> 2020 05 10 13 15 30.0000000  0 17        .000000000000
G18  20381028.500 8 107103029.568 8       628.223          51.000    20381028.805 8  83456987.074 8       489.524          50.000
G20  24240630.625 5 127385367.172 5      3331.277          34.000
G21  20679686.383 8 108672549.761 8       296.457          51.000    20679683.094 8  84679894.177 8       231.005          49.000
G25  24069197.297 7 126484481.472 7     -3428.434          44.000    24069200.141 7  98559340.355 7     -2671.510          44.000
G31  22191657.570 8 116617941.529 8     -2453.215          51.000    22191657.352 8  90871105.550 8     -1911.596          51.000
R09  20582913.859 8 109911625.190 8     -3329.059          50.000    20582914.820 7  85486839.758 7     -2589.268          46.000
R10  19304425.578 8 102903474.942 8      -433.117          49.000
R20  19412854.094 5 103809280.375 5      -525.531          32.000    19412857.508 7  80740565.960 7      -408.747          42.000
R21  21753520.500 8 116407507.404 8      3048.543          48.000    21753522.727 7  90539166.576 7      2371.089          45.000
C05  39622067.438 5 206322502.201 5        13.930          35.000    39622069.375 6 159541653.784 6        10.820          37.000
C27  21651408.930 8 112744559.604 8       706.715          51.000
C28  22747975.672 7 118454715.885 7     -2004.633          45.000
C30  25030249.273 8 130339071.805 8      2678.629          48.000
E02  23489794.797 7 123439726.920 7       702.746          42.000    23489796.797 7  94583670.709 7       538.495          42.000
E11  23700131.812 8 124545022.687 8     -1855.301          48.000    23700130.391 7  95430591.819 7     -1421.666          45.000
E25  24555450.602 8 129039743.718 8     -2010.766          51.000    24555453.297 8  98874651.444 8     -1540.708          51.000
E36  23229079.219 8 122069648.955 8       783.480          51.000    23229081.352 8  93533898.944 8       600.371          51.000
> 2020 05 10 13 16  0.0000000  0 18        .000000000000
G18  20377495.758 8 107084465.685 8       609.273          50.000    20377496.539 8  83442521.721 8       474.759          50.000
G20  24221610.891 5 127285415.545 5      3330.828          35.000    24221608.914 5  99183423.929 5      2595.454          31.000
G21  20678040.414 8 108663900.463 8       280.168          51.000    20678037.469 7  84673154.500 7       218.316          47.000
G25  24088783.117 7 126587404.523 7     -3433.047          44.000    24088785.258 7  98639540.055 7     -2675.101          42.000
G29  21881077.688 6 114985852.615 6     -2323.551          37.000    21881070.070 5  89599311.963 5     -1810.550          30.000
G31  22205698.570 8 116691729.170 8     -2466.000          51.000    22205699.461 8  90928602.424 8     -1921.555          51.000
R09  20601664.328 8 110011750.518 8     -3346.012          51.000    20601665.242 7  85564714.997 7     -2602.454          46.000
R10  19306936.281 8 102916858.035 8      -459.059          50.000
R20  19415850.500 5 103825306.407 5      -543.801          33.000    19415854.992 7  80753030.671 7      -422.956          42.000
R21  21736462.031 8 116316222.014 8      3037.008          49.000    21736464.328 7  90468166.862 7      2362.120          45.000
C05  39621985.234 6 206322074.122 6        14.238          36.000    39621987.305 6 159541322.727 6        11.212          37.000
C27  21647366.344 8 112723511.498 8       696.418          51.000
C28  22759540.859 7 118514939.001 7     -2010.582          43.000
C30  25014829.453 7 130258779.426 7      2674.074          47.000
E02  23485815.953 7 123418814.817 7       691.359          43.000    23485817.266 7  94567647.164 7       529.716          44.000
E11  23710743.734 7 124600788.564 7     -1862.602          47.000    23710742.484 7  95473321.535 7     -1427.272          46.000
E25  24566956.594 8 129100206.583 8     -2020.133          51.000    24566958.812 8  98920980.127 8     -1547.915          51.000
E36  23224638.039 8 122046310.055 8       772.344          51.000    23224639.336 8  93516015.888 8       591.787          51.000
> 2020 05 10 13 16 30.0000000  0 18        .000000000000
G18  20374073.734 8 107066482.864 8       589.672          51.000    20374074.523 8  83428509.131 8       459.485          51.000
G20  24202597.047 5 127185498.523 5      3329.945          35.000    24202594.109 5  99105566.599 5      2594.763          34.000
G21  20676490.078 8 108655754.424 8       263.031          51.000    20676486.805 7  84666806.928 7       204.959          47.000
G25  24108397.734 7 126690480.630 7     -3438.391          43.000    24108399.891 7  98719859.017 7     -2679.265          43.000
G29  21894362.648 6 115055664.039 6     -2330.191          36.000    21894360.461 6  89653710.358 6     -1815.737          36.000
G31  22219815.344 8 116765913.410 8     -2479.449          51.000    22219816.422 8  90986408.305 8     -1932.038          51.000
R09  20620512.703 8 110112398.668 8     -3363.641          50.000    20620514.047 7  85642996.867 7     -2616.165          47.000
R10  19309595.648 8 102931033.272 8      -485.746          49.000
R20  19418949.688 5 103841880.513 5      -561.980          32.000    19418954.703 7  80765921.616 7      -437.096          43.000
R21  21719471.281 8 116225297.437 8      3024.754          49.000    21719473.523 7  90397447.798 7      2352.589          45.000
C05  39621905.523 5 206321658.202 5        13.348          35.000    39621907.469 6 159541001.103 6        10.542          37.000
C27  21643386.234 8 112702787.801 8       685.320          51.000
C28  22771142.398 7 118575352.015 7     -2016.914          42.000
C30  24999438.477 7 130178636.583 7      2668.875          47.000
E02  23481904.531 7 123398256.774 7       679.480          43.000    23481905.258 7  94551894.881 7       520.644          44.000
E11  23721398.500 8 124656780.020 8     -1869.992          48.000    23721397.633 7  95516224.065 7     -1432.779          45.000
E25  24578518.922 8 129160967.761 8     -2030.445          51.000    24578520.961 8  98967537.366 8     -1555.724          51.000
E36  23220262.359 8 122023316.742 8       760.680          51.000    23220264.031 8  93498397.645 8       582.879          51.000
> 2020 05 10 13 17  0.0000000  0 17        .000000000000
G18  20370760.945 8 107049073.750 8       569.738          50.000    20370761.555 8  83414943.573 8       443.952          50.000
G20  24183589.062 5 127085611.173 5      3327.637          33.000    24183586.398 5  99027732.461 5      2592.964          30.000
G21  20675033.883 8 108648103.868 8       245.797          50.000    20675030.961 8  84660845.465 8       191.530          49.000
G25  24128039.844 7 126793701.099 7     -3444.047          43.000    24128042.453 7  98800290.492 7     -2683.676          43.000
G31  22234006.023 8 116840484.327 8     -2493.047          51.000    22234005.477 8  91044515.481 8     -1942.637          51.000
R09  20639456.953 8 110213559.011 8     -3381.445          50.000    20639459.031 8  85721677.094 8     -2630.016          48.000
R10  19312402.172 8 102945992.790 8      -512.617          49.000
R20  19422149.719 5 103858993.589 5      -579.613          30.000    19422155.266 7  80779231.776 7      -450.810          42.000
R21  21702545.867 8 116134727.084 8      3012.203          49.000    21702548.680 7  90327004.239 7      2342.825          44.000
C05  39621826.539 5 206321248.003 5        12.633          35.000    39621828.594 6 159540683.123 6        10.240          37.000
C27  21639467.641 8 112682380.817 8       674.051          51.000
C28  22782778.594 7 118635946.369 7     -2023.848          42.000
C30  24984074.992 7 130098636.366 7      2663.359          46.000
E02  23478058.805 7 123378046.378 7       667.023          43.000    23478059.195 7  94536408.977 7       511.054          44.000
E11  23732094.406 7 124712988.213 7     -1877.883          47.000    23732093.656 7  95559292.665 7     -1438.954          45.000
E25  24590136.023 8 129222019.149 8     -2040.578          50.000    24590138.594 8  99014316.966 8     -1563.590          51.000
E36  23215950.609 8 122000661.304 8       748.746          51.000    23215953.367 8  93481038.303 8       573.759          51.000
> 2020 05 10 13 17 30.0000000  0 16        .000000000000
G18  20367561.102 8 107032258.317 8       551.363          51.000    20367561.516 8  83401840.634 8       429.634          51.000
G21  20673675.766 8 108640967.930 8       230.074          50.000    20673673.641 8  84655285.030 8       179.282          50.000
G25  24147713.211 7 126897084.500 7     -3447.926          45.000    24147716.281 7  98880848.924 7     -2686.698          44.000
G31  22248273.719 8 116915459.267 8     -2505.066          51.000    22248270.578 8  91102937.440 8     -1952.003          51.000
R09  20658500.484 8 110315248.760 8     -3397.695          51.000    20658502.695 8  85800769.084 8     -2642.655          48.000
R10  19315359.812 8 102961757.490 8      -538.148          49.000
R20  19425453.992 5 103876663.640 5      -597.914          33.000    19425459.500 7  80792975.127 7      -465.047          42.000
R21  21685690.008 8 116044532.454 8      3000.914          48.000    21685693.688 7  90256852.875 7      2334.044          43.000
C05  39621752.133 5 206320861.334 5        13.375          35.000    39621754.492 6 159540384.173 6        10.128          37.000
C27  21635613.562 8 112662309.922 8       664.184          51.000
C28  22794453.469 6 118696740.515 6     -2029.227          40.000
C30  24968742.328 7 130018798.944 7      2659.277          45.000
E02  23474282.781 7 123358204.608 7       656.039          44.000    23474283.188 7  94521205.522 7       502.718          44.000
E11  23742835.281 7 124769431.702 7     -1884.723          47.000    23742834.117 7  95602541.569 7     -1444.135          44.000
E25  24601811.906 8 129283380.084 8     -2049.770          51.000    24601815.258 8  99061333.750 8     -1570.627          51.000
E36  23211706.859 8 121978363.429 8       738.129          51.000    23211710.203 8  93463952.914 8       565.561          51.000
> 2020 05 10 13 18  0.0000000  0 18        .000000000000
G18  20364460.570 8 107015963.812 8       534.156          51.000    20364460.703 8  83389143.619 8       416.229          51.000
G21  20672401.727 8 108634273.451 8       215.496          50.000    20672399.758 8  84650068.549 8       167.919          49.000
G25  24167403.766 7 127000556.818 7     -3450.855          46.000    24167406.359 7  98961476.640 7     -2688.978          46.000
G26  20643465.062 5 108482105.154 5      1406.609          33.000    20643462.469 5  84531510.860 5      1096.032          31.000
G29  21934419.375 6 115266168.153 6     -2346.227          37.000    21934419.172 6  89817780.028 6     -1828.222          36.000
G31  22262603.672 8 116990762.925 8     -2515.895          50.000    22262599.258 8  91161615.529 8     -1960.440          49.000
R09  20677629.031 8 110417391.177 8     -3412.641          51.000    20677630.633 7  85880213.166 7     -2654.279          46.000
R10  19318454.422 8 102978253.015 8      -562.332          48.000
R20  19428848.578 5 103894814.217 5      -612.727          33.000    19428854.023 7  80807092.245 7      -476.565          42.000
R21  21668890.742 8 115954640.449 8      2991.082          48.000    21668894.523 6  90186936.853 6      2326.394          40.000
C05  39621668.648 5 206320426.052 5        15.227          35.000    39621671.156 6 159540048.368 6        11.366          37.000
C27  21631809.688 8 112642502.633 8       655.512          51.000
C28  22806153.016 6 118757661.150 6     -2033.117          39.000
C30  24953427.328 7 129939052.634 7      2656.395          46.000
E02  23470563.500 7 123338659.664 7       646.219          45.000    23470563.844 7  94506229.549 7       495.149          44.000
E11  23753606.836 7 124826036.181 7     -1889.746          47.000    23753605.422 7  95645913.833 7     -1448.065          44.000
E25  24613533.117 8 129344977.060 8     -2057.496          51.000    24613537.078 8  99108531.399 8     -1576.484          51.000
E36  23207517.297 8 121956350.019 8       728.711          51.000    23207520.914 8  93447085.492 8       558.333          51.000
> 2020 05 10 13 18 30.0000000  0 19        .000000000000
G18  20361473.617 8 107000266.777 8       514.617          51.000    20361473.586 8  83376912.182 8       401.000          51.000
G20  24126594.703 5 126786090.948 5      3327.180          31.000
G21  20671226.102 8 108628095.864 8       198.605          50.000    20671224.375 8  84645254.853 8       154.758          50.000
G25  24187125.602 7 127104193.253 7     -3455.980          46.000    24187127.336 7  99042232.226 7     -2692.975          46.000
G26  20635478.539 5 108440149.503 5      1392.211          32.000    20635474.688 5  84498818.146 5      1084.834          33.000
G29  21947838.031 5 115336686.567 5     -2352.648          34.000    21947839.883 5  89872729.438 5     -1833.236          35.000
G31  22277009.969 8 117066469.521 8     -2528.996          49.000    22277006.078 8  91220607.652 8     -1970.646          49.000
R09  20696855.969 8 110520060.683 8     -3429.781          50.000    20696856.984 7  85960067.200 7     -2667.611          45.000
R10  19321700.828 8 102995557.365 8      -588.918          48.000
R20  19432347.086 5 103913522.018 5      -631.418          34.000    19432352.680 7  80821642.761 7      -491.106          42.000
R21  21652163.078 8 115865130.028 8      2978.625          48.000    21652165.984 6  90117317.679 6      2316.711          40.000
C05  39621590.680 6 206320019.036 6        14.082          36.000    39621593.328 6 159539734.377 6        11.191          37.000
C27  21628071.133 8 112623034.423 8       644.551          51.000
C28  22817891.000 6 118818782.959 6     -2039.527          40.000
C30  24938144.758 7 129859473.726 7      2651.105          45.000
E02  23466915.539 7 123319489.174 7       633.875          45.000    23466915.641 7  94491540.486 7       485.699          44.000
E11  23764423.289 7 124882876.759 7     -1897.367          47.000    23764422.102 7  95689466.984 7     -1453.842          44.000
E25  24625313.977 8 129406886.024 8     -2067.637          51.000    24625318.250 8  99155968.121 8     -1584.305          51.000
E36  23203396.695 8 121934697.366 8       716.918          51.000    23203400.859 8  93430494.510 8       549.288          51.000
> 2020 05 10 13 19  0.0000000  0 17        .000000000000
G18  20358595.391 8 106985141.907 8       494.191          51.000    20358595.383 8  83365126.575 8       385.084          51.000
G20  24107616.445 4 126686340.147 4      3323.523          28.000
G21  20670144.258 8 108622409.680 8       180.898          51.000    20670143.016 8  84640824.082 8       140.960          50.000
G25  24206873.234 7 127207967.169 7     -3461.938          45.000    24206874.219 7  99123094.933 7     -2697.614          45.000
G31  22291487.305 8 117142550.732 8     -2542.730          48.000    22291484.633 8  91279891.666 8     -1981.351          48.000
R09  20716176.055 8 110623228.569 8     -3447.664          50.000    20716176.703 7  86040308.871 7     -2681.520          45.000
R10  19325094.344 8 103013644.964 8      -616.508          49.000
R20  19435944.766 5 103932758.992 5      -650.426          33.000    19435949.734 7  80836604.870 7      -505.884          42.000
R21  21635502.992 8 115775976.518 8      2965.422          50.000    21635504.211 6  90047976.111 6      2306.439          39.000
C05  39621513.164 5 206319616.165 5        13.289          35.000    39621516.039 6 159539422.861 6        10.077          37.000
C27  21624393.133 8 112603879.841 8       632.828          51.000
C28  22829662.758 6 118880079.676 6     -2046.426          40.000
C30  24922889.992 7 129780037.554 7      2645.066          46.000
E02  23463333.867 7 123300668.849 7       620.934          45.000    23463334.102 7  94477119.692 7       475.789          45.000
E11  23775279.680 7 124939926.756 7     -1905.773          47.000    23775278.484 7  95733180.614 7     -1460.226          44.000
E25  24637149.281 8 129469081.009 8     -2078.363          51.000    24637153.383 8  99203623.985 8     -1592.566          51.000
E36  23199340.078 8 121913379.827 8       704.551          51.000    23199344.789 8  93414160.312 8       539.836          51.000
> 2020 05 10 13 19 30.0000000  0 17        .000000000000
G18  20355826.859 8 106970593.303 8       476.773          51.000    20355826.766 8  83353790.012 8       371.512          51.000
G21  20669156.570 8 108617218.618 8       166.227          50.000    20669155.312 8  84636779.106 8       129.527          50.000
G25  24226647.344 7 127311881.392 7     -3464.613          44.000    24226648.516 7  99204066.959 7     -2699.702          44.000
G29  21974777.234 5 115478221.705 5     -2363.938          35.000    21974780.156 5  89983036.190 5     -1842.029          35.000
G31  22306036.492 8 117219008.344 8     -2553.312          49.000    22306034.508 8  91339468.979 8     -1989.594          49.000
R09  20735589.531 8 110726895.868 8     -3462.387          50.000    20735590.547 7  86120938.948 7     -2692.967          45.000
R10  19328635.516 8 103032519.869 8      -640.734          48.000
R20  19439642.008 5 103952527.338 5      -665.898          33.000    19439646.031 6  80851980.268 6      -517.924          40.000
R21  21618910.898 8 115687185.160 8      2955.152          50.000    21618911.523 6  89978916.225 6      2298.452          41.000
C05  39621437.062 5 206319219.607 5        14.758          35.000    39621440.141 6 159539116.976 6        11.327          37.000
C27  21620775.609 8 112585042.633 8       624.055          50.000
C28  22841468.547 6 118941554.196 6     -2050.828          41.000
C30  24907663.805 7 129700748.712 7      2641.961          46.000
E02  23459820.133 7 123282203.786 7       611.004          46.000    23459820.273 7  94462971.137 7       468.229          45.000
E11  23786176.422 7 124997188.917 7     -1910.789          47.000    23786174.758 7  95777056.799 7     -1464.201          43.000
E25  24649039.672 8 129531565.490 8     -2086.113          51.000    24649042.797 8  99251501.678 8     -1598.450          49.000
E36  23195347.930 8 121892401.248 8       695.133          51.000    23195352.695 8  93398085.834 8       532.658          51.000
> 2020 05 10 13 20  0.0000000  0 17        .000000000000
G18  20353164.375 8 106956602.423 8       456.934          50.000    20353164.508 8  83342888.038 8       356.052          51.000
G21  20668259.328 8 108612503.253 8       149.164          49.000    20668257.898 8  84633104.796 8       116.232          49.000
G25  24246444.445 7 127415916.168 7     -3469.988          44.000    24246446.211 7  99285132.935 7     -2703.887          44.000
G29  21988292.906 5 115549259.134 5     -2370.082          31.000    21988295.047 5  90038383.778 5     -1846.823          31.000
G31  22320653.531 8 117295821.105 8     -2566.527          50.000    22320652.094 8  91399323.062 8     -1999.891          49.000
R09  20755092.555 8 110831040.842 8     -3479.594          51.000    20755093.227 7  86201940.525 7     -2706.357          45.000
R10  19332320.430 7 103052163.336 7      -667.680          47.000
R20  19443434.438 5 103972806.286 5      -684.711          32.000    19443438.266 6  80867752.804 6      -532.550          41.000
R21  21602382.758 8 115598738.163 8      2942.270          49.000    21602383.094 6  89910124.158 6      2288.435          41.000
C05  39621358.859 5 206318813.072 5        13.711          35.000    39621362.156 6 159538802.609 6        10.587          37.000
C27  21617214.969 8 112566504.115 8       612.824          51.000
C28  22853304.477 6 119003187.059 6     -2057.363          40.000
C30  24892462.102 7 129621589.305 7      2636.383          44.000
E02  23456370.844 7 123264076.582 7       598.371          46.000    23456370.781 7  94449081.478 7       458.552          46.000
E11  23797109.727 7 125054643.408 7     -1918.422          47.000    23797107.586 7  95821080.323 7     -1469.936          43.000
E25  24660981.539 8 129594320.374 8     -2096.418          51.000    24660984.078 8  99299586.546 8     -1606.358          50.000
E36  23191416.930 8 121871742.911 8       683.137          51.000    23191421.219 8  93382256.701 8       523.454          51.000
> 2020 05 10 13 20 30.0000000  0 17        .000000000000
G18  20350612.141 8 106943191.057 8       437.531          51.000    20350612.656 8  83332437.640 8       340.933          51.000
G21  20667456.656 8 108608284.670 8       132.547          49.000    20667455.289 8  84629817.581 8       103.283          49.000
G25  24266268.383 7 127520091.994 7     -3474.719          45.000    24266270.969 7  99366308.837 7     -2707.576          45.000
G29  22001843.281 5 115620467.982 5     -2376.273          33.000    22001846.188 5  90093871.227 5     -1851.636          34.000
G31  22335342.070 8 117373008.578 8     -2578.824          51.000    22335341.289 8  91459469.101 8     -2009.476          51.000
R09  20774688.797 8 110935682.485 8     -3496.020          51.000    20774688.898 7  86283328.403 7     -2719.129          45.000
R10  19336153.820 8 103072597.429 8      -694.059          49.000
R20  19447325.914 5 103993615.894 5      -702.418          34.000    19447330.359 6  80883938.062 6      -546.325          40.000
R21  21585922.984 8 115510658.629 8      2930.102          49.000    21585923.070 6  89841617.936 6      2278.971          40.000
C05  39621282.625 5 206318416.181 5        13.250          35.000    39621286.289 6 159538496.457 6        10.436          37.000
C27  21613716.336 8 112548285.495 8       602.246          51.000
C28  22865174.117 6 119064998.568 6     -2063.121          37.000
C30  24877289.203 7 129542581.394 7      2631.375          45.000
E02  23452990.016 7 123246310.080 7       586.402          45.000    23452990.383 7  94435468.174 7       449.345          47.000
E11  23808083.391 7 125112310.535 7     -1925.637          45.000    23808081.336 7  95865266.807 7     -1475.461          42.000
E25  24672978.984 8 129657366.723 8     -2106.035          51.000    24672981.234 8  99347894.752 8     -1613.676          50.000
E36  23187551.156 8 121851426.269 8       671.781          51.000    23187555.414 8  93366689.423 8       514.732          51.000
> 2020 05 10 13 21  0.0000000  0 18        .000000000000
G18  20348165.648 8 106930334.712 8       419.426          51.000    20348166.125 8  83322419.710 8       326.825          50.000
G20  24031768.094 5 126287798.739 5      3318.500          32.000
G21  20666743.422 8 108604537.984 8       117.262          48.000    20666742.367 8  84626898.089 8        91.370          48.000
G25  24286114.523 7 127624383.212 7     -3477.914          46.000    24286117.742 7  99447574.633 7     -2710.066          46.000
G29  22015423.688 6 115691831.274 6     -2380.918          38.000    22015426.195 6  90149478.955 6     -1855.255          38.000
G31  22350096.922 8 117450543.565 8     -2589.930          51.000    22350096.633 8  91519885.942 8     -2018.130          51.000
R09  20794372.609 8 111040792.748 8     -3511.184          51.000    20794372.195 7  86365080.799 7     -2730.924          46.000
R10  19340130.984 8 103093796.947 8      -719.082          49.000
R20  19451312.047 5 104014929.558 5      -719.156          32.000    19451316.148 6  80900515.349 6      -559.347          40.000
R21  21569527.789 8 115422922.856 8      2919.094          48.000    21569527.414 6  89773379.040 6      2270.409          41.000
C05  39621204.125 5 206318006.752 5        14.152          35.000    39621207.727 6 159538179.882 6        11.143          37.000
C27  21610274.719 8 112530362.243 8       592.793          51.000
C28  22877073.086 6 119126963.463 6     -2067.703          36.000
C30  24862141.188 7 129463701.271 7      2627.359          45.000
E02  23449673.258 7 123228880.867 7       575.621          46.000    23449674.195 7  94422113.306 7       441.042          47.000
E11  23819092.484 7 125170164.491 7     -1931.391          44.000    23819091.047 7  95909596.479 7     -1479.912          42.000
E25  24685026.906 8 129720679.524 8     -2114.648          50.000    24685029.125 8  99396407.136 8     -1620.330          50.000
E36  23183745.812 8 121831426.635 8       661.652          51.000    23183750.180 8  93351365.060 8       506.977          51.000
> 2020 05 10 13 21 30.0000000  0 18        .000000000000
G18  20345829.070 8 106918055.937 8       399.363          51.000    20345829.609 8  83312851.853 8       311.192          51.000
G20  24012826.164 5 126188272.858 5      3315.945          35.000
G21  20666124.000 8 108601285.035 8        99.844          48.000    20666123.172 8  84624363.307 8        77.800          48.000
G25  24305986.812 7 127728811.198 7     -3483.391          46.000    24305990.141 7  99528947.000 7     -2714.333          45.000
G29  22029037.141 5 115763370.078 5     -2387.422          32.000    22029039.359 5  90205223.481 5     -1860.332          31.000
G31  22364921.773 8 117528446.271 8     -2603.117          51.000    22364921.586 8  91580589.341 8     -2028.403          51.000
R09  20814147.820 8 111146391.688 8     -3528.492          49.000    20814147.758 7  86447213.257 7     -2744.386          47.000
R10  19344256.211 8 103115785.583 8      -746.434          50.000
R20  19455395.891 5 104036768.298 5      -737.148          30.000    19455400.273 6  80917501.074 6      -573.338          40.000
R21  21553200.836 8 115335555.048 8      2905.832          48.000    21553201.930 7  89705426.331 7      2260.092          42.000
C05  39621127.219 5 206317606.367 5        13.266          35.000    39621130.680 6 159537870.288 6         9.989          37.000
C27  21606893.719 8 112512756.466 8       581.324          51.000
C28  22889006.477 6 119189103.175 6     -2074.605          38.000
C30  24847022.242 7 129384971.814 7      2621.617          44.000
E02  23446425.211 7 123211812.630 7       562.613          46.000    23446425.672 7  94409035.064 7       431.111          46.000
E11  23830141.188 7 125228226.656 7     -1939.016          44.000    23830140.391 6  95954085.658 6     -1485.751          41.000
E25  24697129.289 8 129784280.833 8     -2125.074          49.000    24697132.555 8  99445140.554 8     -1628.229          51.000
E36  23180005.047 8 121811766.414 8       649.402          51.000    23180008.766 8  93336300.739 8       497.597          51.000
> 2020 05 10 13 22  0.0000000  0 18        .000000000000
G18  20343602.469 8 106906354.143 8       380.812          51.000    20343603.281 8  83303733.568 8       296.737          51.000
G20  23993897.008 6 126088808.593 6      3314.547          36.000
G21  20665598.703 8 108598524.597 8        84.102          48.000    20665597.914 8  84622212.299 8        65.534          48.000
G25  24325884.766 7 127833374.043 7     -3487.195          45.000    24325887.953 7  99610424.468 7     -2717.298          46.000
G29  22042684.086 5 115835083.333 5     -2393.000          35.000    22042684.578 5  90261103.800 5     -1864.678          34.000
G31  22379815.727 8 117606713.751 8     -2614.660          51.000    22379815.602 8  91641576.972 8     -2037.398          51.000
R09  20834013.477 8 111252475.520 8     -3543.992          48.000    20834014.227 7  86529722.900 7     -2756.438          47.000
R10  19348529.164 8 103138561.857 8      -771.996          50.000
R20  19459577.250 5 104059129.405 5      -753.449          31.000    19459581.164 6  80934893.028 6      -586.019          39.000
R21  21536942.523 7 115248555.410 7      2894.102          47.000    21536945.406 7  89637759.943 7      2250.968          43.000
C05  39621051.875 5 206317214.531 5        13.195          35.000    39621055.352 6 159537567.277 6        10.309          37.000
C27  21603573.539 8 112495467.289 8       571.391          51.000
C28  22900973.391 6 119251415.972 6     -2079.688          39.000
C30  24831931.898 7 129306393.014 7      2617.133          43.000
E02  23443246.172 7 123195105.876 7       551.227          46.000    23443245.484 7  94396233.804 7       422.398          46.000
E11  23841229.289 7 125286495.098 7     -1945.410          44.000    23841228.711 6  95998732.870 6     -1490.588          41.000
E25  24709286.508 7 129848169.381 7     -2134.254          47.000    24709290.758 8  99494094.074 8     -1635.254          51.000
E36  23176328.664 8 121792444.734 8       638.766          51.000    23176331.438 8  93321495.805 8       489.468          51.000
> 2020 05 10 13 22 30.0000000  0 19        .000000000000
G18  20341483.812 8 106895219.962 8       361.293          51.000    20341484.727 8  83295057.587 8       281.527          51.000
G20  23974978.609 6 125989399.646 6      3312.344          38.000    23974978.984 5  98173529.626 5      2581.047          34.000
G21  20665165.344 8 108596246.993 8        67.586          49.000    20665164.648 8  84620437.556 8        52.664          49.000
G25  24345806.250 7 127938061.299 7     -3491.992          44.000    24345809.000 7  99691998.870 7     -2721.036          44.000
G26  20574450.602 5 108119466.937 5      1280.777          33.000
G29  22056362.750 5 115906960.530 5     -2399.000          34.000    22056360.812 5  90317112.051 5     -1869.345          33.000
G31  22394776.367 8 117685333.787 8     -2626.820          51.000    22394776.320 8  91702839.322 8     -2046.873          51.000
R09  20853967.734 8 111359031.992 8     -3560.164          50.000    20853969.297 7  86612600.132 7     -2769.016          46.000
R10  19352947.562 8 103162116.671 8      -798.469          49.000
R20  19463854.359 5 104082001.548 5      -770.785          30.000    19463858.773 6  80952682.470 6      -599.500          41.000
R21  21520752.445 8 115161915.852 8      2881.527          49.000    21520755.680 7  89570373.622 7      2241.188          42.000
C05  39620976.508 5 206316822.102 5        12.398          35.000    39620979.953 6 159537267.835 6         9.738          37.000
C27  21600312.461 8 112478485.204 8       560.688          51.000
C28  22912971.234 6 119313891.644 6     -2085.895          37.000
C30  24816867.414 6 129227956.145 6      2611.871          39.000
E02  23440134.297 7 123178752.396 7       538.887          47.000    23440133.227 7  94383703.213 7       412.856          47.000
E11  23852354.766 7 125344959.228 7     -1952.664          44.000    23852353.922 6  96043530.031 6     -1496.065          41.000
E25  24721496.664 8 129912335.258 8     -2143.770          48.000    24721501.703 8  99543260.135 8     -1642.697          51.000
E36  23172714.703 8 121773452.086 8       627.219          51.000    23172717.469 8  93306943.007 8       480.623          51.000
> 2020 05 10 13 23  0.0000000  0 18        .000000000000
G18  20339474.344 8 106884659.604 8       343.125          51.000    20339475.281 8  83286828.736 8       267.370          51.000
G20  23956073.062 6 125890055.266 6      3310.797          39.000
G21  20664824.914 8 108594457.443 8        52.191          50.000    20664824.070 8  84619043.114 8        40.669          49.000
G25  24365752.375 7 128042878.038 7     -3495.457          43.000    24365755.023 7  99773674.174 7     -2723.736          43.000
G26  20567190.156 5 108081305.895 5      1266.328          34.000    20567188.172 5  84219180.702 5       986.752          34.000
G31  22409804.695 8 117764310.435 8     -2637.766          50.000    22409804.617 8  91764379.545 8     -2055.402          50.000
R09  20874011.453 8 111466064.311 8     -3575.000          50.000    20874012.633 7  86695847.428 7     -2780.556          45.000
R10  19357512.812 8 103186455.826 8      -823.750          49.000
R20  19468227.859 5 104105389.286 5      -787.473          30.000    19468232.750 6  80970872.927 6      -612.482          39.000
R21  21504631.078 8 115075643.689 8      2870.184          48.000    21504633.664 6  89503273.109 6      2232.368          41.000
C05  39620902.320 5 206316435.506 5        13.344          35.000    39620905.617 6 159536968.901 6        10.291          36.000
C27  21597111.336 8 112461816.111 8       551.156          51.000
C28  22925001.367 6 119376535.199 6     -2090.039          38.000
C30  24801831.641 6 129149667.957 6      2608.012          40.000
E02  23437090.891 7 123162759.534 7       527.844          47.000    23437090.273 7  94371448.952 7       404.377          47.000
E11  23863518.352 7 125403623.983 7     -1958.062          43.000    23863517.039 6  96088480.955 6     -1500.352          40.000
E25  24733760.742 8 129976784.193 8     -2152.379          48.000    24733766.367 8  99592643.089 8     -1649.243          51.000
E36  23169164.398 8 121754794.498 8       616.996          51.000    23169167.273 8  93292646.941 8       472.790          51.000
> 2020 05 10 13 23 30.0000000  0 18        .000000000000
G18  20337571.188 8 106874658.194 8       323.973          51.000    20337572.086 8  83279035.452 8       252.449          51.000
G20  23937178.680 6 125790763.606 6      3308.516          38.000
G21  20664574.531 8 108593141.118 8        35.984          50.000    20664573.461 8  84618017.414 8        28.040          50.000
G25  24385720.156 7 128147808.213 7     -3499.691          43.000    24385723.078 7  99855437.872 7     -2727.032          43.000
G26  20560003.438 5 108043539.205 5      1252.207          34.000    20560001.875 5  84189752.074 5       975.746          33.000
G31  22424897.602 8 117843626.220 8     -2649.582          49.000    22424897.492 8  91826184.040 8     -2064.612          49.000
R09  20894140.688 8 111573554.171 8     -3590.723          49.000    20894141.508 7  86779450.586 7     -2792.784          44.000
R10  19362222.828 8 103211564.280 8      -849.758          48.000
R20  19472694.672 4 104129247.475 4      -804.098          29.000    19472698.875 6  80989451.030 6      -625.409          38.000
R21  21488575.352 7 114989724.952 7      2857.949          47.000    21488576.938 6  89436447.483 6      2222.849          40.000
C05  39620826.414 5 206316040.204 5        13.219          35.000    39620829.711 6 159536663.226 6        10.149          37.000
C27  21593967.266 8 112445445.114 8       540.594          51.000
C28  22937060.453 5 119439331.097 5     -2095.512          32.000
C30  24786823.039 6 129071514.360 6      2602.867          41.000
E02  23434113.391 7 123147113.626 7       515.613          47.000    23434113.352 8  94359460.529 8       395.116          48.000
E11  23874717.055 7 125462473.406 7     -1964.723          43.000    23874715.414 6  96133573.354 6     -1505.356          41.000
E25  24746076.281 8 130041500.824 8     -2161.758          49.000    24746082.219 8  99642231.156 8     -1656.427          51.000
E36  23165674.906 8 121736456.990 8       605.805          51.000    23165677.250 8  93278596.114 8       464.173          51.000
> 2020 05 10 13 24  0.0000000  0 17        .000000000000
G18  20335777.789 8 106865233.837 8       304.602          51.000    20335778.570 8  83271691.805 8       237.352          51.000
G20  23918299.422 6 125691545.621 6      3306.492          37.000    23918301.773 4  97941449.946 4      2576.490          25.000
G21  20664417.461 8 108592315.328 8        19.383          50.000    20664416.352 8  84617373.960 8        15.103          50.000
G25  24405712.820 7 128252868.858 7     -3504.074          44.000    24405716.070 7  99937303.234 7     -2730.450          44.000
G26  20552899.164 5 108006208.698 5      1236.957          34.000    20552898.250 5  84160663.438 5       963.863          34.000
G31  22440058.078 7 117923297.448 7     -2661.520          47.000    22440058.359 7  91888265.497 7     -2073.911          47.000
R09  20914358.383 8 111681517.131 8     -3606.598          49.000    20914359.367 7  86863421.753 7     -2805.132          45.000
R10  19367080.578 8 103237460.250 8      -876.223          48.000
R20  19477258.102 5 104153648.782 5      -821.320          30.000    19477261.703 6  81008429.833 6      -638.805          38.000
R21  21472589.047 8 114904179.051 8      2845.352          48.000    21472589.891 6  89369911.827 6      2213.051          41.000
C05  39620752.156 5 206315653.301 5        12.926          35.000    39620755.539 6 159536364.840 6         9.660          37.000
C27  21590884.023 8 112429389.934 8       530.004          51.000
C30  24771844.188 7 128993513.815 7      2597.594          43.000
E02  23431205.648 8 123131833.912 8       503.359          48.000    23431206.125 8  94347752.688 8       385.667          49.000
E11  23885954.094 7 125521524.342 7     -1971.617          43.000    23885952.734 6  96178820.167 6     -1510.881          41.000
E25  24758446.648 8 130106502.727 8     -2171.426          51.000    24758451.828 8  99692037.800 8     -1663.754          51.000
E36  23162249.516 8 121718457.455 8       594.500          51.000    23162251.344 8  93264804.256 8       455.496          51.000
> 2020 05 10 13 24 30.0000000  0 17        .000000000000
G18  20334091.281 8 106856371.248 8       284.879          51.000    20334091.945 8  83264785.903 8       221.984          50.000
G20  23899432.641 5 125592389.481 5      3303.363          34.000    23899433.180 4  97864185.511 4      2574.049          26.000
G21  20664350.648 8 108591964.044 8         2.645          51.000    20664349.336 8  84617100.254 8         2.061          50.000
G25  24425727.047 7 128358043.605 7     -3508.922          43.000    24425730.742 7 100019257.488 7     -2734.228          43.000
G26  20545874.227 5 107969301.270 5      1222.102          34.000    20545874.219 5  84131904.375 5       952.287          32.000
G31  22455282.586 7 118003305.509 7     -2673.844          45.000    22455283.312 7  91950609.427 7     -2083.515          45.000
R09  20934661.789 8 111789934.663 8     -3622.609          50.000    20934663.203 7  86947746.485 7     -2817.585          45.000
R10  19372083.406 8 103264127.812 8      -902.977          48.000
R20  19481914.625 4 104178547.739 4      -840.488          27.000    19481917.750 6  81027795.674 6      -653.713          37.000
R21  21456669.156 8 114818991.772 8      2832.391          48.000    21456670.688 7  89303655.131 7      2202.974          42.000
C05  39620677.023 5 206315262.011 5        11.941          35.000    39620680.461 6 159536062.254 6         9.409          36.000
C27  21587858.195 8 112413635.247 8       519.027          50.000
C30  24756892.812 7 128915651.952 7      2592.086          44.000
E02  23428365.008 8 123116906.330 8       490.551          48.000    23428365.875 8  94336314.673 8       375.862          49.000
E11  23897226.320 7 125580760.380 7     -1978.910          43.000    23897225.773 6  96224208.798 6     -1516.143          41.000
E25  24770868.617 8 130171774.172 8     -2181.344          51.000    24770872.391 8  99742050.952 8     -1671.431          51.000
E36  23158885.375 8 121700780.539 8       582.789          51.000    23158887.172 8  93251259.614 8       446.559          51.000
> 2020 05 10 13 25  0.0000000  0 17        .000000000000
G18  20332517.445 8 106848101.398 8       267.148          51.000    20332518.117 8  83258341.882 8       208.168          51.000
G21  20664380.102 8 108592117.908 8       -12.152          50.000    20664378.250 8  84617220.149 8        -9.469          50.000
G25  24445768.680 7 128463362.316 7     -3511.699          42.000    24445772.703 7 100101323.947 7     -2736.392          42.000
G26  20538936.336 6 107932846.576 6      1208.969          36.000    20538937.062 5  84103511.382 5       942.057          33.000
G31  22470577.148 7 118083679.375 7     -2683.840          45.000    22470577.609 7  92013238.445 7     -2091.304          45.000
R09  20955055.758 8 111898835.214 8     -3636.680          50.000    20955056.969 7  87032446.902 7     -2828.529          45.000
R10  19377237.188 8 103291598.801 8      -927.680          49.000
R20  19486669.430 5 104203977.777 5      -855.086          31.000    19486673.312 6  81047571.496 6      -665.067          39.000
R21  21440822.664 8 114734195.765 8      2821.402          48.000    21440824.742 7  89237702.712 7      2194.424          42.000
C05  39620606.953 6 206314896.249 6        13.031          36.000    39620610.250 6 159535779.426 6        10.146          36.000
C27  21584895.797 8 112398211.613 8       509.957          51.000
C28  22973430.102 5 119628678.168 5     -2112.070          30.000
C30  24741974.008 7 128837960.123 7      2588.113          42.000
E02  23425597.461 8 123102363.073 8       479.570          48.000    23425598.273 8  94325171.142 8       367.490          49.000
E11  23908539.367 7 125640211.340 7     -1983.887          43.000    23908539.578 6  96269762.149 6     -1520.250          40.000
E25  24783347.461 8 130237345.627 8     -2189.352          51.000    24783349.898 8  99792293.980 8     -1677.540          51.000
E36  23155588.414 8 121683457.109 8       572.879          51.000    23155590.211 8  93237985.823 8       438.935          51.000
> 2020 05 10 13 25 30.0000000  0 17        .000000000000
G18  20331046.258 8 106840371.156 8       248.004          50.000    20331046.648 8  83252318.325 8       193.253          50.000
G21  20664495.148 8 108592722.609 8       -28.215          50.000    20664493.062 8  84617691.355 8       -21.986          50.000
G25  24465826.984 6 128568770.771 6     -3515.707          39.000    24465831.578 6 100183460.345 6     -2739.515          39.000
G26  20532076.672 5 107896799.319 5      1194.242          33.000    20532077.359 5  84075422.698 5       930.578          33.000
G29  22139084.148 5 116341672.434 5     -2431.512          33.000
G31  22485931.547 7 118164363.389 7     -2695.449          47.000    22485930.781 7  92076109.077 7     -2100.353          47.000
R09  20975529.312 8 112008161.829 8     -3651.961          50.000    20975530.391 7  87117478.667 7     -2840.414          44.000
R10  19382531.523 8 103319818.881 8      -953.832          49.000
R20  19491512.117 4 104229875.456 4      -871.711          29.000    19491517.164 6  81067714.180 6      -677.997          38.000
R21  21425039.727 7 114649738.055 7      2808.965          47.000    21425042.312 7  89172013.401 7      2184.750          43.000
C05  39620531.703 5 206314503.660 5        12.633          35.000    39620534.656 6 159535474.880 6         9.542          37.000
C27  21581987.414 8 112383066.216 8       499.496          51.000
C30  24727078.156 7 128760386.291 7      2583.188          42.000
E02  23422893.117 8 123088152.182 8       467.305          48.000    23422893.641 8  94314282.271 8       358.113          49.000
E11  23919883.133 7 125699823.013 7     -1990.617          43.000    23919883.023 6  96315438.610 6     -1525.383          40.000
E25  24795872.750 8 130303163.489 8     -2198.770          51.000    24795874.414 8  99842725.803 8     -1684.810          51.000
E36  23152348.625 8 121666433.874 8       561.652          51.000    23152350.180 8  93224942.035 8       430.327          51.000
> 2020 05 10 13 26  0.0000000  0 18        .000000000000
G18  20329686.219 8 106833225.511 8       228.383          49.000    20329686.297 8  83246750.288 8       177.961          49.000
G20  23842911.352 5 125295328.582 5      3295.707          33.000
G21  20664704.633 8 108593823.369 8       -45.086          51.000    20664702.711 8  84618549.107 8       -35.132          50.000
G25  24485910.250 5 128674312.985 5     -3520.367          35.000    24485915.320 5 100265700.957 5     -2743.143          35.000
G26  20525302.242 4 107861192.038 4      1178.910          27.000    20525299.398 4  84047686.324 4       918.634          28.000
G29  22152979.711 5 116414693.772 5     -2436.945          35.000    22152981.539 5  90712748.627 5     -1898.915          35.000
G31  22501353.266 8 118245400.252 8     -2707.160          49.000    22501351.414 8  92139254.624 8     -2109.475          49.000
R09  20996090.617 8 112117957.183 8     -3667.688          50.000    20996091.742 7  87202874.978 7     -2852.649          45.000
R10  19387974.930 8 103348833.272 8      -980.363          49.000
R20  19496451.227 5 104256286.713 5      -889.781          30.000    19496455.375 6  81088257.785 6      -692.055          36.000
R21  21409328.164 7 114565665.822 7      2795.793          45.000    21409331.609 7  89106623.880 7      2174.506          42.000
C05  39620459.781 5 206314131.178 5        12.461          35.000    39620462.648 6 159535184.297 6         9.509          36.000
C27  21579140.953 8 112368243.548 8       488.652          51.000
C30  24712213.297 6 128682975.802 6      2577.633          38.000
E02  23420260.688 8 123074319.930 8       454.746          48.000    23420261.336 8  94303683.529 8       348.388          49.000
E11  23931265.859 7 125759639.291 7     -1997.414          42.000    23931264.859 6  96361271.861 6     -1530.447          39.000
E25  24808453.172 8 130369272.284 8     -2208.426          51.000    24808454.367 8  99893380.545 8     -1692.173          51.000
E36  23149174.672 8 121649755.782 8       550.066          51.000    23149176.281 8  93212162.720 8       421.521          51.000
> 2020 05 10 13 26 30.0000000  0 18        .000000000000
G18  20328434.312 8 106826647.977 8       210.328          49.000    20328434.539 8  83241624.953 8       163.892          49.000
G20  23824102.797 6 125196488.549 6      3293.895          37.000    23824110.609 5  97555762.631 5      2566.689          30.000
G21  20665005.320 8 108595403.095 8       -60.207          51.000    20665003.414 8  84619780.066 8       -46.915          50.000
G25  24506014.820 5 128779971.380 5     -3522.281          30.000    24506020.789 4 100348032.060 4     -2744.641          29.000
G26  20518610.547 5 107826035.601 5      1164.922          33.000    20518613.695 5  84020287.234 5       907.731          30.000
G29  22166905.156 6 116487874.387 6     -2441.664          36.000    22166914.227 6  90769772.500 6     -1902.598          36.000
G31  22516838.289 8 118326771.332 8     -2717.309          48.000    22516836.047 8  92202660.614 8     -2117.386          48.000
R09  21016736.273 8 112228201.539 8     -3681.785          51.000    21016737.188 7  87288620.542 7     -2863.611          46.000
R10  19393564.117 8 103378625.147 8     -1005.535          49.000
R20  19501482.750 5 104283196.835 5      -904.484          31.000    19501487.336 6  81109187.882 6      -703.488          38.000
R21  21393685.078 7 114481963.428 7      2784.355          44.000    21393689.773 7  89041522.063 7      2165.610          42.000
C05  39620388.414 5 206313758.770 5        12.742          35.000    39620391.188 6 159534896.310 6        10.234          37.000
C27  21576353.188 8 112353727.132 8       479.281          51.000
C30  24697376.594 6 128605713.079 6      2573.082          39.000
E02  23417697.461 8 123060851.033 8       443.453          49.000    23417698.219 8  94293363.204 8       339.816          50.000
E11  23942684.109 7 125819642.633 7     -2002.559          43.000    23942682.578 6  96407248.423 6     -1534.359          40.000
E25  24821085.539 8 130435655.104 8     -2216.793          51.000    24821086.438 8  99944245.273 8     -1698.561          51.000
E36  23146063.328 8 121633406.235 8       540.090          51.000    23146065.383 8  93199635.173 8       413.859          51.000
> 2020 05 10 13 27  0.0000000  0 17        .000000000000
G18  20327290.789 8 106820639.383 8       191.652          48.000    20327290.930 8  83236942.930 8       149.339          48.000
G20  23805310.562 6 125097733.349 6      3291.270          37.000    23805313.281 5  97478810.520 5      2564.629          32.000
G21  20665397.062 8 108597462.025 8       -75.758          51.000    20665395.156 8  84621384.434 8       -59.032          50.000
G25  24526141.805 5 128885749.715 5     -3527.445          33.000    24526148.297 5 100430453.735 5     -2748.653          33.000
G29  22180861.781 6 116561214.568 6     -2446.668          36.000    22180872.555 6  90826920.605 6     -1906.501          36.000
G31  22532385.867 8 118408475.179 8     -2728.055          48.000    22532384.414 7  92266325.893 7     -2125.760          47.000
R09  21037465.727 8 112338893.039 8     -3696.281          51.000    21037466.656 8  87374713.880 8     -2874.885          48.000
R10  19399298.844 8 103409195.112 8     -1031.188          49.000
R20  19506608.055 5 104310603.064 5      -921.254          31.000    19506613.297 6  81130503.840 6      -716.531          37.000
R21  21378111.992 7 114398632.692 7      2772.262          44.000    21378117.523 7  88976709.313 7      2156.204          42.000
C05  39620317.562 5 206313390.621 5        13.180          35.000    39620320.445 6 159534610.888 6        10.095          36.000
C27  21573624.773 8 112339517.723 8       469.406          51.000
C30  24682567.281 6 128528599.586 6      2569.000          36.000
E02  23415203.898 8 123047747.605 8       431.523          50.000    23415204.766 8  94283322.916 8       330.582          50.000
E11  23954137.961 7 125879832.844 7     -2008.551          43.000    23954136.461 6  96453368.191 6     -1539.076          39.000
E25  24833769.906 8 130502312.347 8     -2225.586          51.000    24833771.062 8  99995320.280 8     -1705.319          51.000
E36  23143014.836 8 121617386.034 8       529.371          51.000    23143016.992 8  93187359.973 8       405.589          51.000
> 2020 05 10 13 27 30.0000000  0 18        .000000000000
G18  20326254.953 7 106815197.419 7       172.062          47.000    20326255.023 7  83232702.430 7       134.075          47.000
G20  23786534.094 6 124999063.746 6      3287.559          37.000    23786537.930 4  97401925.081 4      2561.713          28.000
G21  20665879.547 8 108599997.261 8       -92.312          51.000    20665877.828 8  84623359.947 8       -71.932          51.000
G25  24546292.023 6 128991636.896 6     -3531.473          38.000    24546297.281 6 100512963.161 6     -2751.800          38.000
G26  20505480.703 5 107757013.123 5      1135.098          32.000    20505480.703 5  83966520.373 5       884.495          30.000
G29  22194848.000 6 116634711.425 6     -2452.574          39.000    22194856.125 6  90884190.793 6     -1911.097          39.000
G31  22547995.641 8 118490506.724 8     -2739.727          49.000    22547995.289 8  92330246.535 8     -2134.855          49.000
R09  21058277.711 8 112450026.352 8     -3711.602          51.000    21058278.742 8  87461150.870 8     -2886.801          48.000
R10  19405179.242 8 103440540.562 8     -1057.641          51.000
R20  19511824.695 5 104338500.656 5      -937.426          30.000    19511828.180 6  81152201.914 6      -729.109          37.000
R21  21362609.086 7 114315672.817 7      2759.254          44.000    21362614.898 7  88912184.955 7      2146.086          42.000
C05  39620247.031 5 206313022.891 5        12.320          35.000    39620249.914 6 159534326.525 6         9.494          36.000
C27  21570954.508 8 112325612.947 8       458.547          51.000
C30  24667785.867 6 128451633.784 6      2563.359          37.000
E02  23412779.789 8 123035008.629 8       418.625          50.000    23412780.836 8  94273561.869 8       320.815          50.000
E11  23965626.891 7 125940206.610 7     -2015.586          43.000    23965625.625 6  96499628.593 6     -1544.395          39.000
E25  24846505.430 8 130569241.261 8     -2235.395          51.000    24846507.391 8 100046603.476 8     -1712.859          51.000
E36  23140028.609 8 121601692.807 8       517.789          51.000    23140030.891 8  93175335.299 8       396.744          51.000
> 2020 05 10 13 28  0.0000000  0 18        .000000000000
G18  20325323.500 8 106810302.718 8       153.715          48.000    20325323.531 8  83228888.361 8       119.778          49.000
G20  23767771.336 6 124900463.567 6      3285.152          38.000    23767774.477 5  97325064.989 5      2559.874          33.000
G21  20666448.883 8 108602988.947 8      -107.672          51.000    20666447.219 8  84625691.139 8       -83.900          50.000
G25  24566460.445 7 129097616.556 7     -3534.531          43.000    24566463.133 7 100595544.571 7     -2754.183          43.000
G26  20499040.242 6 107723154.829 6      1121.258          36.000    20499038.656 6  83940137.203 6       873.704          37.000
G29  22208860.438 5 116708344.828 5     -2456.863          33.000    22208861.789 5  90941567.466 5     -1914.451          33.000
G31  22563663.805 8 118572844.408 8     -2749.973          50.000    22563664.031 8  92394405.732 8     -2142.836          50.000
R09  21079167.828 8 112561578.766 8     -3725.656          51.000    21079169.266 8  87547913.831 8     -2897.733          48.000
R10  19411201.422 8 103472641.515 8     -1082.973          51.000
R20  19517129.555 5 104366868.836 5      -954.266          31.000    19517134.336 6  81174266.074 6      -742.207          39.000
R21  21347173.062 7 114233065.118 7      2747.266          44.000    21347177.672 6  88847934.537 6      2136.762          40.000
C05  39620173.016 5 206312637.688 5        13.016          35.000    39620175.867 6 159534028.669 6         9.832          36.000
C27  21568338.789 8 112311993.565 8       448.938          51.000
C30  24653029.391 6 128374797.309 6      2558.668          37.000
E02  23410421.609 8 123022615.972 8       406.973          51.000    23410422.570 8  94264066.195 8       311.824          50.000
E11  23977146.906 7 126000743.528 7     -2020.766          42.000    23977145.742 6  96546014.010 6     -1548.385          39.000
E25  24859288.703 8 130636422.084 8     -2243.840          51.000    24859291.586 8 100098079.704 8     -1719.342          51.000
E36  23137100.695 8 121586307.179 8       507.340          51.000    23137103.828 8  93163546.319 8       388.735          51.000
> 2020 05 10 13 28 30.0000000  0 18        .000000000000
G18  20324503.617 8 106805993.540 8       134.035          49.000    20324503.391 8  83225530.553 8       104.443          49.000
G20  23749029.711 6 124801974.492 6      3281.391          39.000
G21  20667112.055 8 108606474.346 8      -124.145          50.000    20667110.234 8  84628407.037 8       -96.736          50.000
G25  24586653.914 7 129203726.007 7     -3538.992          44.000    24586653.516 7 100678227.135 7     -2757.659          43.000
G26  20492686.781 6 107689758.555 6      1105.695          39.000    20492684.422 6  83914114.149 6       861.581          39.000
G29  22222905.758 5 116782152.915 5     -2463.039          34.000    22222904.836 5  90999080.203 5     -1919.251          33.000
G31  22579397.195 8 118655524.637 8     -2761.395          50.000    22579397.383 8  92458831.828 8     -2151.736          50.000
R09  21100143.258 8 112673586.399 8     -3740.844          51.000    21100144.711 8  87635030.848 8     -2909.548          48.000
R10  19417372.320 8 103505536.550 8     -1109.480          51.000
R20  19522529.656 5 104395744.480 5      -970.707          30.000    19522534.477 6  81196724.927 6      -754.994          37.000
R21  21331810.125 7 114150849.718 7      2734.254          45.000    21331813.102 6  88783989.307 6      2126.648          40.000
C05  39620102.891 5 206312272.503 5        12.148          34.000    39620105.977 6 159533747.042 6         9.451          37.000
C27  21565785.641 8 112298697.510 8       438.105          51.000
C30  24638305.172 6 128298128.908 6      2552.672          36.000
E02  23408136.898 8 123010609.271 8       394.059          51.000    23408137.469 8  94254866.249 8       301.941          50.000
E11  23988705.109 6 126061481.017 6     -2027.457          41.000    23988703.711 6  96592553.100 6     -1553.847          39.000
E25  24872127.180 8 130703892.806 8     -2253.625          50.000    24872130.656 8 100149778.046 8     -1726.786          51.000
E36  23134238.711 8 121571267.406 8       495.809          51.000    23134242.578 8  93152022.355 8       379.926          51.000
> 2020 05 10 13 29  0.0000000  0 19        .000000000000
G18  20323790.734 8 106802246.012 8       115.777          51.000    20323790.523 8  83222610.405 8        90.216          51.000
G20  23730305.438 6 124703576.188 6      3278.320          41.000    23730304.664 5  97171639.473 5      2554.535          31.000
G21  20667864.703 8 108610429.536 8      -139.488          50.000    20667862.875 8  84631489.000 8      -108.689          50.000
G25  24606867.062 7 129309940.373 7     -3541.906          45.000    24606863.984 7 100760991.475 7     -2759.927          43.000
G26  20486417.055 6 107656802.432 6      1091.461          40.000    20486412.867 6  83888434.074 6       850.486          40.000
G29  22236979.812 6 116856111.109 6     -2467.914          38.000    22236976.562 5  91056709.871 5     -1923.053          31.000
G31  22595190.695 8 118738520.543 8     -2771.574          50.000    22595190.477 8  92523503.934 8     -2159.668          49.000
R09  21121198.773 8 112786021.972 8     -3754.797          51.000    21121200.109 7  87722480.684 7     -2920.401          47.000
R10  19423687.547 8 103539201.110 8     -1134.828          50.000
R20  19528020.156 5 104425101.607 5      -987.223          31.000    19528023.719 6  81219558.199 6      -767.840          40.000
R21  21316515.227 7 114069003.812 7      2722.148          45.000    21316517.750 6  88720331.474 6      2117.230          41.000
C05  39620032.336 5 206311905.020 5        12.094          35.000    39620035.594 6 159533463.650 6         9.639          36.000
C27  21563290.055 8 112285701.052 8       428.359          51.000
C28  23071738.078 5 120140564.571 5     -2153.465          33.000
C30  24623608.484 5 128221605.695 5      2548.773          31.000
E02  23405921.344 8 122998965.934 8       382.262          51.000    23405921.562 8  94245944.730 8       292.971          51.000
E11  24000296.633 6 126122394.153 6     -2033.289          39.000    24000294.641 6  96639226.799 6     -1557.954          38.000
E25  24885016.359 8 130771629.143 8     -2262.117          49.000    24885020.289 8 100201679.911 8     -1733.266          51.000
E36  23131438.273 8 121556549.596 8       485.504          51.000    23131442.305 8  93140745.082 8       371.992          51.000
> 2020 05 10 13 29 30.0000000  0 19        .000000000000
G18  20323187.039 8 106799071.912 8        96.918          51.000    20323186.609 8  83220137.072 8        75.520          51.000
G20  23711601.094 6 124605283.269 6      3275.367          41.000
G21  20668709.062 8 108614866.151 8      -155.195          51.000    20668707.336 8  84634946.113 8      -120.928          50.000
G25  24627101.523 7 129416270.571 7     -3545.508          43.000    24627098.195 7 100843846.074 7     -2762.739          43.000
G26  20480233.180 6 107624300.212 6      1076.645          40.000    20480227.406 6  83863107.705 6       838.944          41.000
G29  22251084.297 6 116930230.846 6     -2472.902          36.000    22251081.516 5  91114465.570 5     -1926.937          35.000
G31  22611046.125 8 118821842.222 8     -2781.941          49.000    22611045.852 8  92588429.898 8     -2167.747          49.000
R09  21142335.961 8 112898894.620 8     -3768.812          51.000    21142337.180 7  87810270.459 7     -2931.299          45.000
R10  19430149.117 8 103573646.944 8     -1160.383          49.000
R20  19533602.461 5 104454950.550 5     -1002.098          31.000    19533606.141 6  81242774.064 6      -779.409          39.000
R21  21301290.836 7 113987540.651 7      2709.863          42.000    21301295.320 7  88656971.260 7      2107.671          42.000
C05  39619963.883 5 206311548.396 5        12.602          35.000    39619967.125 6 159533187.913 6         9.768          36.000
C27  21560854.094 8 112273015.902 8       418.434          51.000
C28  23084175.641 5 120205242.040 5     -2157.266          31.000
C30  24608940.977 5 128145240.345 5      2543.246          31.000
E02  23403777.234 8 122987699.113 8       370.031          51.000    23403777.438 8  94237311.706 8       283.536          51.000
E11  24011923.555 6 126183493.822 6     -2038.984          38.000    24011920.875 6  96686043.435 6     -1562.315          38.000
E25  24897958.234 8 130839642.529 8     -2270.965          48.000    24897962.664 8 100253794.070 8     -1740.093          51.000
E36  23128701.539 8 121542165.589 8       474.703          51.000    23128705.344 8  93129723.568 8       363.737          51.000
> 2020 05 10 13 30  0.0000000  0 18        .000000000000
G18  20322690.008 8 106796458.917 8        77.676          51.000    20322689.461 8  83218100.984 8        60.530          51.000
G20  23692915.336 7 124507087.420 7      3271.570          42.000    23692913.203 4  97018533.515 4      2549.266          29.000
G21  20669642.477 8 108619770.815 8      -171.426          50.000    20669640.531 8  84638767.926 8      -133.579          50.000
G25  24647354.617 6 129522703.357 6     -3549.484          41.000    24647351.336 6 100926780.617 6     -2765.835          41.000
G26  20474132.633 6 107592241.652 6      1060.660          38.000    20474127.898 6  83838127.048 6       826.491          37.000
G31  22626960.914 8 118905475.016 8     -2793.016          50.000    22626960.680 8  92653598.275 8     -2176.376          49.000
R09  21163552.180 8 113012189.012 8     -3783.539          50.000    21163553.484 7  87898388.272 7     -2942.756          44.000
R10  19436755.023 8 103608861.372 8     -1186.668          49.000
R20  19539274.102 5 104485277.157 5     -1019.402          31.000    19539276.898 6  81266361.399 6      -792.865          39.000
R21  21286136.102 6 113906448.829 6      2696.797          38.000    21286141.703 7  88593899.794 7      2097.509          42.000
C05  39619895.375 5 206311192.027 5        11.809          35.000    39619898.312 6 159532911.805 6         9.186          37.000
C27  21558475.656 8 112260629.848 8       407.832          51.000
C28  23096639.492 6 120270063.878 6     -2162.996          37.000
C30  24594303.375 5 128069021.251 5      2537.879          34.000
E02  23401702.727 8 122976797.765 8       357.148          51.000    23401703.031 8  94228958.741 8       273.581          51.000
E11  24023583.555 6 126244766.827 6     -2045.137          39.000    24023580.461 6  96732992.861 6     -1567.271          38.000
E25  24910950.453 7 130907920.289 7     -2280.527          47.000    24910955.672 8 100306110.809 8     -1747.423          51.000
E36  23126025.820 8 121528103.037 8       463.234          51.000    23126029.547 8  93118948.388 8       354.901          51.000
> 2020 05 10 13 30 30.0000000  0 18        .000000000000
G18  20322302.180 8 106794419.702 8        59.066          51.000    20322301.844 8  83216512.001 8        46.026          51.000
G20  23674251.148 7 124409004.151 7      3268.441          43.000    23674249.391 6  96942105.098 6      2546.844          36.000
G21  20670667.359 8 108625156.128 8      -186.785          51.000    20670665.266 8  84642964.277 8      -145.547          51.000
G25  24667628.789 6 129629250.430 6     -3552.465          40.000    24667626.336 6 101009804.215 6     -2768.161          40.000
G26  20468117.555 6 107560691.448 6      1046.363          36.000    20468115.891 5  83813503.496 5       815.351          35.000
G31  22642937.078 8 118989429.093 8     -2803.035          50.000    22642936.477 8  92719016.996 8     -2184.183          49.000
R09  21184849.039 8 113125914.769 8     -3797.285          49.000    21184850.773 7  87986841.600 7     -2953.444          44.000
R10  19443507.414 7 103644856.268 7     -1212.070          47.000
R20  19545036.625 5 104516092.576 5     -1034.402          33.000    19545039.797 6  81290328.969 6      -804.532          39.000
R21  21271053.945 6 113825742.494 6      2684.488          40.000    21271058.945 6  88531128.198 6      2087.938          40.000
C05  39619828.922 5 206310845.754 5        12.309          35.000    39619831.578 6 159532643.274 6         9.282          36.000
C27  21556157.141 8 112248555.448 8       397.965          51.000
C28  23109125.453 6 120335042.125 6     -2167.652          36.000
C30  24579697.766 5 127992961.812 5      2533.156          35.000
E02  23399700.523 8 122966275.916 8       344.973          51.000    23399701.047 8  94220896.536 8       264.369          51.000
E11  24035278.750 6 126306224.893 6     -2051.074          38.000    24035275.766 6  96780084.078 6     -1571.692          37.000
E25  24923995.805 7 130976474.736 7     -2288.953          47.000    24924001.992 8 100358639.523 8     -1753.924          51.000
E36  23123413.633 8 121514374.624 8       452.691          51.000    23123417.070 8  93108429.230 8       346.843          51.000
> 2020 05 10 13 31  0.0000000  0 18        .000000000000
G18  20322021.016 8 106792941.761 8        39.988          51.000    20322020.461 8  83215360.373 8        31.160          50.000
G20  23655606.680 7 124311024.749 7      3264.051          42.000    23655605.062 5  96865757.546 5      2543.422          35.000
G21  20671781.195 8 108631009.073 8      -202.863          51.000    20671779.281 8  84647525.012 8      -158.075          51.000
G25  24687922.406 6 129735898.571 6     -3556.492          41.000    24687920.406 6 101092906.578 6     -2771.296          41.000
G26  20462186.984 6 107529526.104 6      1030.645          36.000    20462188.516 6  83789228.885 6       803.100          38.000
G31  22658971.625 8 119073690.238 8     -2813.703          48.000    22658970.570 8  92784675.008 8     -2192.496          49.000
R09  21206223.891 8 113240056.717 8     -3811.594          49.000    21206226.016 7  88075618.619 7     -2964.576          43.000
R10  19450404.062 7 103681619.350 7     -1238.109          47.000
R20  19550888.336 5 104547382.048 5     -1050.445          32.000    19550891.219 6  81314665.245 6      -817.013          38.000
R21  21256041.742 6 113745410.226 6      2671.496          40.000    21256045.914 6  88468647.553 6      2077.830          39.000
C05  39619762.016 6 206310496.857 6        12.090          36.000    39619764.797 6 159532374.258 6         9.433          37.000
C27  21553895.812 8 112236780.419 8       387.578          51.000
C28  23121637.297 5 120400163.803 5     -2173.227          34.000
C30  24565121.141 6 127917050.663 6      2527.727          37.000
E02  23397768.484 8 122956122.459 8       332.352          51.000    23397769.266 8  94213116.600 8       254.656          51.000
E11  24047006.266 5 126367854.773 5     -2057.188          35.000    24047003.914 6  96827306.946 6     -1576.251          36.000
E25  24937091.773 8 131045293.136 8     -2298.324          49.000    24937098.336 8 100411370.491 8     -1761.072          51.000
E36  23120862.781 8 121500967.969 8       441.645          51.000    23120865.734 8  93098156.596 8       338.370          51.000
> 2020 05 10 13 31 30.0000000  0 18        .000000000000
G18  20321843.039 8 106792006.052 8        20.996          51.000    20321842.383 8  83214631.249 8        16.361          50.000
G20  23636978.969 7 124213133.247 7      3260.320          42.000    23636976.664 5  96789478.462 5      2540.509          35.000
G21  20672980.156 8 108637309.776 8      -218.641          51.000    20672978.281 8  84652434.654 8      -170.369          51.000
G25  24708232.461 7 129842627.843 7     -3560.238          43.000    24708231.617 7 101176072.111 7     -2774.215          42.000
G26  20456339.641 6 107498804.373 6      1016.270          39.000    20456341.953 6  83765289.905 6       791.901          39.000
G31  22675060.211 8 119158236.723 8     -2823.988          48.000    22675058.922 8  92850555.357 8     -2200.510          48.000
R09  21227672.898 8 113354592.787 8     -3825.629          50.000    21227675.164 7  88164702.173 7     -2975.489          44.000
R10  19457441.406 8 103719130.059 8     -1264.098          48.000
R20  19556824.445 5 104579125.160 5     -1066.562          31.000    19556826.867 6  81339354.323 6      -829.549          39.000
R21  21241097.453 7 113665433.891 7      2658.895          42.000    21241100.445 6  88406443.701 6      2068.026          39.000
C05  39619691.531 5 206310130.038 5        11.207          35.000    39619694.516 6 159532090.615 6         8.745          37.000
C27  21551688.219 8 112225285.880 8       377.375          51.000
C28  23134120.391 5 120465481.585 5     -2178.055          34.000
C30  24550569.914 6 127841269.714 6      2522.883          40.000
E02  23395903.227 8 122946319.642 8       319.797          51.000    23395904.117 8  94205605.351 8       245.042          51.000
E11                                                                  24058760.906 5  96874646.177 5     -1580.782          35.000
E25  24950234.625 8 131114356.072 8     -2307.227          50.000    24950240.812 8 100464288.821 8     -1767.827          51.000
E36  23118369.516 8 121487864.025 8       430.660          51.000    23118372.258 8  93088115.915 8       330.007          51.000
> 2020 05 10 13 32  0.0000000  0 18        .000000000000
G18  20321774.773 8 106791646.880 8         2.578          51.000    20321774.469 8  83214351.407 8         2.012          50.000
G20  23618375.055 6 124115367.957 6      3257.078          39.000    23618372.766 6  96713297.732 6      2537.980          38.000
G21  20674270.883 8 108644092.384 8      -233.941          51.000    20674268.758 8  84657719.802 8      -182.295          51.000
G25  24728564.797 7 129949471.805 7     -3563.242          43.000    24728565.664 7 101259327.032 7     -2776.555          44.000
G26  20450581.711 6 107468549.749 6      1000.609          38.000    20450583.570 6  83741714.906 6       779.699          37.000
G31  22691209.070 8 119243100.750 8     -2833.789          49.000    22691208.055 8  92916683.149 8     -2208.147          49.000
R09  21249201.703 8 113469554.699 8     -3838.855          49.000    21249204.109 7  88254116.941 7     -2985.776          46.000
R10  19464625.766 8 103757423.073 8     -1289.199          49.000
R20  19562851.258 5 104611354.557 5     -1081.484          30.000    19562854.305 6  81364421.649 6      -841.155          39.000
R21  21226227.086 7 113585849.893 7      2646.469          44.000    21226229.156 6  88344545.090 6      2058.368          39.000
C05  39619624.102 5 206309778.779 5        12.000          35.000    39619627.188 6 159531820.022 6         9.065          37.000
C27  21549541.070 8 112214106.012 8       367.668          51.000
C28  23146675.977 5 120530884.816 5     -2182.516          32.000
C30  24536050.430 6 127765654.044 6      2518.039          41.000
E02  23394111.312 8 122936903.278 8       307.750          51.000    23394112.234 8  94198390.215 8       235.710          51.000
E11  24070554.336 5 126491615.544 5     -2068.078          35.000    24070553.031 5  96922127.491 5     -1585.182          34.000
E25  24963430.398 8 131183697.643 8     -2315.875          50.000    24963436.297 8 100517420.633 8     -1774.496          50.000
E36  23115940.211 8 121475097.237 8       420.207          51.000    23115942.938 8  93078333.583 8       322.004          51.000
> 2020 05 10 13 32 30.0000000  0 19        .000000000000
G18  20321813.992 8 106791852.252 8       -15.871          51.000    20321813.641 8  83214511.449 8       -12.367          51.000
G20  23599792.836 5 124017719.735 5      3253.305          35.000    23599790.805 5  96637208.242 5      2535.040          35.000
G21  20675650.938 8 108651344.474 8      -249.098          51.000    20675648.711 8  84663370.793 8      -194.102          51.000
G25  24748916.688 7 130056417.553 7     -3566.203          43.000    24748919.227 7 101342661.279 7     -2778.863          44.000
G26  20444910.859 6 107438732.544 6       985.844          36.000    20444913.695 5  83718501.285 5       768.187          34.000
G29  22336330.859 5 117378177.577 5     -2502.855          35.000    22336313.375 5  91463498.424 5     -1950.280          35.000
G31  22707415.758 8 119328268.243 8     -2843.555          50.000    22707415.594 8  92983047.381 8     -2215.757          50.000
R09  21270807.281 8 113584927.615 8     -3852.023          48.000    21270810.000 7  88343851.382 7     -2996.021          47.000
R10  19471954.320 8 103796485.827 8     -1314.477          49.000
R20  19568965.570 5 104644056.445 5     -1096.625          30.000    19568969.578 6  81389856.414 6      -852.934          38.000
R21  21211426.578 6 113506647.152 6      2634.270          41.000    21211427.609 6  88282942.973 6      2048.876          37.000
C05                                                                  39619560.758 6 159531552.763 6         8.805          36.000
C27  21547452.102 8 112203228.944 8       357.906          51.000
C28  23159261.953 5 120596432.981 5     -2187.195          32.000
C30  24521559.898 6 127690192.500 6      2513.352          40.000
E02  23392390.898 8 122927862.692 8       295.418          51.000    23392391.672 8  94191463.005 8       226.344          51.000
E11  24082379.648 6 126553755.343 6     -2074.281          36.000    24082377.875 5  96969741.056 5     -1588.959          34.000
E25  24976676.562 8 131253305.512 8     -2324.277          50.000    24976681.719 8 100570756.442 8     -1780.892          48.000
E36  23113572.742 8 121462655.666 8       409.676          51.000    23113575.469 8  93068800.435 8       313.860          51.000
> 2020 05 10 13 33  0.0000000  0 18        .000000000000
G18  20321957.531 8 106792606.540 8       -34.879          51.000    20321957.078 8  83215099.212 8       -27.178          51.000
G20  23581230.531 6 123920176.895 6      3249.023          36.000    23581228.867 6  96561200.765 6      2531.704          36.000
G21  20677117.227 8 108659050.068 8      -265.012          51.000    20677115.164 8  84669375.179 8      -206.503          50.000
G25  24769284.656 7 130163448.711 7     -3569.945          43.000    24769288.156 7 101426062.095 7     -2781.779          44.000
G26  20439324.961 6 107409379.058 6       970.355          39.000    20439328.867 6  83695628.405 6       756.121          39.000
G31  22723676.930 8 119413721.286 8     -2853.801          51.000    22723677.734 8  93049634.111 8     -2223.744          51.000
R09  21292486.211 7 113700692.661 7     -3865.902          47.000    21292489.289 8  88433890.839 8     -3006.813          48.000
R10  19479423.555 8 103836302.238 8     -1340.473          50.000
R20  19575165.617 5 104677213.884 5     -1113.414          30.000    19575170.438 6  81415645.538 6      -865.986          39.000
R21  21196693.664 6 113427811.339 6      2621.301          40.000    21196694.484 6  88221626.252 6      2038.793          37.000
C05  39619488.688 5 206309074.324 5        12.047          35.000    39619492.172 6 159531276.307 6         9.071          36.000
C27  21545418.516 8 112192639.360 8       347.578          51.000
C28  23171873.938 5 120662032.570 5     -2191.867          31.000
C30  24507095.305 6 127614870.698 6      2507.578          37.000
E02  23390739.227 8 122919183.683 8       282.633          51.000    23390739.992 8  94184812.857 8       216.554          51.000
E11  24094233.969 6 126616051.348 6     -2079.770          38.000    24094232.664 5  97017474.359 5     -1593.461          35.000
E25  24989970.547 8 131323163.806 8     -2333.430          51.000    24989974.305 8 100624284.157 8     -1787.968          48.000
E36  23111264.109 8 121450523.834 8       398.539          51.000    23111266.984 8  93059504.606 8       305.413          51.000
> 2020 05 10 13 33 30.0000000  0 18        .000000000000
G18  20322209.797 8 106793932.371 8       -53.875          51.000    20322209.625 8  83216132.343 8       -41.981          51.000
G20  23562693.203 6 123822765.460 6      3244.695          39.000    23562691.969 6  96485295.806 6      2528.337          39.000
G21  20678674.094 8 108667231.363 8      -280.910          51.000    20678672.070 8  84675750.222 8      -218.891          50.000
G25  24789672.719 7 130270587.073 7     -3573.258          43.000    24789676.695 7 101509546.431 7     -2784.360          43.000
G26  20433828.531 6 107380493.870 6       954.793          40.000    20433832.633 6  83673120.458 6       743.998          40.000
G31  22739996.516 8 119499480.380 8     -2863.840          51.000    22739998.047 8  93116459.330 8     -2231.567          51.000
R09  21314241.883 7 113816869.948 7     -3879.555          47.000    21314245.906 8  88524250.961 8     -3017.431          48.000
R10  19487038.469 8 103876894.552 8     -1366.207          50.000
R20  19581455.305 5 104710847.819 5     -1128.895          32.000    19581460.117 6  81441805.273 6      -878.029          39.000
R21  21182033.953 6 113349366.447 6      2607.906          40.000    21182035.719 6  88160613.592 6      2028.375          39.000
C05  39619422.391 5 206308728.336 5        10.938          35.000    39619426.000 6 159531009.532 6         8.509          37.000
C27  21543444.297 8 112182359.777 8       337.371          51.000
C28  23184514.039 5 120727861.053 5     -2196.945          32.000
C30  24492661.539 6 127539711.930 6      2502.156          38.000
E02  23389160.867 8 122910890.290 8       269.840          51.000    23389161.781 8  94178458.179 8       206.793          51.000
E11  24106122.078 6 126678525.458 6     -2085.211          38.000    24106121.422 5  97065344.151 5     -1598.235          35.000
E25  25003316.500 8 131393294.869 8     -2342.402          51.000    25003319.414 8 100678020.904 8     -1794.843          51.000
E36  23109018.484 8 121438724.419 8       387.625          51.000    23109021.445 8  93050463.502 8       296.975          51.000
> 2020 05 10 13 34  0.0000000  0 19        .000000000000
G18  20322566.648 8 106795808.822 8       -71.051          51.000    20322566.852 8  83217594.515 8       -55.364          51.000
G20  23544177.336 6 123725468.276 6      3241.902          40.000    23544177.008 6  96409479.828 6      2526.158          40.000
G21  20680317.266 8 108675866.815 8      -294.766          51.000    20680315.445 8  84682479.150 8      -229.687          50.000
G25  24810076.719 7 130377811.065 7     -3574.883          43.000    24810081.164 7 101593097.494 7     -2785.626          42.000
G26  20428417.773 6 107352058.288 6       941.098          40.000    20428421.961 6  83650962.846 6       733.320          40.000
G29  22379304.055 6 117604024.802 6     -2516.391          38.000    22379306.078 6  91639508.739 6     -1960.818          37.000
G31  22756370.117 8 119585522.692 8     -2872.109          51.000    22756371.992 8  93183505.237 8     -2238.010          51.000
R09  21336070.836 8 113933435.655 8     -3891.289          48.000    21336075.039 8  88614913.177 8     -3026.561          48.000
R10  19494794.578 8 103918240.874 8     -1390.098          50.000
R20  19587830.359 4 104744935.587 4     -1142.777          29.000    19587834.805 6  81468317.961 6      -888.830          38.000
R21  21167444.375 6 113271292.671 6      2596.777          39.000    21167446.359 6  88099889.579 6      2019.716          38.000
C05  39619354.703 5 206308375.729 5        12.332          35.000    39619358.242 6 159530737.862 6         9.920          36.000
C27  21541525.641 8 112172369.646 8       328.840          51.000
C28  23197179.797 5 120793819.557 5     -2200.215          32.000
C30  24478254.727 6 127464696.486 6      2498.926          36.000
E02  23387652.367 8 122902963.069 8       258.730          51.000    23387653.180 8  94172384.069 8       198.263          51.000
E11  24118040.328 6 126741156.179 6     -2089.766          36.000    24118040.250 5  97113333.842 5     -1600.980          35.000
E25  25016710.281 8 131463677.609 8     -2349.652          51.000    25016712.969 8 100731950.506 8     -1800.428          51.000
E36  23106832.055 8 121427236.693 8       378.359          51.000    23106835.078 8  93041661.219 8       289.924          51.000
> 2020 05 10 13 34 30.0000000  0 18        .000000000000
G18  20323029.484 8 106798242.375 8       -91.332          51.000    20323029.805 8  83219490.760 8       -71.168          50.000
G20  23525684.039 6 123628295.051 6      3235.930          39.000    23525685.750 6  96333760.433 6      2521.504          39.000
G21  20682048.000 8 108684962.502 8      -311.746          51.000    20682046.633 8  84689566.726 8      -242.919          51.000
G25  24830497.773 6 130485126.377 6     -3579.430          41.000    24830502.555 6 101676719.713 6     -2789.169          41.000
G26  20423094.234 6 107324080.738 6       923.953          41.000    20423098.234 7  83629162.194 7       719.963          42.000
G29  22393690.250 5 117679615.955 5     -2522.852          31.000    22393684.359 5  91698410.958 5     -1965.864          31.000
G31  22772798.469 8 119671852.410 8     -2883.301          51.000    22772800.312 8  93250775.115 8     -2246.728          51.000
R09  21357974.047 8 114050393.692 8     -3905.930          51.000    21357977.594 7  88705880.478 7     -3037.948          47.000
R10  19502693.547 8 103960347.863 8     -1417.059          50.000
R20  19594290.188 4 104779477.003 4     -1160.250          27.000    19594295.500 6  81495187.416 6      -902.417          39.000
R21  21152925.484 6 113193597.947 6      2582.688          39.000    21152926.016 6  88039460.430 6      2008.763          36.000
C05  39619286.859 5 206308023.642 5        10.430          35.000    39619290.398 6 159530464.811 6         8.681          36.000
C27  21539664.172 8 112162675.529 8       317.367          51.000
C30  24463875.875 5 127389831.881 5      2492.434          33.000
E02  23386215.242 8 122895409.859 8       244.750          51.000    23386215.891 8  94166596.558 8       187.482          51.000
E11  24129989.414 6 126803949.098 6     -2096.590          36.000    24129990.117 5  97161447.893 5     -1606.209          34.000
E25  25030152.820 8 131534318.277 8     -2359.832          51.000    25030155.836 8 100786077.738 8     -1808.192          51.000
E36  23104706.195 8 121416067.223 8       366.234          51.000    23104709.391 8  93033102.805 8       280.618          51.000
> 2020 05 10 13 35  0.0000000  0 18        .000000000000
G18  20323603.391 8 106801259.374 8      -109.055          51.000    20323604.242 8  83221841.662 8       -84.978          51.000
G20  23507220.500 6 123531275.886 6      3232.684          41.000    23507223.609 6  96258161.093 6      2518.974          39.000
G21  20683871.328 8 108694544.251 8      -326.180          50.000    20683870.094 8  84697033.028 8      -254.163          50.000
G25  24850941.180 6 130592558.662 6     -3581.773          40.000    24850945.469 6 101760433.068 6     -2790.995          40.000
G26  20417862.938 6 107296589.790 6       909.871          39.000    20417867.109 6  83607740.668 6       708.990          39.000
G29  22408106.938 6 117755369.780 6     -2527.043          38.000    22408104.328 6  91757423.513 6     -1969.124          37.000
G31  22789286.250 8 119758493.678 8     -2891.930          51.000    22789287.562 8  93318287.772 8     -2253.452          51.000
R09  21379955.328 8 114167767.853 8     -3918.148          51.000    21379957.539 7  88797171.402 7     -3047.452          46.000
R10  19510739.930 8 104003241.296 8     -1441.605          49.000
R21  21138482.531 6 113116310.579 6      2570.785          38.000    21138482.016 6  87979348.092 6      1999.503          36.000
C05                                                                  39619227.648 6 159530212.056 6         9.315          36.000
C27  21537864.594 8 112153303.761 8       308.285          51.000
C28  23222600.773 5 120926176.278 5     -2208.836          30.000
C30  24449531.734 5 127315145.158 5      2487.812          35.000
E02  23384854.469 8 122888258.548 8       232.895          51.000    23384855.406 8  94161116.977 8       178.467          51.000
E11  24141974.336 6 126866929.990 6     -2101.297          37.000    24141974.977 5  97209705.990 5     -1610.171          34.000
E25  25043649.078 8 131605243.002 8     -2367.590          51.000    25043653.102 8 100840422.628 8     -1814.127          51.000
E36  23102645.977 8 121405242.571 8       356.262          51.000    23102649.148 8  93024808.585 8       273.028          51.000
> 2020 05 10 13 35 30.0000000  0 19        .000000000000
G18  20324279.141 8 106804811.339 8      -128.043          51.000    20324280.297 8  83224609.429 8       -99.774          51.000
G20  23488778.953 7 123434366.053 7      3227.590          44.000    23488782.086 6  96182647.019 6      2515.008          38.000
G21  20685777.656 8 108704563.078 8      -341.984          49.000    20685776.453 8  84704839.913 8      -266.481          49.000
G25  24871396.875 6 130700058.631 6     -3584.793          38.000    24871400.922 6 101844199.173 6     -2793.348          39.000
G26  20412715.234 6 107269539.167 6       893.137          41.000    20412719.711 6  83586662.228 6       695.954          40.000
G29  22422548.852 6 117831249.456 6     -2532.352          38.000    22422545.094 6  91816550.542 6     -1973.261          37.000
G31  22805823.742 8 119845396.120 8     -2901.754          51.000    22805824.109 8  93386003.930 8     -2261.110          51.000
R09  21402004.578 8 114285506.286 8     -3931.512          51.000    21402006.031 7  88888745.659 7     -3057.845          47.000
R10  19518924.250 8 104046871.410 8     -1467.289          50.000
R20  19607471.500 4 104849961.856 4     -1190.504          28.000    19607477.422 6  81549986.938 6      -925.951          36.000
R21  21124107.227 6 113039382.493 6      2557.402          41.000    21124107.352 6  87919515.165 6      1989.088          38.000
C05  39619157.438 5 206307347.844 5        11.230          35.000    39619160.984 6 159529943.051 6         8.663          36.000
C27  21536117.555 8 112144206.493 8       297.918          51.000
C28  23235343.453 5 120992545.950 5     -2214.836          31.000
C30  24435214.484 6 127240589.194 6      2482.590          37.000
E02  23383561.047 8 122881462.107 8       219.801          51.000    23383562.391 8  94155909.298 8       168.455          51.000
E11  24153985.648 6 126930049.784 6     -2107.039          39.000    24153985.117 5  97258070.502 5     -1614.601          34.000
E25  25057190.320 8 131676403.120 8     -2376.781          51.000    25057195.195 8 100894947.888 8     -1821.146          51.000
E36  23100642.125 8 121394714.405 8       345.199          51.000    23100645.188 8  93016741.555 8       264.476          51.000
> 2020 05 10 13 36  0.0000000  0 19        .000000000000
G18  20325067.539 8 106808954.806 8      -147.242          51.000    20325068.562 8  83227838.093 8      -114.734          51.000
G20  23470370.281 7 123337625.597 7      3222.598          46.000    23470372.945 6  96107264.904 6      2511.118          37.000
G21  20687777.875 8 108715075.305 8      -357.852          49.000    20687776.922 8  84713031.260 8      -278.845          49.000
G25  24891875.656 6 130807682.212 6     -3588.398          37.000    24891880.977 6 101928061.620 6     -2796.155          37.000
G26  20407662.484 7 107242987.353 7       877.566          42.000    20407667.336 7  83565972.475 7       683.818          42.000
G29  22437017.297 5 117907335.829 5     -2536.703          30.000    22437011.750 4  91875830.203 4     -1976.652          27.000
G31  22822421.195 8 119932614.075 8     -2911.812          50.000    22822420.492 8  93453965.933 8     -2268.948          50.000
R09  21424131.742 8 114403663.309 8     -3944.805          51.000    21424133.164 7  88980645.505 7     -3068.181          47.000
R10  19527257.867 8 104091295.372 8     -1493.199          48.000
R20  19614199.766 4 104885908.850 4     -1205.637          29.000    19614198.766 5  81577946.373 5      -937.717          34.000
R21  21109809.492 6 112962872.669 6      2544.004          36.000    21109810.188 6  87860007.481 6      1978.667          36.000
C05  39619097.477 5 206307036.680 5        10.598          35.000    39619101.031 6 159529701.663 6         8.397          37.000
C27  21534433.992 8 112135439.922 8       287.496          51.000
C28  23248121.180 5 121059084.453 5     -2220.039          34.000
C30  24420934.562 6 127166221.173 6      2476.734          39.000
E02  23382346.320 8 122875078.512 8       206.695          51.000    23382347.602 8  94151017.966 8       158.374          51.000
E11  24166033.852 6 126993364.386 6     -2113.258          38.000    24166031.953 5  97306584.225 5     -1619.285          34.000
E25  25070787.242 8 131747854.909 8     -2385.688          51.000    25070792.297 8 100949696.655 8     -1828.042          51.000
E36  23098705.672 8 121384539.428 8       334.062          51.000    23098708.711 8  93008945.157 8       255.985          51.000
> 2020 05 10 13 36 30.0000000  0 17        .000000000000
G18  20325948.844 8 106813586.532 8      -163.754          51.000    20325950.117 8  83231447.234 8      -127.600          51.000
G20  23451975.156 7 123240954.616 7      3219.902          47.000    23451977.102 6  96031936.919 6      2509.015          38.000
G21  20689852.328 8 108725977.556 8      -371.234          49.000    20689851.750 8  84721526.519 8      -289.274          49.000
G26  20402685.602 7 107216833.383 7       863.707          42.000    20402690.055 6  83545592.734 6       673.018          41.000
G29  22451509.844 6 117983456.537 6     -2540.387          38.000    22451497.375 5  91935151.931 5     -1979.522          35.000
G31  22839058.359 8 120020042.356 8     -2918.988          48.000    22839056.383 8  93522091.827 8     -2274.536          48.000
R09  21446317.234 8 114522131.773 8     -3955.316          50.000    21446318.648 7  89072787.581 7     -3076.360          47.000
R10  19535720.602 8 104136407.368 8     -1516.445          48.000
R21  21095567.883 6 112886677.332 6      2533.902          36.000    21095568.828 5  87800744.264 5      1970.807          33.000
C05  39619024.758 5 206306658.683 5        12.785          34.000    39619028.461 6 159529409.393 6         9.648          37.000
C27  21532794.547 8 112126902.043 8       279.566          51.000
C28  23260913.406 5 121125689.626 5     -2222.625          32.000
C30  24406672.656 6 127091939.857 6      2473.375          41.000
E02  23381190.922 8 122869006.067 8       195.988          51.000    23381191.922 8  94146365.044 8       150.203          51.000
E11  24178099.117 5 127056769.881 5     -2116.383          35.000    24178096.477 5  97355167.627 5     -1621.647          33.000
E25  25084420.039 8 131819495.072 8     -2392.289          51.000    25084424.828 8 101004589.760 8     -1833.104          51.000
E36  23096817.078 8 121374614.672 8       325.500          51.000    23096819.945 8  93001340.480 8       249.424          51.000
> 2020 05 10 13 37  0.0000000  0 17        .000000000000
G18  20326947.539 8 106818834.555 8      -188.016          51.000    20326948.742 8  83235536.614 8      -146.503          51.000
G20  23433618.328 7 123144485.100 7      3209.398          46.000    23433619.430 6  95956765.951 6      2500.833          38.000
G21  20692025.172 8 108737397.230 8      -392.156          49.000    20692024.766 8  84730424.958 8      -305.576          49.000
G26  20397809.289 7 107191207.269 7       842.672          43.000    20397812.719 7  83525624.336 7       656.627          44.000
G29  22466029.273 5 118059780.270 5     -2550.648          34.000    22466032.016 5  91994644.603 5     -1987.518          34.000
G31  22855758.938 7 120107806.655 7     -2933.953          46.000    22855755.672 7  93590479.538 7     -2286.197          46.000
R09  21468584.633 8 114641038.739 8     -3973.750          48.000    21468586.180 7  89165270.689 7     -3090.697          47.000
R10  19544337.016 7 104182336.649 7     -1547.562          47.000
R21  21081413.352 6 112810928.188 6      2514.613          40.000    21081412.508 5  87741828.347 5      1955.813          34.000
C05  39618963.836 5 206306341.482 5         6.828          35.000    39618967.812 6 159529164.866 6         5.041          37.000
C27  21531223.438 8 112118719.913 8       263.938          51.000
C28  23273741.938 6 121192487.794 6     -2232.207          37.000
C30  24392452.250 6 127017873.187 6      2462.441          41.000
E02  23380119.422 8 122863374.229 8       177.547          51.000    23380120.133 8  94142049.737 8       136.081          51.000
E11                                                                  24190203.781 5  97403925.324 5     -1629.944          33.000
E25  25098113.062 8 131891451.352 8     -2406.543          51.000    25098117.258 8 101059725.087 8     -1843.948          51.000
E36  23095000.250 8 121365068.287 8       309.113          51.000    23095002.930 8  92994025.728 8       236.892          51.000
> 2020 05 10 13 37 30.0000000  0 17        .000000000000
G18  20328049.898 8 106824627.929 8      -200.859          51.000    20328050.930 8  83240050.932 8      -156.514          51.000
G20  23415286.664 7 123048149.869 7      3210.066          45.000    23415286.203 6  95881699.616 6      2501.357          37.000
G21  20694283.117 8 108749262.885 8      -401.699          50.000    20694282.609 8  84739670.911 8      -313.012          49.000
G26  20393020.453 7 107166040.355 7       832.402          45.000    20393023.164 7  83506013.773 7       648.625          45.000
G29  22480581.875 5 118136244.105 5     -2549.914          30.000
G31  22872509.148 7 120195834.270 7     -2937.480          46.000    22872505.141 7  93659072.438 7     -2288.949          46.000
R09  21490919.586 7 114760309.391 7     -3980.406          45.000    21490921.938 7  89258036.704 7     -3095.872          47.000
R10  19553092.977 7 104229011.153 7     -1566.988          46.000
R21  21067329.242 6 112735554.282 6      2507.621          36.000    21067328.938 6  87683204.242 6      1950.375          36.000
C05  39618901.695 5 206306017.554 5        12.000          35.000    39618905.680 6 159528914.383 6         9.207          36.000
C27  21529707.102 8 112110823.552 8       259.648          51.000
C28  23286592.922 5 121259408.706 5     -2231.457          32.000
C30  24378259.141 6 126943951.994 6      2462.855          38.000
E02  23379118.383 8 122858113.612 8       170.414          51.000    23379118.961 8  94138018.871 8       130.556          51.000
E11  24202342.188 6 127184171.290 6     -2127.176          37.000    24202340.258 5  97452790.618 5     -1629.725          32.000
E25  25111852.734 8 131963652.827 8     -2409.586          51.000    25111856.344 8 101115048.273 8     -1846.360          51.000
E36  23093242.078 8 121355829.655 8       304.047          51.000    23093244.477 8  92986946.774 8       232.959          51.000
> 2020 05 10 13 38  0.0000000  0 17        .000000000000
G18  20329251.164 8 106830941.264 8      -223.770          51.000    20329252.250 8  83244970.410 8      -174.366          51.000
G20  23396975.938 7 122951927.268 7      3200.762          44.000    23396973.539 5  95806721.013 5      2494.103          34.000
G21  20696621.094 8 108761548.478 8      -421.090          50.000    20696620.578 8  84749244.108 8      -328.122          50.000
G26  20388314.438 7 107141309.378 7       812.359          45.000    20388317.008 7  83486742.870 7       633.007          45.000
G29  22495149.336 4 118212806.846 4     -2558.664          29.000
G31  22889304.398 7 120284097.864 7     -2950.672          46.000    22889300.547 7  93727849.207 7     -2299.225          46.000
R09  21513314.625 7 114879915.242 7     -3997.098          43.000    21513320.266 7  89351063.534 7     -3108.851          46.000
R10  19561984.164 8 104276404.033 8     -1596.328          49.000
R21  21053307.734 5 112660531.209 5      2490.609          34.000    21053310.523 5  87624853.065 5      1937.144          35.000
C05  39618833.219 5 206305661.546 5         7.398          35.000    39618837.219 6 159528639.082 6         5.890          36.000
C27  21528240.922 8 112103188.063 8       245.500          51.000
C28  23299462.406 5 121326426.547 5     -2240.426          34.000
C30  24364089.180 4 126870152.115 4      2453.648          29.000
E02  23378183.297 8 122853200.336 8       153.281          51.000    23378184.133 8  94134254.138 8       117.431          51.000
E11  24214499.211 6 127248062.974 6     -2136.258          38.000    24214500.836 5  97501753.602 5     -1637.537          31.000
E25  25125633.844 8 132036073.898 8     -2422.367          51.000    25125637.203 8 101170539.701 8     -1856.097          51.000
E36  23091537.828 8 121346873.576 8       289.094          51.000    23091540.062 8  92980084.328 8       221.513          51.000
> 2020 05 10 13 38 30.0000000  0 15        .000000000000
G18  20330559.500 8 106837816.749 8      -236.715          50.000    20330560.719 8  83250327.942 8      -184.453          50.000
G20  23378695.148 7 122855863.274 7      3201.395          44.000    23378691.250 5  95731865.979 5      2494.593          35.000
G21  20699047.023 8 108774296.480 8      -430.699          50.000    20699046.320 8  84759177.619 8      -335.610          50.000
G26  20383699.766 7 107117058.696 7       802.262          47.000    20383702.289 7  83467846.236 7       625.139          46.000
G31  22906152.445 7 120372637.393 7     -2954.055          44.000    22906149.844 7  93796841.012 7     -2301.864          44.000
R09  21535783.727 8 114999896.577 8     -4003.633          51.000    21535788.586 7  89444382.250 7     -3113.940          45.000
R10  19571018.508 8 104324557.783 8     -1615.965          48.000
R21  21039360.938 6 112585903.479 6      2482.875          38.000    21039363.586 5  87566809.409 5      1931.128          33.000
C05  39618766.695 5 206305315.057 5        13.477          34.000    39618770.859 6 159528371.955 6        10.231          37.000
C27  21526832.812 8 112095855.564 8       241.230          51.000
C30  24349957.547 4 126796516.510 4      2454.207          28.000
E02  23377322.648 8 122848678.091 8       146.137          51.000    23377323.812 8  94130789.031 8       111.969          51.000
E11  24226687.867 6 127312117.389 6     -2135.793          39.000    24226692.453 5  97550850.166 5     -1636.379          31.000
E25  25139464.492 8 132108756.634 8     -2425.215          51.000    25139467.867 8 101226231.625 8     -1858.279          51.000
E36  23089895.305 8 121338242.473 8       284.207          51.000    23089897.578 8  92973470.899 8       217.799          51.000
> 2020 05 10 13 39  0.0000000  0 14        .000000000000
G18  20331988.461 8 106845325.967 8      -261.227          50.000    20331989.492 8  83256179.309 8      -203.550          50.000
G20  23360458.961 7 122760033.066 7      3189.949          45.000    23360455.422 6  95657193.138 6      2485.675          38.000
G21  20701574.508 8 108787577.784 8      -451.969          51.000    20701573.367 8  84769526.691 8      -352.183          50.000
G26  20379190.469 7 107093362.073 7       780.375          46.000    20379192.875 7  83449381.341 7       608.084          46.000
G31  22923066.625 7 120461522.772 7     -2968.992          46.000    22923065.742 7  93866102.330 7     -2313.503          46.000
R09  21558337.695 8 115120323.611 8     -4022.031          51.000    21558340.375 7  89538047.626 7     -3128.250          46.000
R10  19580208.305 8 104373544.207 8     -1647.098          49.000
R21  21025504.555 6 112511745.468 6      2463.512          41.000    21025505.508 5  87509131.034 5      1916.068          33.000
C05  39618716.180 5 206305050.958 5         6.727          35.000    39618720.391 6 159528168.491 6         5.343          36.000
C27  21525496.383 8 112088897.314 8       225.328          50.000
E02  23376550.391 8 122844620.031 8       127.098          51.000    23376551.562 8  94127679.604 8        97.395          51.000
E11  24238921.305 6 127376405.584 6     -2147.352          39.000    24238926.523 5  97600112.854 5     -1644.987          31.000
E25  25153358.844 8 132181772.514 8     -2439.852          51.000    25153362.109 8 101282178.834 8     -1869.509          51.000
E36  23088328.602 8 121330008.214 8       267.492          51.000    23088330.648 8  92967161.542 8       204.953          51.000
> 2020 05 10 13 39 30.0000000  0 16        .000000000000
G18  20333514.523 8 106853345.161 8      -274.551          49.000    20333515.328 8  83262428.018 8      -213.936          49.000
G20  23342244.398 7 122664316.728 7      3189.984          45.000    23342242.109 6  95582609.005 6      2485.702          40.000
G21  20704179.805 8 108801268.065 8      -461.918          51.000    20704178.445 8  84780194.454 8      -359.936          50.000
G26  20374763.375 7 107070097.885 7       769.469          47.000    20374765.688 7  83431253.411 7       599.589          47.000
G29  22539070.586 5 118443595.102 5     -2567.465          33.000    22539042.922 5  92293658.492 5     -2000.610          30.000
G31  22940023.125 7 120550628.244 7     -2972.605          46.000    22940023.555 7  93935535.149 7     -2316.319          46.000
R09  21580950.914 8 115241067.752 8     -4028.879          51.000    21580952.344 7  89631959.646 7     -3133.576          47.000
R10  19589530.719 8 104423237.032 8     -1666.980          50.000
R21  21011711.703 6 112437932.313 6      2455.820          39.000    21011711.484 5  87451720.734 5      1910.076          33.000
C05  39618658.188 5 206304748.439 5        11.816          35.000    39618662.469 6 159527934.554 6         9.334          37.000
C27  21524208.273 8 112082190.955 8       220.582          50.000
C30  24321770.008 6 126649807.215 6      2442.234          36.000
E02  23375843.352 8 122840903.882 8       119.430          51.000    23375844.258 8  94124832.171 8        91.520          51.000
E11  24251176.070 6 127440803.203 6     -2147.520          37.000    24251179.688 5  97649450.483 5     -1645.382          31.000
E25  25167293.195 8 132254997.608 8     -2442.973          51.000    25167296.539 8 101338286.358 8     -1871.906          51.000
E36  23086814.055 8 121322047.290 8       262.082          51.000    23086816.047 8  92961061.613 8       200.777          51.000
> 2020 05 10 13 40  0.0000000  0 17        .000000000000
G18  20335136.820 8 106861870.440 8      -293.293          49.000    20335137.703 8  83269071.116 8      -228.540          49.000
G20  23324051.438 7 122568714.216 7      3184.105          46.000    23324050.938 6  95508113.590 6      2481.121          41.000
G21  20706862.156 8 108815363.574 8      -477.293          51.000    20706860.727 8  84791177.988 8      -371.914          49.000
G26  20370418.203 7 107047264.525 7       753.242          46.000    20370420.398 7  83413461.180 7       586.942          46.000
G29  22553718.258 5 118520589.026 5     -2572.000          30.000
G31  22957020.703 7 120639948.100 7     -2981.480          46.000    22957022.117 7  94005134.995 7     -2323.235          46.000
R09  21603621.734 8 115362122.478 8     -4040.996          51.000    21603622.562 7  89726113.240 7     -3143.000          47.000
R10  19598984.703 8 104473631.568 8     -1692.184          49.000
R21  20997982.680 6 112364461.788 6      2442.676          40.000    20997981.172 5  87394576.871 5      1899.856          33.000
C05  39618591.812 5 206304403.476 5        11.438          35.000    39618596.203 6 159527667.810 6         9.080          36.000
C27  21522968.023 8 112075733.054 8       210.434          50.000
C28  23351223.211 5 121595936.783 5     -2254.027          30.000
C30  24307721.352 6 126576635.501 6      2436.449          39.000
E02  23375200.734 8 122837527.388 8       106.227          51.000    23375201.750 8  94122244.986 8        81.338          51.000
E11  24263451.289 5 127505295.018 5     -2152.238          32.000    24263452.828 5  97698870.729 5     -1649.405          30.000
E25  25181266.719 8 132328428.061 8     -2451.812          51.000    25181269.672 8 101394551.237 8     -1878.700          51.000
E36  23085350.609 8 121314356.158 8       251.148          51.000    23085352.977 8  92955168.408 8       192.453          51.000
> 2020 05 10 13 40 30.0000000  0 16        .000000000000
G18  20336862.945 8 106870940.711 8      -310.871          50.000    20336863.320 8  83276138.859 8      -242.237          49.000
G20  23305888.336 7 122473268.267 7      3179.340          46.000    23305889.266 7  95433740.147 7      2477.411          42.000
G21  20709628.859 8 108829902.802 8      -491.512          51.000    20709627.180 8  84802507.262 8      -382.996          49.000
G26  20366162.781 7 107024903.061 7       737.984          47.000    20366165.039 7  83396036.650 7       575.053          47.000
G29  22568424.977 5 118597873.242 5     -2576.492          31.000
G31  22974065.898 7 120729518.421 7     -2989.121          45.000    22974067.898 7  94074930.025 7     -2329.185          45.000
R09  21626357.016 8 115483524.756 8     -4051.980          48.000    21626357.812 7  89820537.172 7     -3151.543          46.000
R10  19608577.352 8 104524766.506 8     -1716.336          50.000
R21  20984326.523 6 112291374.761 6      2430.379          41.000    20984323.602 5  87337731.425 5      1890.295          33.000
C05  39618525.047 5 206304055.578 5        12.059          35.000    39618529.383 6 159527399.818 6         9.264          37.000
C27  21521782.938 8 112069562.489 8       201.535          50.000
C28  23364224.602 6 121663593.539 6     -2256.965          38.000
C30  24293701.609 6 126503615.822 6      2431.977          40.000
E02  23374630.469 8 122834530.971 8        94.094          51.000    23374631.516 8  94119949.018 8        72.086          51.000
E25  25195286.641 8 132402102.611 8     -2459.312          51.000    25195288.844 8 101451003.151 8     -1884.381          51.000
E36  23083946.070 8 121306973.985 8       241.434          51.000    23083948.469 8  92949511.943 8       184.965          51.000
> 2020 05 10 13 41  0.0000000  0 16        .000000000000
G18  20338690.016 8 106880541.355 8      -329.746          50.000    20338689.922 8  83283619.887 8      -256.945          49.000
G20  23287753.031 7 122377968.193 7      3173.250          45.000    23287754.883 7  95359480.404 7      2472.662          43.000
G21  20712477.180 8 108844870.503 8      -506.914          51.000    20712475.250 8  84814170.410 8      -394.998          49.000
G26  20361994.867 7 107003001.061 7       721.586          47.000    20361996.953 7  83378970.151 7       562.275          47.000
G31  22991155.133 7 120819323.295 7     -2998.270          43.000    22991157.914 7  94144907.835 7     -2336.314          43.000
R09  21649153.117 7 115605256.804 7     -4064.031          42.000    21649154.555 7  89915217.664 7     -3160.910          44.000
R10  19618306.156 8 104576626.736 8     -1741.582          49.000
R21  20970737.266 6 112218657.640 6      2416.949          39.000    20970735.414 5  87281173.785 5      1879.852          35.000
C05  39618455.266 5 206303692.138 5        11.801          35.000    39618459.219 6 159527117.989 6         8.998          36.000
C27  21520650.156 8 112063665.196 8       191.172          50.000
C28  23377245.883 5 121731356.921 5     -2261.188          35.000
C30  24279707.906 6 126430734.917 6      2426.098          39.000
E02  23374130.242 8 122831901.611 8        80.734          51.000    23374130.938 8  94117934.319 8        61.840          51.000
E11                                                                  24288077.906 4  97798024.940 4     -1656.992          29.000
E25  25209350.234 8 132476006.684 8     -2468.121          51.000    25209351.453 8 101507630.906 8     -1891.125          50.000
E36  23082597.703 8 121299886.485 8       230.555          51.000    23082599.961 8  92944081.261 8       176.701          51.000
> 2020 05 10 13 41 30.0000000  0 16        .000000000000
G18  20340607.641 8 106890617.390 8      -347.387          51.000    20340607.375 8  83291471.347 8      -270.691          50.000
G20  23269635.750 7 122282762.634 7      3168.332          46.000    23269638.305 7  95285294.324 7      2468.833          44.000
G21  20715396.492 8 108860211.568 8      -521.160          50.000    20715394.672 8  84826124.501 8      -406.099          50.000
G26  20357904.367 8 106981505.741 8       706.141          48.000    20357906.328 8  83362220.565 8       550.239          48.000
G29  22597896.383 6 118752728.699 6     -2585.441          36.000    22597869.359 5  92534496.611 5     -2014.630          33.000
G31  23008278.203 7 120909306.048 7     -3005.914          44.000    23008281.547 7  94215024.265 7     -2342.271          44.000
R09  21671996.680 6 115727260.066 6     -4074.730          41.000    21672001.352 6  90010109.173 6     -3169.232          40.000
R10  19628160.039 8 104629155.122 8     -1765.715          50.000
R21  20957204.195 6 112146256.020 6      2404.570          37.000    20957205.938 5  87224861.447 5      1870.218          33.000
C05  39618371.914 5 206303258.709 5        12.273          34.000    39618375.625 6 159526781.014 6         9.729          36.000
C27  21519559.648 8 112057987.057 8       182.105          50.000
C28  23390271.055 5 121799172.508 5     -2264.504          31.000
C30  24265730.609 5 126357939.460 5      2421.703          35.000
E02  23373689.539 8 122829585.913 8        68.398          51.000    23373690.211 8  94116159.948 8        52.424          51.000
E25  25223447.164 8 132550085.169 8     -2475.609          51.000    25223447.453 8 101564392.303 8     -1896.901          50.000
E36  23081294.828 8 121293038.994 8       220.750          51.000    23081297.156 8  92938834.496 8       169.152          51.000
> 2020 05 10 13 42  0.0000000  0 15        .000000000000
G18  20342659.805 8 106901400.921 8      -366.703          51.000    20342659.594 8  83299874.122 8      -285.740          50.000
G20  23251581.547 7 122187887.826 7      3161.461          45.000    23251584.531 7  95211365.946 7      2463.476          44.000
G21  20718430.883 8 108876157.850 8      -537.105          49.000    20718429.289 8  84838550.181 8      -418.521          49.000
G26  20353935.883 8 106960651.476 8       688.938          48.000    20353937.594 8  83345970.493 8       536.834          48.000
G31  23025479.172 7 120999696.686 7     -3015.129          47.000    23025482.148 7  94285458.499 7     -2349.451          46.000
R09  21694938.703 7 115849768.133 7     -4087.215          46.000    21694941.281 5  90105393.213 5     -3178.945          33.000
R10  19638183.695 8 104682586.837 8     -1791.406          50.000
R21  20943776.406 5 112074407.984 5      2390.363          35.000    20943779.062 5  87168979.663 5      1859.178          33.000
C05  39618319.297 5 206302985.109 5        11.039          35.000    39618322.828 6 159526568.466 6         8.430          36.000
C27  21518555.625 8 112052758.485 8       171.414          50.000
C28  23403349.883 5 121867270.162 5     -2270.363          35.000
C30  24251816.242 5 126285460.820 5      2415.340          34.000
E02  23373352.867 8 122827817.566 8        54.434          51.000    23373353.898 8  94114804.976 8        41.676          51.000
E25  25237621.289 8 132624570.209 8     -2484.996          51.000    25237621.766 8 101621465.203 8     -1904.127          51.000
E36  23080081.867 8 121286663.992 8       209.188          51.000    23080084.156 8  92933949.754 8       160.343          51.000
> 2020 05 10 13 42 30.0000000  0 14        .000000000000
G18  20344805.195 8 106912674.445 8      -383.352          51.000    20344804.820 8  83308658.682 8      -298.716          50.000
G20  23233549.891 7 122093129.960 7      3157.230          46.000    23233552.883 7  95137528.678 7      2460.183          44.000
G21  20721538.891 8 108892491.332 8      -550.262          50.000    20721537.453 8  84851277.555 8      -428.775          50.000
G26  20350048.406 8 106940222.919 8       674.391          48.000    20350049.883 8  83330052.142 8       525.499          48.000
G31  23042716.383 8 121090276.088 8     -3021.945          48.000    23042718.297 8  94356039.793 8     -2354.766          48.000
R09  21717934.438 7 115972557.655 7     -4097.180          47.000
R10  19648335.133 8 104736700.200 8     -1814.504          50.000
C05  39618256.289 5 206302656.874 5        12.188          35.000    39618260.008 6 159526315.399 6         9.442          36.000
C27  21517596.609 8 112047764.383 8       163.098          50.000
C28  23416439.625 5 121935434.310 5     -2272.969          34.000
C30  24237921.578 5 126213084.635 5      2411.344          30.000
E02  23373079.156 8 122826380.652 8        42.918          51.000    23373080.484 8  94113703.957 8        32.861          51.000
E25  25251831.047 8 132699244.224 8     -2491.738          50.000    25251832.562 8 101678682.920 8     -1909.302          51.000
E36  23078917.484 8 121280544.303 8       200.234          51.000    23078919.867 8  92929260.646 8       153.375          51.000
> 2020 05 10 13 43  0.0000000  0 16        .000000000000
G18  20347068.047 8 106924565.230 8      -400.336          51.000    20347067.680 8  83317924.225 8      -311.950          51.000
G20  23215565.688 7 121998620.356 7      3152.488          46.000    23215568.414 7  95063884.849 7      2456.484          45.000
G21  20724744.875 8 108909338.906 8      -563.867          50.000    20724743.594 8  84864405.529 8      -439.377          50.000
G26  20346266.594 8 106920349.619 8       659.613          48.000    20346268.211 8  83314566.452 8       513.984          48.000
G29  22642325.180 6 118986187.516 6     -2596.895          37.000    22642338.055 5  92716558.009 5     -2023.566          34.000
G31  23060013.445 8 121181169.185 8     -3028.562          48.000    23060013.961 7  94426865.529 7     -2359.919          47.000
R09  21741005.906 7 116095755.004 7     -4107.074          45.000    21741023.398 5  90296752.658 5     -3194.394          35.000
R10  19658638.961 8 104791623.802 8     -1837.848          51.000
R21  20917141.531 6 111931855.906 6      2366.660          37.000    20917143.078 5  87058122.704 5      1840.739          35.000
C05  39618207.695 5 206302403.045 5        13.180          35.000    39618211.297 6 159526119.114 6        10.234          37.000
C27  21516706.875 8 112043131.312 8       154.629          50.000
C28  23429561.078 5 122003791.109 5     -2275.223          32.000
C30  24224073.219 5 126141093.091 5      2407.340          31.000
E02  23372893.000 8 122825404.057 8        31.141          51.000    23372894.344 8  94112955.649 8        23.846          51.000
E25  25266100.367 8 132774234.461 8     -2498.828          48.000    25266103.625 8 101736142.945 8     -1914.648          51.000
E36  23077825.969 8 121274807.551 8       191.109          51.000    23077828.562 8  92924864.953 8       146.414          51.000
> 2020 05 10 13 43 30.0000000  0 14        .000000000000
G18  20349425.672 8 106936954.312 8      -426.805          51.000    20349425.500 8  83327578.072 8      -332.575          51.000
G20  23197606.922 7 121904243.974 7      3137.980          47.000    23197609.352 7  94990344.854 7      2445.180          45.000
G21  20728026.102 8 108926581.173 8      -586.922          51.000    20728024.898 8  84877841.072 8      -457.342          51.000
G26  20342568.328 8 106900914.899 8       634.984          49.000    20342570.188 8  83299422.515 8       494.793          49.000
G31  23077347.562 7 121272255.744 7     -3044.914          46.000    23077346.438 7  94497842.016 7     -2372.663          46.000
R09  21764129.938 6 116219236.816 6     -4126.426          41.000    21764143.039 6  90392794.024 6     -3209.445          40.000
R10  19669072.109 8 104847235.845 8     -1870.918          50.000
R21  20903926.625 6 111861150.037 6      2345.266          40.000    20903928.000 5  87003129.298 5      1824.095          35.000
C27  21515863.961 8 112038741.928 8       136.637          51.000
C28  23442698.438 5 122072222.732 5     -2288.199          34.000
C30  24210229.109 6 126069060.170 6      2393.719          36.000
E02  23372772.125 8 122824770.476 8         9.711          51.000    23372773.461 8  94112470.182 8         7.408          51.000
E25  25280406.773 8 132849421.961 8     -2515.207          48.000    25280412.156 8 101793754.168 8     -1927.222          51.000
E36  23076784.617 8 121269335.222 8       172.379          51.000    23076787.312 8  92920671.864 8       132.086          51.000
> 2020 05 10 13 44  0.0000000  0 15        .000000000000
G18  20351901.789 8 106949966.178 8      -442.176          51.000    20351901.297 8  83337717.184 8      -344.553          50.000
G20  23179697.875 7 121810128.941 7      3134.742          47.000    23179699.625 7  94917008.522 7      2442.659          43.000
G21  20731406.070 8 108944342.487 8      -598.648          51.000    20731404.773 8  84891681.057 8      -466.479          51.000
G26  20338977.547 8 106882045.347 8       621.535          49.000    20338979.805 8  83284718.956 8       484.310          49.000
G31  23094741.625 7 121363657.685 7     -3049.871          43.000    23094739.305 7  94569064.286 7     -2376.523          43.000
R09  21787329.703 6 116343126.984 6     -4134.348          36.000    21787341.211 7  90489153.046 7     -3215.604          43.000
R10  19679657.984 8 104903661.842 8     -1892.414          49.000
R21  20890798.977 5 111790917.356 5      2335.496          35.000    20890801.758 5  86948503.903 5      1816.497          30.000
C05  39618109.492 5 206301891.589 5         7.730          35.000    39618112.250 5 159525721.076 5         5.630          35.000
C27  21515091.570 8 112034719.918 8       129.926          50.000
C28  23455873.586 5 122140852.623 5     -2288.430          31.000
C30  24196428.148 6 125997265.192 6      2391.047          39.000
E02  23372740.594 8 122824605.913 8         -.395          51.000    23372742.125 8  94112344.087 8         -.335          51.000
E25  25294775.227 8 132924931.222 8     -2520.363          49.000    25294781.523 8 101851611.919 8     -1931.193          51.000
E36  23075817.094 8 121264252.063 8       164.895          51.000    23075819.898 8  92916776.972 8       126.381          51.000
> 2020 05 10 13 44 30.0000000  0 15        .000000000000
G18  20354474.383 8 106963485.193 8      -458.969          51.000    20354473.812 8  83348251.487 8      -357.638          51.000
G20  23161817.273 7 121716164.109 7      3129.875          47.000    23161817.625 6  94843789.212 6      2438.867          41.000
G21  20734862.797 8 108962506.982 8      -612.062          51.000    20734861.391 8  84905835.210 8      -476.932          51.000
G26  20335472.820 8 106863627.749 8       606.488          49.000    20335475.336 8  83270367.556 8       472.585          48.000
G29  22686980.039 5 119220868.571 5     -2614.047          35.000
G31  23112172.633 6 121455257.905 6     -3056.406          37.000    23112170.430 6  94640441.069 6     -2381.615          38.000
R10  19690374.383 8 104960783.468 8     -1915.547          48.000
R21  20877736.008 6 111721041.642 6      2323.406          38.000    20877746.875 4  86894125.864 4      1807.094          27.000
C05  39618061.859 5 206301643.779 5         8.828          35.000    39618064.352 5 159525527.694 5         6.778          35.000
C27  21514367.898 8 112030951.302 8       121.633          51.000
C28  23469066.758 5 122209566.221 5     -2291.871          34.000
C30  24182657.883 6 125925594.972 6      2387.020          41.000
E02  23372776.727 8 122824796.480 8       -12.094          51.000    23372778.547 8  94112490.096 8        -9.216          51.000
E25  25309183.977 8 133000646.722 8     -2527.086          51.000    25309190.266 8 101909627.683 8     -1936.294          51.000
E36  23074901.805 8 121259442.967 8       155.918          51.000    23074904.781 8  92913092.090 8       119.518          51.000
> 2020 05 10 13 45  0.0000000  0 15        .000000000000
G18  20357143.430 8 106977511.170 8      -479.246          51.000    20357143.133 8  83359180.828 8      -373.439          51.000
G20  23143965.586 7 121622353.007 7      3121.215          45.000    23143963.477 6  94770689.714 6      2432.115          38.000
G21  20738396.062 8 108981074.087 8      -628.871          50.000    20738394.727 8  84920303.084 8      -490.029          50.000
G26  20332054.492 8 106845664.000 8       587.930          50.000    20332056.984 8  83256369.824 8       458.124          50.000
G31  23129638.875 5 121547054.663 5     -3066.738          31.000    23129640.055 5  94711971.004 5     -2389.669          32.000
R09  21833899.047 6 116591754.419 6     -4156.805          37.000    21833900.688 7  90682511.846 7     -3233.073          42.000
R10  19701220.570 7 105018599.886 7     -1942.199          47.000
R21  20864744.477 6 111651523.840 6      2307.859          37.000    20864762.484 5  86840055.913 5      1794.999          31.000
C05  39618007.992 5 206301363.296 5         6.520          35.000    39618010.367 6 159525310.760 6         5.295          36.000
C27  21513693.266 8 112027436.359 8       109.707          51.000
C28  23482275.531 5 122278363.690 5     -2297.746          32.000
C30  24168914.852 6 125854050.586 6      2379.367          40.000
E02  23372880.648 8 122825343.570 8       -27.434          51.000    23372882.602 8  94112909.284 8       -21.015          51.000
E25  25323632.461 8 133076568.216 8     -2537.301          51.000    25323638.266 8 101967801.271 8     -1944.186          51.000
E36  23074038.797 8 121254908.084 8       143.312          51.000    23074041.906 8  92909617.312 8       109.820          51.000
> 2020 05 10 13 45 30.0000000  0 17        .000000000000
G16  21733181.859 5 114208663.727 5      2504.828          35.000
G18  20359923.422 8 106992120.107 8      -493.547          51.000    20359922.977 8  83370564.403 8      -384.582          51.000
G20  23126158.031 7 121528775.713 7      3118.516          43.000    23126153.273 6  94697772.459 6      2430.018          37.000
G21  20742020.273 8 109000119.798 8      -639.727          49.000    20742018.797 8  84935143.912 8      -498.488          50.000
G26  20328737.469 8 106828232.398 8       575.270          50.000    20328739.914 8  83242786.766 8       448.262          50.000
G29  22716877.078 5 119377993.996 5     -2620.719          32.000
G31  23147154.602 4 121639124.927 4     -3070.098          28.000    23147166.445 4  94783765.894 4     -2392.284          29.000
R09  21857273.547 6 116716579.119 6     -4163.641          41.000    21857275.656 6  90779597.659 6     -3238.387          41.000
R10  19712210.805 7 105077187.239 7     -1962.543          47.000
R21  20851835.586 4 111582443.096 4      2298.277          29.000    20851852.586 5  86786326.245 5      1787.537          32.000
C05  39617962.711 5 206301127.403 5        10.441          35.000    39617964.867 5 159525127.371 5         7.911          35.000
C27  21513081.867 8 112024250.954 8       103.770          51.000
C28  23495515.547 6 122347320.034 6     -2298.125          38.000
C30  24155213.125 5 125782708.749 5      2377.297          35.000
E02  23373067.500 8 122826324.794 8       -36.730          51.000    23373068.969 8  94113661.133 8       -28.120          51.000
E25  25338134.570 8 133152771.778 8     -2541.621          51.000    25338139.609 8 102026190.974 8     -1947.482          51.000
E36  23073242.508 8 121250723.847 8       136.848          51.000    23073245.586 8  92906411.214 8       104.881          51.000
> 2020 05 10 13 46  0.0000000  0 15        .000000000000
G18  20362791.383 8 107007191.389 8      -510.555          51.000    20362790.852 8  83382308.270 8      -397.835          51.000
G20  23108372.750 7 121435315.692 7      3112.730          44.000    23108367.320 5  94624946.563 5      2425.504          35.000
G21  20745712.648 8 109019522.885 8      -653.211          50.000    20745710.750 8  84950263.195 8      -508.996          49.000
G26  20325499.195 8 106811214.628 8       559.824          51.000    20325501.625 8  83229526.164 8       436.227          51.000
G31  23164704.914 6 121731340.680 6     -3077.117          37.000    23164717.562 6  94855622.295 6     -2397.754          38.000
R09  21880693.586 7 116841639.121 7     -4173.039          43.000    21880694.922 6  90876866.479 6     -3245.700          37.000
R10  19723322.719 8 105136422.298 8     -1985.672          48.000
R21  20838993.086 4 111513659.313 4      2286.320          28.000    20838999.906 5  86732867.068 5      1778.249          31.000
C05  39617903.234 6 206300817.897 6        10.844          36.000    39617905.289 5 159524888.043 5         8.077          35.000
C27  21512510.406 8 112021276.066 8        95.246          51.000
C28  23508764.695 5 122416316.098 5     -2301.125          35.000
C30  24141530.117 5 125711451.342 5      2373.059          35.000
E02  23373314.539 8 122827621.246 8       -48.992          51.000    23373315.609 8  94114654.528 8       -37.548          51.000
E25  25352667.055 8 133229136.863 8     -2548.633          51.000    25352671.297 8 102084704.433 8     -1952.831          51.000
E36  23072489.977 8 121246770.121 8       127.453          51.000    23072492.898 8  92903381.743 8        97.665          51.000
> 2020 05 10 13 46 30.0000000  0 16        .000000000000
G18  20365762.156 8 107022803.297 8      -525.594          51.000    20365761.969 8  83394473.390 8      -409.551          51.000
G20  23090625.883 7 121342055.329 7      3109.094          45.000    23090621.852 6  94552276.249 6      2422.673          38.000
G21  20749487.812 8 109039361.722 8      -664.863          48.000    20749485.938 8  84965722.042 8      -518.075          48.000
G26  20322355.000 8 106794691.152 8       546.250          51.000    20322357.344 8  83216650.724 8       425.649          51.000
G31  23182297.492 6 121823781.018 6     -3081.297          41.000    23182311.414 7  94927653.713 7     -2401.011          42.000
R09  21904171.125 6 116967011.478 6     -4180.520          41.000    21904170.734 5  90974378.205 5     -3251.524          34.000
R10  19734571.008 8 105196383.502 8     -2007.055          49.000
R21  20826209.938 5 111445269.154 5      2275.539          31.000    20826225.008 4  86679671.548 4      1769.870          29.000
C05  39617844.719 6 206300513.279 6        13.730          36.000    39617846.797 5 159524651.473 5        10.605          35.000
C27  21511994.320 8 112018589.805 8        88.391          51.000
C28  23522037.102 5 122485429.694 5     -2301.477          34.000
C30  24127877.195 6 125640357.107 6      2371.176          37.000
E02  23373636.695 8 122829312.834 8       -59.285          51.000    23373637.578 8  94115950.668 8       -45.426          51.000
E11  24425582.648 5 128357308.110 5     -2209.824          33.000
E25  25367244.711 8 133305741.747 8     -2553.914          51.000    25367248.336 8 102143401.625 8     -1956.862          51.000
E36  23071796.250 8 121243125.589 8       120.062          51.000    23071799.133 8  92900589.182 8        91.981          51.000
> 2020 05 10 13 47  0.0000000  0 16        .000000000000
G18  20368835.875 8 107038956.914 8      -549.961          50.000    20368835.602 8  83407060.620 8      -428.541          49.000
G20  23072918.367 7 121248999.528 7      3095.988          47.000    23072915.438 6  94479765.309 6      2412.458          39.000
G21  20753345.891 8 109059636.770 8      -685.488          48.000    20753344.008 8  84981520.787 8      -534.147          48.000
G26  20319305.398 8 106778665.434 8       523.391          51.000    20319307.836 8  83204163.147 8       407.837          51.000
G31  23199932.289 7 121916445.296 7     -3095.059          43.000    23199947.852 7  94999859.648 7     -2411.734          43.000
R09  21927707.039 6 117092694.762 6     -4197.121          41.000    21927704.422 5  91072131.750 5     -3264.428          33.000
R10  19745955.453 8 105257071.211 8     -2037.578          48.000
R21  20813508.555 5 111377300.049 5      2256.199          31.000
C05  39617787.625 5 206300215.865 5         7.145          35.000    39617789.766 5 159524422.459 5         5.896          35.000
C27  21511534.383 8 112016193.895 8        72.520          51.000
C28  23535332.875 5 122554662.031 5     -2311.984          34.000
C30  24114256.836 6 125569428.686 6      2359.191          39.000
E02  23374034.625 8 122831402.334 8       -78.777          51.000    23374035.164 8  94117551.709 8       -60.359          51.000
E11  24438233.539 5 128423780.896 5     -2220.805          32.000
E25  25381868.141 8 133382587.632 8     -2567.875          51.000    25381871.484 8 102202283.484 8     -1967.566          51.000
E36  23071161.500 8 121239791.823 8       103.496          51.000    23071164.852 8  92898034.738 8        79.317          51.000
> 2020 05 10 13 47 30.0000000  0 14        .000000000000
G18  20372013.914 8 107055658.451 8      -564.789          50.000    20372013.523 8  83420074.783 8      -440.095          50.000
G20  23055251.797 8 121156158.788 8      3092.066          48.000    23055249.062 6  94407421.891 6      2409.402          40.000
G21  20757288.188 7 109080354.195 7      -696.902          47.000    20757286.273 7  84997664.218 7      -543.041          47.000
G26  20316352.109 8 106763145.903 8       509.836          51.000    20316354.539 8  83192070.004 8       397.275          51.000
G31  23217610.039 7 122009338.278 7     -3099.039          42.000    23217629.586 6  95072243.772 6     -2414.836          38.000
R09  21951302.047 7 117218692.876 7     -4204.043          42.000    21951301.547 5  91170130.204 5     -3269.811          35.000
R10  19757477.203 8 105318490.549 8     -2058.426          48.000
C05  39617733.336 5 206299932.909 5         9.879          35.000    39617735.453 5 159524203.657 5         7.772          35.000
C27  21511131.242 8 112014095.020 8        66.094          51.000
C28  23548653.016 6 122624019.463 6     -2313.078          36.000
C30  24100670.242 6 125498673.589 6      2356.652          40.000
E02  23374509.586 8 122833897.613 8       -88.836          51.000    23374509.984 8  94119463.675 8       -68.105          51.000
E25  25396538.461 8 133459680.865 8     -2572.836          51.000    25396542.078 8 102261354.871 8     -1971.337          51.000
E36  23070587.133 8 121236775.510 8        96.281          51.000    23070591.078 8  92895723.537 8        73.771          51.000
> 2020 05 10 13 48  0.0000000  0 16        .000000000000
G18  20375289.625 8 107072873.126 8      -584.281          50.000    20375289.766 8  83433488.831 8      -455.284          50.000
G20  23037619.969 8 121063502.165 8      3083.500          48.000    23037617.797 6  94335221.949 6      2402.727          41.000
G21  20761307.812 7 109101479.004 7      -712.648          47.000    20761306.383 7  85014125.118 7      -555.310          47.000
G26  20313488.969 8 106748100.030 8       491.637          51.000    20313491.430 8  83180345.946 8       383.094          51.000
G31  23235323.922 7 122102423.406 7     -3107.801          42.000    23235348.703 6  95144777.580 6     -2421.663          36.000
R09  21974949.172 7 117344968.281 7     -4215.672          43.000    21974951.203 6  91268344.309 6     -3278.859          37.000
R10  19769129.555 8 105380605.318 8     -2084.012          48.000
R21  20788332.367 5 111242540.460 5      2231.418          33.000    20788331.945 4  86521986.672 4      1735.550          26.000
C05  39617675.406 5 206299632.057 5         8.855          35.000    39617677.633 5 159523970.239 5         6.751          35.000
C27  21510778.445 8 112012259.282 8        54.996          51.000
C28  23561991.016 5 122693467.776 5     -2317.910          35.000
C30  24087111.180 6 125428058.765 6      2349.484          39.000
E02  23375055.586 8 122836765.570 8      -103.617          51.000    23375055.836 8  94121661.188 8       -79.428          51.000
E11  24463608.477 5 128557132.730 5     -2228.242          33.000
E25  25411249.367 8 133536986.668 8     -2582.160          51.000    25411253.391 8 102320589.162 8     -1978.580          51.000
E36  23070066.773 8 121234042.330 8        84.637          51.000    23070071.070 8  92893629.284 8        64.810          51.000
> 2020 05 10 13 48 30.0000000  0 15        .000000000000
G18  20378663.922 8 107090604.891 8      -600.398          50.000    20378663.961 8  83447305.785 8      -467.843          49.000
G20  23020024.445 8 120971037.948 8      3078.230          48.000    23020023.188 7  94263171.963 7      2398.624          44.000
G21  20765405.836 7 109123014.968 7      -725.297          47.000    20765404.711 7  85030906.381 7      -565.166          47.000
G26  20310717.227 8 106733534.083 8       476.887          51.000    20310719.922 8  83168995.851 8       371.600          51.000
G31  23253074.609 6 122195702.831 6     -3113.164          40.000    23253103.766 6  95217462.772 6     -2425.839          36.000
R09  21998648.469 7 117471522.304 7     -4223.863          42.000    21998653.141 6  91366775.161 6     -3285.227          37.000
R10  19780913.188 8 105443418.613 8     -2105.984          49.000
R21  20775849.484 5 111175731.205 5      2219.531          30.000    20775849.961 5  86470024.040 5      1726.305          30.000
C05  39617614.688 5 206299315.550 5         9.852          35.000    39617617.609 6 159523726.278 6         7.615          36.000
C27  21510477.461 8 112010691.313 8        47.195          51.000
C28  23575347.492 5 122763011.185 5     -2320.430          35.000
C30  24073580.930 6 125357589.567 6      2345.953          39.000
E02  23375673.555 8 122840011.881 8      -115.195          51.000    23375673.914 8  94124148.617 8       -88.213          51.000
E25  25426001.578 8 133614509.195 8     -2588.316          51.000    25426005.508 8 102379989.515 8     -1983.202          51.000
E36  23069601.297 8 121231596.791 8        76.156          51.000    23069605.672 8  92891755.437 8        58.353          51.000
> 2020 05 10 13 49  0.0000000  0 16        .000000000000
G18  20382143.414 8 107108889.915 8      -617.023          50.000    20382143.289 8  83461553.854 8      -480.797          49.000
G20  23002473.234 8 120878806.402 8      3072.141          48.000    23002473.070 7  94191303.254 7      2393.876          45.000
G21  20769588.891 8 109144997.641 8      -738.438          48.000    20769587.930 8  85048035.744 8      -575.406          48.000
G26  20308044.180 8 106719486.503 8       461.250          51.000    20308046.727 8  83158049.689 8       359.419          51.000
G31  23270869.148 6 122289211.306 6     -3119.285          40.000    23270899.820 5  95290326.433 5     -2430.612          34.000
R09  22022405.984 6 117598389.359 6     -4232.520          40.000    22022413.508 5  91465449.488 5     -3291.957          33.000
R10  19792835.164 8 105506966.019 8     -2128.770          50.000
R20  19817308.742 4 105972054.933 4     -1568.727          29.000
R21  20763436.617 5 111109339.516 5      2208.016          32.000    20763443.938 5  86418386.151 5      1717.349          30.000
C05  39617558.531 5 206299023.344 5        10.660          35.000    39617561.867 6 159523503.304 6         8.346          36.000
C27  21510234.711 8 112009427.551 8        38.617          51.000
C28  23588729.609 5 122832685.875 5     -2322.930          34.000
C30  24060086.117 6 125287303.365 6      2341.398          38.000
E02  23376370.484 8 122843674.394 8      -127.430          51.000    23376371.312 8  94126954.951 8       -97.674          51.000
E25  25440801.969 8 133692284.731 8     -2595.180          51.000    25440805.500 8 102439583.735 8     -1988.517          51.000
E36  23069197.656 8 121229475.576 8        66.910          51.000    23069201.945 8  92890130.106 8        51.239          51.000
> 2020 05 10 13 49 30.0000000  0 17        .000000000000
G18  20385719.914 8 107127684.534 8      -636.102          50.000    20385720.172 8  83476199.015 8      -495.664          50.000
G20  22984958.844 8 120786767.755 8      3063.555          48.000    22984959.648 7  94119584.847 7      2387.189          47.000
G21  20773848.812 8 109167383.554 8      -754.105          49.000    20773847.891 8  85065479.300 8      -587.615          49.000
G26  20305461.789 8 106705915.857 8       443.199          51.000    20305463.961 8  83147475.163 8       345.350          51.000
G31  23288698.930 6 122382903.116 6     -3127.062          39.000    23288730.656 5  95363332.854 5     -2436.684          33.000
R09  22046212.719 6 117725522.724 6     -4243.609          38.000    22046223.180 4  91564330.999 4     -3300.582          27.000
R10  19804886.148 8 105571202.212 8     -2153.852          49.000
R11  20676550.266 5 110489206.919 5      2495.211          33.000    20676543.055 4  85936030.203 4      1940.720          25.000
R20  19826159.242 5 106019382.455 5     -1583.953          30.000
R21  20751099.953 5 111043341.082 5      2193.125          33.000    20751105.742 5  86367048.330 5      1705.758          31.000
C05  39617498.742 5 206298712.327 5         9.457          35.000    39617502.414 6 159523264.814 6         7.274          36.000
C27  21510042.055 8 112008425.282 8        27.914          51.000
C28  23602129.023 5 122902448.718 5     -2328.660          33.000
C30  24046616.062 5 125217158.334 5      2334.113          33.000
E02  23377138.602 8 122847711.095 8      -141.848          51.000    23377139.906 8  94130047.995 8      -108.727          51.000
E25  25455642.117 8 133770269.650 8     -2604.066          51.000    25455644.930 8 102499338.383 8     -1995.312          51.000
E36  23068847.398 8 121227635.433 8        55.527          51.000    23068851.789 8  92888720.144 8        42.499          51.000
> 2020 05 10 13 50  0.0000000  0 16        .000000000000
G18  20389406.055 8 107147055.085 8      -653.168          50.000    20389406.203 8  83491292.957 8      -508.962          50.000
G20  22967494.516 7 120694992.828 7      3056.723          46.000    22967496.297 7  94048071.956 7      2381.865          46.000
G21  20778198.195 8 109190238.496 8      -767.547          50.000    20778197.156 8  85083288.360 8      -598.088          50.000
G26  20302983.094 8 106692890.825 8       427.250          51.000    20302985.273 8  83137325.788 8       332.922          51.000
G31  23306576.391 6 122476843.146 6     -3133.223          40.000    23306607.555 5  95436532.765 5     -2441.478          31.000
R09  22070083.055 6 117852987.396 6     -4252.234          41.000
R10  19817078.477 8 105636193.747 8     -2176.809          49.000
R11  20662611.211 5 110414684.649 5      2474.820          34.000    20662600.734 4  85878092.503 4      1924.854          25.000
R21  20738856.383 5 110977794.214 5      2180.281          33.000    20738852.062 5  86316056.037 5      1695.774          32.000
C05  39617448.336 5 206298449.566 5         9.664          35.000    39617452.195 5 159523062.611 5         7.962          35.000
C27  21509912.930 8 112007751.015 8        19.008          51.000
C28  23615556.430 5 122972365.929 5     -2330.949          32.000
C30  24033180.781 5 125147221.792 5      2329.438          31.000
E02  23377990.844 8 122852190.066 8      -154.660          51.000    23377992.453 8  94133479.946 8      -118.524          51.000
E25  25470534.180 8 133848530.545 8     -2611.348          51.000    25470536.375 8 102559304.481 8     -2000.894          51.000
E36  23068563.539 8 121226143.378 8        45.945          51.000    23068567.883 8  92887576.887 8        35.181          51.000
> 2020 05 10 13 50 30.0000000  0 15        .000000000000
G18  20393183.781 8 107166907.131 8      -671.738          51.000    20393183.773 8  83506762.082 8      -523.432          49.000
G20  22950062.844 7 120603391.255 7      3048.438          45.000    22950065.430 7  93976694.139 7      2375.406          45.000
G21  20782618.883 8 109213468.265 8      -782.555          51.000    20782617.727 8  85101389.493 8      -609.783          50.000
G26  20300590.672 8 106680319.238 8       409.570          51.000    20300593.039 8  83127529.746 8       319.146          51.000
G31  23324483.375 6 122570935.595 6     -3140.680          39.000    23324514.523 5  95509851.477 5     -2447.289          31.000
R09  22093998.383 6 117980685.049 6     -4262.508          41.000    22094002.797 5  91762782.044 5     -3315.290          32.000
R10  19829394.109 8 105701843.674 8     -2201.312          50.000
R11  20648774.250 6 110340742.834 6      2452.598          36.000    20648773.805 4  85820590.721 4      1907.576          29.000
C05  39617389.266 5 206298141.653 5         9.309          35.000    39617393.258 5 159522825.326 5         7.047          35.000
C27  21509828.688 8 112007311.820 8         8.734          51.000
C28  23628995.680 5 123042344.089 5     -2335.637          31.000
C30  24019771.055 6 125077401.398 6      2323.246          37.000
E02  23378909.594 8 122857018.607 8      -168.738          51.000    23378911.352 8  94137179.733 8      -129.215          51.000
E25  25485460.961 8 133926973.057 8     -2619.602          51.000    25485462.508 8 102619409.757 8     -2007.251          51.000
E36  23068327.938 8 121224905.427 8        35.129          51.000    23068332.250 8  92886628.315 8        26.896          51.000
> 2020 05 10 13 51  0.0000000  0 15        .000000000000
G18  20397070.781 8 107187332.892 8      -688.074          51.000    20397070.852 8  83522678.255 8      -536.162          50.000
G20  22932681.719 7 120512059.442 7      3042.020          42.000    22932685.562 7  93905526.463 7      2370.405          42.000
G21  20787128.227 8 109237164.459 8      -795.262          51.000    20787126.859 8  85119854.064 8      -619.684          50.000
G26  20298302.570 8 106668295.630 8       394.008          51.000    20298304.953 8  83118160.691 8       307.016          51.000
G31  23342436.727 6 122665270.648 6     -3146.078          40.000    23342466.992 4  95583359.353 4     -2451.486          25.000
R09  22117973.977 6 118108706.965 6     -4270.547          36.000    22117979.172 6  91862354.571 6     -3321.539          36.000
R10  19841850.922 8 105768244.305 8     -2223.473          50.000
R11  20635063.930 5 110267480.137 5      2433.285          32.000    20635064.586 4  85763608.531 4      1892.552          27.000
C05  39617339.453 5 206297882.325 5        10.324          34.000    39617343.812 6 159522625.575 6         7.367          36.000
C27  21509806.961 8 112007199.709 8          .574          51.000
C28  23642460.047 5 123112499.321 5     -2337.992          30.000
C30  24006403.352 6 125007790.158 6      2319.191          39.000
E02  23379912.711 8 122862290.614 8      -180.785          51.000    23379914.562 8  94141219.317 8      -138.515          51.000
E25  25500439.930 8 134005689.658 8     -2626.203          51.000    25500441.312 8 102679725.009 8     -2012.303          51.000
E36  23068158.367 8 121224014.390 8        26.297          51.000    23068162.594 8  92885945.583 8        20.135          51.000
> 2020 05 10 13 51 30.0000000  0 13        .000000000000
G18  20401075.875 8 107208379.263 8      -708.613          51.000    20401075.891 8  83539078.039 8      -552.166          50.000
G20  22915361.680 7 120421048.594 7      3031.492          44.000    22915366.008 6  93834608.895 6      2362.202          40.000
G21  20791735.195 8 109261373.992 8      -812.289          51.000    20791733.883 8  85138718.641 8      -632.953          51.000
G26  20296128.203 8 106656869.151 8       374.203          51.000    20296130.539 8  83109256.943 8       291.590          51.000
G31  23360444.922 5 122759893.905 5     -3155.465          35.000    23360432.383 5  95657067.154 5     -2458.804          34.000
R10  19854457.328 8 105835442.246 8     -2249.895          50.000
R21  20702560.320 5 110783556.736 5      2137.652          30.000    20702540.336 5  86164937.228 5      1662.622          31.000
C05  39617308.133 5 206297719.301 5         6.816          34.000    39617312.633 6 159522501.253 6         5.621          36.000
C27  21509857.688 8 112007461.956 8       -11.695          51.000
C30  23993085.438 6 124938436.140 6      2310.840          36.000
E02  23381009.352 8 122868054.731 8      -197.090          51.000    23381011.492 8  94145635.962 8      -151.011          51.000
E25  25515480.117 8 134084727.367 8     -2636.598          51.000    25515481.930 8 102740286.314 8     -2020.268          51.000
E36  23068064.070 8 121223517.718 8        13.281          51.000    23068068.047 8  92885565.018 8        10.162          51.000
> 2020 05 10 13 52  0.0000000  0 13        .000000000000
G18  20405170.336 8 107229895.043 8      -722.246          51.000    20405170.055 8  83555843.584 8      -562.789          50.000
G20  22898076.227 7 120330211.775 7      3027.805          45.000    22898078.703 6  93763826.962 6      2359.328          38.000
G21  20796410.984 8 109285945.401 8      -822.441          50.000    20796409.906 8  85157865.209 8      -640.863          51.000
G26  20294039.062 8 106645890.902 8       361.234          51.000    20294041.289 8  83100702.459 8       281.478          51.000
G31  23378479.250 5 122854652.440 5     -3158.652          33.000    23378462.930 5  95730904.879 5     -2461.288          33.000
R09  22166108.930 5 118365825.910 5     -4287.918          33.000    22166104.414 6  92062260.876 6     -3335.047          37.000
R10  19867184.289 8 105903282.740 8     -2269.230          49.000
C05  39617266.953 5 206297504.997 5        10.871          35.000    39617271.391 6 159522334.568 6         8.382          36.000
C27  21509951.352 8 112007949.395 8       -17.184          51.000
C30  23979787.914 5 124869191.035 5      2309.562          34.000
E02  23382171.109 8 122874161.467 8      -206.535          51.000    23382173.289 8  94150315.136 8      -158.263          51.000
E25  25530552.914 8 134163935.162 8     -2640.422          51.000    25530555.258 8 102800977.961 8     -2023.165          51.000
E36  23068016.188 8 121223264.778 8         7.102          51.000    23068019.789 8  92885371.217 8         5.468          51.000
> 2020 05 10 13 52 30.0000000  0 15        .000000000000
G18  20409337.023 8 107251790.633 8      -740.129          51.000    20409336.680 8  83572905.089 8      -576.724          50.000
G20  22880808.109 7 120239463.178 7      3019.418          44.000    22880808.148 6  93693113.881 6      2352.796          38.000
G21  20801138.484 8 109310788.745 8      -836.668          51.000    20801137.406 8  85177223.663 8      -651.949          50.000
G26  20292018.578 8 106635273.582 8       343.828          51.000    20292020.820 8  83092429.227 8       267.918          51.000
G31  23396527.125 4 122949570.908 4     -3165.570          29.000
R09  22190214.336 6 118494551.108 6     -4296.961          41.000    22190209.984 6  92162380.729 6     -3342.084          37.000
R10  19880014.414 8 105971674.409 8     -2292.844          49.000
R21  20678685.898 5 110655845.804 5      2115.277          30.000    20678686.977 4  86065645.638 4      1645.216          29.000
C05  39617198.922 5 206297151.013 5        10.098          35.000    39617203.219 5 159522059.854 5         7.944          35.000
C27  21510070.883 8 112008573.969 8       -27.000          51.000
C28  23682987.211 4 123323529.173 4     -2347.090          28.000
C30  23966494.719 5 124799967.483 5      2303.375          31.000
E02  23383381.398 8 122880522.977 8      -220.309          51.000    23383382.922 8  94155189.546 8      -168.781          51.000
E25  25545641.312 8 134243223.630 8     -2648.258          51.000    25545644.094 8 102861731.431 8     -2029.125          51.000
E36  23067997.656 8 121223166.590 8        -3.277          51.000    23068000.828 8  92885295.988 8        -2.547          51.000
> 2020 05 10 13 53  0.0000000  0 15        .000000000000
G18  20413616.242 8 107274277.861 8      -741.070          51.000    20413616.078 8  83590427.628 8      -577.457          50.000
G20  22863597.922 7 120149019.037 7      3027.914          46.000    22863596.633 6  93622637.985 6      2359.414          38.000
G21  20805958.062 8 109336115.881 8      -834.074          50.000    20805957.000 8  85196959.082 8      -649.928          50.000
G26  20290107.516 8 106625231.274 8       343.383          51.000    20290109.875 8  83084604.053 8       267.571          51.000
G29  22944029.227 5 120571680.177 5     -2664.570          33.000
R09  22214381.828 7 118623610.045 7     -4288.891          42.000    22214378.797 6  92262759.754 6     -3335.810          37.000
R10  19892987.617 8 106040830.415 8     -2299.434          49.000
R11  20581405.516 5 109980779.895 5      2364.273          31.000
R21  20666869.906 5 110592620.900 5      2118.508          30.000    20666874.930 5  86016470.743 5      1647.731          31.000
C05  39617144.656 5 206296868.531 5        26.922          35.000    39617148.859 5 159521841.453 5        20.485          35.000
C27  21510257.805 8 112009546.341 8       -20.109          51.000
C30  23953246.828 5 124730977.035 5      2314.438          34.000
E02  23384680.828 8 122887352.776 8      -217.297          51.000    23384682.234 8  94160422.762 8      -166.458          51.000
E25  25560785.711 8 134322804.786 8     -2639.422          51.000    25560788.586 8 102922709.177 8     -2022.414          51.000
E36  23068048.859 8 121223435.544 8         3.184          51.000    23068051.797 8  92885502.067 8         2.430          51.000
> 2020 05 10 13 53 30.0000000  0 14        .000000000000
G18  20417995.305 8 107297289.903 8      -780.340          51.000    20417994.859 8  83608359.091 8      -608.057          50.000
G20  22846433.586 7 120058816.913 7      2998.102          45.000    22846431.938 6  93552350.654 6      2336.186          41.000
G21  20810856.781 8 109361859.759 8      -869.555          49.000    20810855.984 8  85217019.248 8      -677.572          49.000
G26  20288293.672 8 106615699.468 8       304.691          51.000    20288296.031 8  83077176.668 8       237.422          51.000
G31  23432717.211 5 123139759.966 5     -3181.801          33.000
R09  22238598.016 6 118752931.883 6     -4319.668          41.000    22238596.992 6  92363343.256 6     -3359.748          37.000
R10  19906091.281 8 106110682.447 8     -2344.590          49.000
R11  20568298.875 6 109910697.974 6      2320.629          37.000
C05  39617091.516 5 206296591.735 5         4.562          35.000    39617095.297 5 159521626.149 5         3.392          34.000
C27  21510498.797 8 112010801.024 8       -51.023          51.000
C30  23940031.141 5 124662155.170 5      2286.871          34.000
E02  23386057.086 8 122894585.765 8      -252.277          51.000    23386059.047 8  94165964.905 8      -193.330          51.000
E25  25575973.016 8 134402611.983 8     -2668.441          50.000    25575975.852 8 102983860.109 8     -2044.638          51.000
E36  23068157.266 8 121224005.422 8       -28.527          51.000    23068160.133 8  92885938.729 8       -21.820          51.000
> 2020 05 10 13 54  0.0000000  0 15        .000000000000
G18  20422477.656 8 107320844.868 8      -792.473          51.000    20422477.195 8  83626713.612 8      -617.511          50.000
G20  22829319.164 7 119968879.100 7      2995.195          47.000    22829318.000 6  93482269.287 6      2333.918          41.000
G21  20815838.234 8 109388038.226 8      -878.137          50.000    20815837.484 8  85237418.058 8      -684.262          50.000
G26  20286580.859 8 106606698.596 8       292.730          51.000    20286582.984 8  83070163.008 8       228.102          51.000
R09  22262866.562 6 118882533.127 6     -4322.926          39.000    22262867.148 6  92464144.075 6     -3362.279          37.000
R10  19919328.805 8 106181247.330 8     -2362.355          49.000
R11  20555316.711 5 109841292.667 5      2304.035          32.000
R21  20643465.258 5 110467310.139 5      2074.332          32.000    20643471.828 4  85919051.685 4      1613.363          28.000
C05  39617043.273 5 206296339.859 5         9.188          34.000    39617046.672 5 159521429.921 5         7.243          34.000
C27  21510797.164 8 112012356.781 8       -55.191          51.000
C28  23723680.234 5 123535414.306 5     -2359.508          31.000
C30  23926849.148 5 124593521.298 5      2286.387          33.000
E02  23387513.891 8 122902241.882 8      -260.578          51.000    23387516.133 8  94171831.263 8      -199.658          51.000
E25  25591206.055 7 134482663.601 7     -2670.648          44.000    25591208.828 8 103045198.356 8     -2046.374          50.000
E36  23068326.578 8 121224895.024 8       -33.336          51.000    23068329.227 8  92886620.376 8       -25.477          51.000
> 2020 05 10 13 54 30.0000000  0 13        .000000000000
G18  20427063.430 8 107344943.409 8      -813.113          51.000    20427063.172 8  83645491.715 8      -633.595          50.000
G20  22812256.086 8 119879210.754 8      2983.648          48.000    22812255.625 7  93412397.879 7      2324.924          42.000
G21  20820902.594 8 109414652.130 8      -895.172          49.000    20820901.797 8  85258156.149 8      -697.540          49.000
G26  20284969.570 8 106598231.597 8       272.438          51.000    20284971.719 8  83063565.340 8       212.289          51.000
R09  22287186.633 5 119012411.996 5     -4334.973          35.000    22287188.742 6  92565160.880 6     -3371.648          37.000
R10  19932700.562 8 106252524.903 8     -2388.633          51.000
R21  20631892.180 6 110405336.031 6      2057.883          39.000
C05  39617000.484 5 206296116.852 5         6.293          34.000    39617003.523 5 159521256.261 5         4.600          34.000
C27  21511153.930 8 112014215.051 8       -67.758          51.000
C30  23913704.508 5 124525077.773 5      2277.043          31.000
E02  23389051.797 8 122910323.498 8      -277.289          51.000    23389053.609 8  94178023.672 8      -212.504          51.000
E25  25606480.414 6 134562960.317 6     -2681.527          39.000    25606487.617 8 103106724.537 8     -2054.695          48.000
E36  23068557.102 8 121226105.586 8       -46.566          51.000    23068559.438 8  92887547.950 8       -35.693          51.000
> 2020 05 10 13 55  0.0000000  0 15        .000000000000
G18  20431734.039 8 107369487.421 8      -820.793          51.000    20431733.508 8  83664616.910 8      -639.579          49.000
G20  22795226.375 8 119789717.783 8      2984.906          50.000    22795226.648 7  93342663.128 7      2325.901          42.000
G21  20826030.945 8 109441602.949 8      -899.207          48.000    20826030.320 8  85279156.801 8      -700.681          49.000
G26  20283441.609 8 106590202.624 8       265.082          51.000    20283444.000 8  83057308.997 8       206.557          51.000
G29  23005443.078 5 120894407.507 5     -2691.051          35.000
G31  23487314.812 5 123426634.225 5     -3188.246          33.000    23487315.289 5  96176607.867 5     -2484.348          32.000
R10  19946187.305 8 106324413.835 8     -2401.543          51.000
R21  20620375.422 6 110343688.363 6      2054.605          37.000
C05  39616944.859 5 206295828.055 5        15.238          34.000
C27  21511550.250 8 112016279.415 8       -67.469          51.000
C28  23750939.531 5 123677259.025 5     -2359.258          35.000
C30  23900576.523 5 124456728.886 5      2280.820          32.000
E02  23390652.680 8 122918734.231 8      -281.012          51.000    23390654.039 8  94184468.263 8      -215.309          51.000
E25  25621788.453 7 134643404.580 7     -2679.016          46.000    25621794.258 7 103168363.600 7     -2052.752          47.000
E36  23068830.266 8 121227539.624 8       -46.738          51.000    23068832.453 8  92888646.756 8       -35.824          51.000
> 2020 05 10 13 55 30.0000000  0 15        .000000000000
G18  20436470.719 8 107394378.605 8      -828.750          51.000    20436470.180 8  83684012.637 8      -645.779          50.000
G20  22778212.070 8 119700306.225 8      2985.805          49.000    22778212.516 6  93272991.821 6      2326.601          41.000
G21  20831204.906 8 109468792.420 8      -903.500          49.000    20831204.148 8  85300343.396 8      -704.029          49.000
G26  20281978.812 8 106582515.690 8       257.352          51.000    20281981.219 8  83051319.173 8       200.534          51.000
G31  23505539.094 5 123522386.699 5     -3185.016          35.000    23505536.047 5  96251220.164 5     -2481.833          35.000
R10  19959769.695 8 106396813.563 8     -2415.004          51.000
R11  20517044.320 5 109636863.313 5      2253.488          34.000
R21  20608897.195 6 110282268.934 6      2049.973          36.000
C05                                                                  39616860.367 5 159520679.341 5        18.912          34.000
C27  21511967.352 8 112018453.249 8       -67.562          51.000
C28  23764537.352 5 123748094.052 5     -2353.617          34.000
C30  23887451.172 6 124388378.810 6      2285.156          36.000
E02  23392297.820 8 122927377.551 8      -285.316          51.000    23392299.273 8  94191091.067 8      -218.643          51.000
E25  25637107.695 8 134723898.334 8     -2677.383          50.000    25637111.117 8 103230040.548 8     -2051.417          48.000
E36  23069127.273 8 121229099.504 8       -47.320          51.000    23069129.477 8  92889841.989 8       -36.303          51.000
> 2020 05 10 13 56  0.0000000  0 13        .000000000000
G18  20441346.750 8 107420002.045 8      -885.301          51.000    20441346.281 8  83703978.950 8      -689.845          49.000
G20  22761287.227 8 119611365.748 8      2937.852          49.000    22761287.797 6  93203687.603 6      2289.238          41.000
G21  20836497.555 8 109496605.486 8      -956.426          50.000    20836496.648 8  85322015.903 8      -745.267          50.000
G26  20280654.922 8 106575558.179 8       200.820          51.000    20280657.047 8  83045897.732 8       156.483          51.000
G31  23523834.461 6 123618525.030 6     -3230.121          36.000    23523832.859 6  96326133.099 6     -2516.977          37.000
R10  19973520.273 8 106470113.567 8     -2477.543          49.000
R21  20597534.977 5 110221471.375 5      1996.469          32.000
C05  39616812.594 5 206295138.792 5       -14.680          34.000    39616815.320 5 159520497.961 5       -11.300          34.000
C27  21512479.195 8 112021118.996 8      -115.887          51.000
C30  23874401.820 5 124320410.704 5      2240.852          33.000
E02  23394060.609 8 122936640.292 8      -338.055          51.000    23394062.031 8  94198188.475 8      -258.993          51.000
E25  25652509.828 8 134804826.807 8     -2723.695          51.000    25652511.805 8 103292050.631 8     -2086.957          50.000
E36  23069521.414 8 121231170.976 8       -96.469          51.000    23069523.516 8  92891429.221 8       -73.948          51.000
> 2020 05 10 13 56 30.0000000  0 15        .000000000000
G18  20446354.969 8 107446320.533 8      -874.480          51.000    20446354.352 8  83724486.865 8      -681.413          49.000
G20  22744445.492 7 119522863.320 7      2957.211          47.000    22744446.156 7  93134724.743 7      2304.323          43.000
G21  20841901.750 8 109525004.459 8      -942.062          49.000    20841900.828 8  85344144.981 8      -734.075          49.000
G26  20279463.195 8 106569295.183 8       211.551          51.000    20279465.359 8  83041017.481 8       164.845          51.000
G31  23542195.398 6 123715010.829 6     -3207.531          36.000    23542196.320 5  96401316.753 5     -2499.375          35.000
R09  22384903.562 5 119534153.221 5     -4359.625          35.000    22384907.141 6  92971013.382 6     -3390.822          37.000
R10  19987432.266 8 106544274.909 8     -2471.805          48.000
R11  20492211.523 4 109504164.680 4      2196.742          28.000
R21  20586282.484 6 110161259.243 6      2012.059          36.000
C05  39616802.930 5 206295088.904 5        12.770          35.000    39616805.555 5 159520458.639 5         9.868          34.000
C27  21513078.977 8 112024240.671 8       -97.379          51.000
C30  23861421.906 5 124252789.472 5      2262.320          31.000
E02  23395934.656 8 122946487.041 8      -323.469          51.000    23395935.320 8  94205733.396 8      -247.862          51.000
E25  25667987.133 8 134886153.135 8     -2703.172          51.000    25667988.828 8 103354365.553 8     -2071.250          51.000
E36  23070006.008 8 121233717.572 8       -78.371          51.000    23070007.781 8  92893380.510 8       -60.063          51.000
> 2020 05 10 13 57  0.0000000  0 14        .000000000000
G18  20451402.906 8 107472847.536 8      -889.785          51.000    20451402.125 8  83745157.237 8      -693.339          49.000
G20  22727595.195 7 119434316.675 7      2950.148          47.000    22727596.352 7  93065727.414 7      2298.817          44.000
G21  20847324.938 8 109553502.968 8      -953.750          50.000    20847324.031 8  85366351.603 8      -743.182          50.000
G26  20278311.406 8 106563242.416 8       196.086          51.000    20278313.898 8  83036301.027 8       152.794          51.000
G31  23560529.617 5 123811356.462 5     -3211.859          33.000    23560532.078 5  96476391.186 5     -2502.751          32.000
R09  22409428.789 5 119665092.666 5     -4365.422          35.000    22409427.312 5  93072855.112 5     -3395.331          31.000
R10  20001412.883 8 106618802.987 8     -2492.484          48.000
R11  20479967.492 4 109438735.747 4      2177.188          28.000
R21  20575047.453 6 110101138.705 6      2000.270          38.000
C05  39616736.039 5 206294740.012 5        14.352          34.000    39616738.695 5 159520189.633 5        11.095          34.000
C27  21513673.781 8 112027336.951 8      -104.883          51.000
E02  23397827.727 8 122956432.965 8      -335.305          51.000    23397828.039 8  94213354.310 8      -256.943          51.000
E25  25683447.164 8 134967390.898 8     -2708.508          51.000    25683449.086 8 103416612.638 8     -2075.395          51.000
E36  23070488.602 8 121236253.352 8       -86.531          51.000    23070490.172 8  92895323.519 8       -66.297          51.000
> 2020 05 10 13 57 30.0000000  0 14        .000000000000
G18  20456565.461 8 107499977.452 8      -914.426          51.000    20456564.906 8  83766297.442 8      -712.540          49.000
G20  22710812.398 7 119346124.666 7      2933.766          46.000    22710814.305 7  92997006.424 7      2286.054          44.000
G21  20852842.008 8 109582495.309 8      -974.617          51.000    20852841.078 8  85388943.048 8      -759.442          50.000
G26  20277275.141 8 106557796.642 8       171.359          51.000    20277277.680 8  83032057.561 8       133.527          51.000
G31  23578912.766 5 123907954.255 5     -3223.734          31.000    23578915.609 5  96551662.133 5     -2511.998          31.000
R09  22434011.234 5 119796356.775 5     -4380.855          35.000    22434012.648 5  93174949.283 5     -3407.338          31.000
R10  20015537.289 8 106694096.056 8     -2522.551          48.000
R21  20563903.422 5 110041513.224 5      1978.816          32.000
C05  39616687.438 5 206294487.505 5         7.043          34.000
C27  21514338.805 8 112030799.579 8      -121.613          51.000
C28  23819283.148 5 124033273.050 5     -2383.738          34.000
E02  23399814.766 8 122966874.328 8      -356.434          51.000    23399815.406 8  94221354.819 8      -273.093          51.000
E25  25698964.844 8 135048934.943 8     -2723.340          51.000    25698967.281 8 103479094.414 8     -2086.718          51.000
E36  23071044.219 8 121239173.451 8      -103.781          51.000    23071045.992 8  92897561.003 8       -79.560          51.000
> 2020 05 10 13 58  0.0000000  0 13        .000000000000
G18  20461828.180 8 107527633.880 8      -929.504          50.000    20461827.703 8  83787847.893 8      -724.289          49.000
G20  22694083.281 7 119258215.200 7      2926.703          45.000    22694085.672 7  92928505.601 7      2280.551          44.000
G21  20858438.500 8 109611904.733 8      -986.277          50.000    20858437.430 8  85411859.474 8      -768.528          50.000
G26  20276340.297 8 106552883.640 8       155.934          51.000    20276342.922 8  83028229.248 8       121.507          51.000
R09  22458639.078 6 119927865.798 6     -4386.367          40.000    22458640.273 4  93277233.819 4     -3411.625          29.000
R10  20029791.320 8 106770075.913 8     -2542.980          49.000
R21  20552837.508 5 109982306.775 5      1967.715          30.000
C05                                                                  39616646.148 5 159519817.400 5         6.748          34.000
C27  21515059.828 8 112034553.677 8      -128.871          51.000
C30  23822533.719 5 124050189.595 5      2241.652          31.000
E02  23401881.711 8 122977736.415 8      -367.914          51.000    23401882.320 8  94229677.715 8      -281.878          51.000
E25  25714525.969 8 135130709.061 8     -2728.402          51.000    25714529.164 8 103541752.453 8     -2090.552          51.000
E36  23071658.688 8 121242402.144 8      -111.539          51.000    23071660.664 8  92900034.933 8       -85.444          51.000
> 2020 05 10 13 58 30.0000000  0 13        .000000000000
G18  20467162.328 8 107555666.151 8      -945.379          50.000    20467161.773 8  83809691.245 8      -736.659          48.000
G20  22677380.062 7 119170441.879 7      2918.773          45.000    22677382.688 7  92860110.842 7      2274.369          44.000
G21  20864085.625 8 109641580.657 8      -998.305          50.000    20864084.578 8  85434983.573 8      -777.900          50.000
G26  20275478.641 8 106548355.144 8       139.887          51.000    20275481.258 8  83024700.534 8       109.003          51.000
R09  22483283.688 6 120059464.256 6     -4392.879          40.000    22483284.922 4  93379588.121 4     -3416.687          25.000
R10  20044145.508 8 106846588.499 8     -2564.055          49.000
R21  20541821.438 5 109923367.495 5      1955.039          35.000
C27  21515808.289 8 112038450.919 8      -136.953          51.000
C28  23846767.336 5 124176378.835 5     -2387.020          35.000
C30  23809616.102 5 123982915.947 5      2237.586          33.000
E02  23404000.344 8 122988870.413 8      -380.453          51.000    23404000.812 8  94238208.959 8      -291.489          51.000
E25  25730102.000 8 135212562.933 8     -2734.566          51.000    25730105.875 8 103604471.616 8     -2095.269          51.000
E36  23072303.367 8 121245789.548 8      -120.281          51.000    23072305.398 8  92902630.466 8       -92.193          51.000
> 2020 05 10 13 59  0.0000000  0 14        .000000000000
G18  20472621.398 8 107584355.201 8      -965.008          50.000    20472621.219 8  83832046.329 8      -751.957          49.000
G20  22660757.133 7 119083090.227 7      2906.672          45.000    22660759.047 6  92792044.637 6      2264.939          40.000
G21  20869837.016 8 109671804.001 8     -1014.492          50.000    20869836.031 8  85458534.232 8      -790.513          50.000
G26  20274744.008 8 106544494.248 8       119.656          51.000    20274746.367 8  83021692.053 8        93.239          51.000
R09  22507997.820 6 120191435.682 6     -4403.055          39.000
R10  20058652.023 7 106923917.013 7     -2589.055          47.000
R21  20530911.523 5 109864982.748 5      1938.578          32.000    20530915.664 4  85450614.051 4      1507.780          25.000
C05  39616534.609 5 206293691.804 5         6.617          34.000
C27  21516638.008 8 112042770.521 8      -148.957          51.000
C28  23860541.086 4 124248114.721 4     -2393.215          27.000
C30  23796759.492 4 123915959.820 4      2227.215          29.000
E02  23406224.445 8 123000558.949 8      -396.801          51.000    23406225.211 8  94247165.100 8      -304.015          51.000
E25  25745746.109 8 135294777.763 8     -2744.500          50.000    25745750.703 8 103667467.330 8     -2102.848          50.000
E36  23073031.742 8 121249617.218 8      -132.840          51.000    23073033.680 8  92905563.362 8      -101.765          51.000
> 2020 05 10 13 59 30.0000000  0 13        .000000000000
G18  20478167.312 8 107613500.005 8      -971.531          50.000    20478167.469 8  83854756.582 8      -757.037          49.000
G20  22644177.531 7 118995963.532 7      2908.160          45.000    22644177.016 6  92724153.720 6      2266.102          38.000
G21  20875654.305 8 109702373.468 8     -1017.219          50.000    20875653.109 8  85482354.595 8      -792.638          50.000
G26  20274098.539 8 106541102.338 8       112.773          51.000    20274100.891 8  83019049.001 8        87.875          51.000
G29  23144897.203 4 121627260.576 4     -2721.527          29.000    23144888.039 4  94774455.606 4     -2120.701          27.000
R09  22532742.164 6 120323573.816 6     -4399.691          37.000
R10  20073271.844 7 107001856.558 7     -2600.328          44.000
C05  39616486.664 5 206293441.166 5        16.508          35.000
C27  21517510.773 8 112047314.267 8      -147.746          51.000
C30  23783919.898 4 123849120.557 4      2233.785          29.000
E02  23408516.211 8 123012602.821 8      -399.871          51.000    23408517.148 8  94256393.525 8      -306.389          51.000
E25  25761420.320 8 135377152.850 8     -2740.879          49.000    25761425.531 8 103730585.854 8     -2100.160          49.000
E36  23073805.875 8 121253684.952 8      -132.047          51.000    23073807.531 8  92908680.195 8      -101.212          51.000
