     3.04           OBSERVATION DATA    M (MIXED)           RINEX VERSION / TYPE
Convert 2.6.2       NovAtel             20200515 161157 UTC PGM / RUN BY / DATE 
Rinex Version 3.04 Observation File                         COMMENT             
                                                            MARKER NAME         
                                                            MARKER NUMBER       
                                                            MARKER TYPE         
                                                            OBSERVER / AGENCY   
                    NovAtel GPSCard                         REC # / TYPE / VERS 
                                                            ANT # / TYPE        
        0.0000        0.0000        0.0000                  APPROX POSITION XYZ 
        0.0000        0.0000        0.0000                  ANTENNA: DELTA H/E/N
G    8 C1C L1C D1C S1C C2W L2W D2W S2W                      SYS / # / OBS TYPES 
R    8 C1C L1C D1C S1C C2P L2P D2P S2P                      SYS / # / OBS TYPES 
E    8 C1C L1C D1C S1C C7Q L7Q D7Q S7Q                      SYS / # / OBS TYPES 
C    8 C2I L2I D2I S2I C7I L7I D7I S7I                      SYS / # / OBS TYPES 
DBHZ                                                        SIGNAL STRENGTH UNIT
    30.000                                                  INTERVAL            
  2020    05    13    11    00    0.0000000     GPS         TIME OF FIRST OBS   
  2020    05    13    11    59   30.0000000     GPS         TIME OF LAST OBS    
G L1C  0.00000  09 G02 G32 G12 G25 G29 G18 G14 G21 G31      SYS / PHASE SHIFT   
G L2W  0.00000  09 G32 G12 G25 G29 G21 G18 G14 G02 G31      SYS / PHASE SHIFT   
R L1C  0.00000  05 R11 R22 R12 R21 R23                      SYS / PHASE SHIFT   
R L2P  0.25000  05 R11 R22 R12 R23 R21                      SYS / PHASE SHIFT   
E L1C  0.50000  04 E36 E25 E11 E02                          SYS / PHASE SHIFT   
E L7Q -0.25000  04 E36 E25 E11 E02                          SYS / PHASE SHIFT   
C L2I  0.00000  03 C12 C26 C24                              SYS / PHASE SHIFT   
C L7I  0.00000  01 C12                                      SYS / PHASE SHIFT   
  5 R11  0 R22 -3 R12 -1 R21  4 R23  3                      GLONASS SLOT / FRQ #
 C1C  -71.950 C2C  -71.950 C2P  -71.950                     GLONASS COD/PHS/BIS 
     0     0     0     0GPS                                 LEAP SECONDS        
                                                            END OF HEADER       
> 2020 05 13 11 00  0.0000000  0 13      -0.000000000000
G02  23822638.133 5 125188781.087 5     -2172.562          33.000                                                                  
G32  24028171.195 7 126268881.946 7     -2849.523          44.000    24028174.141 7  98391299.438 7     -2220.408          43.000  
G12  22429657.070 5 117868630.715 5     -2641.254          32.000    22429660.828 5  91845730.479 5     -2058.136          31.000  
G25  20576852.016 8 108132086.524 8     -1298.691          51.000    20576853.883 8  84258769.006 8     -1011.968          51.000  
G29  20241873.109 8 106371771.563 8       434.660          51.000    20241873.180 8  82887104.262 8       338.696          51.000  
R11  20629856.648 8 110239323.496 8     -2572.707          50.000    20629859.258 7  85741696.811 7     -2000.995          44.000  
R22  19251746.945 8 102766754.494 8      1160.031          50.000    19251749.484 8  79929773.039 8       902.250          48.000  
R12  19290098.609 8 103043843.193 8       936.199          50.000    19290101.500 7  80145228.867 7       728.155          45.000  
E36  23797655.391 8 125057530.506 8      1607.086          51.000    23797658.031 8  95823335.819 8      1231.425          51.000  
E25  24598712.578 8 129267094.283 8     -1532.289          51.000    24598715.789 8  99048820.735 8     -1174.119          51.000  
E11  23866690.375 5 125420303.923 5     -1291.785          32.000    23866690.531 5  96101274.973 5      -990.037          33.000  
C12  24198135.594 5 126006116.351 5      2984.574          34.000    24198139.328 6  97435922.417 6      2308.005          38.000  
C26  21649169.547 8 112732921.715 8     -1198.066          51.000                                                                  
> 2020 05 13 11 00 30.0000000  0 12      -0.000000000000
G02  23835087.023 5 125254197.221 5     -2184.062          33.000                                                                  
G32  24044464.359 7 126354502.685 7     -2854.562          46.000    24044466.344 7  98458016.847 7     -2224.338          46.000  
G25  20584307.922 8 108171267.543 8     -1309.305          51.000    20584309.836 8  84289299.648 8     -1020.241          51.000  
G29  20239446.977 8 106359023.640 8       419.270          51.000    20239447.477 8  82877170.825 8       326.704          51.000  
R11  20644353.828 8 110316790.666 8     -2587.609          51.000    20644356.250 7  85801949.000 7     -2012.585          45.000  
R22  19245309.445 8 102732389.876 8      1134.957          51.000    19245312.523 8  79903045.052 8       882.748          49.000  
R12  19284900.828 8 103016077.161 8       918.828          51.000    19284904.133 7  80123633.046 7       714.641          45.000  
E36  23788527.328 8 125009560.048 8      1594.848          51.000    23788529.953 8  95786579.266 8      1222.024          51.000  
E25  24607490.742 8 129313225.969 8     -1539.098          51.000    24607494.531 8  99084168.374 8     -1179.309          51.000  
E11  23874110.531 5 125459296.214 5     -1304.055          34.000    23874109.875 5  96131152.124 5      -998.981          33.000  
C12  24180973.094 6 125916736.872 6      2977.625          37.000    24180974.352 6  97366808.549 6      2302.791          38.000  
C26  21656121.352 8 112769119.497 8     -1211.086          51.000                                                                  
> 2020 05 13 11 01  0.0000000  0 14      -0.000000000000
G18  23982924.617 5 126031127.186 5      3736.984          34.000                                                                  
G02  23847587.766 5 125319886.127 5     -2196.824          30.000                                                                  
G32  24060770.133 7 126440189.277 7     -2859.559          47.000    24060771.305 7  98524785.536 7     -2228.231          47.000  
G12  22459881.180 5 118027459.377 5     -2652.410          34.000    22459890.633 5  91969446.484 5     -2066.808          31.000  
G25  20591807.820 8 108210679.791 8     -1319.992          51.000    20591810.047 8  84320010.468 8     -1028.566          51.000  
G29  20237092.539 8 106346651.582 8       403.758          51.000    20237093.227 8  82867530.265 8       314.617          51.000  
R11  20658918.438 8 110394617.548 8     -2602.656          51.000    20658920.773 7  85862481.009 7     -2024.289          47.000  
R22  19238996.820 8 102698691.315 8      1109.762          51.000    19238999.625 8  79876835.050 8       863.148          49.000  
R12  19279785.094 8 102988749.521 8       901.184          50.000    19279788.266 7  80102378.219 7       700.921          45.000  
E36  23779452.906 8 124961871.833 8      1582.547          51.000    23779455.648 8  95750038.953 8      1212.572          51.000  
E25  24616290.039 8 129359469.385 8     -1545.672          51.000    24616294.367 8  99119601.618 8     -1184.398          51.000  
E11                                                                  23881584.766 5  96161242.071 5     -1008.613          33.000  
C12  24163834.211 6 125827477.682 6      2971.117          39.000    24163832.656 6  97297787.771 6      2297.070          37.000  
C26  21663131.648 8 112805621.936 8     -1224.227          51.000                                                                  
> 2020 05 13 11 01 30.0000000  0 14      -0.000000000000
G18  23961605.102 5 125919105.764 5      3732.715          32.000                                                                  
G32  24077120.016 8 126526108.265 8     -2866.387          48.000    24077121.406 7  98591735.311 7     -2233.552          47.000  
G12  22475048.812 6 118107178.172 6     -2659.641          36.000    22475057.812 6  92031607.032 6     -2072.448          36.000  
G25  20599383.969 8 108250492.655 8     -1332.469          51.000    20599386.258 8  84351033.452 8     -1038.288          51.000  
G29  20234842.000 8 106334824.517 8       386.488          51.000    20234842.398 8  82858314.366 8       301.160          51.000  
R11  20673582.203 8 110472975.326 8     -2619.438          51.000    20673585.047 8  85923425.937 8     -2037.341          48.000  
R22  19232841.258 8 102665832.132 8      1082.645          51.000    19232844.438 8  79851277.921 8       842.057          49.000  
R12  19274783.781 8 102962034.952 8       881.609          51.000    19274787.219 7  80081600.219 7       685.696          46.000  
E36  23770464.453 8 124914636.331 8      1568.332          51.000    23770467.500 8  95713845.510 8      1201.752          51.000  
E25  24625143.141 8 129405994.277 8     -1554.211          51.000    24625147.406 8  99155250.540 8     -1190.794          51.000  
E11                                                                  23889144.359 5  96191673.739 5     -1019.439          32.000  
E02  23441246.219 6 123184581.298 6       824.449          40.000    23441248.727 6  94388194.810 6       631.685          39.000  
C12  24146750.391 6 125738508.265 6      2961.883          40.000    24146745.578 6  97228991.035 6      2290.549          37.000  
C26  21670232.648 8 112842596.926 8     -1239.078          51.000                                                                  
> 2020 05 13 11 02  0.0000000  0 14      -0.000000000000
G18  23940298.375 5 125807143.374 5      3731.125          34.000                                                                  
G32  24093497.523 7 126612173.053 7     -2871.293          46.000    24093499.898 7  98658798.702 7     -2237.375          46.000  
G12  22490250.578 5 118187067.582 5     -2665.793          34.000    22490265.367 4  92093858.324 4     -2077.263          29.000  
G25  20607020.492 8 108290622.467 8     -1343.008          51.000    20607022.648 8  84382303.421 8     -1046.503          51.000  
G29  20232679.094 8 106323458.342 8       371.043          51.000    20232679.148 8  82849457.606 8       289.124          51.000  
R11  20688328.859 8 110551778.363 8     -2634.215          49.000    20688332.172 8  85984717.197 8     -2048.834          48.000  
R22  19226827.344 8 102633727.561 8      1057.465          51.000    19226830.555 8  79826307.711 8       822.473          49.000  
R12  19269881.945 8 102935850.884 8       863.844          51.000    19269885.516 7  80061234.829 7       671.879          46.000  
E36  23761546.344 8 124867770.952 8      1555.875          51.000    23761549.570 8  95677935.667 8      1192.165          51.000  
E25  24634034.422 8 129452717.316 8     -1560.941          51.000    24634038.180 8  99191051.294 8     -1196.017          51.000  
E11  23896768.445 5 125578359.075 5     -1341.969          35.000    23896768.664 5  96222385.119 5     -1028.445          30.000  
E02  23436558.938 6 123159948.042 6       817.676          40.000    23436560.383 6  94369319.952 6       626.501          40.000  
C12  24129705.734 7 125649747.202 7      2955.082          42.000    24129697.953 6  97160355.546 6      2285.091          37.000  
C26  21677408.234 8 112879961.584 8     -1252.039          51.000                                                                  
> 2020 05 13 11 02 30.0000000  0 12      -0.000000000000
G18  23919010.375 5 125695270.415 5      3729.051          31.000                                                                  
G32  24109907.344 7 126698408.069 7     -2876.211          45.000    24109910.953 7  98725994.738 7     -2241.204          45.000  
G25  20614722.500 8 108331096.475 8     -1353.762          51.000    20614724.680 8  84413841.589 8     -1054.880          51.000  
G29  20230609.195 8 106312580.211 8       355.566          51.000    20230608.789 8  82840981.130 8       277.065          51.000  
R11  20703163.664 8 110631053.575 8     -2649.309          50.000    20703167.617 8  86046375.672 8     -2060.574          48.000  
R22  19220959.961 8 102602406.059 8      1032.039          51.000    19220962.898 8  79801946.549 8       802.697          49.000  
R12  19265084.984 8 102910227.412 8       845.797          51.000    19265088.625 7  80041305.458 7       657.842          46.000  
E36  23752703.789 8 124821303.991 8      1543.312          51.000    23752707.156 8  95642331.112 8      1182.518          51.000  
E25  24642968.750 8 129499666.080 8     -1567.617          51.000    24642972.023 8  99227024.989 8     -1201.117          51.000  
E02  23431914.461 6 123135538.997 6       810.840          41.000    23431914.930 6  94350616.932 6       621.245          40.000  
C12  24112705.852 7 125561223.085 7      2947.918          43.000    24112697.898 6  97091903.185 6      2279.394          41.000  
C26  21684663.602 8 112917742.925 8     -1265.148          51.000                                                                  
> 2020 05 13 11 03  0.0000000  0 11      -0.000000000000
G32  24126344.289 7 126784785.177 7     -2881.105          43.000    24126348.711 7  98793301.536 7     -2245.021          43.000  
G25  20622485.227 8 108371889.455 8     -1364.551          51.000    20622487.383 8  84445628.319 8     -1063.287          51.000  
G29  20228627.312 8 106302164.477 8       340.016          51.000    20228626.562 8  82832864.984 8       264.950          51.000  
R11  20718082.352 8 110710774.418 8     -2664.340          50.000    20718086.195 8  86108380.752 8     -2072.268          48.000  
R22  19215234.461 8 102571842.422 8      1006.742          51.000    19215237.109 8  79778174.850 8       783.022          48.000  
R12  19260388.734 8 102885141.203 8       827.746          51.000    19260392.344 7  80021793.952 7       643.800          47.000  
E36  23743932.195 8 124775211.256 8      1530.633          51.000    23743935.867 8  95607013.322 8      1172.784          51.000  
E25  24651941.406 8 129546815.675 8     -1574.570          51.000    24651944.289 8  99263152.573 8     -1206.552          51.000  
E02  23427307.680 7 123111330.096 7       804.152          42.000    23427307.859 6  94332067.252 6       616.085          41.000  
C12  24095746.586 7 125472912.428 7      2940.508          43.000    24095739.945 7  97023615.804 7      2273.845          45.000  
C26  21691994.000 8 112955915.963 8     -1278.441          51.000                                                                  
> 2020 05 13 11 03 30.0000000  0 13      -0.000000000000
G32  24142805.438 6 126871287.967 6     -2885.969          40.000    24142810.086 6  98860706.281 6     -2248.811          40.000  
G12  22536065.297 5 118427821.905 5     -2683.113          34.000                                                                  
G25  20630306.000 8 108412987.848 8     -1375.492          51.000    20630308.188 8  84477653.025 8     -1071.812          51.000  
G29  20226730.812 8 106292197.237 8       324.383          51.000    20226729.586 8  82825098.307 8       252.766          51.000  
R11  20733081.930 8 110790926.243 8     -2679.324          50.000    20733085.523 8  86170721.044 8     -2083.919          48.000  
R22  19209648.602 8 102542023.617 8       981.195          51.000    19209650.953 8  79754982.455 8       763.152          49.000  
R12  19255790.930 8 102860581.062 8       809.547          51.000    19255794.609 7  80002691.624 7       629.648          47.000  
E36  23735229.523 8 124729480.308 8      1518.020          51.000    23735233.109 8  95571972.726 8      1163.158          51.000  
E25  24660949.766 8 129594152.875 8     -1581.285          51.000    24660952.297 8  99299423.902 8     -1211.617          51.000  
E11  23920070.953 5 125700821.657 5     -1378.625          33.000                                                                  
E02  23422736.555 7 123087308.977 7       797.164          42.000    23422736.734 6  94313661.458 6       610.835          41.000  
C12  24078825.375 7 125384803.351 7      2933.250          42.000    24078821.117 7  96955484.314 7      2268.176          47.000  
C26  21699397.016 8 112994467.287 8     -1291.695          51.000                                                                  
> 2020 05 13 11 04  0.0000000  0 13      -0.000000000000
G18  23855217.844 4 125360024.16724      3721.941          29.000                                                                  
G32  24159295.758 6 126957943.366 6     -2890.352          41.000    24159300.586 6  98928229.942 6     -2252.223          41.000  
G12  22551405.516 5 118508430.847 5     -2689.434          34.000    22551415.039 5  92344285.286 5     -2095.663          34.000  
G25  20638190.586 8 108454421.327 8     -1385.770          51.000    20638192.711 8  84509938.838 8     -1079.821          51.000  
G29  20224925.281 8 106282707.952 8       309.246          51.000    20224923.648 8  82817704.061 8       240.971          51.000  
R11  20748167.148 8 110871538.357 8     -2693.766          48.000    20748171.203 7  86233419.323 7     -2095.151          47.000  
R22  19204207.938 8 102512980.446 8       956.148          51.000    19204210.070 8  79732393.323 8       743.671          49.000  
R12  19251297.750 8 102836579.404 8       791.746          51.000    19251301.258 7  79984023.662 7       615.803          47.000  
E36  23726601.500 8 124684141.879 8      1505.730          51.000    23726604.641 8  95537232.904 8      1153.691          51.000  
E25  24669999.320 8 129641707.731 8     -1587.875          51.000    24670001.719 8  99335862.011 8     -1216.705          51.000  
E02  23418207.008 7 123063506.494 7       790.824          42.000    23418207.398 6  94295423.180 6       605.834          41.000  
C12  24061948.352 6 125296926.877 6      2925.945          40.000    24061946.930 8  96887532.662 8      2262.723          48.000  
C26  21706878.188 8 113033426.346 8     -1304.453          51.000                                                                  
> 2020 05 13 11 04 30.0000000  0 13      -0.000000000000
G32  24175800.867 7 127044677.700 7     -2895.902          42.000    24175806.328 7  98995815.096 7     -2256.551          42.000  
G12  22566767.625 5 118589158.31525     -2695.707          32.000    22566774.727 4  92407169.42624     -2100.552          28.000  
G25  20646125.461 8 108496119.143 8     -1397.816          51.000    20646127.445 8  84542430.631 8     -1089.208          51.000  
G29  20223197.023 8 106273625.418 8       292.551          51.000    20223195.320 8  82810626.760 8       227.962          51.000  
R11  20763324.461 8 110952537.959 8     -2709.957          48.000    20763328.945 7  86296418.962 7     -2107.745          46.000  
R22  19198898.875 8 102484641.342 8       929.344          51.000    19198901.148 8  79710351.812 8       722.823          49.000  
R12  19246896.156 8 102813066.495 8       772.129          51.000    19246899.531 8  79965735.855 8       600.545          48.000  
R21  21008735.680 5 112421526.276 5     -3224.945          34.000                                                                  
E36  23718034.594 8 124639126.168 8      1491.660          50.000    23718037.438 8  95502740.381 8      1142.982          51.000  
E25  24679076.750 8 129689409.761 8     -1595.883          51.000    24679079.195 8  99372412.886 8     -1222.856          51.000  
E02  23413705.906 7 123039852.959 7       782.598          43.000    23413706.602 7  94277299.056 7       599.611          42.000  
C12  24045102.602 6 125209214.246 6      2917.539          38.000    24045103.867 8  96819707.722 8      2256.096          49.000  
C26  21714424.438 8 113072722.901 8     -1318.875          51.000                                                                  
> 2020 05 13 11 05  0.0000000  0 14      -0.000000000000
G32  24192361.469 7 127131705.363 7     -2902.453          43.000    24192368.047 7  99063628.793 7     -2261.656          42.000  
G12  22582191.977 5 118670227.60625     -2703.875          31.000    22582211.922 5  92470378.73325     -2106.935          31.000  
G25  20654151.961 8 108538298.439 8     -1410.668          51.000    20654153.867 8  84575297.605 8     -1099.222          51.000  
G29  20221587.234 8 106265166.125 8       275.023          51.000    20221585.492 8  82804035.093 8       214.304          51.000  
R11  20778595.539 7 111034145.026 7     -2726.922          46.000    20778600.062 7  86359891.079 7     -2120.940          45.000  
R22  19193763.094 8 102457227.457 8       901.855          51.000    19193765.273 8  79689029.898 8       701.443          49.000  
R12  19242627.836 8 102790265.734 8       751.547          51.000    19242631.367 8  79948001.919 8       584.534          48.000  
R21  21026872.867 5 112518565.164 5     -3241.219          32.000                                                                  
E36  23709570.852 8 124594651.476 8      1476.871          51.000    23709573.734 8  95468662.390 8      1131.638          51.000  
E25  24688223.531 8 129737476.506 8     -1604.906          51.000    24688225.867 8  99409243.215 8     -1229.728          50.000  
E11  23944004.578 6 125826591.009 6     -1417.328          37.000                                                                  
E02  23409274.750 7 123016566.778 7       773.438          44.000    23409275.406 6  94259456.398 6       592.838          41.000  
C12  24028329.805 5 125121882.358 5      2907.945          35.000    24028333.641 8  96752177.164 8      2248.735          50.000  
C26  21722077.039 8 113112572.221 8     -1334.207          51.000                                                                  
> 2020 05 13 11 05 30.0000000  0 13      -0.000000000000
G32  24208928.062 7 127218765.148 7     -2907.773          42.000    24208935.734 7  99131467.551 7     -2265.801          42.000  
G25  20662220.961 8 108580700.948 8     -1422.320          51.000    20662222.844 8  84608338.513 8     -1108.302          51.000  
G29  20220046.906 8 106257071.892 8       258.434          51.000    20220044.961 8  82797727.891 8       201.377          51.000  
R11  20793931.023 7 111116096.031 7     -2742.680          47.000    20793935.562 7  86423630.708 7     -2133.196          46.000  
R22  19188751.602 8 102430476.861 8       875.301          51.000    19188754.211 8  79668223.905 8       680.793          50.000  
R12  19238444.141 8 102767916.961 8       732.086          51.000    19238447.477 8  79930619.533 8       569.400          48.000  
R21  21045069.992 5 112615929.160 5     -3256.148          33.000                                                                  
E36  23701161.602 8 124550460.484 8      1462.953          51.000    23701164.523 8  95434801.776 8      1121.019          51.000  
E25  24697390.492 8 129785649.983 8     -1612.910          51.000    24697392.852 8  99446155.327 8     -1235.894          50.000  
E11  23952116.883 6 125869221.263 6     -1430.227          36.000                                                                  
E02  23404864.344 7 122993390.832 7       765.375          44.000    23404864.633 7  94241698.214 7       586.501          42.000  
C12  24011580.500 5 125034676.769 5      2899.402          32.000    24011587.477 8  96684744.232 8      2242.042          50.000  
C26  21729786.766 8 113152718.259 8     -1348.352          51.000                                                                  
> 2020 05 13 11 06  0.0000000  0 13      -0.000000000000
G32  24225529.156 6 127306006.824 6     -2910.000          40.000    24225537.852 6  99199448.082 6     -2267.533          40.000  
G14  23449535.391 5 123228139.35525     -1900.125          30.000                                                                  
G25  20670361.406 8 108623479.318 8     -1431.004          51.000    20670363.484 8  84641672.288 8     -1115.068          51.000  
G29  20218604.984 8 106249494.724 8       245.082          51.000    20218602.844 8  82791823.604 8       190.973          51.000  
R11  20809360.805 8 111198545.166 8     -2755.434          49.000    20809364.953 7  86487757.787 7     -2143.115          46.000  
R22  19183893.586 8 102404544.626 8       851.910          51.000    19183896.273 8  79648054.391 8       662.597          49.000  
R12  19234374.570 8 102746177.345 8       715.688          51.000    19234377.594 8  79913710.933 8       556.646          48.000  
E36  23692835.914 8 124506706.797 8      1452.336          51.000    23692838.391 8  95401276.232 8      1112.802          51.000  
E25  24706606.648 8 129834083.125 8     -1617.594          51.000    24706609.148 8  99483266.394 8     -1239.417          50.000  
E11  23960306.492 5 125912264.014 5     -1440.363          35.000                                                                  
E02  23400504.008 7 122970478.847 7       760.383          45.000    23400504.336 7  94224142.289 7       582.634          42.000  
C12  23994885.766 5 124947750.163 5      2893.809          35.000    23994894.531 8  96617526.975 8      2237.849          50.000  
C26  21737582.320 8 113193312.216 8     -1359.461          51.000                                                                  
> 2020 05 13 11 06 30.0000000  0 12      -0.000000000000
G32  24242156.656 6 127393387.149 6     -2914.277          41.000    24242165.703 6  99267536.622 6     -2270.866          41.000  
G25  20678565.695 8 108666593.045 8     -1442.258          51.000    20678567.688 8  84675267.384 8     -1123.838          51.000  
G29  20217253.711 8 106242393.657 8       229.215          51.000    20217251.594 8  82786290.309 8       178.609          51.000  
R11  20824876.133 8 111281450.385 8     -2770.688          51.000    20824879.688 7  86552239.566 7     -2154.983          46.000  
R22  19179181.320 8 102379390.402 8       826.027          51.000    19179184.500 8  79628490.012 8       642.466          50.000  
R12  19230411.852 8 102725008.250 8       696.586          51.000    19230414.500 8  79897246.081 8       541.789          49.000  
E36  23684585.844 8 124463350.964 8      1439.059          51.000    23684588.164 8  95368055.536 8      1102.707          51.000  
E25  24715864.695 8 129882735.860 8     -1624.961          51.000    24715867.398 8  99520545.729 8     -1245.110          51.000  
E11  23968567.602 5 125955675.867 5     -1452.867          35.000    23968567.078 5  96511486.112 5     -1113.332          30.000  
E02  23396186.406 7 122947791.565 7       752.914          45.000    23396187.617 7  94206758.518 7       577.076          43.000  
C12  23978239.258 6 124861063.840 6      2886.035          39.000    23978247.398 8  96550495.612 8      2231.723          49.000  
C26  21745456.438 8 113234313.946 8     -1373.051          51.000                                                                  
> 2020 05 13 11 07  0.0000000  0 16      -0.000000000000
G21  23559003.672 6 123803405.360 6      3438.805          37.000                                                                  
G02  24003089.766 5 126137084.966 5     -2336.250          34.000                                                                  
G32  24258791.180 6 127480801.053 6     -2913.953          40.000    24258799.148 6  99335651.303 6     -2270.614          40.000  
G14  23471359.125 4 123342818.544 4     -1919.457          29.000                                                                  
G12  22644164.430 5 118995880.314 5     -2722.152          33.000    22644155.359 5  92724035.746 5     -2121.149          31.000  
G25  20686814.445 8 108709940.034 8     -1448.273          51.000    20686816.234 8  84709044.240 8     -1128.528          51.000  
G29  20215973.500 8 106235666.352 8       218.551          51.000    20215971.664 8  82781048.243 8       170.299          51.000  
R11  20840457.383 8 111364706.990 8     -2780.539          50.000    20840460.008 7  86616994.682 7     -2162.642          46.000  
R22  19174595.320 8 102354910.757 8       805.379          51.000    19174599.117 8  79609450.291 8       626.406          50.000  
R12  19226536.820 8 102704308.174 8       682.742          51.000    19226539.297 8  79881146.032 8       531.022          49.000  
E36  23676392.055 8 124420291.857 8      1430.891          51.000    23676394.586 8  95335062.228 8      1096.388          51.000  
E25  24725145.406 8 129931506.346 8     -1626.984          51.000    24725148.531 8  99557915.297 8     -1246.663          51.000  
E11  23976881.188 5 125999355.544 5     -1459.832          32.000    23976883.109 5  96544956.196 5     -1119.100          32.000  
E02  23391892.484 7 122925228.044 7       750.660          45.000    23391895.000 7  94189469.600 7       575.229          44.000  
C12  23961620.547 7 124774518.249 7      2883.082          42.000    23961626.984 8  96483573.100 8      2229.343          48.000  
C26  21753389.641 8 113275622.198 8     -1381.570          51.000                                                                  
> 2020 05 13 11 07 30.0000000  0 15      -0.000000000000
G21  23539380.672 6 123700281.168 6      3433.277          36.000                                                                  
G02  24016455.125 5 126207319.013 5     -2348.590          33.000                                                                  
G32  24275431.875 6 127568246.979 6     -2918.621          41.000    24275437.188 6  99403790.903 6     -2274.251          41.000  
G14  23482350.375 5 123400583.826 5     -1931.543          30.000                                                                  
G25  20695107.664 8 108753521.218 8     -1459.570          51.000    20695109.484 8  84743003.579 8     -1137.328          51.000  
G29  20214764.344 8 106229313.091 8       202.535          51.000    20214762.953 8  82776097.640 8       157.820          51.000  
R11  20856103.422 8 111448314.989 8     -2795.938          49.000    20856106.266 7  86682023.065 7     -2174.622          45.000  
R22  19170135.992 8 102331106.994 8       779.137          51.000    19170140.109 8  79590936.255 8       605.995          50.000  
R12  19222750.000 8 102684080.528 8       663.270          51.000    19222753.086 8  79865413.405 8       515.876          50.000  
E36  23668255.289 8 124377531.480 8      1417.324          51.000    23668258.086 8  95302297.795 8      1086.041          51.000  
E25  24734448.703 8 129980395.963 8     -1634.750          51.000    24734452.352 8  99595376.129 8     -1252.547          51.000  
E11  23985241.727 5 126043296.871 5     -1472.266          33.000    23985247.305 5  96578628.640 5     -1128.352          32.000  
E02  23387622.609 7 122902790.459 7       742.734          45.000    23387626.062 7  94172277.149 7       569.213          45.000  
C12  23945029.367 7 124688115.829 7      2874.699          43.000    23945033.867 8  96416761.300 8      2222.870          48.000  
C26  21761381.648 8 113317237.894 8     -1395.262          51.000                                                                  
> 2020 05 13 11 08  0.0000000  0 15      -0.000000000000
G21  23519855.359 6 123597672.079 6      3424.363          36.000                                                                  
G02  24029952.008 5 126278252.621 5     -2362.766          32.000                                                                  
G32  24292163.828 6 127656170.576 6     -2925.930          41.000    24292165.891 6  99472302.727 6     -2279.946          41.000  
G12  22675370.875 5 119159899.190 5     -2737.848          35.000    22675364.977 5  92851847.371 5     -2133.376          35.000  
G25  20703530.773 8 108797785.278 8     -1473.980          51.000    20703532.602 8  84777495.022 8     -1148.557          51.000  
G29  20213711.883 8 106223782.282 8       183.492          51.000    20213710.672 8  82771787.917 8       142.978          51.000  
R11  20871900.625 8 111532729.543 8     -2814.191          50.000    20871903.414 7  86747678.813 7     -2188.816          45.000  
R22  19165888.766 8 102308435.052 8       749.855          51.000    19165892.977 8  79573302.526 8       583.224          50.000  
R12  19219137.523 8 102664783.481 8       640.707          51.000    19219140.625 8  79850404.598 8       498.328          50.000  
E36  23660260.719 8 124335519.444 8      1400.723          51.000    23660263.906 8  95270106.760 8      1073.279          51.000  
E25  24743860.469 8 130029853.608 8     -1645.242          51.000    24743864.086 8  99633272.235 8     -1260.650          51.000  
E11  23993740.289 6 126087953.551 6     -1487.496          36.000    23993743.875 5  96612867.331 5     -1140.127          31.000  
E02  23383462.258 7 122880928.629 7       731.918          45.000    23383465.930 7  94155525.884 7       560.848          45.000  
C12  23928550.859 7 124602302.685 7      2863.305          44.000    23928553.406 7  96350405.208 7      2214.032          47.000  
C26  21769517.531 8 113359605.534 8     -1412.078          51.000                                                                  
> 2020 05 13 11 08 30.0000000  0 15      -0.000000000000
G18  23664804.828 5 124359378.71925      3690.734          32.000                                                                  
G21  23500324.539 5 123495036.487 5      3418.781          35.000    23500325.977 4  96229902.902 4      2663.986          28.000  
G02  24043478.086 4 126349329.04924     -2374.180          28.000                                                                  
G32  24308882.383 6 127744024.302 6     -2930.109          41.000    24308882.617 6  99540760.156 6     -2283.206          41.000  
G25  20711980.125 8 108842187.456 8     -1485.289          51.000    20711981.867 8  84812094.098 8     -1157.371          51.000  
G29  20212712.141 8 106218529.017 8       167.547          51.000    20212710.883 8  82767694.477 8       130.556          51.000  
R11  20887744.781 8 111617395.857 8     -2829.219          49.000    20887747.977 7  86813530.375 7     -2200.504          46.000  
R22  19161749.867 8 102286341.888 8       723.883          51.000    19161754.281 8  79556118.981 8       563.020          50.000  
R12  19215595.773 8 102645865.538 8       621.309          51.000    19215599.250 8  79835690.639 8       483.240          50.000  
E36  23652304.555 8 124293711.976 8      1387.336          51.000    23652308.227 8  95238072.472 8      1063.069          51.000  
E25  24753276.773 8 130079334.907 8     -1652.594          51.000    24753280.125 8  99671186.465 8     -1266.301          51.000  
E11                                                                  24002272.156 5  96647211.071 5     -1149.106          33.000  
E02  23379308.055 7 122859099.014 7       724.254          45.000    23379311.711 7  94138799.282 7       555.032          45.000  
C12  23912081.789 7 124516540.499 7      2855.031          45.000    23912082.445 7  96284088.515 7      2207.743          46.000  
C26  21777694.359 8 113402185.204 8     -1425.684          51.000                                                                  
> 2020 05 13 11 09  0.0000000  0 17      -0.000000000000
G18  23643738.375 5 124248672.046 5      3688.094          32.000                                                                  
G21  23480814.742 5 123392512.436 5      3415.148          31.000    23480810.844 4  96149982.062 4      2661.156          29.000  
G32  24325612.867 6 127831941.035 6     -2932.422          39.000    24325612.492 6  99609266.646 6     -2285.008          38.000  
G14  23515848.531 5 123576617.67725     -1971.789          31.000                                                                  
G12  22706691.312 5 119324487.258 5     -2748.141          35.000    22706686.195 5  92980086.325 5     -2141.409          35.000  
G25  20720481.578 8 108886863.310 8     -1494.445          51.000    20720483.148 8  84846906.433 8     -1164.503          51.000  
G29  20211790.867 8 106213688.567 8       153.844          51.000    20211789.727 8  82763922.701 8       119.878          51.000  
R11  20903661.195 8 111702450.905 8     -2842.352          49.000    20903665.008 7  86879684.275 7     -2210.718          45.000  
R23  22733922.094 5 121610775.141 5      4240.656          34.000                                                                  
R22  19157745.281 8 102264964.947 8       699.824          51.000    19157749.406 8  79539492.470 8       544.308          49.000  
R12  19212151.297 8 102627466.929 8       603.871          51.000    19212155.172 8  79821380.603 8       469.678          50.000  
E36  23644413.148 8 124252245.604 8      1375.723          51.000    23644417.242 8  95206299.534 8      1054.171          51.000  
E25  24762723.320 8 130128975.760 8     -1658.035          51.000    24762726.484 8  99709222.941 8     -1270.524          51.000  
E11  24010860.125 5 126177920.480 5     -1510.746          31.000    24010859.930 5  96681782.900 5     -1157.220          33.000  
E02  23375186.180 7 122837438.345 7       718.441          46.000    23375189.906 7  94122202.137 7       550.533          46.000  
C12  23895648.211 7 124430965.094 7      2848.652          45.000    23895647.438 7  96217916.245 7      2202.753          47.000  
C26  21785937.859 8 113445111.099 8     -1437.340          51.000                                                                  
> 2020 05 13 11 09 30.0000000  0 15      -0.000000000000
G18  23622708.367 6 124138161.850 6      3684.047          36.000    23622712.484 5  96731057.324 5      2870.687          34.000  
G32  24342380.344 5 127920052.248 5     -2936.188          34.000    24342380.375 4  99677924.716 4     -2287.933          29.000  
G14  23527157.016 5 123636042.169 5     -1984.371          35.000    23527164.758 6  96339817.193 6     -1546.261          36.000  
G25  20729060.672 8 108931947.100 8     -1505.766          51.000    20729062.422 8  84882036.636 8     -1173.324          51.000  
G29  20210973.570 8 106209394.205 8       137.930          51.000    20210972.812 8  82760576.444 8       107.478          51.000  
R11  20919676.070 8 111788029.965 8     -2857.430          49.000    20919679.680 7  86946245.763 7     -2222.446          44.000  
R23  22710177.438 6 121483754.115 6      4233.016          36.000                                                                  
R22  19153900.570 8 102244441.040 8       673.898          51.000    19153904.516 8  79523529.456 8       524.146          49.000  
R12  19208830.125 8 102609726.328 8       584.234          51.000    19208834.281 8  79807582.354 8       454.405          50.000  
E36  23636612.750 8 124211255.573 8      1362.176          51.000    23636616.992 8  95174891.579 8      1043.755          51.000  
E25  24772225.883 8 130178910.719 8     -1665.461          51.000    24772228.906 8  99747484.763 8     -1276.163          51.000  
E11  24019532.812 6 126223493.399 6     -1522.656          36.000    24019531.539 5  96716697.813 5     -1166.457          33.000  
E02  23371122.469 7 122816082.071 7       710.562          46.000    23371126.016 7  94105838.236 7       544.520          46.000  
C12  23879275.680 7 124345711.010 7      2840.488          45.000    23879274.289 7  96151992.441 7      2196.241          47.000  
C26  21794273.414 8 113488516.250 8     -1451.004          51.000                                                                  
> 2020 05 13 11 10  0.0000000  0 14      -0.000000000000
G18  23601691.695 6 124027715.710 6      3679.879          38.000    23601692.102 5  96644977.445 5      2867.439          35.000  
G14  23538524.141 6 123695775.449 6     -1996.809          38.000    23538530.125 5  96386362.579 5     -1555.958          33.000  
G25  20737691.648 8 108977303.755 8     -1517.207          49.000    20737693.781 8  84917379.456 8     -1182.240          50.000  
G29  20210234.406 8 106205510.431 8       121.844          51.000    20210234.047 8  82757550.131 8        94.943          51.000  
R11  20935763.242 8 111873995.014 8     -2872.691          50.000    20935766.273 7  87013107.412 7     -2234.319          43.000  
R23  22686468.766 6 121356922.715 6      4224.227          37.000                                                                  
R22  19150190.133 8 102224633.268 8       647.473          51.000    19150193.477 8  79508123.422 8       503.590          49.000  
R12  19205606.906 8 102592508.722 8       564.426          51.000    19205611.039 8  79794190.879 8       438.998          50.000  
E36  23628877.953 8 124170607.741 8      1348.379          51.000    23628882.102 8  95143745.843 8      1033.186          51.000  
E25  24781758.617 8 130229005.132 8     -1673.406          51.000    24781761.898 8  99785868.757 8     -1282.215          51.000  
E11  24028261.812 6 126269360.262 6     -1534.590          38.000    24028259.117 5  96751842.551 5     -1176.035          31.000  
E02  23367091.227 7 122794896.370 7       702.523          47.000    23367094.367 7  94089605.046 7       538.259          47.000  
C12  23862939.008 7 124260646.049 7      2831.527          44.000    23862937.688 7  96086214.854 7      2189.496          47.000  
C26  21802675.164 8 113532266.708 8     -1464.871          51.000                                                                  
> 2020 05 13 11 10 30.0000000  0 14      -0.000000000000
G18  23580701.641 6 123917409.008 6      3674.707          38.000                                                                  
G14  23549962.914 6 123755887.279 6     -2010.066          38.000    23549970.859 5  96433202.968 5     -1566.292          34.000  
G25  20746388.352 8 109023005.490 8     -1529.059          49.000    20746390.562 8  84952991.137 8     -1191.475          49.000  
G29  20209587.156 8 106202109.199 8       105.469          51.000    20209587.023 8  82754899.824 8        82.183          51.000  
R11  20951936.734 8 111960418.143 8     -2888.344          51.000    20951938.094 6  87080325.321 6     -2246.493          41.000  
R23  22662808.789 5 121230357.808 5      4214.297          33.000                                                                  
R22  19146627.523 8 102205614.817 8       620.941          51.000    19146630.250 8  79493331.313 8       482.955          49.000  
R12  19202495.719 8 102575889.544 8       544.203          51.000    19202500.102 8  79781264.841 8       423.266          51.000  
E36  23621222.336 8 124130375.153 8      1334.309          51.000    23621226.102 8  95112918.299 8      1022.429          51.000  
E25  24791335.203 8 130279331.411 8     -1681.242          51.000    24791338.875 8  99824430.402 8     -1288.147          51.000  
E11  24037060.375 5 126315598.054 5     -1547.500          34.000    24037055.969 5  96787265.415 5     -1185.388          32.000  
E02  23363106.281 7 122773954.612 7       694.059          47.000    23363108.922 7  94073558.757 7       531.895          47.000  
C12  23846652.820 7 124175843.126 7      2822.410          45.000    23846651.664 8  96020639.882 8      2182.588          48.000  
C26  21811157.000 8 113576433.828 8     -1479.027          51.000                                                                  
> 2020 05 13 11 11  0.0000000  0 17      -0.000000000000
G18  23559731.711 6 123807208.158 6      3670.242          36.000    23559728.523 5  96473157.548 5      2859.927          30.000  
G21  23403132.805 5 122984287.227 5      3390.172          34.000    23403135.305 5  95831925.407 5      2641.693          34.000  
G02  24112052.531 4 126709660.47524     -2431.094          29.000                                                                  
G14  23561466.586 6 123816338.731 6     -2021.129          38.000    23561474.250 5  96480307.924 5     -1574.903          35.000  
G12  22769756.312 5 119655876.61225     -2773.328          31.000                                                                  
G25  20755143.836 8 109069015.679 8     -1539.770          50.000    20755145.992 8  84988843.214 8     -1199.824          50.000  
G29  20209024.586 8 106199153.470 8        90.066          51.000    20209024.594 8  82752596.669 8        70.185          51.000  
R11  20968188.672 8 112047261.244 8     -2902.828          51.000    20968188.656 6  87147869.854 6     -2257.759          41.000  
R23  22639191.508 5 121104025.306 5      4205.746          33.000                                                                  
R22  19143205.938 8 102187348.589 8       595.266          51.000    19143208.148 8  79479124.260 8       462.984          49.000  
R12  19199490.008 8 102559834.003 8       524.723          51.000    19199494.547 8  79768777.190 8       408.118          50.000  
E36  23613638.875 8 124090522.232 8      1321.074          51.000    23613642.281 8  95082381.676 8      1012.240          51.000  
E25  24800948.953 8 130329853.363 8     -1688.488          51.000    24800952.953 8  99863142.004 8     -1293.757          51.000  
E11                                                                  24045917.688 5  96822946.605 5     -1194.302          33.000  
E02  23359161.094 8 122753221.424 8       686.633          49.000    23359163.070 7  94057672.290 7       526.071          47.000  
C12  23830411.031 7 124091267.390 7      2814.438          47.000    23830409.852 8  95955240.602 8      2176.196          50.000  
C26  21819712.289 8 113620981.277 8     -1492.242          51.000                                                                  
> 2020 05 13 11 11 30.0000000  0 16      -0.000000000000
G18  23538786.000 5 123697136.324 5      3666.590          33.000    23538784.727 5  96387387.407 5      2857.096          35.000  
G21  23383796.781 6 122882660.350 6      3384.984          36.000    23383794.211 5  95752731.612 5      2637.645          34.000  
G14  23573038.391 6 123877147.662 6     -2032.750          39.000    23573046.062 6  96527691.466 6     -1583.962          37.000  
G12  22785588.477 5 119739091.47125     -2778.367          32.000                                                                  
G25  20763961.922 8 109115354.466 8     -1550.129          51.000    20763964.133 8  85024951.330 8     -1207.896          51.000  
G29  20208550.359 8 106196662.555 8        75.234          51.000    20208550.484 8  82750655.724 8        58.624          51.000  
R11  20984522.852 8 112134543.573 8     -2916.766          51.000    20984523.320 7  87215756.049 7     -2268.596          45.000  
R23  22615621.891 5 120977949.104 5      4198.004          31.000                                                                  
R22  19139928.984 8 102169855.050 8       570.234          51.000    19139930.852 8  79465518.171 8       443.516          49.000  
R12  19196594.086 8 102544364.608 8       505.832          51.000    19196598.375 8  79756745.438 8       393.425          50.000  
E36  23606131.625 8 124051069.935 8      1308.363          51.000    23606134.719 8  95052152.024 8      1002.501          51.000  
E25  24810604.102 8 130380591.328 8     -1694.875          51.000    24810608.172 8  99902019.134 8     -1298.665          51.000  
E11  24054848.906 6 126409086.927 6     -1569.867          39.000    24054847.961 5  96858903.647 5     -1202.850          34.000  
E02  23355259.750 8 122732718.041 8       679.559          49.000    23355261.016 7  94041961.911 7       520.698          47.000  
C12  23814217.703 8 124006940.153 8      2806.848          48.000    23814216.312 8  95890033.488 8      2170.288          51.000  
C26  21828344.375 8 113665928.782 8     -1504.922          51.000                                                                  
> 2020 05 13 11 12  0.0000000  0 17      -0.000000000000
G18  23517865.859 5 123587190.598 5      3662.531          33.000    23517861.625 5  96301715.535 5      2853.918          31.000  
G21  23364492.758 6 122781211.521 6      3378.520          36.000    23364488.672 5  95673680.640 5      2632.620          31.000  
G02  24139935.539 5 126856176.427 5     -2452.766          35.000                                                                  
G14  23584676.461 6 123938305.464 6     -2044.781          40.000    23584683.336 6  96575346.877 6     -1593.337          37.000  
G12  22801466.820 4 119822518.51124     -2784.625          29.000    22801466.797 4  93368197.98024     -2169.844          28.000  
G25  20772841.305 8 109162015.768 8     -1561.156          51.000    20772843.484 8  85061310.788 8     -1216.486          51.000  
G29  20208163.555 8 106194630.273 8        59.621          51.000    20208163.773 8  82749072.145 8        46.461          51.000  
R11  21000937.055 7 112222257.940 7     -2931.629          45.000    21000939.211 7  87283978.310 7     -2280.156          46.000  
R23  22592097.773 5 120852126.084 5      4189.480          32.000                                                                  
R22  19136795.781 8 102153128.100 8       544.312          51.000    19136797.320 8  79452508.319 8       423.354          49.000  
R12  19193807.227 8 102529477.499 8       486.051          51.000    19193811.461 8  79745166.572 8       378.040          50.000  
E36  23598699.664 8 124012013.192 8      1294.715          51.000    23598702.438 8  95022225.457 8       992.022          51.000  
E25  24820299.281 8 130431539.657 8     -1702.305          51.000    24820303.680 8  99941057.448 8     -1304.397          51.000  
E11  24063843.672 6 126456355.093 6     -1582.047          38.000    24063843.562 5  96895122.055 5     -1212.311          34.000  
E02  23351401.141 8 122712439.698 8       671.711          48.000    23351402.141 7  94026423.970 7       514.610          47.000  
C12  23798071.312 8 123922857.119 8      2798.188          48.000    23798069.992 8  95825015.196 8      2163.664          51.000  
C26  21837051.773 8 113711270.274 8     -1518.488          51.000                                                                  
> 2020 05 13 11 12 30.0000000  0 16      -0.000000000000
G21  23345226.344 6 122679964.361 6      3371.941          36.000    23345222.961 5  95594786.888 5      2627.491          32.000  
G02  24153968.375 5 126929919.442 5     -2463.473          34.000                                                                  
G14  23596384.281 6 123999830.821 6     -2056.438          38.000    23596390.719 5  96623288.733 5     -1602.419          34.000  
G12  22817377.656 5 119906134.392 5     -2790.273          35.000    22817380.016 5  93433353.572 5     -2174.237          32.000  
G25  20781785.953 8 109209020.411 8     -1572.367          51.000    20781788.258 8  85097937.772 8     -1225.222          51.000  
G29  20207867.977 8 106193076.699 8        44.051          51.000    20207868.367 8  82747861.587 8        34.325          51.000  
R11  21017434.562 7 112310424.601 7     -2946.059          44.000    21017439.281 7  87352552.386 7     -2291.376          47.000  
R23  22568625.539 5 120726580.722 5      4180.039          34.000                                                                  
R22  19133809.914 8 102137188.869 8       518.453          51.000    19133811.445 8  79440111.135 8       403.241          49.000  
R12  19191133.664 8 102515195.949 8       466.133          51.000    19191137.766 8  79734058.695 8       362.545          49.000  
E36  23591346.930 8 123973373.645 8      1281.293          51.000    23591349.453 8  94992618.555 8       981.717          51.000  
E25  24830038.492 8 130482719.466 8     -1709.719          51.000    24830043.055 8  99980273.125 8     -1310.024          51.000  
E11  24072908.984 5 126503988.733 5     -1593.344          32.000    24072907.297 5  96931619.825 5     -1220.952          34.000  
E02  23347589.234 8 122692408.429 8       663.793          48.000    23347590.477 8  94011075.326 8       508.636          48.000  
C12  23781975.570 7 123839040.276 7      2789.672          47.000    23781974.789 8  95760202.703 8      2157.170          51.000  
C26  21845838.805 8 113757026.138 8     -1531.887          51.000                                                                  
> 2020 05 13 11 13  0.0000000  0 16      -0.000000000000
G21  23325992.055 6 122578885.042 6      3365.781          36.000    23325987.516 5  95516023.882 5      2622.688          34.000  
G02  24168058.930 5 127003967.354 5     -2473.996          32.000                                                                  
G14  23608154.359 6 124061684.298 6     -2068.047          38.000    23608160.109 5  96671486.216 5     -1611.459          35.000  
G12  22833321.406 4 119989918.063 4     -2796.152          28.000    22833321.328 3  93498637.206 3     -2178.824          23.000  
G25  20790788.867 8 109256331.318 8     -1583.027          51.000    20790791.508 8  85134803.407 8     -1233.528          51.000  
G29  20207656.523 8 106191964.405 8        28.875          51.000    20207656.945 8  82746994.864 8        22.500          51.000  
R11  21034010.352 8 112399004.607 8     -2960.359          48.000    21034016.164 7  87421447.985 7     -2302.499          47.000  
R23  22545199.977 5 120601278.605 5      4171.582          35.000                                                                  
R22  19130964.195 8 102121999.290 8       493.023          51.000    19130966.266 8  79428297.014 8       383.463          49.000  
R12  19188566.953 8 102501484.390 8       446.695          51.000    19188570.773 8  79723394.162 8       347.433          49.000  
E36  23584066.430 8 123935115.165 8      1268.133          51.000    23584069.117 8  94963303.631 8       971.702          51.000  
E25  24839814.727 8 130534094.001 8     -1716.516          51.000    24839819.258 8 100019638.013 8     -1315.235          51.000  
E11  24082035.703 6 126551947.988 6     -1604.836          37.000    24082033.688 5  96968367.824 5     -1229.701          34.000  
E02  23343817.367 8 122672588.360 8       656.316          48.000    23343818.992 8  93995888.513 8       502.922          48.000  
C12  23765923.500 7 123755454.415 7      2781.496          47.000    23765923.734 8  95695568.814 8      2150.818          51.000  
C26  21854698.375 8 113803159.511 8     -1544.930          51.000                                                                  
> 2020 05 13 11 13 30.0000000  0 17      -0.000000000000
G18  23455254.328 5 123258181.92825      3649.684          31.000                                                                  
G21  23306795.953 5 122478006.287 5      3360.516          34.000    23306790.891 5  95437417.049 5      2618.578          32.000  
G02  24182212.633 5 127078348.173 5     -2482.973          33.000                                                                  
G14  23619991.750 6 124123893.408 6     -2078.660          37.000    23619995.938 5  96719960.739 5     -1619.739          35.000  
G12  22849298.273 5 120073875.012 5     -2801.172          34.000    22849301.516 5  93564063.571 5     -2182.732          35.000  
G25  20799855.891 8 109303978.363 8     -1592.973          51.000    20799858.516 8  85171930.950 8     -1241.278          51.000  
G29  20207534.422 8 106191322.698 8        14.445          51.000    20207534.945 8  82746494.850 8        11.259          51.000  
R11  21050670.594 8 112488027.441 8     -2973.961          49.000    21050675.820 7  87490687.949 7     -2313.084          47.000  
R23  22521827.320 6 120476253.559 6      4163.625          38.000                                                                  
R22  19128264.453 8 102107589.879 8       468.168          51.000    19128267.305 8  79417089.713 8       364.131          49.000  
R12  19186112.672 8 102488375.331 8       427.766          49.000    19186116.562 8  79713198.235 8       332.707          49.000  
E36  23576864.305 8 123897268.518 8      1255.570          51.000    23576867.289 8  94934304.262 8       962.040          51.000  
E25  24849633.852 8 130585693.479 8     -1722.930          51.000    24849638.188 8 100059175.261 8     -1320.216          51.000  
E11  24091229.398 5 126600262.510 5     -1615.621          34.000    24091228.570 5  97005391.026 5     -1237.989          34.000  
E02  23340091.461 8 122653010.600 8       649.379          48.000    23340093.453 8  93980887.361 8       497.633          48.000  
C12  23749921.695 8 123672130.513 8      2773.883          48.000    23749922.758 8  95631137.483 8      2144.931          51.000  
C26  21863635.664 8 113849699.787 8     -1557.344          49.000                                                                  
> 2020 05 13 11 14  0.0000000  0 16      -0.000000000000
G18  23434435.438 5 123148770.142 5      3644.129          35.000    23434440.984 5  95960107.395 5      2839.582          33.000  
G21  23287631.875 5 122377297.024 5      3353.641          34.000                                                                  
G02  24196393.219 4 127152904.33024     -2495.293          29.000                                                                  
G14  23631890.133 6 124186422.036 6     -2090.059          38.000    23631891.906 5  96768684.299 5     -1628.615          33.000  
G25  20808980.492 8 109351927.718 8     -1603.930          51.000    20808983.078 8  85209294.076 8     -1249.816          51.000  
G29  20207495.320 8 106191117.394 8        -1.043          51.000    20207495.734 8  82746334.882 8        -0.813          51.000  
R11  21067407.109 8 112577457.636 8     -2988.488          51.000    21067411.375 7  87560244.684 7     -2324.383          47.000  
R23  22498500.789 5 120351473.947 5      4154.750          35.000                                                                  
R22  19125704.398 8 102093925.937 8       442.434          51.000    19125707.469 8  79406462.205 8       344.115          49.000  
R12  19183764.961 8 102475836.552 8       407.766          49.000    19183769.094 8  79703445.841 8       317.151          49.000  
E36  23569734.188 8 123859800.780 8      1241.855          51.000    23569737.570 8  94905595.210 8       951.597          51.000  
E25  24859489.320 8 130637484.369 8     -1730.148          51.000    24859493.367 8 100098859.175 8     -1325.678          51.000  
E11                                                                  24100483.758 5  97042656.639 5     -1246.675          33.000  
E02  23336405.633 8 122633642.535 8       641.535          49.000    23336407.523 8  93966046.905 8       491.482          48.000  
C12  23733964.055 8 123589036.576 8      2765.359          48.000    23733965.758 8  95566883.994 8      2138.391          51.000  
C26  21872643.844 8 113896613.342 8     -1570.637          48.000                                                                  
> 2020 05 13 11 14 30.0000000  0 15      -0.000000000000
G18  23413644.133 6 123039500.986 6      3638.508          36.000    23413645.195 4  95874959.543 4      2835.202          29.000  
G14  23643852.984 6 124249288.692 6     -2102.996          37.000    23643851.750 5  96817671.218 5     -1638.702          34.000  
G25  20818166.531 8 109400200.382 8     -1616.219          51.000    20818169.133 8  85246909.121 8     -1259.392          51.000  
G29  20207543.148 8 106191368.684 8       -17.820          51.000    20207543.508 8  82746530.704 8       -13.886          51.000  
R11  21084223.852 8 112667315.105 8     -3004.215          51.000    21084226.766 7  87630133.797 7     -2336.615          46.000  
R23  22475224.578 5 120226964.771 5      4144.047          35.000                                                                  
R22  19123288.000 8 102081028.771 8       415.371          51.000    19123291.492 8  79396431.102 8       323.066          49.000  
R12  19181528.953 8 102463891.595 8       386.496          49.000    19181532.875 8  79694155.349 8       300.611          48.000  
R21  21385631.438 5 114438347.102 5     -3490.352          30.000                                                                  
E36  23562680.234 8 123822733.758 8      1227.055          51.000    23562684.023 8  94877193.194 8       940.211          51.000  
E25  24869385.023 8 130689488.053 8     -1738.805          51.000    24869388.789 8 100138706.129 8     -1332.344          50.000  
E11  24109802.797 6 126697867.086 6     -1639.691          36.000    24109802.062 5  97080182.848 5     -1256.277          32.000  
E02  23332764.125 8 122614506.413 8       632.164          50.000    23332765.766 8  93951384.165 8       484.461          48.000  
C12  23718054.922 8 123506194.859 8      2755.422          48.000    23718056.766 8  95502825.557 8      2130.628          51.000  
C26  21881728.305 8 113943920.734 8     -1585.270          49.000                                                                  
> 2020 05 13 11 15  0.0000000  0 14      -0.000000000000
G18  23392887.281 6 122930418.797 6      3634.262          36.000    23392888.773 5  95789960.546 5      2831.902          34.000  
G14  23655887.797 6 124312532.195 6     -2112.848          37.000    23655884.516 5  96866951.903 5     -1646.378          34.000  
G25  20827421.945 8 109448837.542 8     -1625.906          51.000    20827424.375 8  85284808.188 8     -1266.940          51.000  
G29  20207685.812 8 106192117.396 8       -31.852          51.000    20207686.281 8  82747114.134 8       -24.816          51.000  
R11  21101127.781 8 112757641.021 8     -3017.152          51.000    21101130.047 7  87700387.182 7     -2346.677          45.000  
R23  22452007.164 5 120102771.093 5      4135.910          34.000                                                                  
R22  19121023.445 8 102068939.971 8       391.000          51.000    19121026.891 8  79387028.730 8       304.111          49.000  
R12  19179411.859 8 102452584.252 8       367.766          49.000    19179416.086 8  79685360.753 8       286.040          48.000  
E36  23555710.570 8 123786109.502 8      1214.895          51.000    23555714.602 8  94849130.447 8       930.858          51.000  
E25  24879329.547 8 130741745.955 8     -1744.625          51.000    24879332.688 8 100178747.873 8     -1336.854          50.000  
E11  24119194.516 6 126747222.204 6     -1650.090          37.000    24119192.969 5  97118000.379 5     -1264.131          33.000  
E02  23329174.938 8 122595644.605 8       625.621          49.000    23329176.539 8  93936931.615 8       479.357          49.000  
C12  23702202.516 8 123423647.611 8      2748.047          49.000    23702203.531 8  95438994.826 8      2125.019          49.000  
C26  21890896.945 8 113991662.652 8     -1597.203          51.000                                                                  
> 2020 05 13 11 15 30.0000000  0 15      -0.000000000000
G18  23372150.016 6 122821442.138 6      3630.566          37.000    23372151.797 5  95705043.761 5      2829.023          31.000  
G14  23667977.922 6 124376065.525 6     -2122.562          36.000    23667972.867 5  96916458.302 5     -1653.951          31.000  
G12  22913533.500 5 120411405.73525     -2823.574          30.000                                                                  
G25  20836730.570 8 109497754.688 8     -1635.086          50.000    20836732.945 8  85322925.443 8     -1274.093          50.000  
G29  20207906.820 8 106193278.397 8       -45.438          51.000    20207907.164 8  82748018.812 8       -35.406          51.000  
R11  21118102.633 8 112848347.897 8     -3029.738          51.000    21118103.719 7  87770936.891 7     -2356.464          43.000  
R23  22428832.156 5 119978809.868 5      4128.164          30.000                                                                  
R22  19118894.117 8 102057573.379 8       366.941          51.000    19118897.414 8  79378188.062 8       285.399          49.000  
R12  19177398.625 8 102441830.896 8       349.309          50.000    19177403.016 7  79676997.030 7       271.685          47.000  
E36  23548809.461 8 123749844.366 8      1203.043          51.000    23548813.219 8  94821342.881 8       921.804          51.000  
E25  24889306.477 8 130794173.969 8     -1750.242          51.000    24889309.203 8 100218919.942 8     -1341.060          50.000  
E11  24128642.742 6 126796871.872 6     -1659.859          37.000    24128641.758 5  97156043.629 5     -1271.581          33.000  
E02  23325622.078 8 122576973.929 8       619.359          50.000    23325623.859 8  93922625.512 8       474.613          50.000  
C12  23686391.062 8 123341312.574 8      2741.160          49.000    23686390.336 8  95375328.218 8      2119.630          48.000  
C26  21900133.172 8 114039755.145 8     -1608.770          51.000                                                                  
> 2020 05 13 11 16  0.0000000  0 13      -0.000000000000
G18  23351442.828 6 122712621.171 6      3625.234          37.000    23351443.219 5  95620248.298 5      2824.871          32.000  
G14  23680131.711 6 124439933.458 6     -2133.977          38.000    23680126.680 5  96966225.467 5     -1662.842          31.000  
G25  20846101.344 8 109546998.748 8     -1646.539          50.000    20846103.797 8  85361297.422 8     -1283.018          50.000  
G29  20208215.023 8 106194898.164 8       -61.324          51.000    20208215.258 8  82749280.952 8       -47.785          51.000  
R11  21135156.750 8 112939482.639 8     -3044.750          49.000    21135157.523 7  87841819.447 7     -2368.139          44.000  
R22  19116909.039 8 102046976.371 8       340.660          51.000    19116912.398 8  79369945.960 8       264.958          50.000  
R12  19175498.711 8 102431681.022 8       328.469          51.000    19175503.031 7  79669102.690 7       255.476          47.000  
E36  23541986.109 8 123713986.103 8      1188.758          51.000    23541989.414 8  94793867.085 8       910.792          51.000  
E25  24899324.445 8 130846819.320 8     -1758.387          50.000    24899327.070 8 100259258.524 8     -1347.312          49.000  
E11  24138156.078 6 126846861.775 6     -1671.402          38.000    24138155.805 5  97194347.581 5     -1280.743          33.000  
E02  23322114.719 8 122558542.495 8       610.598          50.000    23322116.539 8  93908502.731 8       467.819          50.000  
C12  23670629.250 7 123259237.659 7      2731.645          47.000    23670627.117 7  95311862.773 7      2112.287          47.000  
C26  21909445.398 8 114088244.504 8     -1622.664          51.000                                                                  
> 2020 05 13 11 16 30.0000000  0 14      -0.000000000000
G18  23330764.461 6 122603956.993 6      3619.707          37.000    23330764.914 5  95535574.923 5      2820.549          32.000  
G14  23692348.328 6 124504131.527 6     -2145.102          39.000    23692343.266 5  97016249.924 5     -1671.505          34.000  
G25  20855533.969 8 109596567.668 8     -1657.449          50.000    20855536.148 8  85399922.540 8     -1291.519          50.000  
G29  20208610.031 8 106196974.024 8       -76.602          51.000    20208610.484 8  82750898.489 8       -59.690          51.000  
R11  21152289.867 8 113031042.000 8     -3058.949          49.000    21152292.000 7  87913032.240 7     -2379.183          46.000  
R23  22382663.523 5 119731760.415 5      4107.734          30.000                                                                  
R22  19115067.547 8 102037146.386 8       315.113          51.000    19115070.922 8  79362300.429 8       245.088          49.000  
R12  19173711.797 8 102422134.818 8       308.270          51.000    19173716.180 7  79661677.861 7       239.765          47.000  
E36  23535240.039 8 123678533.489 8      1175.098          51.000    23535243.383 8  94766702.116 8       900.439          51.000  
E25  24909383.469 8 130899680.194 8     -1765.418          51.000    24909385.695 8 100299762.279 8     -1352.712          49.000  
E11  24147733.320 6 126897188.882 6     -1682.789          39.000    24147732.320 5  97232909.857 5     -1289.105          32.000  
E02  23318652.742 8 122540349.482 8       602.660          51.000    23318654.297 8  93894562.632 8       461.728          50.000  
C12  23654916.781 7 123177422.403 7      2722.922          44.000    23654914.586 8  95248598.075 8      2105.585          48.000  
C26  21918833.070 8 114137128.471 8     -1635.887          51.000                                                                  
> 2020 05 13 11 17  0.0000000  0 14      -0.000000000000
G18  23310117.031 6 122495457.074 6      3614.125          36.000    23310115.672 5  95451029.651 5      2816.211          32.000  
G14  23704628.211 6 124568661.507 6     -2156.848          41.000    23704622.859 5  97066532.986 5     -1680.658          30.000  
G25  20865029.312 8 109646465.790 8     -1669.109          50.000    20865031.188 8  85438804.162 8     -1300.605          50.000  
G29  20209092.648 8 106199510.012 8       -92.535          51.000    20209093.008 8  82752874.592 8       -72.105          51.000  
R11  21169503.969 8 113123029.046 8     -3073.699          51.000    21169507.273 8  87984577.678 8     -2390.656          49.000  
R23  22359650.867 5 119608660.442 5      4097.973          33.000                                                                  
R22  19113370.641 8 102028087.706 8       288.785          51.000    19113373.695 8  79355254.791 8       224.611          50.000  
R12  19172038.828 8 102413198.680 8       287.426          51.000    19172043.281 7  79654727.499 7       223.550          47.000  
E36  23528571.867 8 123643491.657 8      1160.871          51.000    23528575.812 8  94739851.933 8       889.493          51.000  
E25  24919484.391 8 130952761.299 8     -1773.410          51.000    24919486.766 8 100340434.797 8     -1358.842          50.000  
E11  24157374.633 6 126947856.200 6     -1694.875          37.000    24157372.836 5  97271729.874 5     -1298.797          31.000  
E02  23315237.164 8 122522400.475 8       593.809          51.000    23315238.289 8  93880809.508 8       455.014          50.000  
C12  23639254.609 7 123095872.478 7      2713.430          42.000    23639254.008 8  95185538.496 8      2098.329          49.000  
C26  21928297.062 8 114186411.070 8     -1649.688          51.000                                                                  
> 2020 05 13 11 17 30.0000000  0 15      -0.000000000000
G18  23289498.172 5 122387104.704 5      3609.660          35.000    23289496.047 5  95366599.249 5      2812.726          34.000  
G14  23716967.016 6 124633501.157 6     -2165.977          40.000    23716960.797 5  97117057.376 5     -1687.774          33.000  
G12  22978262.820 5 120751589.84725     -2846.117          30.000                                                                  
G25  20874583.586 8 109696673.141 8     -1678.777          49.000    20874585.289 8  85477926.741 8     -1308.139          49.000  
G29  20209658.914 8 106202485.045 8      -106.477          51.000    20209658.859 8  82755192.807 8       -82.966          51.000  
R11  21186794.430 8 113215422.459 8     -3086.586          51.000    21186798.438 8  88056439.199 8     -2400.678          49.000  
R23  22336691.477 5 119485835.813 5      4089.695          30.000                                                                  
R22  19111814.227 8 102019779.397 8       264.457          51.000    19111817.203 8  79348792.793 8       205.689          50.000  
R12  19170477.148 8 102404854.280 8       268.234          51.000    19170481.414 7  79648237.405 7       208.627          47.000  
E36  23521978.070 8 123608841.490 8      1148.527          51.000    23521982.586 8  94713301.850 8       879.990          51.000  
E25  24929623.547 8 131006042.986 8     -1779.410          51.000    24929626.047 8 100381261.015 8     -1363.409          50.000  
E11  24167076.695 6 126998842.694 6     -1704.535          38.000    24167075.812 5  97310798.444 5     -1305.876          31.000  
E02  23311864.445 8 122504676.760 8       586.984          51.000    23311865.227 8  93867229.005 8       449.723          50.000  
C12  23623640.742 7 123014569.449 7      2705.926          44.000    23623641.656 8  95122669.867 8      2092.409          51.000  
C26  21937833.938 8 114236072.272 8     -1661.652          51.000                                                                  
> 2020 05 13 11 18  0.0000000  0 16      -0.000000000000
G18  23268903.500 5 122278884.977 5      3601.973          32.000    23268901.555 5  95282272.337 5      2806.736          33.000  
G14  23729360.820 6 124698630.117 6     -2178.645          41.000    23729354.648 5  97167807.205 5     -1697.646          34.000  
G12  22994523.391 6 120837028.367 6     -2852.211          37.000    22994521.164 6  94158706.352 6     -2222.503          36.000  
G25  20884193.258 8 109747171.766 8     -1690.996          50.000    20884194.742 8  85517276.281 8     -1317.660          50.000  
G29  20210305.203 8 106205880.839 8      -123.051          51.000    20210305.062 8  82757838.883 8       -95.881          51.000  
R11  21204156.633 8 113308202.676 8     -3101.945          50.000    21204161.633 8  88128601.584 8     -2412.625          49.000  
R23  22313780.297 5 119363271.657 5      4078.668          30.000                                                                  
R22  19110394.766 8 102012203.076 8       237.496          51.000    19110397.594 8  79342900.105 8       184.719          49.000  
R12  19169022.930 8 102397085.580 8       246.410          51.000    19169027.477 7  79642195.046 7       191.652          47.000  
R21  21524156.375 5 115179673.085 5     -3570.676          31.000                                                                  
E36  23515455.461 8 123574565.847 8      1133.477          51.000    23515460.266 8  94687038.717 8       868.506          51.000  
E25  24939797.797 8 131059507.612 8     -1788.000          51.000    24939800.555 8 100422227.397 8     -1370.012          51.000  
E11  24176836.125 6 127050129.305 6     -1717.223          40.000    24176837.258 4  97350105.015 4     -1316.031          29.000  
E02  23308531.438 8 122487161.631 8       577.547          51.000    23308531.961 8  93853808.318 8       442.536          51.000  
C12  23608072.289 7 122933496.944 7      2695.816          45.000    23608073.742 8  95059979.508 8      2084.534          51.000  
C26  21947440.195 8 114286094.015 8     -1676.172          51.000                                                                  
> 2020 05 13 11 18 30.0000000  0 14      -0.000000000000
G14  23741816.930 7 124764086.141 7     -2187.727          42.000    23741811.453 6  97218811.851 6     -1704.726          36.000  
G12  23010813.773 5 120922633.121 5     -2856.090          32.000    23010804.352 4  94225411.240 4     -2225.510          25.000  
G25  20893865.875 8 109798001.802 8     -1700.145          49.000    20893867.398 8  85556884.071 8     -1324.788          49.000  
G29  20211039.164 8 106209736.914 8      -136.637          51.000    20211038.984 8  82760843.612 8      -106.470          51.000  
R11  21221598.312 8 113401409.135 8     -3114.445          49.000    21221603.977 8  88201095.490 8     -2422.347          48.000  
R22  19109119.938 8 102005398.960 8       213.523          51.000    19109122.547 8  79337608.023 8       166.074          50.000  
R12  19167684.398 8 102389935.029 8       227.590          51.000    19167688.656 7  79636633.490 7       177.014          47.000  
R21  21544197.469 5 115286907.102 5     -3580.344          32.000                                                                  
E36  23509011.734 8 123540705.676 8      1121.383          51.000    23509016.617 8  94661093.922 8       859.293          51.000  
E25  24950014.461 8 131113195.685 8     -1793.695          51.000    24950017.812 8 100463364.964 8     -1374.406          51.000  
E11  24186660.008 6 127101755.009 6     -1727.184          37.000                                                                  
E02  23305246.000 8 122469896.502 8       570.926          51.000    23305246.469 8  93840579.198 8       437.502          51.000  
C12  23592555.984 7 122852696.329 7      2688.469          45.000    23592557.492 8  94997499.380 8      2078.889          51.000  
C26  21957123.141 8 114336515.902 8     -1687.832          51.000                                                                  
> 2020 05 13 11 19  0.0000000  0 17      -0.000000000000
G21  23098105.477 5 121381363.23125      3285.914          34.000                                                                  
G02  24341762.742 5 127916843.06925     -2596.066          32.000                                                                  
G14  23754344.398 7 124829917.363 7     -2197.922          43.000    23754339.508 6  97270108.862 6     -1712.667          37.000  
G12  23027145.969 5 121008468.536 5     -2861.500          32.000    23027151.055 5  94292332.120 5     -2229.741          31.000  
G25  20903611.016 8 109849213.908 8     -1710.703          49.000    20903612.836 8  85596789.577 8     -1333.016          49.000  
G29  20211870.242 8 106214103.517 8      -151.188          51.000    20211869.867 8  82764246.158 8      -117.808          51.000  
R11  21239129.852 8 113495092.466 8     -3127.902          49.000    21239134.992 7  88273960.301 7     -2432.813          46.000  
R23  22268142.422 5 119119115.649 5      4060.773          30.000    22268130.461 4  92648174.072 4      3158.380          27.000  
R22  19107999.375 8 101999417.994 8       188.566          51.000    19108001.930 8  79332956.181 8       146.663          49.000  
R12  19166471.734 8 102383456.136 8       207.555          51.000    19166475.867 8  79631594.346 8       161.431          48.000  
R21  21564311.016 5 115394532.091 5     -3591.094          34.000                                                                  
E36  23502656.805 8 123507312.383 8      1108.125          51.000    23502661.891 8  94635506.881 8       849.041          51.000  
E25  24960283.156 8 131167158.125 8     -1800.496          51.000    24960286.953 8 100504712.756 8     -1379.596          50.000  
E11  24196557.883 6 127153769.191 6     -1737.504          37.000                                                                  
E02  23302018.102 8 122452933.258 8       563.148          51.000    23302018.625 8  93827581.395 8       431.525          51.000  
C12  23577101.203 7 122772219.156 7      2679.852          45.000    23577102.680 8  94935269.317 8      2072.277          50.000  
C26  21966892.477 8 114387387.843 8     -1700.395          51.000                                                                  
> 2020 05 13 11 19 30.0000000  0 17      -0.000000000000
G18  23207329.719 5 121955347.497 5      3587.016          35.000    23207328.805 6  95030148.023 6      2795.078          36.000  
G21  23079371.602 6 121282913.654 6      3278.145          36.000                                                                  
G02  24356643.812 5 127995044.442 5     -2605.605          34.000                                                                  
G14  23766920.172 7 124896002.408 7     -2208.586          43.000    23766916.109 6  97321603.684 6     -1720.983          38.000  
G12  23043499.500 5 121094407.026 5     -2867.523          35.000    23043497.336 5  94359260.149 5     -2234.431          35.000  
G25  20913406.367 8 109900689.198 8     -1721.422          50.000    20913408.570 8  85636900.190 8     -1341.368          49.000  
G29  20212775.750 8 106218861.190 8      -166.203          51.000    20212775.141 8  82767953.432 8      -129.509          51.000  
R11  21256727.672 8 113589130.539 8     -3141.508          48.000    21256732.531 7  88347100.984 7     -2443.398          45.000  
R22  19107010.211 8 101994138.858 8       163.129          51.000    19107012.820 8  79328850.180 8       126.878          50.000  
R12  19165362.523 8 102377530.289 8       187.148          51.000    19165366.750 8  79626985.333 8       145.560          49.000  
R21  21584473.164 5 115502423.794 5     -3602.195          31.000                                                                  
E36  23496368.547 8 123474267.920 8      1094.484          51.000    23496373.805 8  94610187.115 8       838.640          51.000  
E25  24970581.336 8 131221276.415 8     -1807.742          51.000    24970585.070 8 100546179.998 8     -1385.220          50.000  
E11  24206507.039 6 127206052.011 6     -1748.066          38.000                                                                  
E02  23298825.234 8 122436154.299 8       555.121          51.000    23298825.945 8  93814724.792 8       425.335          51.000  
C12  23561686.445 7 122691949.056 7      2671.070          47.000    23561687.273 8  94873199.401 8      2065.423          49.000  
C26  21976725.984 8 114438591.807 8     -1713.367          51.000                                                                  
> 2020 05 13 11 20  0.0000000  0 17      -0.000000000000
G18  23186867.992 6 121847827.660 6      3581.121          38.000    23186870.484 6  94946366.338 6      2790.485          37.000  
G21  23060677.031 6 121184691.871 6      3270.848          38.000    23060670.312 5  94429588.923 5      2548.713          31.000  
G02  24371548.016 5 128073374.302 5     -2616.289          32.000                                                                  
G14  23779555.477 7 124962401.308 7     -2218.152          43.000    23779552.570 6  97373343.052 6     -1728.431          39.000  
G25  20923263.633 8 109952490.063 8     -1731.855          50.000    20923265.977 8  85677264.493 8     -1349.498          49.000  
G29  20213767.336 8 106224071.581 8      -180.895          51.000    20213766.594 8  82772013.504 8      -140.957          51.000  
R11  21274402.852 7 113683585.260 7     -3155.223          46.000    21274408.383 7  88420565.753 7     -2454.062          46.000  
R23  22222698.578 5 118876070.96125      4039.770          32.000                                                                  
R22  19106164.125 8 101989624.411 8       138.109          51.000    19106167.336 8  79325338.954 8       107.418          50.000  
R12  19164369.117 8 102372222.694 8       166.977          51.000    19164373.203 8  79622857.204 8       129.871          49.000  
R21  21604694.344 4 115610697.64824     -3611.336          28.000    21604695.953 4  89919422.013 4     -2808.817          26.000  
E36  23490158.914 8 123441635.386 8      1081.113          51.000    23490163.938 8  94585182.976 8       828.389          51.000  
E25  24980920.977 8 131275613.158 8     -1814.535          50.000    24980924.852 8 100587814.624 8     -1390.320          50.000  
E11  24216518.898 6 127258664.567 6     -1759.184          38.000    24216521.477 5  97509894.686 5     -1348.120          30.000  
E02  23295679.258 8 122419623.264 8       547.195          51.000    23295680.406 8  93802058.151 8       419.286          51.000  
C12  23546324.078 8 122611949.232 8      2662.457          49.000    23546323.328 8  94811338.502 8      2058.736          48.000  
C26  21986635.336 8 114490189.277 8     -1726.133          51.000                                                                  
> 2020 05 13 11 20 30.0000000  0 17      -0.000000000000
G18  23166441.836 6 121740494.310 6      3575.199          40.000    23166445.406 6  94862729.951 6      2785.870          38.000  
G21  23042028.898 6 121086704.706 6      3262.602          39.000    23042025.500 5  94353260.385 5      2542.294          33.000  
G02  24386510.141 4 128152004.682 4     -2625.438          29.000                                                                  
G14  23792251.008 7 125029115.443 7     -2228.469          44.000    23792248.938 6  97425328.059 6     -1736.470          36.000  
G12  23076305.305 4 121266815.338 4     -2879.160          29.000    23076308.016 4  94493623.265 4     -2243.520          27.000  
G25  20933183.609 8 110004620.046 8     -1742.508          50.000    20933186.078 8  85717885.248 8     -1357.799          50.000  
G29  20214845.539 8 106229737.638 8      -195.855          51.000    20214844.594 8  82776428.632 8      -152.612          51.000  
R11  21292155.773 7 113778459.403 7     -3168.891          45.000    21292162.750 7  88494356.724 7     -2464.693          44.000  
R23  22200075.117 6 118755034.561 6      4029.785          36.000                                                                  
R22  19105462.094 8 101985877.742 8       112.754          50.000    19105465.367 8  79322424.866 8        87.698          49.000  
R12  19163492.383 8 102367538.945 8       146.344          51.000    19163496.258 8  79619214.278 8       113.823          49.000  
E36  23484028.453 8 123409419.060 8      1067.520          51.000    23484033.070 8  94560497.776 8       817.967          51.000  
E25  24991303.000 8 131330172.281 8     -1821.793          49.000    24991307.602 8 100629619.652 8     -1395.923          51.000  
E11  24226593.961 6 127311609.224 6     -1769.543          38.000                                                                  
E02  23292581.266 8 122403344.993 8       538.957          51.000    23292582.820 8  93789585.176 8       412.979          51.000  
C12  23531014.391 8 122532224.641 8      2653.418          49.000    23531011.797 7  94749690.427 7      2051.822          46.000  
C26  21996620.539 8 114542183.548 8     -1739.176          51.000                                                                  
> 2020 05 13 11 21  0.0000000  0 16      -0.000000000000
G18  23146054.039 7 121633361.308 7      3569.711          43.000    23146058.984 6  94779249.676 6      2781.594          37.000  
G21  23023428.602 6 120988965.686 6      3255.773          39.000    23023425.273 5  94277100.159 5      2536.964          34.000  
G02  24401531.875 5 128230944.878 5     -2633.562          31.000                                                                  
G14  23805008.156 7 125096153.046 7     -2238.172          44.000    23805006.516 6  97477565.147 6     -1744.031          36.000  
G25  20943168.203 8 110057089.889 8     -1752.832          50.000    20943171.367 8  85758770.804 8     -1365.844          49.000  
G29  20216012.445 8 106235869.559 8      -210.230          51.000    20216011.320 8  82781206.746 8      -163.816          51.000  
R11  21309990.688 8 113873762.255 8     -3181.930          48.000    21309997.094 7  88568481.126 7     -2474.838          43.000  
R23  22177512.891 6 118634327.883 6      4019.875          38.000    22177507.164 4  92271150.286 4      3126.573          24.000  
R22  19104905.820 8 101982908.869 8        87.863          51.000    19104909.164 8  79320115.736 8        68.338          49.000  
R12  19162735.031 8 102363491.543 8       126.164          51.000    19162738.523 8  79616066.327 8        98.128          50.000  
E36  23477979.562 8 123377630.450 8      1054.363          51.000    23477983.367 8  94536140.303 8       807.892          51.000  
E25  25001729.531 8 131384964.783 8     -1828.359          49.000    25001734.477 8 100671603.512 8     -1400.987          50.000  
E11  24236734.398 6 127364895.679 6     -1779.938          38.000                                                                  
E02  23289533.859 8 122387331.402 8       531.246          51.000    23289535.438 8  93777315.016 8       407.065          51.000  
C12  23515759.461 8 122452787.243 8      2644.902          49.000    23515755.516 7  94688264.442 7      2045.243          46.000  
C26  22006683.383 8 114594584.870 8     -1751.609          51.000                                                                  
> 2020 05 13 11 21 30.0000000  0 16      -0.000000000000
G18  23125693.219 7 121526366.784 7      3562.719          45.000    23125699.031 6  94695877.288 6      2776.148          37.000  
G21  23004864.188 6 120891412.770 6      3247.254          39.000    23004863.156 5  94201085.076 5      2530.341          34.000  
G02  24416599.953 5 128310128.076 5     -2645.074          34.000    24416601.461 5  99981892.662 5     -2061.097          34.000  
G14  23817813.773 7 125163446.295 7     -2248.734          45.000    23817812.562 6  97530001.421 6     -1752.258          38.000  
G25  20953205.258 8 110109834.429 8     -1764.066          50.000    20953208.266 8  85799870.424 8     -1374.601          50.000  
G29  20217255.406 8 106242401.537 8      -225.844          51.000    20217254.328 8  82786296.597 8      -175.982          51.000  
R11  21327894.211 8 113969426.605 8     -3196.188          51.000    21327898.797 6  88642886.622 6     -2485.930          41.000  
R23  22155000.508 6 118513887.029 6      4008.859          39.000    22154992.312 4  92177462.165 4      3118.005          28.000  
R22  19104483.258 8 101980651.184 8        62.066          51.000    19104486.484 8  79318359.769 8        48.274          50.000  
R12  19162084.391 8 102360016.478 8       104.844          49.000    19162088.242 8  79613363.478 8        81.545          50.000  
E36  23471999.875 8 123346205.243 8      1040.074          51.000    23472002.734 8  94512061.258 8       796.917          51.000  
E25  25012188.164 8 131439925.911 8     -1836.215          49.000    25012193.312 8 100713716.568 8     -1406.944          50.000  
E11  24246927.281 6 127418457.589 6     -1791.656          37.000                                                                  
E02  23286524.828 8 122371518.726 8       522.379          51.000    23286526.414 8  93765198.811 8       400.274          51.000  
C12  23500547.281 8 122373574.016 8      2635.352          49.000    23500543.219 7  94627011.821 7      2037.800          47.000  
C26  22016811.453 8 114647328.501 8     -1765.203          50.000                                                                  
> 2020 05 13 11 22  0.0000000  0 17      -0.000000000000
G18  23105366.398 7 121419549.772 7      3557.645          46.000    23105373.773 5  94612643.200 5      2772.188          34.000  
G21  22986343.133 6 120794084.376 6      3240.195          36.000    22986341.703 4  94125244.859 4      2524.837          29.000  
G02  24431720.977 5 128389588.038 5     -2652.863          35.000    24431722.414 5 100043809.520 5     -2067.158          32.000  
G14  23830674.273 7 125231028.706 7     -2257.164          44.000    23830673.711 6  97582663.041 6     -1758.833          38.000  
G12  23125738.172 5 121526595.538 5     -2893.773          34.000    23125737.719 5  94696035.554 5     -2254.904          34.000  
G25  20963301.539 8 110162889.503 8     -1773.305          50.000    20963303.969 8  85841212.036 8     -1381.796          50.000  
G29  20218581.281 8 106249368.772 8      -239.180          51.000    20218580.219 8  82791725.614 8      -186.374          51.000  
R11  21345872.039 8 114065487.464 8     -3208.375          51.000    21345875.078 7  88717600.548 7     -2495.406          43.000  
R23  22132543.711 6 118393752.178 6      3999.090          36.000    22132535.398 4  92084024.043 4      3110.407          27.000  
R22  19104200.625 8 101979140.394 8        38.301          51.000    19104203.641 8  79317184.714 8        29.790          49.000  
R12  19161548.258 8 102357151.791 8        85.527          51.000    19161551.703 8  79611135.411 8        66.521          50.000  
E36  23466095.875 8 123315179.958 8      1027.680          51.000    23466098.469 8  94488288.655 8       787.488          51.000  
E25  25022686.062 8 131495091.790 8     -1842.086          50.000    25022691.133 8 100755986.498 8     -1411.448          50.000  
E11  24257178.805 5 127472329.529 5     -1800.871          35.000                                                                  
E02  23283561.156 8 122355944.030 8       515.445          51.000    23283562.828 8  93753264.963 8       394.931          51.000  
C12  23485385.375 8 122294621.813 8      2627.574          49.000    23485382.141 8  94565961.013 8      2031.798          49.000  
C26  22027012.391 8 114700449.535 8     -1776.688          51.000                                                                  
> 2020 05 13 11 22 30.0000000  0 16      -0.000000000000
G18  23085082.898 7 121312959.147 7      3548.516          47.000    23085092.211 5  94529585.524 5      2765.078          33.000  
G21  22967874.328 6 120697029.257 6      3230.031          37.000    22967872.578 5  94049617.694 5      2516.917          30.000  
G02  24446903.266 5 128469368.511 5     -2665.316          35.000    24446904.016 4 100105975.971 4     -2076.895          29.000  
G14  23843597.805 7 125298943.522 7     -2269.840          43.000    23843598.367 6  97635583.653 6     -1768.710          40.000  
G25  20973465.484 8 110216300.839 8     -1786.934          49.000    20973467.820 8  85882831.237 8     -1392.416          49.000  
G29  20219998.555 8 106256816.479 8      -256.973          51.000    20219997.305 8  82797529.026 8      -200.238          51.000  
R11  21363932.281 8 114161990.062 8     -3224.852          51.000    21363935.047 7  88792658.121 7     -2508.218          47.000  
R23  22110147.117 4 118273992.05724      3986.277          27.000    22110141.992 4  91990860.61424      3100.438          28.000  
R22  19104066.375 8 101978422.153 8        10.039          51.000    19104069.172 8  79316626.100 8         7.808          49.000  
R12  19161135.578 8 102354945.984 8        61.844          51.000    19161138.555 8  79609419.828 8        48.101          50.000  
E36  23460276.781 8 123284600.986 8      1011.156          51.000    23460279.570 8  94464858.045 8       774.723          51.000  
E25  25033231.695 8 131550508.397 8     -1852.141          50.000    25033235.867 8 100798448.542 8     -1419.093          48.000  
E11  24267497.625 5 127526560.065 5     -1813.707          35.000                                                                  
E02  23280651.688 8 122340654.283 8       504.230          51.000    23280653.438 8  93741549.445 8       386.317          51.000  
C12  23470282.570 8 122215977.300 8      2615.730          48.000    23470280.836 8  94505148.124 8      2022.565          50.000  
C26  22037295.188 8 114753992.979 8     -1792.520          51.000                                                                  
> 2020 05 13 11 23  0.0000000  0 16      -0.000000000000
G18  23064833.984 7 121206549.932 7      3544.352          47.000    23064840.570 5  94446669.088 5      2761.830          34.000  
G21  22949449.781 5 120600202.308 5      3223.992          33.000    22949448.461 5  93974168.123 5      2512.193          30.000  
G02  24462136.805 5 128549419.518 5     -2672.371          35.000                                                                  
G14  23856574.984 7 125367140.055 7     -2277.168          43.000    23856576.477 7  97688723.780 7     -1774.417          42.000  
G25  20983688.078 8 110270020.149 8     -1795.137          48.000    20983690.414 8  85924690.436 8     -1398.808          48.000  
G29  20221497.898 8 106264695.594 8      -269.219          51.000    20221496.430 8  82803668.606 8      -209.781          51.000  
R11  21382065.172 8 114258884.041 8     -3235.758          51.000    21382068.594 8  88868020.078 8     -2516.701          49.000  
R23  22087811.883 5 118154482.38025      3977.578          31.000    22087804.109 4  91897919.44624      3093.673          26.000  
R22  19104071.188 8 101978446.820 8       -12.574          51.000    19104073.469 8  79316645.307 8        -9.780          48.000  
R12  19160836.906 8 102353351.910 8        43.516          51.000    19160840.180 8  79608179.974 8        33.845          50.000  
E36  23454533.719 8 123254420.850 8      1000.035          51.000    23454536.703 8  94441733.008 8       766.303          51.000  
E25  25043815.641 8 131606127.795 8     -1856.719          50.000    25043818.375 7 100841065.975 7     -1422.655          47.000  
E11  24277874.625 6 127581091.979 6     -1822.402          37.000                                                                  
E02  23277787.383 8 122325602.535 8       498.430          51.000    23277789.164 8  93730016.288 8       381.920          51.000  
C12  23455229.453 7 122137594.186 7      2608.895          46.000    23455230.094 8  94444537.316 8      2017.490          51.000  
C26  22047649.922 8 114807910.790 8     -1802.957          51.000                                                                  
> 2020 05 13 11 23 30.0000000  0 16      -0.000000000000
G18  23044619.570 7 121100322.484 7      3537.289          47.000    23044623.688 6  94363894.418 6      2756.333          37.000  
G21  22931067.953 5 120503603.302 5      3216.090          33.000    22931066.523 5  93898896.204 5      2506.045          33.000  
G02  24477420.914 5 128629736.703 5     -2682.422          33.000                                                                  
G14  23869604.930 7 125435613.247 7     -2287.695          43.000    23869607.000 6  97742079.490 6     -1782.620          40.000  
G25  20993968.812 7 110324044.639 7     -1806.418          47.000    20993971.047 7  85966787.431 7     -1407.599          47.000  
G29  20223078.711 8 106273002.707 8      -284.531          51.000    20223077.383 8  82810141.693 8      -221.713          51.000  
R11  21400269.930 8 114356165.295 8     -3249.707          49.000    21400273.914 8  88943683.262 8     -2527.553          48.000  
R23  22065538.602 5 118035260.592 5      3966.539          35.000                                                                  
R22  19104214.398 8 101979210.500 8       -38.297          51.000    19104216.305 7  79317239.286 7       -29.786          47.000  
R12  19160652.891 8 102352368.342 8        22.043          51.000    19160656.070 8  79607414.999 8        17.145          49.000  
E36  23448866.039 8 123224637.457 8       985.703          51.000    23448869.328 8  94418911.953 8       755.279          51.000  
E25  25054438.031 8 131661947.495 8     -1864.391          51.000    25054439.656 8 100883836.869 8     -1428.578          49.000  
E11  24288309.008 5 127635925.021 5     -1833.336          34.000                                                                  
E02  23274967.977 8 122310787.269 8       489.344          51.000    23274969.742 8  93718664.322 8       374.928          51.000  
C12  23440224.914 7 122059471.062 7      2599.383          45.000    23440228.969 8  94384127.518 8      2009.911          51.000  
C26  22058075.906 8 114862199.788 8     -1816.285          51.000                                                                  
> 2020 05 13 11 24  0.0000000  0 16      -0.000000000000
G18  23024443.906 7 120994300.124 7      3530.363          45.000    23024446.695 6  94281279.580 6      2750.933          39.000  
G21  22912734.055 4 120407255.265 4      3207.473          29.000    22912732.398 4  93823819.914 4      2499.330          29.000  
G02  24492758.750 5 128710338.057 5     -2691.223          33.000                                                                  
G14  23882690.719 7 125504380.461 7     -2297.105          44.000    23882693.336 6  97795664.268 6     -1789.953          38.000  
G25  21004311.211 7 110378394.320 7     -1817.227          46.000    21004313.516 7  86009137.833 7     -1416.021          46.000  
G29  20224744.555 8 106281757.137 8      -299.441          51.000    20224743.258 8  82816963.334 8      -233.331          51.000  
R11  21418550.562 8 114453852.791 8     -3263.211          49.000    21418555.141 8  89019662.453 8     -2538.051          48.000  
R23  22043321.367 6 117916503.63926      3955.348          37.000                                                                  
R22  19104499.594 8 101980732.934 8       -63.492          51.000    19104501.711 8  79318423.434 8       -49.383          48.000  
R12  19160586.891 8 102352017.535 8         0.988          51.000    19160590.367 8  79607142.131 8         0.769          49.000  
E36  23443277.734 8 123195271.528 8       971.727          51.000    23443281.508 8  94396410.781 8       744.576          51.000  
E25  25065102.734 8 131717987.861 8     -1871.961          51.000    25065104.203 8 100926776.852 8     -1434.307          50.000  
E11                                                                  24298802.766 5  97841211.476 5     -1412.873          31.000  
E02  23272197.727 8 122296229.779 8       480.742          51.000    23272199.305 8  93707509.886 8       368.352          51.000  
C12  23425275.469 7 121981629.008 7      2589.918          47.000    23425280.688 8  94323935.100 8      2002.638          50.000  
C26  22068576.828 8 114916879.514 8     -1829.332          51.000                                                                  
> 2020 05 13 11 24 30.0000000  0 15      -0.000000000000
G18  23004305.016 7 120888472.965 7      3523.926          44.000    23004307.547 7  94198816.833 7      2745.917          42.000  
G21  22894447.117 5 120311126.099 5      3199.000          34.000    22894444.602 4  93748919.333 4      2492.740          27.000  
G14  23895829.648 7 125573426.098 7     -2306.496          45.000    23895832.398 6  97849466.037 6     -1797.267          39.000  
G25  21014712.727 7 110433056.190 7     -1827.730          46.000    21014715.195 7  86051731.499 7     -1424.206          46.000  
G29  20226493.023 8 106290945.179 8      -313.797          51.000    20226491.516 8  82824122.845 8      -244.517          51.000  
R11  21436904.680 8 114551932.090 8     -3276.289          49.000    21436909.562 7  89095946.379 7     -2548.225          46.000  
R23  22021162.641 6 117797969.952 6      3944.270          37.000    22021159.742 4  91620638.52624      3067.763          26.000  
R22  19104924.094 8 101982999.971 8       -88.383          51.000    19104926.305 8  79320186.703 8       -68.742          48.000  
R12  19160637.453 8 102352287.917 8       -19.773          51.000    19160640.953 8  79607352.430 8       -15.379          49.000  
E36  23437766.617 8 123166310.661 8       958.184          51.000    23437770.930 8  94374220.002 8       734.181          51.000  
E25  25075806.828 8 131774236.139 8     -1878.785          51.000    25075808.617 8 100969876.139 8     -1439.551          51.000  
E11                                                                  24309356.094 5  97883703.163 5     -1421.415          31.000  
E02  23269474.469 8 122281918.316 8       472.547          51.000    23269475.711 8  93696543.964 8       362.073          51.000  
C12  23410379.133 8 121904056.598 8      2580.836          49.000    23410383.492 8  94263951.190 8      1995.694          51.000  
C26  22079149.836 8 114971936.665 8     -1842.004          51.000                                                                  
> 2020 05 13 11 25  0.0000000  0 15      -0.000000000000
G18  22984202.578 7 120782838.028 7      3518.426          44.000    22984205.586 7  94116503.883 7      2741.631          42.000  
G21  22876204.820 6 120215256.453 6      3192.418          38.000    22876200.898 5  93674215.876 5      2487.611          31.000  
G14  23909019.984 7 125642741.563 7     -2314.543          45.000    23909022.828 6  97903478.050 6     -1803.541          38.000  
G25  21025172.695 8 110488023.962 8     -1836.918          48.000    21025174.961 8  86094563.542 8     -1431.365          48.000  
G29  20228322.594 8 106300560.015 8      -327.129          51.000    20228321.273 8  82831614.934 8      -254.906          51.000  
R11  21455330.977 8 114650395.415 8     -3288.055          51.000    21455335.305 7  89172528.937 7     -2557.379          44.000  
R23  21999067.719 6 117679790.238 6      3934.637          38.000    21999069.914 4  91528729.397 4      3060.274          27.000  
R22  19105486.742 8 101986004.336 8      -112.062          51.000    19105489.094 7  79322523.439 7       -87.160          47.000  
R12  19160803.453 8 102353175.072 8       -39.406          51.000    19160807.102 8  79608042.413 8       -30.649          49.000  
E36  23432331.812 8 123137749.353 8       945.816          51.000    23432336.227 8  94352335.385 8       724.672          51.000  
E25  25086549.359 8 131830686.425 8     -1884.648          51.000    25086551.273 8 101013130.230 8     -1444.052          51.000  
E11                                                                  24319967.688 5  97926430.571 5     -1427.548          31.000  
E02  23266797.195 8 122267847.943 8       465.371          51.000    23266798.047 8  93685762.773 8       356.583          51.000  
C12  23395533.852 8 121826749.021 8      2572.992          48.000    23395536.938 8  94204172.120 8      1989.486          51.000  
C26  22089793.859 8 115027364.719 8     -1853.320          51.000                                                                  
> 2020 05 13 11 25 30.0000000  0 15      -0.000000000000
G18  22964135.766 7 120677388.854 7      3511.797          44.000    22964139.219 7  94034335.692 7      2736.466          44.000  
G21  22858005.359 6 120119617.871 6      3183.555          37.000    22857999.328 5  93599692.488 5      2480.693          31.000  
G14  23922259.406 7 125712314.966 7     -2323.484          45.000    23922262.633 6  97957691.051 6     -1810.508          39.000  
G25  21035689.102 8 110543288.111 8     -1847.289          48.000    21035691.500 8  86137626.490 8     -1439.446          48.000  
G29  20230231.266 8 106310591.455 8      -341.559          51.000    20230230.180 8  82839431.640 8      -266.150          51.000  
R11  21473826.852 8 114749231.771 8     -3300.992          50.000    21473830.477 7  89249401.524 7     -2567.442          43.000  
R23  21977030.023 6 117561920.038 6      3923.117          36.000    21977039.375 4  91437052.597 4      3051.314          28.000  
R22  19106185.508 8 101989735.659 8      -136.660          51.000    19106188.039 8  79325425.605 8      -106.291          48.000  
R12  19161083.391 8 102354670.818 8       -60.238          51.000    19161087.094 8  79609205.753 8       -46.852          48.000  
E36  23426971.445 8 123109578.696 8       932.344          51.000    23426975.609 8  94330750.095 8       714.415          51.000  
E25  25097328.445 8 131887329.388 8     -1891.543          51.000    25097330.906 8 101056531.969 8     -1449.353          51.000  
E11                                                                  24330634.156 5  97969379.527 5     -1434.914          31.000  
E02  23264164.234 8 122254010.351 8       457.184          51.000    23264164.750 8  93675159.951 8       350.343          51.000  
C12  23380737.672 8 121749698.094 8      2563.891          49.000    23380738.766 8  94144591.482 8      1982.575          49.000  
C26  22100507.375 8 115083153.782 8     -1865.820          51.000                                                                  
> 2020 05 13 11 26  0.0000000  0 15      -0.000000000000
G18  22944112.969 7 120572169.868 7      3504.062          43.000    22944116.625 7  93952346.869 7      2730.439          43.000  
G21  22839856.727 6 120024254.219 6      3174.273          38.000    22839850.523 5  93525372.362 5      2473.461          31.000  
G14  23935555.414 7 125782184.809 7     -2333.480          45.000    23935558.609 6  98012135.063 6     -1818.297          38.000  
G12  23258904.578 4 122226368.10824     -2936.750          29.000                                                                  
G25  21046269.742 8 110598889.732 8     -1858.633          48.000    21046272.000 8  86180952.380 8     -1448.289          48.000  
G29  20232226.969 8 106321079.810 8      -356.785          51.000    20232225.969 8  82847604.376 8      -278.014          51.000  
R11  21492399.508 7 114848481.541 7     -3314.699          47.000    21492402.938 7  89326595.672 7     -2578.103          44.000  
R22  19107028.164 8 101994234.534 8      -162.293          51.000    19107030.758 8  79328924.747 8      -126.228          48.000  
R12  19161485.453 8 102356818.647 8       -81.980          51.000    19161489.039 8  79610876.264 8       -63.763          48.000  
E36  23421693.094 8 123081840.438 8       917.871          51.000    23421697.336 8  94309496.142 8       703.334          51.000  
E25  25108151.812 8 131944206.461 8     -1899.281          51.000    25108155.156 8 101100113.072 8     -1455.249          51.000  
E11                                                                  24341361.477 5  98012575.641 5     -1443.510          31.000  
E02  23261583.602 8 122240447.959 8       447.945          51.000    23261583.945 8  93664767.988 8       343.279          51.000  
C12  23365998.969 8 121672945.970 8      2553.871          49.000    23365997.719 8  94085241.901 8      1974.894          49.000  
C26  22111298.164 8 115139344.255 8     -1879.289          51.000                                                                  
> 2020 05 13 11 26 30.0000000  0 14      -0.000000000000
G18  22924130.156 7 120467160.981 7      3496.758          44.000    22924134.102 7  93870521.746 7      2724.747          43.000  
G21  22821756.258 6 119929144.838 6      3165.805          39.000    22821751.039 5  93451261.268 5      2466.865          35.000  
G14  23948902.711 7 125852325.048 7     -2342.777          44.000    23948905.523 6  98066789.778 6     -1825.538          37.000  
G25  21056910.305 8 110654805.483 8     -1869.297          50.000    21056912.016 8  86224523.047 8     -1456.595          50.000  
G29  20234305.031 8 106332001.034 8      -371.383          51.000    20234304.281 8  82856114.441 8      -289.389          51.000  
R11  21511044.297 7 114948119.543 7     -3327.727          47.000    21511048.234 7  89404091.910 7     -2588.232          45.000  
R22  19108009.961 8 101999476.480 8      -187.203          51.000    19108012.633 8  79333001.835 8      -145.605          48.000  
R12  19162005.688 8 102359596.678 8      -103.297          51.000    19162008.938 7  79613036.945 7       -80.342          47.000  
E36  23416492.508 8 123054511.952 8       903.910          51.000    23416497.102 8  94288556.188 8       692.592          51.000  
E25  25119015.234 8 132001294.695 8     -1906.652          51.000    25119019.039 8 101143855.961 8     -1461.008          51.000  
E11                                                                  24352145.055 5  98056002.121 5     -1451.472          31.000  
E02  23259051.078 8 122227138.735 8       439.227          51.000    23259051.492 8  93654570.023 8       336.565          51.000  
C12  23351313.320 8 121596470.978 8      2544.363          48.000    23351310.656 8  94026106.676 8      1967.464          51.000  
C26  22122161.633 8 115195912.687 8     -1892.051          51.000                                                                  
> 2020 05 13 11 27  0.0000000  0 15      -0.000000000000
G18  22904189.375 7 120362371.827 7      3489.938          45.000    22904192.852 6  93788867.864 6      2719.436          39.000  
G21  22803706.039 6 119834299.784 6      3157.500          39.000    22803703.508 6  93377356.089 6      2460.393          36.000  
G14  23962301.969 7 125922740.298 7     -2351.074          43.000    23962304.344 6  98121658.733 6     -1832.013          36.000  
G25  21067611.875 8 110711041.827 8     -1879.270          48.000    21067613.258 8  86268343.537 8     -1464.369          48.000  
G29  20236466.844 8 106343361.212 8      -385.273          51.000    20236466.031 8  82864966.526 8      -300.213          51.000  
R11  21529762.125 7 115048151.071 7     -3340.195          45.000    21529767.711 7  89481894.228 7     -2597.927          46.000  
R23  21911336.602 5 117210430.350 5      3889.484          30.000    21911329.492 4  91163680.709 4      3025.155          29.000  
R22  19109131.828 8 102005467.015 8      -211.516          51.000    19109135.055 8  79337661.157 8      -164.509          49.000  
R12  19162645.344 8 102363013.054 8      -123.828          51.000    19162648.328 7  79615694.100 7       -96.311          47.000  
E36  23411371.203 8 123027600.335 8       890.773          51.000    23411376.023 8  94267935.623 8       682.583          51.000  
E25  25129920.297 8 132058600.726 8     -1913.078          51.000    25129923.883 8 101187765.758 8     -1465.887          51.000  
E11                                                                  24362987.492 5  98099656.968 5     -1458.575          32.000  
E02  23256568.125 8 122214090.431 8       431.270          51.000    23256568.742 8  93644571.966 8       330.477          51.000  
C12  23336681.789 7 121520280.854 7      2535.648          46.000    23336679.016 8  93967191.712 8      1960.670          51.000  
C26  22133099.102 8 115252865.055 8     -1904.066          51.000                                                                  
> 2020 05 13 11 27 30.0000000  0 15      -0.000000000000
G18  22884286.906 7 120257782.765 7      3482.930          47.000    22884289.016 5  93707369.930 5      2713.975          35.000  
G21  22785700.852 5 119739698.769 5      3149.328          33.000    22785702.273 5  93303641.037 5      2454.020          32.000  
G14  23975748.805 7 125993405.063 7     -2359.898          42.000    23975750.430 6  98176722.132 6     -1838.885          38.000  
G25  21078369.852 7 110767575.937 7     -1889.395          47.000    21078371.453 7  86312396.016 7     -1472.259          47.000  
G29  20238707.734 8 106355136.797 8      -399.414          51.000    20238706.836 8  82874142.306 8      -311.232          51.000  
R11  21548549.789 7 115148551.799 7     -3352.812          46.000    21548556.781 7  89559983.677 7     -2607.744          47.000  
R23  21889557.617 5 117093931.562 5      3878.449          30.000    21889549.742 5  91073070.569 5      3016.575          32.000  
R22  19110389.594 8 102012181.812 8      -235.918          51.000    19110392.859 8  79342883.777 8      -183.492          49.000  
R12  19163400.648 8 102367046.251 8      -144.746          51.000    19163403.117 7  79618831.027 7      -112.580          47.000  
E36  23406324.781 8 123001083.344 8       877.426          50.000    23406329.859 8  94247617.430 8       672.371          51.000  
E25  25140862.469 8 132116102.079 8     -1919.961          50.000    25140865.922 8 101231825.212 8     -1471.095          51.000  
E11                                                                  24373885.117 5  98143534.888 5     -1466.099          32.000  
E02  23254130.625 8 122201281.492 8       423.008          51.000    23254131.406 8  93634757.324 8       324.117          51.000  
C12  23322099.648 7 121444354.333 7      2526.508          45.000    23322098.406 8  93908480.517 8      1953.735          51.000  
C26  22144105.844 8 115310178.341 8     -1916.488          51.000                                                                  
> 2020 05 13 11 28  0.0000000  0 17      -0.000000000000
G18  22864426.359 8 120153413.394 8      3475.629          48.000    22864425.320 4  93626043.239 4      2708.286          29.000  
G21  22767746.375 5 119645318.905 5      3140.578          33.000    22767750.594 5  93230130.923 5      2447.201          30.000  
G02  24617238.180 5 129364459.46225     -2761.418          31.000                                                                  
G14  23989245.602 6 126064332.998 6     -2368.570          40.000    23989246.297 6  98231990.586 6     -1845.649          38.000  
G25  21089187.531 7 110824424.090 7     -1899.695          46.000    21089189.453 7  86356693.246 7     -1480.282          46.000  
G29  20241030.531 8 106367343.182 8      -413.633          51.000    20241029.695 8  82883653.773 8      -322.311          51.000  
R11  21567410.984 8 115249336.379 8     -3365.578          49.000    21567417.266 7  89638371.635 7     -2617.676          46.000  
R23  21867842.359 5 116977845.266 5      3865.980          30.000    21867834.219 5  90982725.772 5      3006.874          33.000  
R22  19111785.953 8 102019636.497 8      -260.344          50.000    19111789.367 8  79348681.874 8      -202.490          49.000  
R12  19164274.758 8 102371714.483 8      -165.875          51.000    19164276.891 8  79622461.878 8      -129.011          48.000  
E36  23401356.914 8 122974978.017 8       863.750          51.000    23401362.180 8  94227614.654 8       661.787          51.000  
E25  25151844.461 8 132173815.395 8     -1926.984          48.000    25151848.047 8 101276047.072 8     -1476.464          51.000  
E11                                                                  24384840.289 5  98187646.438 5     -1473.444          31.000  
E02  23251742.016 8 122188729.601 8       414.434          51.000    23251742.812 8  93625139.644 8       317.550          51.000  
C24  22279529.172 6 116015366.017 6      1054.703          36.000                                                                  
C12  23307571.711 7 121368708.892 7      2517.297          47.000    23307572.227 8  93849986.670 8      1946.413          51.000  
C26  22155184.609 8 115367868.351 8     -1928.852          51.000                                                                  
> 2020 05 13 11 28 30.0000000  0 17      -0.000000000000
G18  22844604.484 8 120049247.439 8      3466.762          48.000    22844600.492 5  93544875.185 5      2701.380          32.000  
G21  22749841.578 6 119551227.484 6      3130.309          39.000    22749845.555 6  93156812.910 6      2439.202          39.000  
G02  24633064.383 5 129447599.009 5     -2771.168          32.000                                                                  
G14  24002788.531 6 126135502.131 6     -2378.230          40.000    24002788.867 6  98287447.023 6     -1853.167          37.000  
G25  21100061.336 7 110881566.709 7     -1911.375          45.000    21100063.516 7  86401219.986 7     -1489.384          45.000  
G29  20243431.484 8 106379960.145 8      -429.320          51.000    20243430.734 8  82893485.171 8      -334.535          51.000  
R11  21586341.133 8 115350483.920 8     -3379.594          51.000    21586345.570 7  89717041.859 7     -2628.576          45.000  
R23  21846182.078 5 116861969.361 5      3852.941          33.000    21846182.945 5  90892620.991 5      2996.736          35.000  
R22  19113317.172 8 102027810.009 8      -286.301          50.000    19113320.688 8  79355039.068 8      -222.678          49.000  
R12  19165263.812 8 102376999.542 8      -188.398          50.000    19165266.398 8  79626572.465 8      -146.532          48.000  
E36  23396464.273 8 122949265.390 8       848.656          51.000    23396469.172 8  94207912.764 8       650.266          51.000  
E25  25162862.820 8 132231721.357 8     -1935.309          48.000    25162866.859 8 101320416.580 8     -1482.897          50.000  
E11                                                                  24395848.750 5  98231972.862 5     -1482.948          30.000  
E02  23249398.938 8 122176416.461 8       404.535          51.000    23249399.547 8  93615704.902 8       309.960          51.000  
C24  22273489.492 6 115983916.244 6      1040.285          37.000                                                                  
C12  23293095.133 7 121293326.522 7      2506.457          47.000    23293096.797 8  93791696.263 8      1938.182          51.000  
C26  22166331.938 8 115425915.281 8     -1942.648          51.000                                                                  
> 2020 05 13 11 29  0.0000000  0 17      -0.000000000000
G18  22824829.727 7 119945330.170 7      3460.824          46.000    22824827.031 6  93463900.765 6      2696.747          38.000  
G21  22731992.719 7 119457427.256 7      3122.840          42.000    22731996.219 6  93083721.849 6      2433.385          37.000  
G02  24648900.078 5 129530822.641 5     -2777.441          33.000                                                                  
G14  24016385.297 6 126206952.010 6     -2385.129          41.000    24016384.773 6  98343122.228 6     -1858.543          39.000  
G25  21110999.117 7 110939045.915 7     -1920.520          45.000    21111001.672 7  86446008.988 7     -1496.509          45.000  
G29  20245918.445 8 106393029.138 8      -442.008          51.000    20245917.500 8  82903668.800 8      -344.422          51.000  
R11  21605346.688 8 115452035.865 8     -3390.629          51.000    21605350.500 7  89796026.627 7     -2637.159          45.000  
R23  21824596.883 5 116746525.056 5      3843.094          34.000    21824602.734 6  90802831.057 6      2989.077          36.000  
R22  19114990.945 8 102036744.178 8      -309.273          50.000    19114994.195 8  79361987.860 8      -240.546          50.000  
R12  19166376.922 8 102382945.710 8      -208.086          50.000    19166379.453 8  79631197.277 8      -161.845          48.000  
E36  23391654.438 8 122923988.097 8       836.512          51.000    23391658.727 8  94188544.448 8       640.958          51.000  
E25  25173926.172 8 132289862.336 8     -1940.789          49.000    25173930.219 8 101364966.167 8     -1486.997          49.000  
E11                                                                  24406917.812 4  98276543.329 4     -1488.772          29.000  
E02  23247109.586 8 122164385.452 8       397.465          51.000    23247110.148 8  93606486.335 8       304.557          51.000  
C24  22267530.945 5 115952897.581 5      1028.113          34.000                                                                  
C12  23278677.766 8 121218250.208 8      2498.562          48.000    23278679.891 8  93733642.522 8      1932.132          51.000  
C26  22177555.898 8 115484360.374 8     -1953.613          51.000                                                                  
> 2020 05 13 11 29 30.0000000  0 17      -0.000000000000
G18  22805096.125 7 119841631.265 7      3453.191          45.000    22805095.492 6  93383096.463 6      2690.799          41.000  
G21  22714193.438 7 119363887.930 7      3113.770          44.000    22714196.461 5  93010834.103 5      2426.315          35.000  
G02  24664784.367 5 129614288.841 5     -2786.250          32.000                                                                  
G14  24030028.727 7 126278646.756 7     -2393.738          42.000    24030027.805 6  98398988.254 6     -1865.251          38.000  
G25  21121994.633 7 110996828.132 7     -1931.020          46.000    21121997.258 7  86491034.108 7     -1504.691          46.000  
G29  20248484.914 8 106406515.982 8      -456.379          51.000    20248483.867 8  82914178.031 8      -355.620          51.000  
R11  21624420.133 8 115553956.482 8     -3403.258          50.000    21624424.812 7  89875298.113 7     -2646.982          45.000  
R23  21803076.234 5 116631426.410 5      3831.078          35.000    21803086.781 6  90713309.953 6      2979.728          36.000  
R22  19116800.680 8 102046403.654 8      -333.898          50.000    19116804.055 8  79369500.792 8      -259.699          50.000  
R12  19167607.484 8 102389520.519 8      -229.551          51.000    19167610.203 8  79636311.014 8      -178.540          49.000  
E36  23386921.141 8 122899113.209 8       822.656          51.000    23386924.844 8  94169484.489 8       630.362          51.000  
E25  25185028.461 8 132348205.166 8     -1947.867          49.000    25185031.484 8 101409670.399 8     -1492.403          48.000  
E11                                                                  24418041.062 5  98321332.366 5     -1496.698          30.000  
E02  23244867.719 8 122152604.337 8       388.773          51.000    23244868.406 8  93597459.253 8       297.900          51.000  
C24  22261649.680 6 115922278.611 6      1014.176          37.000                                                                  
C12  23264313.211 8 121143448.138 8      2488.832          48.000    23264314.992 8  93675800.828 8      1924.738          51.000  
C26  22188849.844 8 115543170.004 8     -1966.184          51.000                                                                  
> 2020 05 13 11 30  0.0000000  0 17      -0.000000000000
G18  22785404.297 7 119738152.847 7      3445.297          45.000    22785405.039 7  93302463.942 7      2684.645          43.000  
G21  22696444.109 7 119270611.192 7      3104.480          44.000    22696444.758 5  92938151.018 5      2419.076          33.000  
G02  24680713.539 5 129697994.531 5     -2794.801          34.000                                                                  
G14  24043717.969 7 126350582.716 7     -2402.176          42.000    24043717.086 6  98455042.223 6     -1871.826          37.000  
G25  21133047.922 8 111054912.283 8     -1941.621          48.000    21133050.398 8  86536294.450 8     -1512.952          48.000  
G29  20251130.484 8 106420418.781 8      -470.758          51.000    20251129.648 8  82925011.373 8      -366.824          51.000  
R11  21643562.109 8 115656243.151 8     -3416.129          48.000    21643566.367 7  89954854.384 7     -2656.990          44.000  
R23  21781621.469 5 116516675.023 5      3818.723          35.000    21781635.320 6  90624058.913 6      2970.118          36.000  
R22  19118745.852 8 102056786.129 8      -358.477          50.000    19118749.031 8  79377576.038 8      -278.818          50.000  
R12  19168955.750 8 102396724.331 8      -251.000          51.000    19168958.961 8  79641913.978 8      -195.225          49.000  
E36  23382264.469 8 122874640.201 8       808.629          51.000    23382267.453 8  94150732.456 8       619.608          51.000  
E25  25196169.125 8 132406749.025 8     -1955.312          51.000    25196171.609 8 101454528.637 8     -1498.260          48.000  
E11                                                                  24429218.523 5  98366339.155 5     -1504.187          31.000  
E02  23242673.414 8 122141073.304 8       379.730          51.000    23242674.211 8  93588623.778 8       290.977          51.000  
C24  22255846.242 5 115892059.932 5      1000.039          34.000                                                                  
C12  23250000.969 7 121068920.489 7      2479.418          46.000    23250002.500 8  93618171.362 8      1917.096          51.000  
C26  22200213.281 8 115602342.636 8     -1978.883          50.000                                                                  
> 2020 05 13 11 30 30.0000000  0 17      -0.000000000000
G18  22765755.836 7 119634904.309 7      3438.094          44.000    22765758.000 7  93222010.512 7      2679.032          43.000  
G21  22678746.211 6 119177606.299 6      3096.223          41.000    22678741.695 5  92865679.844 5      2412.645          32.000  
G02  24696688.938 5 129781944.269 5     -2802.379          34.000                                                                  
G14  24057453.883 7 126422763.500 7     -2409.691          43.000    24057452.930 5  98511286.969 5     -1877.679          35.000  
G25  21144159.953 8 111113304.346 8     -1951.105          50.000    21144162.000 8  86581794.753 8     -1520.339          50.000  
G29  20253856.273 8 106434742.943 8      -484.004          51.000    20253855.422 8  82936173.055 8      -377.146          51.000  
R11  21662773.203 8 115758900.543 8     -3427.680          48.000    21662776.398 7  90034699.028 7     -2665.971          44.000  
R23  21760234.477 6 116402280.367 6      3807.594          37.000    21760250.711 6  90535085.300 6      2961.462          36.000  
R22  19120827.086 8 102067896.488 8      -382.012          50.000    19120830.398 8  79386217.418 8      -297.117          50.000  
R12  19170423.312 8 102404565.031 8      -271.543          51.000    19170426.758 8  79648012.290 8      -211.200          49.000  
E36  23377685.391 8 122850575.739 8       795.832          51.000    23377687.867 8  94132293.464 8       609.806          51.000  
E25  25207349.500 8 132465500.180 8     -1961.250          51.000    25207352.141 8 101499545.705 8     -1502.795          49.000  
E11                                                                  24440451.664 5  98411567.501 5     -1511.346          31.000  
E02  23240528.039 8 122129799.729 8       371.930          51.000    23240528.836 8  93579985.583 8       285.042          51.000  
C24  22250120.805 5 115862249.473 5       987.398          34.000                                                                  
C12  23235742.031 7 120994674.723 7      2470.445          45.000    23235743.828 8  93560759.824 8      1910.450          51.000  
C26  22211647.234 8 115661883.804 8     -1990.359          51.000                                                                  
> 2020 05 13 11 31  0.0000000  0 17      -0.000000000000
G18  22746147.930 7 119531868.834 7      3428.410          44.000    22746151.406 7  93141723.129 7      2671.489          44.000  
G21  22661095.656 6 119084855.452 6      3085.074          37.000    22661090.930 6  92793406.569 6      2403.958          36.000  
G02  24712706.375 5 129866116.230 5     -2811.926          33.000                                                                  
G14  24071232.164 7 126495166.575 7     -2419.500          42.000    24071230.516 5  98567704.914 5     -1885.325          34.000  
G25  21155326.578 8 111171984.471 8     -1963.281          49.000    21155328.406 8  86627519.491 8     -1529.830          49.000  
G29  20256658.250 8 106449467.793 8      -499.875          51.000    20256657.414 8  82947646.967 8      -389.513          51.000  
R11  21682049.273 8 115861907.346 8     -3441.688          49.000    21682052.242 7  90114815.432 7     -2676.869          44.000  
R23  21738912.023 6 116288225.291 6      3793.586          38.000    21738929.781 6  90446375.798 6      2950.567          36.000  
R22  19123041.102 8 102079713.500 8      -408.121          51.000    19123044.328 8  79395408.416 8      -317.428          50.000  
R12  19172006.602 8 102413023.611 8      -294.703          51.000    19172010.195 8  79654591.175 8      -229.214          49.000  
E36  23373180.172 8 122826900.480 8       780.254          51.000    23373182.578 8  94114152.705 8       597.806          51.000  
E25  25218565.680 8 132524439.072 8     -1970.285          51.000    25218568.445 8 101544706.631 8     -1509.688          50.000  
E11                                                                  24451735.875 5  98457006.177 5     -1520.098          31.000  
E02  23238427.977 8 122118764.998 8       361.398          51.000    23238428.945 8  93571530.403 8       276.919          51.000  
C24  22244471.180 6 115832829.191 6       971.387          37.000                                                                  
C12  23221533.305 7 120920692.360 7      2459.281          45.000    23221535.438 8  93503551.948 8      1901.630          51.000  
C26  22223148.008 8 115721773.353 8     -2004.504          51.000                                                                  
> 2020 05 13 11 31 30.0000000  0 16      -0.000000000000
G18  22726581.258 7 119429045.610 7      3432.914          46.000    22726584.867 7  93061601.156 7      2675.002          44.000  
G21  22643491.219 5 118992358.042 5      3087.848          33.000    22643490.875 5  92721330.651 5      2406.116          31.000  
G02  24728764.188 5 129950504.620 5     -2807.316          34.000                                                                  
G14  24085051.656 7 126567785.805 7     -2415.094          42.000    24085048.430 5  98624291.313 5     -1881.895          33.000  
G25  21166547.188 8 111230948.520 8     -1961.156          49.000    21166549.242 8  86673465.461 8     -1528.174          49.000  
G29  20259535.555 8 106464588.424 8      -501.602          51.000    20259534.898 8  82959429.265 8      -390.858          51.000  
R11  21701389.969 8 115965257.649 8     -3441.570          50.000    21701392.531 7  90195199.054 7     -2676.774          42.000  
R23  21717654.156 6 116174508.727 6      3794.082          39.000    21717672.586 5  90357929.568 5      2950.953          35.000  
R22  19125386.234 8 102092231.614 8      -419.836          51.000    19125389.133 8  79405144.736 8      -326.539          49.000  
R12  19173705.445 8 102422097.702 8      -303.590          51.000    19173708.953 8  79661648.790 8      -236.122          48.000  
E36  23368748.344 8 122803610.915 8       778.910          51.000    23368750.797 8  94096307.465 8       596.843          51.000  
E25  25229816.555 8 132583561.881 8     -1964.727          51.000    25229819.633 8 101590008.496 8     -1505.474          51.000  
E02  23236372.906 8 122107966.337 8       365.109          51.000    23236374.195 8  93563256.093 8       279.738          51.000  
C24  22238896.477 6 115803796.742 6       969.602          38.000                                                                  
C12  23207375.766 7 120846970.626 7      2461.879          47.000    23207377.461 8  93446545.635 8      1903.742          51.000  
C26  22234715.000 8 115782006.780 8     -2004.664          51.000                                                                  
> 2020 05 13 11 32  0.0000000  0 18      -0.000000000000
G18  22707056.867 8 119326441.874 8      3412.328          48.000    22707059.719 7  92981650.241 7      2658.958          44.000  
G21  22625937.383 6 118900120.799 6      3066.074          37.000    22625940.352 6  92649457.383 6      2389.149          36.000  
G02  24744863.266 5 130035111.697 5     -2827.855          32.000                                                                  
G14  24098912.211 6 126640622.342 6     -2435.555          41.000    24098907.781 4  98681047.070 4     -1897.829          29.000  
G25  21177822.508 8 111290200.464 8     -1984.090          49.000    21177824.984 8  86719635.775 8     -1546.045          49.000  
G29  20262488.859 8 106480108.350 8      -528.180          51.000    20262488.305 8  82971522.699 8      -411.569          51.000  
R11  21720795.828 8 116068954.291 8     -3466.539          50.000    21720799.383 7  90275851.981 7     -2696.201          44.000  
R23  21696462.344 6 116061137.743 6      3768.836          41.000    21696479.992 5  90269752.124 5      2931.314          35.000  
R22  19127863.492 8 102105453.891 8      -456.660          50.000    19127866.062 8  79415428.719 8      -355.180          50.000  
R12  19175520.602 8 102431792.509 8      -337.730          50.000    19175523.805 8  79669189.199 8      -262.679          48.000  
R21  22106148.930 5 118294013.243 5     -3830.016          32.000                                                                  
E36  23364390.688 8 122780711.615 8       752.574          51.000    23364393.273 8  94078761.259 8       576.663          51.000  
E25  25241103.188 8 132642872.897 8     -1984.383          51.000    25241106.758 8 101635454.582 8     -1520.478          51.000  
E11  24474494.773 5 128614337.248 5     -2002.664          33.000                                                                  
E02  23234363.914 8 122097409.083 8       343.668          51.000    23234365.359 8  93555166.766 8       263.360          51.000  
C24  22233397.305 6 115775157.880 6       944.172          37.000                                                                  
C12  23193270.148 7 120773514.795 7      2439.926          47.000    23193270.883 8  93389744.986 8      1886.645          50.000  
C26  22246348.992 8 115842587.621 8     -2029.375          51.000                                                                  
> 2020 05 13 11 32 30.0000000  0 18      -0.000000000000
G18  22687595.023 8 119224166.095 8      3405.496          49.000    22687596.961 7  92901954.905 7      2653.637          45.000  
G21  22608456.172 7 118808251.674 7      3058.074          42.000    22608459.172 6  92577871.038 6      2382.919          38.000  
G02  24761023.133 5 130120040.806 5     -2834.539          31.000                                                                  
G14  24112833.602 6 126713778.961 6     -2442.398          41.000    24112828.758 5  98738052.150 5     -1903.168          32.000  
G25  21189172.336 7 111349845.501 7     -1992.969          46.000    21189175.000 7  86766112.380 7     -1552.966          46.000  
G29  20265537.953 8 106496131.967 8      -540.711          51.000    20265537.422 8  82984008.645 8      -421.330          51.000  
R11  21740285.977 8 116173102.793 8     -3477.387          49.000    21740289.734 7  90356856.276 7     -2704.638          44.000  
R23  21675355.977 7 115948222.327 7      3758.027          42.000    21675372.430 5  90181929.016 5      2922.911          33.000  
R22  19130491.914 8 102119485.497 8      -479.438          51.000    19130494.516 8  79426342.195 8      -372.896          50.000  
R12  19177472.234 8 102442216.498 8      -357.863          51.000    19177475.172 8  79677296.734 8      -278.338          48.000  
R21  22127643.070 5 118409025.789 5     -3836.754          31.000                                                                  
E36  23360127.250 8 122758308.270 8       740.254          51.000    23360130.211 8  94061595.077 8       567.217          51.000  
E25  25252445.602 8 132702477.562 8     -1990.039          51.000    25252449.523 8 101681125.675 8     -1524.812          51.000  
E11  24485943.930 5 128674502.462 5     -2010.109          33.000                                                                  
E02  23232421.250 8 122087199.696 8       336.266          51.000    23232422.609 8  93547343.987 8       257.691          51.000  
C24  22227993.500 6 115747018.736 6       931.281          38.000                                                                  
C12  23179236.078 8 120700430.458 8      2431.773          48.000    23179235.539 8  93333231.558 8      1880.332          50.000  
C26  22258069.797 8 115903619.604 8     -2040.137          51.000                                                                  
> 2020 05 13 11 33  0.0000000  0 16      -0.000000000000
G18  22668179.555 8 119122135.043 8      3397.156          48.000    22668181.211 7  92822450.250 7      2647.135          45.000  
G21  22591029.414 7 118716667.255 7      3048.223          46.000    22591030.492 5  92506506.631 5      2375.239          35.000  
G02  24777227.711 5 130205203.860 5     -2841.301          30.000                                                                  
G14  24126798.852 6 126787166.673 6     -2449.789          41.000    24126794.516 6  98795237.332 6     -1908.933          36.000  
G25  21200580.430 7 111409797.147 7     -2003.266          45.000    21200583.125 7  86812827.922 7     -1560.987          45.000  
G29  20268666.305 8 106512571.914 8      -554.609          51.000    20268665.766 8  82996818.995 8      -432.163          51.000  
R11  21759843.102 8 116277613.628 8     -3489.438          48.000    21759847.281 7  90438142.363 7     -2714.014          44.000  
R23  21654319.000 7 115835677.783 7      3745.559          43.000    21654333.820 4  90094394.342 4      2913.213          27.000  
R22  19133255.414 8 102134237.477 8      -503.293          51.000    19133258.203 8  79437815.941 8      -391.450          50.000  
R12  19179544.320 8 102453283.287 8      -379.254          51.000    19179546.891 8  79685904.244 8      -294.975          48.000  
E36  23355941.859 8 122736314.966 8       726.672          51.000    23355945.219 8  94044743.075 8       556.795          51.000  
E25  25263827.359 8 132762289.663 8     -1996.762          50.000    25263831.750 8 101726955.700 8     -1529.966          51.000  
E02  23230528.570 8 122077253.048 8       327.488          51.000    23230529.852 8  93539722.525 8       250.909          51.000  
C24  22222669.938 6 115719295.169 6       917.832          39.000                                                                  
C12  23165256.586 7 120627633.143 7      2422.086          46.000    23165255.547 8  93276940.094 8      1872.881          51.000  
C26  22269860.516 8 115965016.574 8     -2052.438          51.000                                                                  
> 2020 05 13 11 33 30.0000000  0 15      -0.000000000000
G18  22648819.781 8 119020398.688 8      3378.613          48.000    22648821.914 7  92743175.216 7      2632.687          47.000  
G21  22573665.875 7 118625417.002 7      3028.242          47.000    22573664.273 5  92435402.654 5      2359.676          34.000  
G14  24140816.414 6 126860829.764 6     -2467.922          40.000    24140812.742 5  98852637.105 5     -1923.054          34.000  
G25  21212055.961 7 111470102.110 7     -2023.895          46.000    21212058.562 7  86859818.812 7     -1577.061          46.000  
G29  20271882.648 8 106529474.528 8      -578.973          51.000    20271882.172 8  83009989.869 8      -451.148          51.000  
R11  21779477.195 8 116382532.866 8     -3512.035          49.000    21779481.820 7  90519746.116 7     -2731.586          46.000  
R23  21633360.570 7 115723554.725 7      3722.355          45.000                                                                  
R22  19136162.508 8 102149755.924 8      -537.945          51.000    19136165.477 8  79449885.848 8      -418.402          49.000  
R12  19181745.664 8 102465041.839 8      -411.480          51.000    19181748.516 8  79695049.758 8      -320.040          48.000  
E36  23351843.477 8 122714779.043 8       702.457          51.000    23351847.125 8  94028241.523 8       538.247          51.000  
E25  25275257.492 8 132822356.340 8     -2014.348          50.000    25275261.594 8 101772980.791 8     -1543.444          50.000  
E02  23228695.070 8 122067617.217 8       308.156          51.000    23228696.109 8  93532339.218 8       236.189          51.000  
C24  22217435.094 6 115692035.440 6       893.102          38.000                                                                  
C12  23151341.141 7 120555170.674 7      2402.023          46.000    23151340.203 8  93220907.530 8      1857.464          51.000  
C26  22281729.977 8 116026824.399 8     -2074.824          51.000                                                                  
> 2020 05 13 11 34  0.0000000  0 15      -0.000000000000
G18  22629511.781 7 118918937.003 7      3382.090          47.000    22629514.914 7  92664114.192 7      2635.396          47.000  
G21  22556361.633 7 118534480.658 7      3030.770          46.000    22556358.312 5  92364543.267 5      2361.642          34.000  
G14  24154881.227 6 126934742.535 6     -2463.387          41.000    24154877.883 5  98910231.413 5     -1919.523          35.000  
G25  21223594.312 7 111530737.124 7     -2022.047          46.000    21223597.133 7  86907066.885 7     -1575.621          46.000  
G29  20275182.469 8 106546815.622 8      -580.664          51.000    20275181.969 8  83023502.419 8      -452.466          51.000  
R11  21799183.438 8 116487835.195 8     -3511.652          50.000    21799188.258 7  90601647.866 7     -2731.289          47.000  
R23  21612476.086 7 115611832.415 7      3722.215          44.000    21612472.461 4  89920248.778 4      2895.060          28.000  
R22  19139208.484 8 102166015.614 8      -549.547          51.000    19139211.242 8  79462532.275 8      -427.425          49.000  
R12  19184072.320 8 102477469.592 8      -420.633          51.000    19184075.266 8  79704715.785 8      -327.159          48.000  
E36  23347827.547 8 122693677.669 8       700.781          51.000    23347831.695 8  94012072.940 8       536.984          51.000  
E25  25286731.594 8 132882654.472 8     -2009.070          51.000    25286734.461 8 101819183.258 8     -1539.460          48.000  
E02  23226916.508 8 122058270.203 8       311.395          51.000    23226917.273 8  93525177.230 8       238.592          51.000  
C24  22212284.977 6 115665218.105 6       891.305          39.000                                                                  
C12  23137485.375 7 120483021.145 7      2404.379          46.000    23137484.984 8  93165116.975 8      1859.246          51.000  
C26  22293673.594 8 116089019.448 8     -2074.980          51.000                                                                  
> 2020 05 13 11 34 30.0000000  0 15      -0.000000000000
G18  22610232.938 7 118817630.355 7      3371.984          46.000    22610237.188 7  92585173.942 7      2627.521          46.000  
G21  22539093.656 7 118443737.950 7      3019.070          45.000    22539090.508 6  92293834.698 6      2352.526          38.000  
G14  24168969.727 6 127008779.596 6     -2472.418          41.000    24168967.164 6  98967922.603 6     -1926.560          36.000  
G25  21235172.203 7 111591579.324 7     -2033.746          47.000    21235175.188 7  86954476.392 7     -1584.738          47.000  
G29  20278542.312 8 106564471.543 8      -596.125          51.000    20278541.742 8  83037260.282 8      -464.510          51.000  
R11  21818937.992 8 116593394.127 8     -3525.277          51.000    21818942.344 7  90683749.202 7     -2741.883          45.000  
R23  21591641.727 6 115500388.868 6      3707.777          40.000    21591643.312 5  89833570.486 5      2883.827          33.000  
R22  19142369.680 8 102182890.414 8      -575.176          51.000    19142372.742 8  79475657.147 8      -447.356          49.000  
R12  19186500.922 8 102490443.366 8      -443.949          51.000    19186504.188 8  79714806.494 8      -345.294          48.000  
E36  23343870.945 8 122672888.459 8       685.469          51.000    23343875.742 8  93996143.573 8       525.221          51.000  
E25  25298226.438 8 132943061.546 8     -2017.852          50.000    25298228.352 8 101865469.151 8     -1545.940          48.000  
E02  23225169.797 8 122049090.436 8       300.867          51.000    23225170.266 8  93518143.380 8       230.541          51.000  
C24  22207197.359 6 115638723.190 6       875.324          39.000                                                                  
C12  23123666.766 7 120411064.096 7      2392.926          47.000    23123666.648 8  93109475.249 8      1850.498          51.000  
C26  22305667.641 8 116151479.483 8     -2088.707          48.000                                                                  
> 2020 05 13 11 35  0.0000000  0 15      -0.000000000000
G18  22591006.891 8 118716597.089 8      3363.504          48.000    22591011.203 8  92506446.708 8      2620.916          48.000  
G21  22521885.188 7 118353307.021 7      3009.562          46.000    22521882.656 6  92223369.077 6      2345.117          37.000  
G14  24183103.180 6 127083053.549 6     -2479.715          41.000    24183101.297 5  99025798.400 5     -1932.243          30.000  
G25  21246811.648 8 111652743.762 8     -2043.977          48.000    21246814.172 8  87002136.991 8     -1592.709          48.000  
G29  20281983.742 8 106582556.478 8      -609.730          51.000    20281983.227 8  83051352.447 8      -475.115          51.000  
R11  21838762.117 8 116699325.363 8     -3537.074          49.000    21838765.203 7  90766140.140 7     -2751.061          42.000  
R23  21570880.242 6 115389344.420 6      3695.102          41.000    21570887.125 5  89747202.542 5      2873.969          35.000  
R22  19145667.773 8 102200495.857 8      -598.789          51.000    19145670.836 8  79489350.293 8      -465.725          48.000  
R12  19189053.578 8 102504081.185 8      -465.434          51.000    19189057.648 8  79725413.676 8      -362.007          48.000  
E36  23339996.156 8 122652527.103 8       671.809          51.000    23340001.211 8  93980542.032 8       514.727          51.000  
E25  25309764.250 8 133003692.947 8     -2024.469          51.000    25309765.867 8 101911926.926 8     -1551.286          49.000  
E02  23223477.117 8 122040194.387 8       292.027          51.000    23223477.281 8  93511326.929 8       223.767          51.000  
C24  22202193.875 7 115612666.415 7       861.457          42.000                                                                  
C12  23109907.117 7 120339414.888 7      2383.410          47.000    23109907.141 8  93054071.594 8      1843.026          50.000  
C26  22317733.320 7 116214318.066 7     -2100.609          44.000                                                                  
> 2020 05 13 11 35 30.0000000  0 15      -0.000000000000
G18  22571830.914 8 118615823.083 8      3355.398          51.000    22571834.422 8  92427921.531 8      2614.597          49.000  
G21  22504733.477 8 118263173.305 8      3000.039          48.000    22504730.828 6  92153135.092 6      2337.697          36.000  
G14  24197278.305 6 127157544.585 6     -2486.102          41.000    24197277.414 5  99083843.281 5     -1937.226          34.000  
G25  21258509.211 8 111714213.125 8     -2053.418          49.000    21258511.062 8  87050035.194 8     -1600.066          49.000  
G29  20285503.438 8 106601052.396 8      -622.824          51.000    20285502.883 8  83065764.847 8      -485.318          51.000  
R11  21858649.398 6 116805609.950 6     -3548.164          41.000    21858653.906 6  90848805.857 6     -2759.687          40.000  
R23  21550193.086 7 115278684.124 7      3682.820          44.000    21550201.078 5  89661133.412 5      2864.416          35.000  
R22  19149098.961 8 102218812.976 8      -621.832          51.000    19149102.281 8  79503596.961 8      -483.647          48.000  
R12  19191727.320 8 102518366.982 8      -486.391          50.000    19191732.406 8  79736524.821 8      -378.307          48.000  
E36  23336199.805 8 122632576.720 8       658.793          51.000    23336204.758 8  93965255.402 8       504.739          51.000  
E25  25321341.594 8 133064531.627 8     -2030.902          51.000    25321343.898 8 101958543.494 8     -1556.120          50.000  
E02  23221835.359 8 122031566.001 8       283.715          51.000    23221835.281 8  93504715.573 8       217.386          51.000  
C24  22197271.992 7 115587032.372 7       848.047          42.000                                                                  
C12  23096203.258 7 120268057.620 7      2374.332          47.000    23096203.023 8  92998893.681 8      1835.954          49.000  
C26  22329868.344 7 116277517.542 7     -2112.086          45.000                                                                  
> 2020 05 13 11 36  0.0000000  0 16      -0.000000000000
G18  22552686.172 8 118515213.027 8      3345.789          51.000    22552688.758 7  92349524.132 7      2607.109          47.000  
G21  22487619.844 7 118173241.058 7      2989.352          47.000    22487616.664 6  92083058.100 6      2329.369          37.000  
G14  24211475.711 6 127232151.891 6     -2493.980          40.000    24211475.016 5  99141978.815 5     -1943.359          35.000  
G25  21270245.922 8 111775888.772 8     -2064.418          49.000    21270247.492 8  87098094.130 8     -1608.638          49.000  
G29  20289082.461 8 106619860.230 8      -637.293          51.000    20289081.883 8  83080420.316 8      -496.589          51.000  
R11  21878579.539 6 116912145.838 6     -3560.457          38.000    21878589.945 7  90931667.042 7     -2769.245          42.000  
R23  21529560.156 7 115168310.870 7      3669.086          45.000    21529567.938 5  89575287.575 5      2853.737          35.000  
R22  19152644.539 8 102237739.927 8      -646.359          51.000    19152648.242 8  79518317.940 8      -502.724          48.000  
R12  19194504.211 8 102533201.825 8      -508.926          51.000    19194509.727 8  79748063.032 8      -395.831          48.000  
R21  22279214.242 5 119220155.584 5     -3886.598          34.000                                                                  
E36  23332463.055 8 122612939.189 8       644.203          51.000    23332467.898 8  93950208.504 8       493.646          51.000  
E25  25332939.992 8 133125479.233 8     -2038.609          51.000    25332943.016 8 102005243.577 8     -1562.052          51.000  
E02  23220225.906 8 122023108.070 8       273.898          51.000    23220225.719 8  93498234.820 8       209.882          51.000  
C24  22192412.219 6 115561725.140 6       833.180          41.000                                                                  
C12  23082537.094 8 120196895.957 8      2363.613          48.000    23082536.164 8  92943866.989 8      1827.693          49.000  
C26  22342055.672 8 116340979.718 8     -2124.957          49.000                                                                  
> 2020 05 13 11 36 30.0000000  0 16      -0.000000000000
G18  22533612.031 8 118414975.681 8      3336.641          51.000    22533613.625 7  92271417.164 7      2599.980          46.000  
G21  22470583.625 7 118083718.598 7      2978.816          46.000    22470581.469 6  92013300.388 6      2321.156          41.000  
G14  24225733.859 6 127307078.195 6     -2501.016          40.000    24225733.281 5  99200362.915 5     -1948.844          34.000  
G25  21282060.859 8 111837976.290 8     -2074.926          48.000    21282062.438 8  87146473.962 8     -1616.826          48.000  
G29  20292759.672 8 106639184.530 8      -651.070          51.000    20292759.133 8  83095478.212 8      -507.328          51.000  
R11  21898601.516 7 117019140.698 7     -3572.578          46.000    21898612.445 7  91014885.261 7     -2778.672          43.000  
R23  21509020.227 7 115058436.781 7      3655.719          45.000    21509026.883 5  89489830.013 5      2843.340          33.000  
R22  19156343.016 8 102257484.249 8      -670.172          51.000    19156346.977 8  79533674.651 8      -521.245          48.000  
R12  19197423.062 8 102548795.786 8      -530.883          50.000    19197429.039 8  79760191.644 8      -412.909          48.000  
R21  22301022.477 5 119336857.289 5     -3893.465          34.000                                                                  
E36  23328825.180 8 122593820.569 8       630.215          51.000    23328829.766 8  93935559.198 8       482.895          51.000  
E25  25344598.070 8 133186741.597 8     -2045.672          50.000    25344602.094 8 102052184.838 8     -1567.434          51.000  
E02  23218688.141 8 122015027.422 8       264.684          51.000    23218687.977 8  93492043.157 8       202.792          51.000  
C24  22187654.352 7 115536950.074 7       818.531          43.000                                                                  
C12  23068948.125 8 120126134.751 8      2353.594          48.000    23068947.164 8  92889149.953 8      1819.948          50.000  
C26  22354333.508 8 116404907.708 8     -2137.043          51.000                                                                  
> 2020 05 13 11 37  0.0000000  0 17      -0.000000000000
G18  22514587.820 8 118315003.414 8      3328.211          50.000    22514588.742 7  92193516.744 7      2593.412          44.000  
G21  22453604.922 7 117994497.765 7      2969.309          47.000    22453604.352 7  91943777.684 7      2313.751          44.000  
G14  24240031.031 6 127382210.245 6     -2507.539          40.000    24240030.703 5  99258907.342 5     -1953.918          35.000  
G12  23634578.320 6 124200550.047 6     -3044.117          36.000                                                                  
G25  21293933.125 7 111900364.667 7     -2084.297          47.000    21293934.805 7  87195088.225 7     -1624.131          47.000  
G29  20296514.047 8 106658913.829 8      -664.043          51.000    20296513.328 8  83110851.682 8      -517.436          51.000  
R11  21918690.570 8 117126480.086 8     -3583.375          50.000    21918700.336 7  91098371.424 7     -2787.070          47.000  
R23  21488553.336 7 114948952.322 7      3643.195          47.000    21488558.555 5  89404675.507 5      2833.597          33.000  
R22  19160173.414 8 102277931.645 8      -693.004          51.000    19160177.609 8  79549578.189 8      -539.003          48.000  
R12  19200463.680 8 102565037.297 8      -551.898          51.000    19200469.305 8  79772823.926 8      -429.254          48.000  
R21  22322864.258 5 119453752.465 5     -3899.363          33.000                                                                  
E36  23325265.086 8 122575110.393 8       617.133          51.000    23325269.062 8  93921222.838 8       472.850          51.000  
E25  25356294.539 8 133248208.113 8     -2052.043          50.000    25356299.242 8 102099282.536 8     -1572.372          51.000  
E02  23217201.352 8 122007214.444 8       256.281          51.000    23217201.188 8  93486056.591 8       196.359          51.000  
C24  22182978.172 6 115512598.914 6       804.926          41.000                                                                  
C12  23055415.219 8 120055665.415 8      2344.297          48.000    23055414.922 8  92834658.589 8      1812.932          50.000  
C26  22366679.891 8 116469191.088 8     -2148.406          51.000                                                                  
> 2020 05 13 11 37 30.0000000  0 16      -0.000000000000
G18  22495612.547 8 118215290.997 8      3318.062          49.000    22495613.016 7  92115818.826 7      2585.507          42.000  
G21  22436682.992 8 117905572.927 8      2957.902          48.000    22436683.391 7  91874485.611 7      2304.860          45.000  
G14  24254365.234 6 127457537.001 6     -2515.555          40.000    24254364.500 5  99317603.436 5     -1960.173          33.000  
G25  21305860.844 7 111963045.403 7     -2095.344          46.000    21305862.883 7  87243930.305 7     -1632.736          46.000  
G29  20300343.766 8 106679038.749 8      -678.684          51.000    20300342.914 8  83126533.448 8      -528.845          51.000  
R11  21938842.742 8 117234153.899 8     -3596.035          51.000    21938851.312 8  91182117.666 8     -2796.920          49.000  
R23  21468158.484 8 114839851.519 8      3629.098          48.000    21468163.688 6  89319819.379 6      2822.632          37.000  
R22  19164133.438 8 102299071.885 8      -717.410          51.000    19164137.977 7  79566020.635 7      -557.983          47.000  
R12  19203624.242 8 102581919.103 8      -574.637          50.000    19203629.438 8  79785954.206 8      -446.940          48.000  
R21  22344739.414 5 119570829.438 5     -3906.703          31.000                                                                  
E36  23321781.117 8 122556800.610 8       602.523          51.000    23321784.617 8  93907193.288 8       461.689          51.000  
E25  25368028.422 8 133309870.448 8     -2059.785          51.000    25368033.617 8 102146530.302 8     -1578.320          51.000  
E02  23215764.266 8 121999661.993 8       246.125          51.000    23215764.039 8  93480269.648 8       188.637          51.000  
C24  22178382.469 7 115488665.031 7       789.539          44.000                                                                  
C12  23041937.062 8 119985480.841 8      2333.516          48.000    23041937.297 8  92780387.442 8      1804.390          50.000  
C26  22379092.617 8 116533820.901 8     -2161.305          51.000                                                                  
> 2020 05 13 11 38  0.0000000  0 16      -0.000000000000
G18  22476698.516 8 118115900.282 8      3313.105          49.000    22476698.719 7  92038371.606 7      2581.645          42.000  
G21  22419829.281 8 117817005.852 8      2951.500          48.000    22419830.266 7  91805472.314 7      2299.871          47.000  
G14  24268747.094 6 127533114.747 6     -2518.180          40.000    24268746.031 5  99376495.173 5     -1962.212          33.000  
G25  21317855.219 7 112026077.159 7     -2101.953          46.000    21317857.555 7  87293045.916 7     -1637.886          46.000  
G29  20304259.742 8 106699617.178 8      -688.324          51.000    20304258.969 8  83142568.592 8      -536.357          51.000  
R11  21959067.953 8 117342220.158 8     -3603.430          49.000    21959075.242 8  91266169.166 8     -2802.668          48.000  
R23  21447846.852 8 114731196.934 8      3619.727          48.000    21447853.039 6  89235310.280 6      2815.344          39.000  
R22  19168234.188 8 102320962.752 8      -736.961          51.000    19168238.484 7  79583046.876 7      -573.192          47.000  
R12  19206916.094 8 102599502.052 8      -592.422          51.000    19206920.766 8  79799629.821 8      -460.773          48.000  
R21  22366654.484 5 119688081.799 5     -3908.887          30.000                                                                  
E36  23318384.641 8 122538950.363 8       592.582          51.000    23318387.883 8  93893515.846 8       454.090          51.000  
E25  25379810.367 8 133371787.610 8     -2063.027          49.000    25379816.336 8 102193973.310 8     -1580.699          51.000  
E02  23214388.188 8 121992430.046 8       240.965          51.000    23214387.930 8  93474728.282 8       184.615          51.000  
C24  22173878.445 7 115465208.122 7       778.977          45.000                                                                  
C12  23028524.914 7 119915640.318 7      2327.469          47.000    23028524.664 8  92726382.331 8      1799.720          48.000  
C26  22391582.602 8 116598854.716 8     -2169.309          51.000                                                                  
> 2020 05 13 11 38 30.0000000  0 16      -0.000000000000
G18  22457823.180 8 118016709.696 8      3304.285          49.000    22457823.648 7  91961080.310 7      2574.769          45.000  
G21  22403020.242 8 117728674.328 8      2941.793          48.000    22403021.703 7  91736642.557 7      2292.307          47.000  
G14  24283152.445 6 127608816.314 6     -2524.016          41.000    24283151.172 4  99435483.250 4     -1966.781          28.000  
G12  23686846.820 6 124475233.004 6     -3054.781          36.000    23686842.211 5  96993657.774 5     -2380.350          35.000  
G25  21329892.547 7 112089335.036 7     -2110.930          43.000    21329894.398 7  87342337.772 7     -1644.881          43.000  
G29  20308238.203 8 106720523.649 8      -700.926          51.000    20308237.406 8  83158859.348 8      -546.176          51.000  
R11  21979341.406 8 117450550.403 8     -3613.902          48.000    21979347.859 7  91350425.978 7     -2810.817          47.000  
R23  21427595.492 8 114622864.527 8      3607.188          50.000    21427602.336 6  89151051.772 6      2805.591          40.000  
R22  19172451.359 8 102343476.108 8      -759.434          49.000    19172455.555 7  79600557.285 7      -590.671          47.000  
R12  19210315.734 8 102617660.277 8      -613.426          51.000    19210319.539 8  79813752.881 8      -477.109          48.000  
E36  23315051.711 8 122521435.278 8       579.691          51.000    23315054.688 8  93880095.198 8       444.245          51.000  
E25  25391616.773 7 133433835.079 7     -2068.965          47.000    25391623.664 8 102241516.148 8     -1585.264          51.000  
E02  23213049.562 8 121985395.098 8       232.703          51.000    23213049.289 8  93469337.869 8       178.293          51.000  
C24  22169442.375 7 115442106.239 7       765.449          45.000                                                                  
C12  23015154.938 7 119846021.480 7      2318.281          46.000    23015154.219 7  92672548.660 7      1792.766          47.000  
C26  22404125.953 8 116664168.303 8     -2180.418          51.000                                                                  
> 2020 05 13 11 39  0.0000000  0 15      -0.000000000000
G18  22439011.930 8 117917854.270 8      3287.211          50.000    22439012.852 7  91884050.156 7      2561.464          47.000  
G21  22386281.641 8 117640712.968 8      2923.508          49.000    22386283.617 7  91668101.245 7      2278.059          47.000  
G14  24297606.031 7 127684770.642 7     -2538.141          42.000    24297605.633 4  99494668.402 4     -1977.772          29.000  
G25  21341997.758 7 112152950.946 7     -2128.828          45.000    21341999.938 7  87391908.580 7     -1658.828          44.000  
G29  20312303.961 8 106741889.246 8      -722.148          51.000    20312303.180 8  83175507.857 8      -562.713          51.000  
R11  21999688.797 8 117559276.953 8     -3633.098          49.000    21999694.406 7  91434991.002 7     -2825.743          45.000  
R23  21407430.547 8 114514991.793 8      3585.637          50.000    21407436.992 6  89067150.793 6      2788.832          40.000  
R22  19176810.094 8 102366744.196 8      -790.488          49.000    19176814.070 8  79618654.676 8      -614.824          48.000  
R12  19213848.344 8 102636528.998 8      -643.125          51.000    19213851.453 8  79828428.534 8      -500.211          48.000  
E36  23311807.547 8 122504387.620 8       558.133          51.000    23311810.211 8  93867032.695 8       427.666          51.000  
E25  25403473.562 8 133496144.902 8     -2083.457          49.000    25403480.500 8 102289260.038 8     -1596.566          51.000  
E02  23211773.727 8 121978690.332 8       215.668          51.000    23211773.273 8  93464200.453 8       165.234          51.000  
C24  22165099.453 7 115419491.716 7       743.348          44.000                                                                  
C12  23001852.891 7 119776756.260 7      2300.590          46.000    23001851.523 7  92618988.422 7      1779.074          47.000  
C26  22416747.711 8 116729891.709 8     -2199.836          51.000                                                                  
> 2020 05 13 11 39 30.0000000  0 16      -0.000000000000
G18  22420248.289 8 117819250.147 8      3286.379          49.000    22420249.742 8  91807215.821 8      2560.815          48.000  
G21  22369597.500 8 117553037.343 8      2921.688          49.000    22369599.797 7  91599782.580 7      2276.643          47.000  
G14  24312090.766 6 127760888.563 6     -2536.230          40.000    24312091.070 4  99553980.962 4     -1976.284          28.000  
G25  21354155.109 7 112216837.657 7     -2130.109          46.000    21354157.898 7  87441690.439 7     -1659.826          46.000  
G29  20316440.203 8 106763625.907 8      -726.832          51.000    20316439.656 8  83192445.509 8      -566.363          51.000  
R11  22020093.914 8 117668309.951 8     -3635.477          51.000    22020098.023 7  91519794.386 7     -2827.596          43.000  
R23  21387335.484 8 114407492.914 8      3581.023          49.000    21387340.672 6  88983540.591 6      2785.241          40.000  
R22  19181293.500 8 102390676.842 8      -804.840          48.000    19181297.734 8  79637268.965 8      -625.987          48.000  
R12  19217497.539 8 102656020.814 8      -656.094          51.000    19217499.836 8  79843588.833 8      -510.295          48.000  
R21  22432612.117 5 120040961.620 5     -3925.730          31.000    22432609.750 4  93365256.42824     -3053.346          26.000  
E36  23308635.609 8 122487720.708 8       553.223          51.000    23308638.664 8  93854261.931 8       423.922          51.000  
E25  25415364.258 8 133558630.219 8     -2081.820          49.000    25415370.750 8 102337138.402 8     -1595.159          51.000  
E02  23210544.219 8 121972229.951 8       215.273          51.000    23210543.711 8  93459250.291 8       164.899          51.000  
C24  22160833.578 7 115397279.933 7       737.477          45.000                                                                  
C12  22988602.969 8 119707759.400 8      2299.254          49.000    22988601.133 8  92565635.724 8      1777.984          48.000  
C26  22429430.758 8 116795938.076 8     -2203.078          50.000                                                                  
> 2020 05 13 11 40  0.0000000  0 17      -0.000000000000
G18  22401527.531 8 117720873.264 8      3272.633          48.000    22401529.594 8  91730558.527 8      2550.104          48.000  
G21  22352963.148 8 117465623.200 8      2906.594          49.000    22352965.344 7  91531667.676 7      2264.882          45.000  
G14  24326600.750 6 127837139.943 6     -2546.727          39.000    24326602.242 5  99613397.578 5     -1984.466          30.000  
G12  23739335.672 5 124751054.666 5     -3072.395          30.000                                                                  
G25  21366358.945 7 112280967.885 7     -2144.430          47.000    21366362.078 7  87491661.995 7     -1670.985          47.000  
G29  20320641.781 8 106785705.462 8      -744.508          51.000    20320641.320 8  83209650.343 8      -580.136          51.000  
R11  22040550.422 8 117777619.833 8     -3651.133          50.000    22040553.078 7  91604813.063 7     -2839.774          42.000  
R23  21367305.172 8 114300342.896 8      3563.098          48.000    21367309.742 6  88900201.691 6      2771.299          40.000  
R22  19185896.211 8 102415244.421 8      -832.266          50.000    19185900.102 8  79656377.066 8      -647.318          49.000  
R12  19221258.336 8 102676109.066 8      -682.387          51.000    19221260.125 8  79859213.013 8      -530.745          48.000  
R21  22454649.352 5 120158891.339 5     -3936.453          31.000    22454648.961 4  93456980.47924     -3061.686          26.000  
E36  23305530.812 8 122471407.543 8       535.223          51.000    23305534.555 8  93841762.243 8       410.121          51.000  
E25  25427283.383 8 133621263.927 8     -2092.953          49.000    25427289.094 8 102385130.466 8     -1603.665          51.000  
E02  23209356.117 8 121965987.903 8       201.691          51.000    23209355.906 8  93454467.410 8       154.570          51.000  
C24  22156640.461 7 115375445.307 7       718.816          45.000                                                                  
C12  22975400.367 8 119639005.163 8      2285.000          50.000    22975397.984 8  92512470.591 8      1766.971          49.000  
C26  22442170.164 8 116862279.697 8     -2219.098          49.000                                                                  
> 2020 05 13 11 40 30.0000000  0 18      -0.000000000000
G18  22382873.430 7 117622846.589 7      3263.898          47.000    22382875.789 7  91654174.129 7      2543.298          47.000  
G21  22336401.602 8 117378592.841 8      2896.922          49.000    22336403.164 7  91463851.851 7      2257.345          43.000  
G02  25025323.547 4 131508962.67424     -2948.434          29.000                                                                  
G14  24341158.305 6 127913642.139 6     -2551.918          38.000    24341160.523 5  99673009.637 5     -1988.517          31.000  
G12  23756892.016 5 124843320.38025     -3076.281          32.000                                                                  
G25  21378631.883 7 112345461.344 7     -2153.617          47.000    21378634.859 7  87541916.599 7     -1678.144          47.000  
G29  20324931.312 8 106808247.144 8      -756.848          51.000    20324930.789 8  83227215.282 8      -589.755          51.000  
R11  22061080.508 8 117887326.936 8     -3661.223          48.000    22061081.898 6  91690140.698 6     -2847.621          41.000  
R23  21347363.242 8 114193666.635 8      3550.141          48.000    21347367.953 6  88817231.264 6      2761.221          39.000  
R22  19190640.359 8 102440567.100 8      -854.406          49.000    19190643.914 8  79676072.482 8      -664.538          49.000  
R12  19225153.609 8 102696916.573 8      -703.324          51.000    19225155.227 8  79875396.612 8      -547.033          48.000  
R21  22476733.750 5 120277057.718 5     -3940.742          32.000    22476731.594 4  93548888.100 4     -3065.025          25.000  
E36  23302516.531 8 122455568.374 8       522.199          51.000    23302520.258 8  93829625.721 8       400.133          51.000  
E25  25439253.617 8 133684166.158 8     -2099.195          50.000    25439258.547 8 102433328.240 8     -1608.403          51.000  
E02  23208232.758 8 121960085.302 8       193.242          51.000    23208232.883 8  93449944.638 8       148.021          51.000  
C24  22152543.016 7 115354108.267 7       705.137          45.000                                                                  
C12  22962267.422 8 119570613.492 8      2275.801          50.000    22962265.016 8  92459585.854 8      1759.767          51.000  
C26  22454989.078 8 116929034.689 8     -2229.891          49.000                                                                  
> 2020 05 13 11 41  0.0000000  0 17      -0.000000000000
G18  22364270.625 7 117525089.520 7      3256.008          46.000    22364273.047 7  91577999.815 7      2537.150          46.000  
G21  22319897.547 8 117291865.134 8      2887.809          48.000    22319897.094 6  91396271.888 6      2250.244          41.000  
G14  24355747.391 6 127990309.093 6     -2556.320          39.000    24355750.008 5  99732750.131 5     -1991.935          31.000  
G25  21390958.156 7 112410234.108 7     -2161.664          46.000    21390960.891 7  87592388.853 7     -1684.417          47.000  
G29  20329292.703 8 106831166.238 8      -768.207          51.000    20329292.289 8  83245074.332 8      -598.603          51.000  
R11  22081667.961 7 117997344.106 7     -3670.426          47.000    22081670.297 7  91775709.551 7     -2854.779          44.000  
R23  21327494.453 8 114087381.504 8      3538.301          49.000    21327498.883 6  88734565.092 6      2752.015          37.000  
R22  19195509.758 8 102466557.928 8      -875.453          49.000    19195512.773 8  79696287.569 8      -680.908          49.000  
R12  19229167.617 8 102718359.090 8      -723.297          51.000    19229169.109 7  79892074.124 7      -562.564          47.000  
R21  22498847.047 4 120395479.458 4     -3943.949          29.000                                                                  
E36  23299576.797 8 122440119.678 8       510.395          51.000    23299580.227 8  93817788.395 8       391.106          51.000  
E25  25451259.375 8 133747253.203 8     -2103.898          51.000    25451263.172 8 102481667.650 8     -1612.121          50.000  
E11  24688531.523 5 129739108.089 5     -2159.273          33.000                                                                  
E02  23207158.445 8 121954439.608 8       185.938          51.000    23207158.586 8  93445618.706 8       142.454          51.000  
C24  22148525.242 7 115333187.337 7       692.340          44.000                                                                  
C12  22949187.781 8 119502502.523 8      2267.734          48.000    22949185.703 8  92406918.159 8      1753.472          51.000  
C26  22467871.875 8 116996119.354 8     -2239.645          50.000                                                                  
> 2020 05 13 11 41 30.0000000  0 16      -0.000000000000
G18  22345723.680 7 117427625.349 7      3242.871          47.000    22345725.922 7  91502053.724 7      2526.916          47.000  
G21  22303455.773 8 117205463.116 8      2873.711          49.000    22303454.195 7  91328945.718 7      2239.259          43.000  
G14  24370371.305 6 128067158.378 6     -2565.570          39.000    24370374.156 4  99792632.622 4     -1999.149          29.000  
G25  21403341.016 7 112475306.263 7     -2175.125          45.000    21403343.523 7  87643094.410 7     -1694.903          45.000  
G29  20333729.617 8 106854482.188 8      -784.746          51.000    20333729.305 8  83263242.607 8      -611.491          51.000  
R11  22102317.195 7 118107690.156 7     -3684.672          46.000    22102320.961 7  91861534.208 7     -2865.860          45.000  
R23  21307702.547 8 113981511.142 8      3521.125          48.000    21307705.992 5  88652221.593 5      2738.656          35.000  
R22  19200507.672 8 102493235.496 8      -901.574          50.000    19200510.719 8  79717036.799 8      -701.225          49.000  
R12  19233304.406 8 102740457.930 8      -748.652          51.000    19233306.172 8  79909262.109 8      -582.285          48.000  
E36  23296715.234 8 122425081.945 8       493.395          51.000    23296718.836 8  93806265.984 8       378.035          51.000  
E25  25463304.367 8 133810545.450 8     -2114.172          51.000    25463307.430 8 102530164.279 8     -1619.924          51.000  
E11  24700896.031 5 129804083.280 5     -2170.867          32.000                                                                  
E02  23206137.062 8 121949072.236 8       173.324          51.000    23206137.125 8  93441506.051 8       132.855          51.000  
C24  22144591.086 7 115312704.070 7       674.480          45.000                                                                  
C12  22936165.047 7 119434693.371 7      2254.359          47.000    22936164.141 8  92354483.847 8      1743.184          51.000  
C26  22480822.172 8 117063553.024 8     -2254.473          51.000                                                                  
> 2020 05 13 11 42  0.0000000  0 15      -0.000000000000
G18  22327248.195 8 117330534.633 8      3231.137          49.000    22327249.891 7  91426398.647 7      2517.773          46.000  
G21  22287091.586 8 117119466.939 8      2860.770          49.000    22287090.617 7  91261935.756 7      2229.175          45.000  
G14  24385044.234 6 128144264.631 6     -2573.238          37.000    24385046.703 5  99852715.372 5     -2005.124          31.000  
G25  21415795.359 7 112540755.038 7     -2186.770          44.000    21415798.086 7  87694093.427 7     -1703.977          44.000  
G29  20338256.422 8 106878271.313 8      -799.875          51.000    20338256.039 8  83281779.586 8      -623.276          51.000  
R11  22123042.875 7 118218442.486 7     -3697.484          47.000    22123047.188 7  91947674.873 7     -2875.822          46.000  
R23  21288002.094 8 113876137.000 8      3505.250          48.000    21288006.383 6  88570264.025 6      2726.306          36.000  
R22  19205648.664 8 102520676.663 8      -926.371          51.000    19205651.281 8  79738379.902 8      -720.511          50.000  
R12  19237579.156 8 102763292.874 8      -772.398          51.000    19237581.312 7  79927022.599 7      -600.754          47.000  
E36  23293946.586 8 122410532.871 8       477.785          51.000    23293950.602 8  93795118.008 8       366.146          51.000  
E25  25475402.844 8 133874120.500 8     -2122.844          51.000    25475405.406 8 102578877.572 8     -1626.646          50.000  
E02  23205183.523 8 121944061.806 8       162.047          51.000    23205183.539 8  93437666.886 8       124.190          51.000  
C24  22140755.617 7 115292736.680 7       658.105          44.000                                                                  
C12  22923214.656 7 119367263.889 7      2242.363          45.000    22923215.406 8  92302343.095 8      1733.884          51.000  
C26  22493854.039 8 117131411.688 8     -2267.984          51.000                                                                  
> 2020 05 13 11 42 30.0000000  0 15      -0.000000000000
G18  22308820.992 8 117233696.379 8      3224.488          50.000    22308821.594 7  91350940.307 7      2512.589          45.000  
G21  22270781.508 8 117033755.163 8      2853.027          49.000    22270781.430 7  91195147.403 7      2223.142          45.000  
G14  24399741.953 6 128221501.364 6     -2576.141          36.000    24399744.578 5  99912899.786 5     -2007.395          33.000  
G25  21428297.828 7 112606456.209 7     -2193.492          45.000    21428300.445 7  87745289.161 7     -1709.212          45.000  
G29  20342849.516 8 106902408.610 8      -809.637          51.000    20342849.141 8  83300587.867 8      -630.886          51.000  
R11  22143820.914 7 118329472.923 7     -3704.793          47.000    22143825.008 7  92034031.853 7     -2881.506          46.000  
R23  21268371.586 8 113771135.687 8      3494.590          49.000    21268377.992 6  88488596.379 6      2718.018          38.000  
R22  19210908.648 8 102548753.321 8      -945.672          51.000    19210911.156 8  79760217.311 8      -735.523          51.000  
R12  19241968.172 8 102786738.727 8      -790.961          51.000    19241970.516 7  79945258.256 7      -615.192          47.000  
E36  23291247.523 8 122396348.612 8       467.422          51.000    23291251.414 8  93784249.557 8       358.167          51.000  
E25  25487531.141 8 133937854.363 8     -2126.281          51.000    25487533.086 8 102627712.535 8     -1629.328          50.000  
E02  23204274.500 8 121939285.456 8       155.992          51.000    23204274.602 8  93434007.081 8       119.530          51.000  
C24  22136995.688 7 115273163.757 7       646.547          44.000                                                                  
C12  22910314.023 7 119300092.060 7      2235.316          45.000    22910316.312 8  92250401.601 8      1728.573          51.000  
C26  22506943.320 8 117199571.623 8     -2276.250          49.000                                                                  
> 2020 05 13 11 43  0.0000000  0 15      -0.000000000000
G18  22290446.578 8 117137136.044 8      3212.805          50.000    22290446.312 7  91275698.547 7      2503.488          44.000  
G21  22254529.875 8 116948352.461 8      2840.398          48.000    22254530.398 7  91128599.882 7      2213.301          45.000  
G14  24414468.156 5 128298888.215 5     -2583.406          31.000    24414471.070 3  99973201.256 3     -2013.023          23.000  
G25  21440852.352 7 112672432.048 7     -2204.781          43.000    21440855.062 7  87796698.865 7     -1718.012          43.000  
G29  20347513.156 8 106926915.881 8      -824.215          51.000    20347512.836 8  83319684.429 8      -642.246          51.000  
R11  22164654.703 7 118440802.346 7     -3717.145          47.000    22164658.969 7  92120621.338 7     -2891.116          45.000  
R23  21248817.367 8 113666532.410 8      3478.965          51.000    21248823.906 6  88407238.301 6      2705.862          39.000  
R22  19216291.625 8 102577486.274 8      -969.844          51.000    19216293.859 8  79782565.145 8      -754.323          50.000  
R12  19246475.844 8 102810818.819 8      -814.457          51.000    19246478.492 7  79963987.195 7      -633.467          47.000  
E36  23288622.078 8 122382551.770 8       452.266          51.000    23288625.875 8  93773677.955 8       346.556          51.000  
E25  25499693.672 8 134001769.489 8     -2134.719          50.000    25499695.602 8 102676686.404 8     -1635.695          49.000  
E02  23203414.438 8 121934766.723 8       145.117          51.000    23203414.766 8  93430544.666 8       111.212          51.000  
C24  22133316.359 7 115254008.855 7       630.391          44.000                                                                  
C12  22897467.773 7 119233201.169 7      2223.879          44.000    22897470.727 8  92198677.358 8      1719.620          51.000  
C26  22520094.336 8 117268054.279 8     -2289.355          48.000                                                                  
> 2020 05 13 11 43 30.0000000  0 16      -0.000000000000
G18  22272128.852 8 117040875.282 8      3203.719          49.000    22272128.680 7  91200690.217 7      2496.408          46.000  
G21  22238340.914 8 116863280.160 8      2830.320          48.000    22238341.375 7  91062309.815 7      2205.445          45.000  
G02  25127068.430 4 132043635.65024     -2988.496          29.000                                                                  
G14  24429225.734 5 128376440.866 5     -2586.652          30.000                                                                  
G25  21453462.617 7 112738700.880 7     -2213.598          44.000    21453465.922 7  87848336.853 7     -1724.885          45.000  
G29  20352250.539 8 106951810.508 8      -836.277          51.000    20352250.188 8  83339082.846 8      -651.645          51.000  
R11  22185547.562 7 118552448.154 7     -3726.781          46.000    22185551.922 7  92207456.881 7     -2898.614          44.000  
R23  21229342.516 8 113562349.034 8      3465.789          51.000    21229348.484 6  88326206.844 6      2695.617          40.000  
R22  19221800.344 8 102606892.324 8      -991.453          51.000    19221802.711 8  79805436.532 8      -771.130          51.000  
R12  19251106.102 8 102835552.904 8      -835.367          51.000    19251108.789 7  79983224.792 7      -649.730          47.000  
E36  23286073.891 8 122369161.095 8       439.543          51.000    23286077.906 8  93763417.592 8       336.796          51.000  
E25  25511893.953 8 134065884.524 8     -2140.539          49.000    25511896.523 8 102725813.495 8     -1640.163          50.000  
E02  23202607.250 8 121930525.353 8       136.738          51.000    23202607.703 8  93427294.773 8       104.744          51.000  
C24  22129721.875 7 115235291.836 7       616.562          45.000                                                                  
C12  22884679.688 7 119166610.753 7      2214.719          46.000    22884682.102 8  92147185.409 8      1712.474          51.000  
C26  22533311.156 8 117336877.273 8     -2299.797          48.000                                                                  
> 2020 05 13 11 44  0.0000000  0 16      -0.000000000000
G18  22253867.195 8 116944910.734 8      3196.219          49.000    22253867.695 7  91125912.680 7      2490.561          46.000  
G21  22222214.148 7 116778534.740 7      2821.645          47.000    22222214.023 7  90996274.483 7      2198.685          44.000  
G14  24444013.945 5 128454158.996 5     -2591.227          31.000                                                                  
G25  21466127.695 7 112805256.141 7     -2221.023          45.000    21466130.844 7  87900198.058 7     -1730.671          45.000  
G29  20357060.234 8 106977084.886 8      -846.352          51.000    20357059.742 8  83358777.167 8      -659.498          51.000  
R11  22206497.172 7 118664401.843 7     -3734.355          43.000    22206502.109 6  92294531.834 6     -2904.502          41.000  
R23  21209945.188 8 113458581.534 8      3454.480          51.000    21209951.133 7  88245498.829 7      2686.819          42.000  
R22  19227433.750 8 102636963.298 8     -1010.949          51.000    19227436.172 8  79828825.049 8      -786.297          51.000  
R12  19255857.766 8 102860935.164 8      -854.352          51.000    19255860.492 8  80002966.531 8      -664.499          48.000  
R21  22632150.609 5 121108770.96425     -3975.297          31.000                                                                  
E36  23283601.812 8 122356170.394 8       428.738          51.000    23283605.742 8  93753463.693 8       328.538          51.000  
E25  25524130.758 7 134130193.226 7     -2144.430          47.000    25524134.414 8 102775088.972 8     -1643.132          50.000  
E02  23201851.930 8 121926556.092 8       130.219          51.000    23201852.297 8  93424253.388 8        99.775          51.000  
C24  22126210.945 7 115217007.808 7       604.699          45.000                                                                  
C12  22871948.922 8 119100315.498 8      2207.340          48.000    22871950.297 8  92095921.707 8      1706.853          51.000  
C26  22546591.594 8 117406033.511 8     -2308.344          48.000                                                                  
> 2020 05 13 11 44 30.0000000  0 16      -0.000000000000
G18  22235657.859 7 116849222.658 7      3182.688          47.000    22235659.297 7  91051350.564 7      2480.017          47.000  
G21  22206145.758 7 116694095.381 7      2807.082          47.000    22206145.102 7  90930477.653 7      2187.340          44.000  
G14  24458826.891 5 128532000.605 5     -2599.363          33.000                                                                  
G25  21478843.109 7 112872074.771 7     -2234.211          45.000    21478845.648 7  87952264.508 7     -1740.944          45.000  
G29  20361937.688 8 107002715.654 8      -862.695          51.000    20361937.164 8  83378749.202 8      -672.230          51.000  
R11  22227499.719 7 118776638.445 7     -3748.105          46.000    22227505.102 6  92381826.894 6     -2915.197          40.000  
R23  21190621.555 8 113355209.569 8      3436.664          50.000    21190627.609 7  88165098.421 7      2672.961          42.000  
R22  19233186.695 8 102667673.604 8     -1036.684          51.000    19233189.328 8  79852710.848 8      -806.310          51.000  
R12  19260726.500 8 102886943.236 8      -879.711          51.000    19260729.391 8  80023195.028 8      -684.220          49.000  
R21  22654464.820 5 121228210.95025     -3983.137          35.000                                                                  
E36  23281201.445 8 122343557.051 8       411.672          51.000    23281204.891 8  93743798.936 8       315.476          51.000  
E25  25536400.352 8 134194672.878 8     -2154.496          48.000    25536404.594 8 102824495.437 8     -1650.900          51.000  
E02  23201144.203 8 121922837.323 8       117.395          51.000    23201144.656 8  93421403.949 8        89.940          51.000  
C24  22122778.641 7 115199135.670 7       586.535          44.000                                                                  
C12  22859270.914 8 119034293.816 8      2193.809          49.000    22859271.312 8  92044869.589 8      1696.299          51.000  
C26  22559931.625 8 117475499.539 8     -2323.012          49.000                                                                  
> 2020 05 13 11 45  0.0000000  0 17      -0.000000000000
G18  22217513.477 8 116753875.774 8      3175.039          48.000    22217515.883 8  90977054.319 8      2474.060          48.000  
G21  22190148.062 7 116610026.717 7      2798.582          47.000    22190147.188 7  90864969.677 7      2180.717          44.000  
G14  24473676.234 5 128610032.932 5     -2601.203          35.000    24473678.727 5 100215622.378 5     -2026.912          33.000  
G12  23915991.367 5 125679382.66725     -3114.391          31.000                                                                  
G25  21491620.352 7 112939218.290 7     -2240.992          44.000    21491622.516 7  88004584.115 7     -1746.228          44.000  
G29  20366894.453 8 107028763.436 8      -872.715          51.000    20366894.117 8  83399046.181 8      -680.038          51.000  
R11  22248568.031 7 118889218.820 7     -3755.816          47.000    22248573.148 6  92469389.349 6     -2921.191          41.000  
R23  21171383.359 8 113252298.684 8      3425.281          48.000    21171389.812 6  88085056.643 6      2664.108          41.000  
R22  19239070.859 8 102699083.898 8     -1056.098          51.000    19239073.625 8  79877141.063 8      -821.409          51.000  
R12  19265724.297 8 102913640.423 8      -898.824          51.000    19265727.312 8  80043959.507 8      -699.086          49.000  
R21  22676804.992 5 121347710.043 5     -3985.422          32.000                                                                  
E36  23278884.656 8 122331382.835 8       401.062          51.000    23278887.719 8  93734470.666 8       307.308          51.000  
E25  25548714.930 8 134259385.168 8     -2158.363          50.000    25548719.281 8 102874080.177 8     -1653.875          51.000  
E02  23200496.117 8 121919431.899 8       110.777          51.000    23200496.773 8  93418794.588 8        84.890          51.000  
C24  22119437.086 7 115181737.863 7       574.398          45.000                                                                  
C12  22846657.156 8 118968607.859 8      2186.344          49.000    22846656.953 8  91994077.057 8      1690.665          51.000  
C26  22573342.984 8 117545335.727 8     -2331.562          50.000                                                                  
> 2020 05 13 11 45 30.0000000  0 16      -0.000000000000
G18  22199429.453 8 116658844.716 8      3164.266          49.000    22199432.266 8  90903004.162 8      2465.662          48.000  
G21  22174216.125 8 116526302.794 8      2786.914          48.000    22174215.109 7  90799730.325 7      2171.625          44.000  
G14  24488556.312 6 128688225.030 6     -2606.895          36.000                                                                  
G25  21504453.961 7 113006658.041 7     -2250.891          44.000    21504455.656 7  88057134.560 7     -1753.941          44.000  
G29  20371924.930 8 107055198.730 8      -885.797          51.000    20371924.711 8  83419645.105 8      -690.232          51.000  
R11  22269695.602 7 119002112.347 7     -3766.348          47.000    22269699.797 7  92557195.357 7     -2929.385          42.000  
R23  21152225.281 8 113149822.537 8      3410.531          48.000    21152232.344 6  88005352.961 6      2652.636          39.000  
R22  19245080.203 8 102731163.020 8     -1078.535          51.000    19245083.008 8  79902091.485 8      -838.864          51.000  
R12  19270845.766 8 102940998.487 8      -920.961          51.000    19270848.953 8  80065238.009 8      -716.303          49.000  
R21  22699170.531 5 121467400.806 5     -3989.910          34.000                                                                  
E36  23276646.086 8 122319619.564 8       387.223          51.000    23276649.172 8  93725457.280 8       296.652          51.000  
E25  25561068.656 8 134324301.786 8     -2165.438          51.000    25561072.695 8 102923821.474 8     -1659.208          51.000  
E02  23199902.562 8 121916312.504 8       101.051          51.000    23199903.516 8  93416404.393 8        77.450          51.000  
C24  22116181.641 7 115164787.674 7       559.359          45.000                                                                  
C12  22834102.438 8 118903230.469 8      2176.043          49.000    22834101.992 8  91943523.117 8      1682.594          51.000  
C26  22586820.289 8 117615513.016 8     -2343.098          51.000                                                                  
> 2020 05 13 11 46  0.0000000  0 16      -0.000000000000
G18  22181405.797 8 116564130.055 8      3153.523          49.000    22181408.602 8  90829200.561 8      2457.295          48.000  
G21  22158349.859 8 116442923.763 8      2774.957          49.000    22158348.844 7  90734759.704 7      2162.305          43.000  
G14  24503465.844 6 128766571.717 6     -2612.344          36.000    24503467.836 5 100337603.387 5     -2035.593          32.000  
G25  21517343.016 7 113074391.440 7     -2261.105          43.000    21517344.938 7  88109913.784 7     -1761.904          43.000  
G29  20377028.492 8 107082018.332 8      -898.863          51.000    20377028.289 8  83440543.493 8      -700.413          51.000  
R11  22290880.547 8 119115314.397 8     -3776.996          48.000    22290884.094 7  92645241.369 7     -2937.667          43.000  
R23  21133149.195 8 113047781.094 8      3395.699          49.000    21133155.250 6  87925987.428 6      2641.103          38.000  
R22  19251214.078 8 102763906.939 8     -1100.961          51.000    19251217.164 8  79927558.990 8      -856.300          50.000  
R12  19276090.586 8 102969015.764 8      -943.312          51.000    19276093.805 8  80087029.226 8      -733.688          48.000  
R21  22721561.953 5 121587210.506 5     -3995.211          32.000                                                                  
E36  23274485.211 8 122308264.875 8       373.281          51.000    23274488.148 8  93716756.967 8       286.036          51.000  
E25  25573460.680 8 134389420.361 8     -2172.281          50.000    25573464.164 8 102973717.533 8     -1664.545          51.000  
E02  23199363.172 8 121913477.854 8        91.293          51.000    23199364.406 8  93414232.380 8        69.952          51.000  
C24  22113012.117 7 115148284.011 7       544.215          45.000                                                                  
C12  22821606.547 8 118838160.283 8      2165.426          49.000    22821606.156 8  91893206.736 8      1674.460          51.000  
C26  22600362.781 8 117686028.225 8     -2354.574          51.000                                                                  
> 2020 05 13 11 46 30.0000000  0 16      -0.000000000000
G18  22163441.445 8 116469727.418 8      3140.840          48.000    22163444.180 7  90755640.104 7      2447.411          46.000  
G21  22142548.281 8 116359884.652 8      2761.738          49.000    22142547.430 7  90670053.943 7      2152.004          44.000  
G14  24518403.117 6 128845063.118 6     -2619.195          36.000                                                                  
G25  21530286.609 7 113142410.656 7     -2272.684          45.000    21530288.359 7  88162915.765 7     -1770.923          45.000  
G29  20382203.562 8 107109213.633 8      -913.312          51.000    20382203.422 8  83461734.618 8      -711.672          51.000  
R11  22312120.891 7 119228815.960 7     -3788.961          47.000    22312125.055 7  92733520.312 7     -2946.970          43.000  
R23  21114154.484 8 112946169.469 8      3379.207          51.000    21114159.742 6  87846956.239 6      2628.276          38.000  
R22  19257470.641 8 102797305.403 8     -1124.754          51.000    19257473.617 8  79953535.573 8      -874.809          50.000  
R12  19281457.547 8 102997685.190 8      -967.117          51.000    19281460.531 8  80109327.650 8      -752.202          48.000  
R21  22743977.188 5 121707155.914 5     -4000.770          33.000    22743974.094 4  94661168.094 4     -3111.707          25.000  
E36  23272400.742 8 122297311.469 8       357.777          51.000    23272402.953 8  93708364.120 8       274.198          51.000  
E25  25585889.586 8 134454733.552 8     -2181.008          50.000    25585892.766 8 103023762.668 8     -1671.208          50.000  
E02  23198876.727 8 121910921.654 8        79.910          51.000    23198878.094 8  93412273.729 8        61.251          51.000  
C24  22109927.289 7 115132220.893 7       527.449          47.000                                                                  
C12  22809168.547 8 118773390.792 8      2153.305          49.000    22809167.852 8  91843122.892 8      1665.136          51.000  
C26  22613968.867 8 117756873.109 8     -2367.594          51.000                                                                  
> 2020 05 13 11 47  0.0000000  0 16      -0.000000000000
G18  22145539.680 8 116375654.875 8      3130.062          48.000    22145542.344 7  90682336.860 7      2439.013          45.000  
G21  22126814.617 8 116277203.141 8      2750.027          50.000    22126814.023 7  90605626.817 7      2142.879          44.000  
G14  24533369.852 5 128923711.342 5     -2624.074          34.000                                                                  
G25  21543287.250 7 113210730.674 7     -2282.297          44.000    21543288.938 7  88216152.141 7     -1778.414          43.000  
G29  20387452.789 8 107136798.695 8      -926.051          51.000    20387452.672 8  83483229.480 8      -721.595          51.000  
R11  22333419.438 7 119342630.239 7     -3799.148          47.000    22333424.227 7  92822042.464 7     -2954.897          44.000  
R23  21095243.688 8 112845005.479 8      3364.621          51.000    21095248.531 6  87768273.234 6      2616.931          38.000  
R22  19263852.266 8 102831371.722 8     -1146.695          51.000    19263855.477 8  79980031.597 8      -891.877          51.000  
R12  19286949.492 8 103027022.363 8      -989.094          51.000    19286952.203 7  80132145.412 7      -769.295          47.000  
R21  22766419.539 5 121827239.288 5     -4004.762          30.000    22766417.367 4  94754571.218 4     -3114.815          28.000  
E36  23270395.570 8 122286774.469 8       344.312          51.000    23270397.148 8  93700290.348 8       263.824          51.000  
E25  25598358.156 8 134520256.355 8     -2187.535          50.000    25598361.484 8 103073968.424 8     -1676.125          50.000  
E02  23198446.305 8 121908660.100 8        70.484          51.000    23198447.570 8  93410540.846 8        54.008          51.000  
C24  22106930.375 7 115116614.616 7       512.492          46.000                                                                  
C12  22796791.055 8 118708937.996 8      2143.145          49.000    22796789.898 8  91793283.925 8      1657.222          51.000  
C26  22627640.828 8 117828061.744 8     -2378.738          51.000                                                                  
> 2020 05 13 11 47 30.0000000  0 15      -0.000000000000
G18  22127719.219 7 116282010.300 7      3116.820          47.000    22127721.562 7  90609367.105 7      2428.692          45.000  
G21  22111167.242 8 116194976.410 8      2735.723          49.000    22111166.938 7  90541554.040 7      2131.733          44.000  
G14  24548381.562 5 129002631.00825     -2632.102          34.000                                                                  
G25  21556362.953 7 113279446.124 7     -2294.703          43.000    21556365.531 7  88269696.623 7     -1788.081          43.000  
G29  20392794.180 8 107164867.636 8      -941.164          51.000    20392793.812 8  83505101.371 8      -733.378          51.000  
R11  22354794.258 7 119456851.894 7     -3811.617          47.000    22354799.422 7  92910881.456 7     -2964.595          44.000  
R23  21076434.977 8 112744388.753 8      3347.168          50.000    21076439.406 6  87690015.847 6      2603.353          39.000  
R22  19270376.828 8 102866200.186 8     -1171.121          51.000    19270380.125 8  80007120.402 8      -910.872          51.000  
R12  19292584.578 8 103057124.706 8     -1013.711          51.000    19292586.898 7  80155558.302 7      -788.442          46.000  
E36  23268487.680 8 122276748.905 8       328.078          51.000    23268489.266 8  93692608.448 8       251.385          51.000  
E25  25610884.289 8 134586083.713 8     -2196.957          49.000    25610888.211 8 103124407.563 8     -1683.399          50.000  
E02  23198090.203 8 121906789.194 8        58.227          51.000    23198091.406 8  93409107.299 8        44.615          51.000  
C24  22104039.477 7 115101560.527 7       494.941          47.000                                                                  
C12  22784491.852 8 118644896.911 8      2130.230          49.000    22784491.234 8  91743763.321 8      1647.224          51.000  
C26  22641396.008 8 117899687.270 8     -2392.359          51.000                                                                  
> 2020 05 13 11 48  0.0000000  0 15      -0.000000000000
G18  22109938.430 7 116188571.887 7      3109.195          47.000    22109940.289 7  90536558.008 7      2422.753          45.000  
G21  22095564.055 8 116112982.435 8      2727.227          49.000    22095563.906 7  90477662.619 7      2125.112          44.000  
G14  24563402.211 5 129081552.51625     -2632.980          33.000                                                                  
G25  21569471.258 7 113348331.892 7     -2300.945          43.000    21569474.484 7  88323373.817 7     -1792.948          43.000  
G29  20398184.688 8 107193194.773 8      -950.523          51.000    20398184.164 8  83527174.470 8      -740.668          51.000  
R11  22376202.609 8 119571250.376 8     -3818.289          48.000    22376208.086 7  92999857.986 7     -2969.784          45.000  
R23  21057685.047 7 112644092.785 7      3335.633          46.000    21057690.750 6  87612007.903 6      2594.382          40.000  
R22  19277000.891 8 102901560.239 8     -1189.594          51.000    19277003.992 8  80034622.657 8      -925.240          51.000  
R12  19298320.367 8 103087763.996 8     -1032.320          51.000    19298322.250 7  80179388.832 7      -802.916          47.000  
E36  23266634.281 8 122267010.039 8       317.812          51.000    23266636.242 8  93685146.225 8       243.516          51.000  
E25  25623425.039 7 134651990.962 7     -2200.289          47.000    25623430.211 8 103174907.881 8     -1685.967          49.000  
E02  23197766.039 8 121905085.298 8        51.934          51.000    23197767.172 8  93407801.720 8        39.763          51.000  
C24  22101212.336 8 115086837.239 8       483.223          48.000                                                                  
C12  22772229.266 8 118581045.744 8      2123.324          49.000    22772229.133 8  91694389.578 8      1641.729          50.000  
C26  22655191.531 8 117971526.105 8     -2400.137          51.000                                                                  
> 2020 05 13 11 48 30.0000000  0 15      -0.000000000000
G18  22092224.164 8 116095480.488 8      3098.102          49.000    22092225.906 7  90464019.300 7      2414.106          47.000  
G31  21131324.281 6 111045859.91726       127.980          36.000                                                                  
G21  22080032.086 8 116031361.194 8      2715.273          49.000    22080031.797 7  90414061.659 7      2115.798          43.000  
G25  21582638.562 7 113417525.632 7     -2310.988          45.000    21582641.508 7  88377290.995 7     -1800.771          45.000  
G29  20403650.336 8 107221916.745 8      -963.266          51.000    20403649.859 8  83549555.218 8      -750.597          51.000  
R11  22397670.492 8 119685964.168 8     -3828.180          50.000    22397675.930 7  93089079.720 7     -2977.477          46.000  
R23  21039020.914 7 112544260.425 7      3320.746          44.000    21039029.422 6  87534360.471 6      2582.800          41.000  
R22  19283750.430 8 102937589.515 8     -1211.305          51.000    19283753.508 8  80062645.419 8      -942.126          51.000  
R12  19304182.711 8 103119080.888 8     -1054.305          50.000    19304185.195 8  80203746.399 8      -820.018          49.000  
E36  23264861.711 8 122257695.735 8       304.246          51.000    23264864.109 8  93678009.295 8       233.157          51.000  
E25  25636007.656 8 134718115.807 8     -2206.852          48.000    25636013.141 8 103225574.939 8     -1690.977          48.000  
E02  23197500.016 8 121903687.271 8        42.344          51.000    23197501.258 8  93406730.515 8        32.439          51.000  
C24  22098475.055 8 115072582.608 8       468.020          48.000                                                                  
C12  22760030.391 8 118517521.935 8      2112.754          50.000    22760030.219 8  91645268.975 8      1633.737          50.000  
C26  22669053.883 8 118043713.903 8     -2411.230          51.000                                                                  
> 2020 05 13 11 49  0.0000000  0 15      -0.000000000000
G18  22074566.766 8 116002686.474 8      3088.348          50.000    22074568.430 7  90391712.318 7      2406.509          47.000  
G31  21130652.594 6 111042318.788 6       109.234          38.000    21130650.969 6  86526469.940 6        85.118          37.000  
G21  22064561.680 8 115950062.893 8      2704.754          50.000    22064560.820 7  90350712.362 7      2107.604          43.000  
G25  21595854.711 7 113486974.492 7     -2318.914          46.000    21595856.797 7  88431406.950 7     -1806.947          46.000  
G29  20409180.875 8 107250979.898 8      -974.191          51.000    20409180.531 8  83572201.815 8      -759.110          51.000  
R11  22419187.156 8 119800937.606 8     -3836.547          50.000    22419191.977 7  93178503.453 7     -2983.985          47.000  
R23  21020434.773 7 112444840.726 7      3307.320          46.000    21020444.805 6  87457033.997 6      2572.361          41.000  
R22  19290614.906 8 102974232.424 8     -1231.449          51.000    19290618.180 8  80091145.468 8      -957.794          51.000  
R12  19310161.945 8 103151022.168 8     -1074.879          49.000    19310165.281 8  80228589.623 8      -836.014          49.000  
E36  23263159.883 8 122248753.538 8       291.969          51.000    23263162.734 8  93671157.482 8       223.752          51.000  
E25  25648622.695 8 134784405.834 8     -2212.324          50.000    25648627.266 7 103276368.572 7     -1695.146          47.000  
E02  23197282.180 8 121902543.777 8        34.035          51.000    23197283.766 8  93405854.327 8        26.061          51.000  
C24  22095817.930 8 115058745.838 8       454.477          49.000                                                                  
C12  22747884.797 8 118454274.407 8      2103.930          49.000    22747884.375 8  91596362.013 8      1626.823          49.000  
C26  22682973.375 8 118116197.695 8     -2420.840          51.000                                                                  
> 2020 05 13 11 49 30.0000000  0 16      -0.000000000000
G18  22056951.727 8 115910116.069 8      3073.465          50.000    22056952.883 7  90319579.564 7      2394.908          46.000  
G31  21130068.305 6 111039245.701 6        86.086          38.000    21130067.031 6  86524075.297 6        67.080          38.000  
G21  22049138.492 8 115869012.895 8      2689.113          51.000    22049136.844 7  90287556.556 7      2095.414          42.000  
G25  21609104.750 7 113556601.429 7     -2332.250          46.000    21609106.250 7  88485661.661 7     -1817.341          45.000  
G29  20414761.445 8 107280306.632 8      -990.379          51.000    20414761.133 8  83595053.820 8      -771.724          51.000  
R11  22440736.773 8 119916091.071 8     -3849.895          50.000    22440741.398 7  93268067.190 7     -2994.366          47.000  
R23  21001913.117 8 112345757.950 8      3288.590          49.000    21001922.156 6  87379969.604 6      2557.793          39.000  
R22  19297579.344 8 103011408.473 8     -1256.574          51.000    19297582.422 8  80120060.171 8      -977.336          51.000  
R12  19316243.758 8 103183510.348 8     -1100.582          50.000    19316247.570 8  80253858.240 8      -856.005          50.000  
R21  22878946.883 5 122429404.648 5     -4026.184          35.000    22878941.664 4  95222887.777 4     -3131.480          27.000  
E36  23261514.188 8 122240106.646 8       275.027          51.000    23261517.469 8  93664531.941 8       210.717          51.000  
E25  25661254.789 8 134850784.225 8     -2222.406          50.000    25661258.352 8 103327229.905 8     -1702.755          48.000  
E02  23197098.469 8 121901579.006 8        20.922          51.000    23197100.195 8  93405115.087 8        15.995          51.000  
C24  22093226.844 8 115045252.118 8       435.773          49.000                                                                  
C12  22735777.438 8 118391227.924 8      2089.930          48.000    22735777.336 8  91547610.499 8      1616.073          50.000  
C26  22696935.234 8 118188900.488 8     -2435.340          51.000                                                                  
> 2020 05 13 11 50  0.0000000  0 16      -0.000000000000
G18  22039434.688 8 115818061.967 8      3063.262          50.000    22039435.148 7  90247849.120 7      2386.958          45.000  
G31  21129628.195 6 111036930.996 6        68.375          38.000    21129626.797 6  86522271.633 6        53.279          38.000  
G21  22033818.109 8 115788503.507 8      2677.992          50.000    22033816.188 7  90224822.003 7      2086.748          43.000  
G25  21622443.414 7 113626695.873 7     -2340.781          44.000    21622444.859 7  88540280.655 7     -1823.986          44.000  
G29  20420447.266 8 107310185.603 8     -1001.719          51.000    20420446.711 8  83618336.120 8      -780.560          51.000  
R11  22462374.055 7 120031716.790 7     -3858.590          47.000    22462379.305 7  93357998.256 7     -3001.129          47.000  
R23  20983510.898 8 112247309.691 8      3274.578          51.000    20983516.797 6  87303398.777 6      2546.895          38.000  
R22  19304698.188 8 103049409.829 8     -1276.953          51.000    19304701.602 8  80149616.799 8      -993.186          50.000  
R12  19322483.086 8 103216840.473 8     -1121.453          50.000    19322487.461 8  80279781.682 8      -872.242          51.000  
R21  22901524.508 5 122550232.613 5     -4028.820          34.000    22901521.508 4  95316865.022 4     -3133.534          25.000  
E36  23259979.953 8 122232044.873 8       262.492          50.000    23259983.617 8  93658354.723 8       201.136          51.000  
E25  25673958.297 8 134917540.777 8     -2228.086          48.000    25673961.922 8 103378381.000 8     -1707.334          49.000  
E02  23197004.375 8 121901083.896 8        12.109          51.000    23197005.836 8  93404735.719 8         9.309          51.000  
C24  22090756.883 8 115032389.869 8       421.648          50.000                                                                  
C12  22723763.578 7 118328670.564 7      2080.520          47.000    22723764.539 8  91499237.239 8      1608.835          51.000  
C26  22710994.305 8 118262108.404 8     -2445.227          51.000                                                                  
> 2020 05 13 11 50 30.0000000  0 16      -0.000000000000
G18  22021975.516 8 115726313.418 8      3052.320          50.000    22021975.484 7  90176356.789 7      2378.432          44.000  
G31  21129291.703 6 111035161.622 6        49.156          37.000    21129290.188 6  86520892.866 6        38.301          36.000  
G21  22018560.414 8 115708323.471 8      2666.258          51.000    22018558.586 7  90162344.090 7      2077.604          44.000  
G25  21635830.266 7 113697043.853 7     -2349.965          44.000    21635832.000 7  88595097.238 7     -1831.142          44.000  
G29  20426197.336 8 107340401.980 8     -1013.688          51.000    20426196.570 8  83641881.350 8      -789.884          51.000  
R11  22484058.359 7 120147595.868 7     -3867.828          46.000    22484064.375 7  93448126.395 7     -3008.311          46.000  
R23  20965186.461 8 112149280.775 8      3259.781          51.000    20965189.859 6  87227154.147 6      2535.389          38.000  
R22  19311930.750 8 103088017.126 8     -1297.836          51.000    19311933.789 8  80179644.675 8     -1009.428          50.000  
R12  19328839.727 8 103250795.612 8     -1143.105          51.000    19328844.359 8  80306191.231 8      -889.082          50.000  
R21  22924116.789 5 122671133.338 5     -4032.156          35.000    22924114.547 4  95410898.881 4     -3136.125          25.000  
E36  23258516.445 8 122224354.477 8       249.328          50.000    23258520.516 8  93652462.078 8       191.026          51.000  
E25  25686692.375 7 134984461.673 7     -2234.332          45.000    25686696.875 8 103429658.001 8     -1711.896          49.000  
E02  23196959.297 8 121900845.795 8         2.828          51.000    23196960.367 8  93404553.296 8         2.140          51.000  
C24  22088367.898 8 115019948.560 8       406.945          50.000                                                                  
C12  22711802.945 7 118266391.535 7      2070.484          47.000    22711805.141 8  91451079.155 8      1601.063          51.000  
C26  22725109.070 8 118335608.842 8     -2455.730          50.000                                                                  
> 2020 05 13 11 51  0.0000000  0 16      -0.000000000000
G18  22004583.320 8 115634917.482 8      3041.090          51.000    22004582.375 7  90105139.227 7      2369.684          43.000  
G31  21129066.469 5 111033982.064 5        29.496          35.000    21129065.086 5  86519973.770 5        22.984          35.000  
G21  22003374.359 8 115628519.333 8      2654.285          51.000    22003372.312 7  90100159.070 7      2068.278          44.000  
G25  21649273.555 7 113767689.280 7     -2359.480          45.000    21649276.016 7  88650145.568 7     -1838.560          45.000  
G29  20432019.703 8 107370998.768 8     -1025.852          51.000    20432018.922 8  83665723.017 8      -799.362          51.000  
R11  22505798.461 7 120263771.051 7     -3877.008          46.000    22505804.117 7  93538484.834 7     -3015.454          44.000  
R23  20946948.508 8 112051718.576 8      3244.734          51.000    20946950.844 6  87151272.456 6      2523.683          39.000  
R22  19319284.602 8 103127272.882 8     -1318.898          51.000    19319287.625 8  80210176.941 8     -1025.810          50.000  
R12  19335321.898 8 103285420.982 8     -1164.953          51.000    19335326.414 8  80333122.074 8      -906.078          49.000  
R21  22946730.562 5 122792148.438 5     -4035.305          35.000                                                                  
E36  23257132.188 8 122217079.592 8       236.027          51.000    23257136.211 8  93646887.803 8       180.840          51.000  
E25  25699466.008 7 135051591.123 7     -2240.758          47.000    25699471.203 8 103481094.827 8     -1716.930          50.000  
E02  23196971.586 8 121900909.916 8        -6.695          51.000    23196972.469 8  93404602.439 8        -5.163          51.000  
C24  22086068.398 8 115007973.110 8       391.828          51.000                                                                  
C12  22699904.227 7 118204435.389 7      2060.203          46.000    22699907.484 8  91403170.719 8      1593.198          51.000  
C26  22739287.430 8 118409444.523 8     -2466.328          49.000                                                                  
> 2020 05 13 11 51 30.0000000  0 16      -0.000000000000
G18  21987254.766 8 115543855.861 8      3029.645          50.000    21987253.352 7  90034182.168 7      2360.763          44.000  
G31  21128949.836 6 111033371.898 6        10.879          38.000    21128947.734 6  86519498.321 6         8.480          39.000  
G21  21988256.367 8 115549072.421 8      2642.086          51.000    21988253.891 7  90038252.426 7      2058.772          44.000  
G25  21662769.625 7 113838610.572 7     -2368.992          46.000    21662771.531 7  88705408.898 7     -1845.969          46.000  
G29  20437910.328 8 107401953.990 8     -1037.984          51.000    20437909.422 8  83689843.971 8      -808.819          51.000  
R11  22527589.984 7 120380218.676 7     -3886.270          47.000    22527594.625 7  93629055.114 7     -3022.658          43.000  
R23  20928793.609 8 111954604.298 8      3229.496          50.000    20928796.523 6  87075739.148 6      2511.831          40.000  
R22  19326755.531 8 103167153.092 8     -1339.855          51.000    19326758.328 8  80241194.880 8     -1042.110          49.000  
R12  19341925.070 8 103320695.091 8     -1186.738          51.000    19341929.648 8  80360557.474 8      -923.022          48.000  
R21  22969361.000 5 122913254.101 5     -4038.605          35.000                                                                  
E36  23255823.023 8 122210198.939 8       222.625          51.000    23255826.531 8  93641615.610 8       170.577          51.000  
E25  25712276.266 8 135118907.778 8     -2247.152          50.000    25712281.188 8 103532675.098 8     -1721.848          49.000  
E02  23197037.250 8 121901256.099 8       -16.379          51.000    23197038.398 8  93404867.686 8       -12.529          51.000  
C24  22083854.680 8 114996443.730 8       376.680          51.000                                                                  
C12  22688063.945 8 118142781.903 8      2049.941          48.000    22688067.281 8  91355496.331 8      1585.178          49.000  
C26  22753525.375 7 118483593.399 7     -2477.082          47.000                                                                  
> 2020 05 13 11 52  0.0000000  0 16      -0.000000000000
G18  21969991.844 8 115453139.449 8      3018.180          49.000    21969990.805 7  89963494.103 7      2351.829          44.000  
G31  21128943.781 6 111033339.472 6        -8.312          38.000    21128941.266 6  86519473.076 6        -6.477          38.000  
G21  21973208.023 8 115469992.782 8      2629.879          50.000    21973205.242 7  89976631.986 7      2049.260          44.000  
G25  21676319.602 7 113909815.366 7     -2378.105          46.000    21676321.633 7  88760893.133 7     -1853.067          47.000  
G29  20443870.461 8 107433274.466 8     -1050.035          51.000    20443869.477 8  83714249.525 8      -818.213          51.000  
R11  22549434.180 8 120496945.145 8     -3895.531          48.000    22549439.039 7  93719842.233 7     -3029.861          45.000  
R23  20910723.641 8 111857948.040 8      3214.305          48.000    20910727.242 6  87000562.089 6      2500.018          39.000  
R22  19334344.320 8 103207663.345 8     -1360.754          51.000    19334347.164 8  80272702.853 8     -1058.364          49.000  
R12  19348651.383 8 103356626.330 8     -1208.625          51.000    19348656.078 7  80388503.953 7      -940.045          47.000  
R21  22992009.969 5 123034455.591 5     -4041.781          35.000                                                                  
E36  23254590.516 8 122203720.465 8       209.316          51.000    23254593.562 8  93636651.573 8       160.412          51.000  
E25  25725124.148 8 135186419.632 8     -2253.523          51.000    25725128.125 8 103584404.948 8     -1726.775          49.000  
E02  23197158.289 8 121901893.380 8       -26.008          51.000    23197159.914 8  93405355.988 8       -19.940          51.000  
C24  22081728.016 8 114985369.485 8       361.633          51.000                                                                  
C12  22676284.250 8 118081439.978 8      2039.648          48.000    22676286.352 8  91308062.883 8      1577.213          48.000  
C26  22767825.469 8 118558062.446 8     -2487.547          49.000                                                                  
> 2020 05 13 11 52 30.0000000  0 16      -0.000000000000
G18  21952796.453 8 115362779.353 8      3006.664          48.000    21952796.070 7  89893083.664 7      2342.856          44.000  
G31  21129048.953 6 111033893.565 6       -27.691          39.000    21129046.344 6  86519904.855 6       -21.581          38.000  
G21  21958231.195 8 115391290.881 8      2617.785          48.000    21958228.586 7  89915305.880 7      2039.836          44.000  
G25  21689924.656 7 113981311.612 7     -2387.500          45.000    21689927.344 7  88816604.481 7     -1860.390          44.000  
G29  20449901.398 8 107464967.462 8     -1061.906          51.000    20449900.578 8  83738945.362 8      -827.460          51.000  
R11  22571332.031 8 120613956.684 8     -3904.480          50.000    22571337.211 7  93810851.105 7     -3036.822          45.000  
R23  20892741.547 8 111761760.587 8      3199.090          48.000    20892745.453 6  86925749.619 6      2488.181          39.000  
R22  19342052.383 8 103248809.579 8     -1381.453          51.000    19342055.109 8  80304705.471 8     -1074.464          49.000  
R12  19355502.148 8 103393223.403 8     -1230.305          50.000    19355506.906 7  80416968.305 7      -956.904          47.000  
R21  23014678.117 5 123155758.551 5     -4044.461          33.000                                                                  
E36  23253436.141 8 122197652.326 8       196.156          51.000    23253439.078 8  93632001.976 8       150.215          51.000  
E25  25738010.742 8 135254134.895 8     -2260.016          51.000    25738014.273 8 103636290.624 8     -1731.674          50.000  
E02  23197336.742 8 121902831.008 8       -35.672          51.000    23197338.648 8  93406074.425 8       -27.333          51.000  
C24  22079690.297 8 114974759.751 8       346.543          51.000                                                                  
C12  22664566.414 8 118020418.473 8      2029.328          48.000    22664566.898 8  91260877.229 8      1569.163          48.000  
C26  22782189.969 8 118632858.826 8     -2498.070          51.000                                                                  
> 2020 05 13 11 53  0.0000000  0 16      -0.000000000000
G18  21935667.164 7 115272768.060 7      2994.707          47.000    21935667.477 7  89822944.984 7      2333.536          45.000  
G31  21129263.953 6 111035024.234 6       -47.105          40.000    21129261.492 6  86520785.896 6       -36.703          41.000  
G21  21943324.547 7 115312958.876 7      2605.156          47.000    21943322.680 7  89854267.996 7      2029.993          44.000  
G25  21703582.711 7 114053088.466 7     -2396.855          44.000    21703585.930 7  88872534.471 7     -1867.680          43.000  
G29  20456001.008 8 107497021.233 8     -1074.371          51.000    20456000.297 8  83763922.322 8      -837.173          51.000  
R11  22593280.812 8 120731240.679 8     -3913.758          49.000    22593285.672 7  93902071.954 7     -3044.034          44.000  
R23  20874846.961 8 111666033.870 8      3183.281          49.000    20874851.555 6  86851295.551 6      2475.889          41.000  
R22  19349877.031 8 103290578.764 8     -1402.527          51.000    19349879.773 8  80337192.611 8     -1090.855          49.000  
R12  19362475.742 8 103430475.718 8     -1252.504          51.000    19362480.344 8  80445942.305 8      -974.170          48.000  
R21  23037363.297 5 123277149.450 5     -4047.516          32.000                                                                  
E36  23252357.828 8 122191983.998 8       182.473          51.000    23252360.531 8  93627658.725 8       139.841          51.000  
E25  25750933.898 8 135322043.030 8     -2266.566          51.000    25750937.242 8 103688324.080 8     -1736.736          50.000  
E02  23197570.672 8 121904059.575 8       -45.695          51.000    23197572.414 8  93407015.797 8       -34.986          51.000  
C24  22077740.242 8 114964605.269 8       331.059          51.000                                                                  
C12  22652908.289 8 117959707.928 8      2018.672          48.000    22652907.719 8  91213932.031 8      1560.978          49.000  
C26  22796615.953 8 118707971.192 8     -2508.848          51.000                                                                  
> 2020 05 13 11 53 30.0000000  0 16      -0.000000000000
G18  21918605.055 7 115183108.566 7      2982.379          47.000    21918605.852 7  89753080.454 7      2323.932          46.000  
G31  21129589.336 7 111036732.067 7       -66.945          42.000    21129587.398 6  86522116.661 6       -52.162          41.000  
G21  21928489.086 8 115234999.371 8      2591.992          48.000    21928487.781 7  89793520.369 7      2019.738          43.000  
G25  21717294.750 7 114125145.869 7     -2407.168          44.000    21717298.477 7  88928683.103 7     -1875.716          44.000  
G29  20462169.219 8 107529435.285 8     -1086.820          51.000    20462168.430 8  83789180.025 8      -846.873          51.000  
R11  22615279.922 7 120848795.329 7     -3923.371          47.000    22615284.688 7  93993503.283 7     -3051.514          43.000  
R23  20857038.922 8 111570770.302 8      3167.332          49.000    20857044.562 6  86777201.699 6      2463.484          41.000  
R22  19357818.086 8 103332968.421 8     -1423.711          51.000    19357820.859 8  80370162.349 8     -1107.331          48.000  
R12  19369572.250 8 103468383.882 8     -1274.910          51.000    19369576.891 8  80475426.410 8      -991.600          48.000  
R21  23060064.727 5 123398626.127 5     -4050.941          30.000                                                                  
E36  23251355.695 8 122186715.591 8       168.570          51.000    23251357.852 8  93623621.914 8       129.155          51.000  
E25  25763893.547 8 135390144.148 8     -2273.750          51.000    25763896.969 8 103740505.419 8     -1742.234          51.000  
E02  23197860.102 8 121905580.387 8       -56.004          51.000    23197861.820 8  93408181.082 8       -42.888          51.000  
C24  22075878.000 8 114954907.447 8       315.254          51.000                                                                  
C12  22641310.016 8 117899309.400 8      2007.777          48.000    22641308.961 8  91167228.065 8      1552.472          51.000  
C26  22811102.492 8 118783398.746 8     -2519.871          51.000                                                                  
> 2020 05 13 11 54  0.0000000  0 16      -0.000000000000
G18  21901612.078 7 115093810.483 7      2971.305          47.000    21901613.219 7  89683497.579 7      2315.306          47.000  
G31  21130025.906 7 111039024.332 7       -85.594          42.000    21130024.000 7  86523902.864 7       -66.693          42.000  
G21  21913726.078 7 115157421.419 7      2580.211          47.000    21913725.516 7  89733070.059 7      2010.555          44.000  
G25  21731061.672 7 114197490.220 7     -2415.613          44.000    21731065.055 7  88985055.291 7     -1882.300          44.000  
G29  20468406.969 8 107562214.849 8     -1098.047          51.000    20468406.070 8  83814722.559 8      -855.618          51.000  
R11  22637330.812 7 120966625.430 7     -3931.504          45.000    22637335.625 7  94085148.832 7     -3057.840          42.000  
R23  20839318.547 7 111475979.206 7      3152.586          47.000    20839325.570 7  86703475.303 7      2452.012          42.000  
R22  19365876.164 8 103375983.329 8     -1443.547          51.000    19365879.000 7  80403618.392 7     -1122.759          47.000  
R12  19376793.031 8 103506954.500 8     -1296.016          51.000    19376797.156 8  80505425.775 8     -1008.012          49.000  
R21  23082783.148 4 123520192.527 4     -4052.945          29.000                                                                  
E36  23250430.773 8 122181853.819 8       155.898          51.000    23250432.648 8  93619896.666 8       119.449          51.000  
E25  25776890.523 8 135458444.929 8     -2279.246          49.000    25776894.461 8 103792839.751 8     -1746.457          50.000  
E02  23198206.664 8 121907401.157 8       -64.996          51.000    23198208.344 8  93409576.222 8       -49.859          51.000  
C24  22074104.789 8 114945674.066 8       300.688          51.000                                                                  
C12  22629772.938 8 117839230.409 8      1997.973          48.000    22629771.695 8  91120771.162 8      1544.932          51.000  
C26  22825650.078 8 118859147.074 8     -2529.594          51.000                                                                  
> 2020 05 13 11 54 30.0000000  0 15      -0.000000000000
G18  21884701.562 7 115004945.382 7      2952.758          46.000    21884703.094 7  89614252.112 7      2300.851          47.000  
G31  21130586.508 6 111041970.103 6      -111.480          38.000    21130585.047 6  86526198.297 6       -86.865          39.000  
G21  21899048.719 7 115080295.655 7      2560.996          45.000    21899049.070 7  89672972.075 7      1995.582          45.000  
G25  21744896.320 7 114270189.833 7     -2431.691          44.000    21744899.219 7  89041704.296 7     -1894.828          44.000  
G29  20474727.195 8 107595427.661 8     -1116.602          51.000    20474726.383 8  83840602.692 8      -870.079          51.000  
R11  22659445.641 6 121084798.642 6     -3947.160          41.000    22659450.688 6  94177061.255 6     -3070.014          41.000  
R23  20821699.836 8 111381732.787 8      3130.121          49.000    20821707.672 6  86630172.533 6      2434.539          41.000  
R22  19374064.039 8 103419690.258 8     -1470.785          51.000    19374066.539 7  80437612.660 7     -1143.944          47.000  
R12  19384150.969 8 103546257.713 8     -1324.750          51.000    19384154.695 8  80535994.944 8     -1030.361          49.000  
E36  23249596.219 8 122177467.144 8       135.961          51.000    23249598.203 8  93616535.473 8       104.139          51.000  
E25  25789937.828 7 135527013.995 7     -2292.508          47.000    25789942.367 8 103845379.666 8     -1756.565          49.000  
E02  23198623.641 8 121909591.593 8       -81.531          51.000    23198625.344 8  93411254.594 8       -62.466          51.000  
C24  22072433.930 8 114936974.276 8       278.809          51.000                                                                  
C12  22618309.914 7 117779539.768 7      1980.922          47.000    22618308.953 8  91074614.579 8      1531.672          51.000  
C26  22840271.172 8 118935283.233 8     -2546.613          51.000                                                                  
> 2020 05 13 11 55  0.0000000  0 15      -0.000000000000
G18  21867851.570 8 114916397.768 8      2946.680          48.000    21867853.500 7  89545254.025 7      2296.118          47.000  
G31  21131248.414 6 111045451.359 6      -125.289          36.000    21131247.477 6  86528910.950 6       -97.631          37.000  
G21  21884436.219 8 115003506.026 8      2554.340          48.000    21884436.781 7  89613135.993 7      1990.398          47.000  
G25  21758775.922 7 114343125.877 7     -2434.750          44.000    21758777.953 7  89098537.537 7     -1897.211          43.000  
G29  20481107.148 8 107628954.649 8     -1122.316          51.000    20481106.492 8  83866727.633 8      -874.529          51.000  
R11  22681599.953 6 121203192.623 6     -3949.770          39.000    22681606.531 6  94269145.426 6     -3072.047          38.000  
R23  20804161.492 8 111287912.750 8      3120.594          50.000    20804168.664 6  86557201.404 6      2427.129          39.000  
R22  19382358.461 8 103463966.836 8     -1484.938          51.000    19382361.195 7  80472050.027 7     -1154.952          47.000  
R12  19391623.617 8 103586173.325 8     -1340.309          51.000    19391627.016 8  80567040.415 8     -1042.462          49.000  
E36  23248829.562 8 122173437.092 8       128.895          51.000    23248831.781 8  93613447.538 8        98.683          51.000  
E25  25803013.250 7 135595732.851 7     -2292.738          45.000    25803018.383 8 103898034.373 8     -1756.754          48.000  
E02  23199088.578 8 121912034.305 8       -85.262          51.000    23199090.484 8  93413126.262 8       -65.318          51.000  
C24  22070843.273 8 114928691.929 8       269.473          51.000                                                                  
C12  22606898.672 7 117720120.978 7      1976.473          46.000    22606898.219 8  91028668.213 8      1528.313          51.000  
C26  22854943.273 8 119011688.858 8     -2550.945          49.000                                                                  
> 2020 05 13 11 55 30.0000000  0 15      -0.000000000000
G18  21851068.289 8 114828199.947 8      2933.820          48.000    21851070.391 8  89476528.492 8      2286.097          48.000  
G31  21132017.891 6 111049497.659 6      -143.797          37.000    21132016.672 6  86532063.906 6      -112.050          36.000  
G21  21869894.438 8 114927084.308 8      2541.141          50.000    21869894.688 7  89553586.640 7      1980.113          47.000  
G25  21772705.664 7 114416327.618 7     -2444.715          44.000    21772706.961 7  89155577.832 7     -1904.973          44.000  
G29  20487552.219 8 107662823.925 8     -1134.832          51.000    20487551.508 8  83893119.285 8      -884.285          51.000  
R11  22703799.969 6 121321835.305 6     -3959.227          40.000    22703807.172 5  94361422.907 5     -3079.408          35.000  
R23  20786708.328 8 111194551.324 8      3104.184          50.000    20786715.266 6  86484587.006 6      2414.365          38.000  
R22  19390764.930 8 103508840.303 8     -1505.824          51.000    19390767.055 7  80506951.578 7     -1171.200          46.000  
R12  19399216.297 8 103626731.214 8     -1362.805          51.000    19399219.438 8  80598585.432 8     -1059.962          48.000  
E36  23248136.320 8 122169793.020 8       114.938          51.000    23248138.523 8  93610655.335 8        88.072          51.000  
E25  25816122.914 7 135664630.903 7     -2299.715          45.000    25816128.555 8 103950826.353 8     -1762.084          48.000  
E02  23199607.352 8 121914759.810 8       -95.695          51.000    23199609.375 8  93415214.619 8       -73.340          51.000  
C24  22069338.570 8 114920857.262 8       253.535          51.000                                                                  
C12  22595545.664 7 117661004.016 7      1965.305          47.000    22595545.406 8  90982955.240 8      1519.828          51.000  
C26  22869672.359 8 119088392.096 8     -2561.871          50.000                                                                  
> 2020 05 13 11 56  0.0000000  0 15      -0.000000000000
G18  21834354.164 8 114740365.241 8      2922.176          49.000    21834356.375 8  89408085.891 8      2277.021          48.000  
G31  21132897.633 6 111054120.204 6      -163.074          39.000    21132894.828 6  86535665.877 6      -127.071          38.000  
G21  21855424.859 8 114851043.588 8      2528.730          51.000    21855424.789 7  89494334.147 7      1970.440          46.000  
G25  21786687.875 7 114489805.148 7     -2453.402          43.000    21786689.273 7  89212833.069 7     -1911.740          43.000  
G29  20494064.141 8 107697044.985 8     -1146.172          51.000    20494063.430 8  83919785.050 8      -893.121          51.000  
R11  22726048.727 6 121440735.382 6     -3967.016          38.000    22726055.875 6  94453900.576 6     -3085.463          37.000  
R23  20769343.336 8 111101661.780 8      3088.855          51.000    20769349.719 6  86412339.599 6      2402.447          37.000  
R22  19399284.719 8 103554318.630 8     -1525.637          51.000    19399286.555 7  80542323.622 7     -1186.607          47.000  
R12  19406930.820 8 103667942.016 8     -1384.156          51.000    19406933.875 8  80630638.254 8     -1076.569          48.000  
E36  23247518.469 8 122166545.331 8       102.168          51.000    23247520.359 8  93608166.852 8        78.270          51.000  
E25  25829269.898 7 135733718.572 7     -2305.641          47.000    25829275.719 8 104003763.640 8     -1766.622          49.000  
E02  23200182.203 8 121917779.637 8      -105.121          51.000    23200183.992 8  93417528.500 8       -80.538          51.000  
C24  22067922.375 8 114913481.778 8       238.648          51.000                                                                  
C12  22584252.922 7 117602200.085 7      1955.367          46.000    22584252.891 8  90937484.347 8      1512.069          51.000  
C26  22884461.328 8 119165402.350 8     -2571.762          51.000                                                                  
> 2020 05 13 11 56 30.0000000  0 15      -0.000000000000
G18  21817708.352 8 114652889.577 8      2909.988          49.000    21817710.422 7  89339923.064 7      2267.524          47.000  
G31  21133885.883 6 111059312.249 6      -182.426          39.000    21133882.117 6  86539711.632 6      -142.150          38.000  
G21  21841026.320 8 114775378.945 8      2516.047          49.000    21841026.414 7  89435374.695 7      1960.557          47.000  
G25  21800721.203 7 114563551.193 7     -2462.750          42.000    21800722.945 7  89270297.491 7     -1919.030          42.000  
G29  20500641.531 8 107731609.819 8     -1157.699          51.000    20500640.898 8  83946718.681 8      -902.104          51.000  
R11  22748345.492 6 121559883.808 6     -3975.578          38.000    22748353.133 6  94546571.546 6     -3092.117          40.000  
R23  20752066.227 8 111009239.176 8      3073.141          51.000    20752071.344 6  86340455.419 6      2390.224          37.000  
R22  19407916.094 8 103600392.294 8     -1545.555          51.000    19407917.781 7  80578158.688 7     -1202.098          47.000  
R12  19414766.367 8 103709798.766 8     -1405.840          51.000    19414769.297 7  80663193.465 7     -1093.434          47.000  
E36  23246974.586 8 122163686.912 8        88.934          51.000    23246976.570 8  93605976.649 8        68.126          51.000  
E25  25842452.062 7 135802988.848 7     -2311.707          47.000    25842457.742 8 104056840.847 8     -1771.423          49.000  
E02  23200811.922 8 121921087.864 8      -114.918          51.000    23200813.258 8  93420063.365 8       -88.090          51.000  
C24  22066593.211 8 114906559.742 8       223.379          51.000                                                                  
C12  22573018.781 7 117543703.158 7      1945.047          46.000    22573019.250 8  90892250.838 8      1503.958          50.000  
C26  22899308.375 8 119242711.690 8     -2581.797          51.000                                                                  
> 2020 05 13 11 57  0.0000000  0 15      -0.000000000000
G18  21801133.000 8 114565785.722 8      2897.336          48.000    21801134.852 7  89272049.936 7      2257.665          47.000  
G31  21134983.883 6 111065084.074 6      -201.812          38.000    21134981.234 6  86544209.094 6      -157.257          37.000  
G21  21826701.219 8 114700102.319 8      2502.863          48.000    21826701.758 7  89376717.566 7      1950.281          46.000  
G25  21814807.438 6 114637575.367 6     -2472.328          41.000    21814809.562 6  89327978.656 6     -1926.490          41.000  
G29  20507285.930 8 107766527.010 8     -1169.555          50.000    20507285.461 8  83973926.864 8      -911.342          50.000  
R11  22770691.398 6 121679288.651 6     -3984.320          41.000    22770699.297 6  94639441.906 6     -3098.919          41.000  
R23  20734879.047 8 110917296.016 8      3056.887          51.000    20734883.234 6  86268944.145 6      2377.582          38.000  
R22  19416660.383 8 103647068.863 8     -1565.844          51.000    19416661.992 7  80614462.688 7     -1217.879          47.000  
R12  19422724.719 8 103752311.710 8     -1427.898          50.000    19422727.680 7  80696259.046 7     -1110.588          46.000  
E36  23246506.648 8 122161227.576 8        75.301          51.000    23246509.016 8  93604092.244 8        57.713          51.000  
E25  25855670.523 7 135872451.667 7     -2318.523          44.000    25855676.258 8 104110065.545 8     -1776.691          48.000  
E02  23201498.492 8 121924695.466 8      -125.234          51.000    23201499.531 8  93422827.620 8       -95.998          51.000  
C24  22065353.039 8 114900102.048 8       207.570          51.000                                                                  
C12  22561845.492 7 117485523.854 7      1934.227          47.000    22561846.289 8  90847262.910 8      1495.519          50.000  
C26  22914214.820 8 119320328.911 8     -2592.277          51.000                                                                  
> 2020 05 13 11 57 30.0000000  0 15      -0.000000000000
G18  21784628.867 7 114479058.936 7      2884.773          46.000    21784630.961 7  89204470.624 7      2247.876          46.000  
G31  21136192.867 6 111071438.374 6      -221.309          39.000    21136189.898 6  86549160.538 6      -172.445          37.000  
G21  21812451.234 8 114625218.698 8      2489.762          49.000    21812451.641 7  89318366.698 7      1940.075          45.000  
G25  21828946.961 7 114711879.685 7     -2481.117          42.000    21828949.719 7  89385878.065 7     -1933.339          42.000  
G29  20513997.672 8 107801798.169 8     -1181.402          49.000    20513997.359 8  84001410.880 8      -920.574          50.000  
R11  22793085.523 6 121798950.137 6     -3992.867          40.000    22793092.961 6  94732511.857 6     -3105.567          41.000  
R23  20717781.266 8 110825836.719 8      3040.910          49.000    20717785.906 6  86197809.179 6      2365.153          39.000  
R22  19425517.492 8 103694348.230 8     -1585.719          51.000    19425519.086 7  80651235.531 7     -1233.337          46.000  
R12  19430806.250 8 103795482.861 8     -1449.652          50.000    19430809.414 7  80729836.559 7     -1127.508          46.000  
E36  23246114.859 8 122159169.532 8        62.160          51.000    23246117.625 8  93602515.315 8        47.581          51.000  
E25  25868925.680 7 135942109.339 7     -2324.785          45.000    25868931.516 8 104163439.521 8     -1781.435          48.000  
E02  23202242.594 8 121928605.872 8      -135.141          51.000    23202243.609 8  93425823.890 8      -103.603          51.000  
C24  22064202.859 8 114894112.147 8       192.121          51.000                                                                  
C12  22550734.273 8 117427665.334 8      1923.480          49.000    22550734.773 8  90802523.018 8      1487.318          50.000  
C26  22929180.328 8 119398255.331 8     -2602.398          51.000                                                                  
> 2020 05 13 11 58  0.0000000  0 15      -0.000000000000
G18  21768195.867 7 114392706.510 7      2872.047          46.000    21768198.406 7  89137183.003 7      2237.956          45.000  
G31  21137511.672 6 111078370.033 6      -240.703          38.000    21137509.422 6  86554561.863 6      -187.555          37.000  
G21  21798275.875 8 114550724.726 8      2476.457          51.000    21798275.336 7  89260319.495 7      1929.707          43.000  
G25  21843139.023 7 114786458.335 7     -2490.742          43.000    21843141.391 7  89443991.281 7     -1940.839          42.000  
G29  20520775.656 8 107837416.828 8     -1193.348          50.000    20520775.133 8  84029165.665 8      -929.885          50.000  
R11  22815525.359 6 121918860.603 6     -4001.391          39.000    22815533.039 6  94825775.505 6     -3112.196          41.000  
R23  20700772.789 8 110734858.216 8      3024.289          49.000    20700778.812 6  86127048.101 6      2352.225          40.000  
R22  19434485.859 8 103742221.959 8     -1605.789          51.000    19434487.203 7  80688470.640 7     -1248.950          46.000  
R12  19439010.453 8 103839306.776 8     -1471.902          51.000    19439013.289 7  80763921.822 7     -1144.810          47.000  
E36  23245798.141 8 122157507.150 8        48.773          51.000    23245801.453 8  93601241.546 8        37.309          51.000  
E25  25882217.359 7 136011956.188 7     -2331.695          47.000    25882222.195 7 104216958.488 7     -1786.472          47.000  
E02  23203043.508 8 121932814.545 8      -145.441          51.000    23203044.398 8  93429048.697 8      -111.412          51.000  
C24  22063141.781 8 114888585.554 8       176.316          51.000                                                                  
C12  22539684.211 8 117370122.788 8      1912.754          49.000    22539684.180 8  90758027.485 8      1478.975          51.000  
C26  22944203.211 8 119476484.423 8     -2612.867          51.000                                                                  
> 2020 05 13 11 58 30.0000000  0 16      -0.000000000000
G18  21751839.031 7 114306751.322 7      2857.969          47.000    21751840.938 7  89070204.963 7      2226.992          45.000  
G31  21138944.125 6 111085899.064 6      -261.066          36.000    21138944.156 6  86560428.651 6      -203.428          36.000  
G21  21784179.008 8 114476642.577 8      2462.012          51.000    21784177.500 7  89202593.221 7      1918.451          43.000  
G25  21857386.797 7 114861330.993 7     -2501.219          43.000    21857388.781 7  89502333.579 7     -1949.002          43.000  
G29  20527623.500 8 107873402.105 8     -1206.094          51.000    20527622.875 8  84057206.131 8      -939.814          51.000  
R11  22838014.656 6 122039038.588 6     -4010.754          38.000    22838022.852 6  94919247.220 6     -3119.476          40.000  
R23  20683859.062 8 110644382.885 8      3006.902          49.000    20683865.156 6  86056678.423 6      2338.705          40.000  
R22  19443568.891 8 103790708.039 8     -1626.902          50.000    19443571.062 7  80726182.074 7     -1265.366          46.000  
R12  19447340.711 8 103883803.554 8     -1495.023          51.000    19447343.422 8  80798530.410 8     -1162.796          48.000  
R21  23287875.445 5 124617705.35825     -4075.699          30.000                                                                  
E36  23245560.406 8 122156260.323 8        34.160          51.000    23245564.500 8  93600286.179 8        26.175          51.000  
E25  25895549.102 8 136082012.154 8     -2339.047          48.000    25895552.648 7 104270637.739 7     -1792.422          47.000  
E02  23203905.133 8 121937342.566 8      -156.824          51.000    23203906.047 8  93432518.214 8      -120.134          51.000  
C24  22062173.594 8 114883543.225 8       159.512          51.000                                                                  
C12  22528698.789 8 117312917.024 8      1900.648          49.000    22528698.383 8  90713792.391 8      1469.775          51.000  
C26  22959287.359 8 119555034.935 8     -2624.266          48.000                                                                  
> 2020 05 13 11 59  0.0000000  0 15      -0.000000000000
G18  21735551.906 8 114221159.998 8      2846.965          48.000    21735552.617 7  89003510.469 7      2218.418          44.000  
G31  21140483.703 6 111093989.928 6      -279.457          36.000    21140485.719 5  86566733.170 5      -217.765          35.000  
G21  21770153.828 8 114402938.311 8      2450.375          51.000    21770152.031 7  89145161.403 7      1909.387          44.000  
G25  21871683.641 6 114936461.162 6     -2508.715          41.000    21871685.852 6  89560876.518 6     -1954.843          41.000  
G29  20534534.023 8 107909716.363 8     -1215.926          51.000    20534533.547 8  84085502.951 8      -947.472          51.000  
R11  22860546.359 6 122159445.095 6     -4017.152          39.000    22860554.711 6  95012896.607 6     -3124.458          37.000  
R23  20667033.422 8 110554376.162 8      2992.266          50.000    20667038.984 6  85986673.192 6      2327.318          40.000  
R22  19452759.156 8 103839767.138 8     -1644.879          49.000    19452761.078 7  80764339.130 7     -1279.350          45.000  
R12  19455790.000 8 103928936.439 8     -1515.094          51.000    19455792.711 8  80833633.753 8     -1178.406          49.000  
E36  23245394.719 8 122155392.670 8        22.520          51.000    23245399.570 8  93599621.356 8        17.219          51.000  
E25  25908913.680 7 136152241.066 7     -2343.910          47.000    25908917.164 8 104324449.491 8     -1795.993          49.000  
E02  23204820.781 8 121942154.839 8      -165.281          51.000    23204821.742 8  93436205.521 8      -126.614          51.000  
C24  22061291.328 8 114878950.341 8       145.551          51.000                                                                  
C12  22517770.750 8 117256012.858 8      1891.734          48.000    22517770.266 8  90669790.504 8      1462.785          50.000  
C26  22974426.359 8 119633870.002 8     -2632.617          48.000                                                                  
> 2020 05 13 11 59 30.0000000  0 15      -0.000000000000
G18  21719336.695 8 114135947.112 8      2835.969          48.000    21719336.758 7  88937110.889 7      2209.846          46.000  
G31  21142132.539 5 111102654.385 5      -296.543          35.000    21142135.234 6  86573484.675 6      -231.085          37.000  
G21  21756203.164 8 114329626.406 8      2439.117          51.000    21756201.195 7  89088035.306 7      1900.611          45.000  
G25  21886031.664 6 115011860.196 6     -2515.809          38.000    21886033.648 6  89619628.986 6     -1960.368          38.000  
G29  20541509.266 8 107946370.577 8     -1225.500          51.000    20541508.727 8  84114064.676 8      -954.935          51.000  
R11  22883123.695 6 122280090.050 6     -4023.863          39.000    22883130.828 5  95106731.427 5     -3129.678          32.000  
R23  20650298.305 8 110464852.423 8      2978.023          50.000    20650302.930 6  85917043.637 6      2316.244          39.000  
R22  19462058.484 8 103889408.422 8     -1662.418          49.000    19462061.047 7  80802949.044 7     -1292.992          46.000  
R12  19464360.789 8 103974717.499 8     -1534.941          51.000    19464363.359 8  80869241.261 8     -1193.844          49.000  
E36  23245303.320 8 122154915.868 8        11.230          51.000    23245308.633 8  93599256.016 8         8.584          51.000  
E25  25922313.172 7 136222654.670 7     -2348.363          47.000    25922317.430 8 104378402.750 8     -1799.468          50.000  
E02  23205793.000 8 121947264.152 8      -173.414          51.000    23205793.789 8  93440120.453 8      -132.894          51.000  
C24  22060497.812 8 114874819.705 8       131.852          51.000                                                                  
C12  22506902.742 8 117199422.878 8      1882.949          48.000    22506902.242 8  90626031.545 8      1455.986          50.000  
C26  22989622.398 8 119713000.258 8     -2640.609          49.000                                                                  
