     3.02           OBSERVATION DATA    M (MIXED)           RINEX VERSION / TYPE
SAVERINEX           SC600               20200502 065931 LCL PGM / RUN BY / DATE
       G = GPS       R = GLONASS       C = COMPASS          COMMENT
       S = SBAS      J = QZSS          E = GALILEO          COMMENT
BEAN                                                        MARKER NAME
1                                                           MARKER NUMBER
GEODETIC                                                    MARKER TYPE
Unige DICCA         GTER                                    OBSERVER / AGENCY
SC60291900056       SC600               2.12(191226)        REC # / TYPE / VERS
                    HEMA45          NONE                    ANT # / TYPE
  4509407.8091   693652.4678  4442337.6214                  APPROX POSITION XYZ
        0.0000        0.0000        0.0000                  ANTENNA: DELTA H/E/N
G    8 C1C L1C D1C S1C C2Y L2Y D2Y S2Y                      SYS / # / OBS TYPES
R    8 C1C L1C D1C S1C C2P L2P D2P S2P                      SYS / # / OBS TYPES
C    8 C1I L1I D1I S1I C7I L7I D7I S7I                      SYS / # / OBS TYPES
E    8 C1C L1C D1C S1C C7Q L7Q D7Q S7Q                      SYS / # / OBS TYPES
DBHZ                                                        COMMENT
     30.000                                                 INTERVAL
  2020    05    02    04    00    0.0000000     GPS         TIME OF FIRST OBS
  2020    05    02    04    59   30.0000000     GPS         TIME OF LAST OBS
     0                                                      RCV CLOCK OFFS APPL
G L1C  0.00000                                              SYS / PHASE SHIFT
G L2Y  0.00000                                              SYS / PHASE SHIFT
R L1C  0.00000                                              SYS / PHASE SHIFT
R L2P  0.25000                                              SYS / PHASE SHIFT
C L1I  0.00000                                              SYS / PHASE SHIFT
C L7I  0.00000                                              SYS / PHASE SHIFT
E L1C  0.50000                                              SYS / PHASE SHIFT
E L7Q -0.25000                                              SYS / PHASE SHIFT
 12 R01  1 R02 -4 R03  5 R08  6 R10 -5 R11  0 R12 -1 R13 -2 GLONASS SLOT / FRQ #
    R14 -7 R17  4 R18 -3 R23  3                             GLONASS SLOT / FRQ #
 C1C   71.950 C2C   71.950 C2P   71.950                     GLONASS COD/PHS/BIS
    18                                                      LEAP SECONDS
*** Above antenna height is from mark to ANTENNA BOTTOM.    COMMENT
    17     4        0.0000        ANT MEASURE TYPE/HEIGT    COMMENT
    0.0000    0.0000    0.0458    0.0405    0.0000          COMMENT
                    BASE STATION                            COMMENT
                                                            END OF HEADER
> 2020 05 02 04 00  0.0000000  0 17        .000000000000
G05  20671445.977 8 108629206.367 8      -874.316          50.000    20671445.641 8  84646102.869 8      -681.289          50.000
G28  21769402.930 8 114398978.200 8      2275.004          50.000    21769402.984 7  89142065.964 7      1772.727          45.000
G30  20566478.500 8 108077581.558 8     -1016.246          51.000    20566479.000 8  84216316.351 8      -791.880          51.000
R02  21046002.000 8 112305488.214 8     -2996.668          51.000    21046004.750 8  87348705.126 8     -2330.739          48.000
R03  19224234.180 8 102908867.723 8       520.324          50.000    19224235.578 8  80040225.343 8       404.697          48.000
R13  19162362.695 6 102325970.685 6       341.910          40.000    19162366.352 7  79586847.129 7       265.930          45.000
R14  21682543.844 6 115580187.609 6      3782.480          40.000    21682547.844 5  89895722.736 5      2941.929          35.000
C05  39781547.664 5 207152957.782 5         2.430          35.000    39781547.094 6 160183801.284 6         1.988          41.000
C14  24904859.945 7 129686112.443 7     -3102.719          42.000    24904860.062 8 100281521.119 8     -2399.355          51.000
C23  24977299.586 6 130063275.210 6      3036.750          38.000
C24  23431309.531 6 122012984.808 6     -2237.262          38.000
C25  21872536.141 8 113896098.593 8       867.191          51.000
E02  24715677.336 7 129881749.542 7      2437.953          47.000    24715681.531 8  99519856.422 8      1868.036          51.000
E03  23604355.977 8 124041716.233 8      -757.488          51.000    23604358.352 8  95044975.604 8      -580.431          51.000
E05  27081717.820 6 142315407.338 6     -2438.996          38.000
E24  25409322.133 6 133526877.786 6     -2604.770          39.000    25409333.281 6 102312857.096 6     -1995.794          39.000
E25  24014580.367 8 126197519.881 8      -281.055          51.000    24014583.094 8  96696856.402 8      -215.321          51.000
> 2020 05 02 04 00 30.0000000  0 18        .000000000000
G05  20676492.312 8 108655725.119 8      -892.188          50.000    20676491.828 8  84666766.823 8      -695.211          50.000
G28  21756455.203 8 114330937.787 8      2262.539          50.000    21756455.297 7  89089047.426 7      1763.017          44.000
G30  20572316.633 8 108108260.871 8     -1027.555          51.000    20572317.164 8  84240222.297 8      -800.692          51.000
R02  21062888.359 8 112395596.928 8     -3009.152          51.000    21062891.109 8  87418789.673 8     -2340.455          48.000
R03  19221372.922 8 102893551.040 8       502.176          50.000    19221374.211 8  80028312.375 8       390.581          48.000
R12  21368889.180 5 114148756.619 5     -3474.109          33.000    21368891.289 4  88782381.197 4     -2702.082          26.000
R13  19160510.625 6 102316081.955 6       318.738          41.000    19160514.258 7  79579155.907 7       247.911          45.000
R14  21661286.562 5 115466893.224 5      3771.355          34.000    21661292.047 6  89807604.867 6      2933.273          36.000
C05  39781533.148 5 207152882.104 5         3.570          35.000    39781532.625 6 160183742.753 6         3.208          41.000
C14  24922749.570 6 129779274.247 6     -3106.691          40.000    24922751.266 8 100353559.728 8     -2402.161          49.000
C23  24959819.469 6 129972258.919 6      3032.039          36.000
C24  23444220.938 6 122080219.641 6     -2244.652          37.000
C25  21867579.719 8 113870291.256 8       854.812          51.000
E02  24701784.375 8 129808746.479 8      2430.211          49.000    24701789.328 8  99463918.957 8      1862.092          51.000
E03  23608703.953 8 124064563.844 8      -764.344          51.000    23608706.172 8  95062482.194 8      -585.600          51.000
E05  27095654.164 6 142388642.464 6     -2441.922          38.000
E24  25424210.719 6 133605117.910 6     -2609.461          39.000    25424221.781 6 102372807.279 6     -1999.720          39.000
E25  24016223.727 8 126206155.913 8      -293.473          51.000    24016226.547 8  96703473.627 8      -224.833          51.000
> 2020 05 02 04 01  0.0000000  0 18        .000000000000
G05  20681649.703 8 108682827.456 8      -913.930          50.000    20681649.148 8  84687885.521 8      -712.153          50.000
G28  21743588.898 8 114263324.763 8      2245.797          50.000    21743588.203 7  89036361.907 7      1749.972          42.000
G30  20578228.766 8 108139329.241 8     -1042.867          51.000    20578228.906 8  84264431.402 8      -812.624          51.000
R02  21079853.594 8 112486127.305 8     -3025.469          51.000    21079856.492 8  87489202.180 8     -2353.142          48.000
R03  19218622.805 8 102878830.014 8       479.996          49.000    19218624.477 8  80016862.684 8       373.330          48.000
R12  21388435.344 5 114253183.464 5     -3488.023          31.000    21388440.047 4  88863602.202 4     -2712.901          26.000
R13  19158797.867 6 102306937.001 6       291.805          40.000    19158801.414 7  79572043.175 7       226.959          44.000
R14  21640099.578 6 115353970.055 6      3757.160          37.000    21640105.844 6  89719775.715 6      2922.239          39.000
C05  39781519.086 5 207152809.001 5         1.410          35.000    39781518.633 6 160183686.219 6          .988          41.000
C14  24940670.633 6 129872599.148 6     -3114.371          41.000    24940672.859 7 100425724.437 7     -2408.193          46.000
C23  24942374.805 5 129881427.321 5      3022.914          32.000
C24  23457184.250 6 122147722.032 6     -2255.797          36.000
C25  21862704.555 8 113844904.845 8       838.418          51.000
E02  24687946.805 8 129736028.846 8      2418.316          50.000    24687951.188 8  99408200.225 8      1852.969          51.000
E03  23613100.758 8 124087668.585 8      -775.211          51.000    23613102.656 8  95080185.789 8      -594.029          51.000
E05  27109614.141 5 142462002.013 5     -2448.156          35.000    27109626.938 5 109159238.210 5     -1875.680          30.000
E24  25439135.578 6 133683549.504 6     -2618.383          39.000    25439146.750 6 102432904.127 6     -2006.165          39.000
E25  24017947.805 8 126215215.776 8      -309.875          51.000    24017950.586 8  96710415.600 8      -237.425          51.000
> 2020 05 02 04 01 30.0000000  0 16        .000000000000
G05  20686923.680 8 108710541.941 8      -932.012          50.000    20686923.211 8  84709481.214 8      -726.243          51.000
G28  21730810.211 8 114196170.734 8      2232.906          50.000    21730807.844 6  88984034.096 6      1739.927          41.000
G30  20584220.250 8 108170814.853 8     -1054.273          51.000    20584220.281 8  84288965.633 8      -821.512          51.000
R02  21096903.039 8 112577107.751 8     -3037.969          51.000    21096906.078 8  87559964.756 8     -2362.865          48.000
R03  19215989.812 8 102864736.640 8       461.375          48.000    19215991.406 7  80005901.155 7       358.847          47.000
R13  19157229.953 6 102298565.622 6       268.355          40.000    19157233.320 7  79565532.106 7       208.721          45.000
R14  21618992.023 7 115241450.634 7      3745.992          43.000    21618996.812 7  89632260.633 7      2913.549          42.000
C05  39781511.219 5 207152767.778 5         2.711          35.000    39781510.742 6 160183654.288 6         2.253          41.000
C14  24958629.523 7 129966115.173 7     -3118.289          43.000    24958629.125 7 100498036.905 7     -2411.241          42.000
C24  23470204.328 6 122215519.483 6     -2262.945          38.000
C25  21857916.227 8 113819968.643 8       825.762          51.000
E02  24674169.938 8 129663627.474 8      2410.195          51.000    24674172.891 8  99352723.855 8      1846.767          51.000
E03  23617552.180 8 124111060.303 8      -782.438          51.000    23617553.594 8  95098109.278 8      -599.551          51.000
E05  27123603.094 5 142535496.152 5     -2451.242          31.000    27123606.344 5 109215559.594 5     -1878.045          33.000
E24  25454102.031 6 133762200.330 6     -2623.125          38.000    25454113.578 6 102493169.007 6     -2009.969          38.000
E25  24019758.312 8 126224728.381 8      -322.445          51.000    24019760.656 8  96717704.469 8      -247.077          51.000
> 2020 05 02 04 02  0.0000000  0 17        .000000000000
G05  20692296.688 8 108738776.241 8      -950.918          50.000    20692296.312 8  84731481.963 8      -740.975          50.000
G13  21301666.570 5 111941012.730 5      2018.719          31.000
G28  21718101.914 8 114129386.328 8      2218.738          50.000    21718097.398 6  88931994.323 6      1728.890          41.000
G30  20590273.398 8 108202624.558 8     -1066.941          51.000    20590273.789 8  84313752.426 8      -831.383          51.000
R02  21114018.750 8 112668444.006 8     -3051.617          49.000    21114022.047 7  87631004.012 7     -2373.483          45.000
R03  19213457.609 8 102851179.308 8       441.730          49.000    19213458.297 7  79995356.589 7       343.571          46.000
R13  19155789.266 6 102290873.354 6       243.840          40.000    19155792.664 7  79559549.231 7       189.650          45.000
R14  21597944.094 7 115129244.793 7      3733.762          47.000    21597948.219 7  89544989.408 7      2904.037          44.000
C05  39781491.945 5 207152667.319 5         3.387          35.000    39781491.461 6 160183576.619 6         2.374          41.000
C14  24976607.781 7 130059729.969 7     -3123.320          44.000    24976604.039 7 100570425.703 7     -2415.089          43.000
C23  24907593.219 5 129700386.350 5      3013.566          33.000
C24  23483263.289 6 122283519.132 6     -2271.227          40.000
C25  21853196.773 8 113795391.531 8       812.035          51.000
E02  24660435.961 8 129591451.792 8      2401.043          51.000    24660437.641 8  99297420.434 8      1839.757          51.000
E03  23622040.883 8 124134647.461 8      -790.621          51.000    23622041.773 8  95116182.529 8      -605.747          51.000
E24  25469092.297 6 133840976.899 6     -2629.188          37.000    25469104.391 6 102553530.221 6     -2014.647          38.000
E25  24021637.234 8 126234601.223 8      -336.234          51.000    24021639.219 8  96725269.380 8      -257.616          51.000
> 2020 05 02 04 02 30.0000000  0 16        .000000000000
G05  20697779.727 8 108767588.397 8      -970.871          51.000    20697779.156 8  84753933.006 8      -756.523          50.000
G28  21705475.375 8 114063032.207 8      2203.801          51.000    21705470.555 7  88880289.813 7      1717.247          43.000
G30  20596399.094 8 108234815.853 8     -1080.176          51.000    20596399.719 8  84338836.548 8      -841.695          51.000
R02  21131212.336 8 112760193.872 8     -3066.047          51.000    21131214.977 7  87702364.958 7     -2384.703          44.000
R03  19211036.172 8 102838219.785 8       421.195          48.000    19211037.250 7  79985276.952 7       327.596          46.000
R13  19154486.992 6 102283919.868 6       218.578          40.000    19154490.156 7  79554140.958 7       170.002          44.000
R14  21576966.945 8 115017414.780 8      3720.590          49.000    21576970.562 7  89458010.511 7      2893.792          46.000
C05  39781472.500 5 207152566.152 5         2.270          35.000    39781472.070 6 160183498.332 6         2.057          41.000
C14  24994615.719 7 130153500.568 7     -3129.148          42.000    24994611.461 7 100642934.992 7     -2419.599          44.000
C23  24890254.062 6 129610079.594 6      3006.051          37.000
C24  23496371.906 6 122351777.557 6     -2280.391          41.000
C25  21848557.398 8 113771231.743 8       797.551          51.000
E02  24646756.016 8 129519561.937 8      2390.746          51.000    24646756.906 8  99242336.031 8      1831.876          51.000
E03  23626577.906 8 124158489.292 8      -799.727          51.000    23626578.617 8  95134450.931 8      -612.783          51.000
E24  25484117.359 6 133919936.308 6     -2635.801          36.000    25484130.086 6 102614031.522 6     -2019.493          38.000
E25  24023595.727 8 126244892.501 8      -350.883          51.000    24023597.516 8  96733154.903 8      -268.807          51.000
> 2020 05 02 04 03  0.0000000  0 17        .000000000000
G05  20703376.445 8 108796998.675 8      -989.898          51.000    20703375.836 8  84776850.089 8      -771.349          50.000
G28  21692935.031 8 113997131.783 8      2189.488          51.000    21692931.469 7  88828938.820 7      1706.095          45.000
G30  20602600.961 8 108267408.273 8     -1092.719          51.000    20602601.766 8  84364233.243 8      -851.469          51.000
R02  21148488.102 8 112852377.340 8     -3079.723          51.000    21148489.562 7  87774063.175 7     -2395.340          45.000
R03  19208731.219 8 102825880.989 8       401.285          49.000    19208732.203 7  79975680.093 7       312.111          46.000
R13  19153326.883 6 102277725.566 6       194.105          39.000    19153330.148 7  79549323.160 7       150.971          45.000
R14  21556064.641 8 114905984.663 8      3708.082          49.000    21556067.461 7  89371342.653 7      2884.064          46.000
C05  39781456.773 5 207152484.814 5         2.863          35.000    39781456.492 6 160183435.423 6         2.021          41.000
C14  25012657.000 6 130247446.402 6     -3133.809          41.000    25012653.625 7 100715579.854 7     -2423.444          45.000
C23  24872950.961 6 129519980.082 6      3000.312          40.000
C24  23509533.633 6 122420313.610 6     -2288.777          41.000
C25  21844002.445 8 113747509.897 8       783.762          51.000
E02  24633134.562 8 129447980.107 8      2381.266          51.000    24633135.109 8  99187487.631 8      1824.588          51.000
E03  23631167.258 8 124182607.006 8      -808.199          51.000    23631168.070 8  95152930.710 8      -619.246          51.000
E05  27165686.258 6 142756633.692 6     -2463.090          36.000
E24  25499180.969 6 133999097.721 6     -2641.625          36.000    25499194.234 6 102674687.629 6     -2024.096          37.000
E25  24025637.727 8 126255622.470 8      -364.609          51.000    24025639.461 8  96741376.570 8      -279.361          51.000
> 2020 05 02 04 03 30.0000000  0 17        .000000000000
G05  20709084.031 8 108826991.662 8     -1009.238          51.000    20709083.289 8  84800221.214 8      -786.419          51.000
G28  21680478.766 8 113931672.973 8      2174.836          51.000    21680476.438 7  88777931.942 7      1694.680          45.000
G30  20608876.336 8 108300386.238 8     -1105.461          51.000    20608877.195 8  84389930.345 8      -861.398          51.000
R02  21165842.211 8 112944978.321 8     -3093.262          50.000    21165843.055 7  87846086.125 7     -2405.873          47.000
R03  19206540.086 8 102814150.325 8       381.152          49.000    19206540.516 7  79966556.255 7       296.449          45.000
R13  19152305.906 6 102272273.987 6       169.574          40.000    19152309.406 7  79545083.062 7       131.891          45.000
R14  21535234.352 8 114794942.568 8      3695.254          48.000    21535236.273 7  89284976.591 7      2874.086          45.000
C05  39781442.312 5 207152409.318 5         2.691          35.000    39781442.031 6 160183377.033 6         1.991          41.000
C14  25030728.992 7 130341552.076 7     -3139.273          42.000    25030726.453 7 100788348.282 7     -2427.425          45.000
C23  24855684.695 6 129430074.395 6      2993.996          39.000
C24  23522745.484 6 122489111.280 6     -2297.238          39.000
C25  21839528.750 8 113724211.750 8       769.805          51.000
E02  24619569.539 8 129376693.315 8      2371.566          51.000    24619569.906 8  99132865.287 8      1817.195          51.000
E03  23635806.461 8 124206986.637 8      -816.660          51.000    23635807.688 8  95171611.195 8      -625.738          51.000
E05  27179762.875 5 142830616.912 5     -2466.930          32.000    27179763.320 5 109441649.599 5     -1890.406          34.000
E24  25514280.023 5 134078446.242 5     -2647.957          34.000    25514293.852 6 102735486.301 6     -2028.652          36.000
E25  24027760.148 8 126266776.204 8      -378.434          51.000    24027762.023 8  96749922.947 8      -289.987          51.000
> 2020 05 02 04 04  0.0000000  0 18        .000000000000
G05  20714887.242 8 108857487.040 8     -1018.387          51.000    20714886.188 8  84823983.857 8      -793.548          51.000
G07  22584233.992 5 118680945.189 5     -2477.992          33.000
G28  21668091.789 8 113866577.458 8      2170.203          51.000    21668090.133 7  88727208.176 7      1691.067          45.000
G30  20615209.602 8 108333668.089 8     -1108.023          51.000    20615210.594 8  84415864.247 8      -863.395          51.000
R02  21183258.383 8 113037913.541 8     -3096.852          48.000    21183259.953 7  87918369.044 7     -2408.662          47.000
R03  19204447.398 8 102802947.829 8       371.230          50.000    19204447.828 7  79957843.191 7       288.735          46.000
R12  21507049.250 5 114886766.071 5     -3542.918          33.000
R13  19151409.031 6 102267483.564 6       155.145          39.000    19151412.344 7  79541357.174 7       120.668          45.000
R14  21514461.133 8 114684209.930 8      3692.461          48.000    21514463.398 7  89198851.196 7      2871.911          46.000
C05  39781413.648 5 207152260.034 5        12.336          35.000    39781413.383 7 160183261.540 7         9.775          42.000
C14  25048816.516 7 130435736.767 7     -3134.441          43.000    25048814.570 7 100861177.809 7     -2423.770          45.000
C23  24838441.094 6 129340284.288 6      2997.516          39.000
C24  23535991.477 6 122558089.266 6     -2295.961          39.000
C25  21835121.016 8 113701257.616 8       765.793          51.000
E02  24606045.930 8 129305622.481 8      2371.824          51.000    24606046.031 8  99078408.424 8      1817.345          51.000
E03  23640480.453 8 124231548.270 8      -815.289          51.000    23640482.023 8  95190431.151 8      -624.732          51.000
E24  25529398.828 5 134157895.733 5     -2643.613          34.000    25529413.375 6 102796364.721 6     -2025.778          36.000
E25  24029947.930 8 126278272.761 8      -382.434          51.000    24029949.656 8  96758731.997 8      -293.075          51.000
> 2020 05 02 04 04 30.0000000  0 18        .000000000000
G05  20720768.375 8 108888393.846 8     -1048.527          51.000    20720767.602 8  84848067.074 8      -817.034          51.000
G07  22598412.633 6 118755447.315 6     -2495.000          36.000    22598392.359 5  92536690.236 5     -1944.147          35.000
G28  21655757.461 8 113801758.584 8      2144.461          51.000    21655755.477 7  88676699.971 7      1671.012          44.000
G30  20621583.406 8 108367162.918 8     -1131.523          51.000    20621584.484 8  84441964.109 8      -881.707          51.000
R02  21200719.242 8 113131090.758 8     -3121.617          48.000    21200721.906 7  87990840.271 7     -2427.921          45.000
R03  19202436.688 8 102792183.916 8       339.758          51.000    19202437.367 7  79949471.225 7       264.256          46.000
R12  21526988.570 4 114993279.346 4     -3565.582          29.000
R13  19150618.664 6 102263262.638 6       119.633          39.000    19150621.977 7  79538074.236 7        93.048          45.000
R14  21493729.219 8 114573698.362 8      3668.508          49.000    21493732.398 7  89112897.719 7      2853.284          46.000
C05  39781353.688 5 207151947.179 5         1.391          35.000    39781353.516 6 160183020.366 6         1.516          41.000
C14  25066902.148 7 130529910.403 7     -3150.453          45.000    25066900.219 7 100933998.739 7     -2435.907          45.000
C23  24821202.938 6 129250522.078 6      2980.508          40.000
C24  23549254.891 6 122627157.032 6     -2314.984          39.000
C25  21830762.227 8 113678558.631 8       741.023          51.000
E02  24592546.766 8 129234679.323 8      2351.230          51.000    24592546.586 8  99024049.378 8      1801.649          51.000
E03  23645172.117 8 124256202.679 8      -834.781          51.000    23645174.031 8  95209322.169 8      -639.623          51.000
E24  25544520.109 5 134237359.025 5     -2660.609          32.000    25544535.430 5 102857252.883 5     -2038.583          35.000
E25  24032183.711 8 126290021.848 8      -407.270          51.000    24032185.344 8  96767734.538 8      -312.082          51.000
> 2020 05 02 04 05  0.0000000  0 18        .000000000000
G05  20726862.492 8 108920419.408 8     -1065.926          51.000    20726862.094 8  84873022.051 8      -830.592          51.000
G28  21643610.727 8 113737926.468 8      2131.574          51.000    21643607.516 7  88626960.672 7      1660.967          43.000
G30  20628132.203 8 108401577.327 8     -1142.270          51.000    20628133.023 8  84468780.536 8      -890.080          51.000
R02  21218360.398 8 113225227.400 8     -3133.359          50.000    21218363.297 7  88064057.660 7     -2437.060          44.000
R03  19200643.094 8 102782581.489 8       321.219          51.000    19200643.891 7  79942002.659 7       249.837          46.000
R12  21547079.086 5 115100631.711 5     -3573.555          34.000
R13  19150068.984 6 102260328.813 6        96.820          38.000    19150072.734 7  79535792.378 7        75.305          45.000
R14  21473174.344 8 114464128.778 8      3657.117          51.000    21473177.844 7  89027676.908 7      2844.424          45.000
C05  39781397.391 5 207152175.368 5         3.184          35.000    39781397.133 6 160183196.037 6         2.658          41.000
C14  25085120.438 7 130624773.180 7     -3153.590          47.000    25085118.203 7 101007352.603 7     -2438.450          46.000
C23  24804104.766 7 129161490.645 7      2975.797          42.000
C24  23562670.797 6 122697014.342 6     -2321.570          41.000
C25  21826586.797 8 113656816.197 8       728.859          51.000
E02  24579206.805 8 129164573.075 8      2343.156          51.000    24579206.242 8  98970331.612 8      1795.453          51.000
E03  23650016.227 8 124281658.125 8      -841.543          51.000    23650018.383 8  95228826.989 8      -644.822          51.000
E05  27222114.734 6 143053204.677 6     -2478.402          37.000    27222118.234 6 109612192.066 6     -1898.745          38.000
E24                                                                  25559794.320 5 102918692.032 5     -2041.789          35.000
E25  24034602.031 8 126302730.756 8      -419.426          51.000    24034603.781 8  96777472.527 8      -321.330          51.000
> 2020 05 02 04 05 30.0000000  0 19        .000000000000
G05  20732996.125 8 108952652.053 8     -1085.559          51.000    20732995.867 8  84898138.392 8      -845.893          51.000
G07  22626988.430 5 118905629.183 5     -2505.480          33.000
G28  21631478.094 8 113674171.662 8      2116.086          48.000    21631474.055 7  88577281.655 7      1648.901          42.000
G30  20634682.367 8 108435998.887 8     -1155.129          51.000    20634682.969 8  84495602.527 8      -900.103          51.000
R02  21236008.125 8 113319396.739 8     -3147.414          51.000    21236009.836 7  88137300.335 7     -2447.995          43.000
R03  19198893.023 8 102773214.164 8       300.395          51.000    19198893.875 7  79934716.931 7       233.640          46.000
R12  21567172.273 5 115207957.273 5     -3584.551          33.000
R13  19149587.000 6 102257756.227 6        71.816          38.000    19149590.844 7  79533791.451 7        55.857          45.000
R14  21452623.516 8 114354579.720 8      3643.453          51.000    21452626.062 7  88942472.083 7      2833.797          43.000
C05  39781371.391 5 207152039.852 5         3.156          35.000    39781370.898 6 160183090.460 6         2.350          41.000
C14  25103297.422 8 130719421.007 8     -3158.949          48.000    25103294.883 8 101080540.275 8     -2442.627          48.000
C23  24786973.531 7 129072288.274 7      2968.551          43.000
C24  23576065.016 6 122766756.578 6     -2330.414          41.000
C25  21822421.398 8 113635127.329 8       714.410          51.000
E02  24565852.602 8 129094393.844 8      2332.809          51.000    24565851.898 8  98916557.914 8      1787.525          51.000
E03  23654839.414 8 124307003.854 8      -850.758          51.000    23654841.492 8  95248247.730 8      -651.858          51.000
E05  27236267.898 6 143127581.278 6     -2482.852          37.000    27236270.773 6 109669181.878 6     -1902.463          37.000
E24                                                                  25575016.258 5 102979982.670 5     -2045.937          34.000
E25  24037029.445 8 126315487.662 8      -433.578          51.000    24037031.305 8  96787247.288 8      -332.204          51.000
> 2020 05 02 04 06  0.0000000  0 19        .000000000000
G05  20739246.969 8 108985501.701 8     -1103.883          50.000    20739246.992 8  84923735.488 8      -860.171          50.000
G07  22641307.148 5 118980858.387 5     -2510.020          30.000
G28  21619437.672 7 113610907.260 7      2101.922          42.000    21619433.914 7  88527984.750 7      1637.858          42.000
G30  20641311.805 8 108470837.149 8     -1166.887          51.000    20641312.680 8  84522749.223 8      -909.262          51.000
R02  21253739.961 8 113414015.001 8     -3160.105          51.000    21253741.250 7  88210892.199 7     -2457.863          46.000
R03  19197265.672 8 102764502.340 8       280.844          51.000    19197266.469 7  79927941.046 7       218.434          46.000
R12  21587331.180 5 115315638.101 5     -3593.785          34.000
R13  19149250.852 6 102255961.307 6        48.148          38.000    19149254.969 7  79532395.411 7        37.449          45.000
R14  21432155.008 8 114245470.461 8      3630.984          51.000    21432155.617 7  88857609.342 7      2824.099          42.000
C05  39781353.523 5 207151946.826 5         3.293          35.000    39781353.078 6 160183018.486 6         2.930          41.000
C14  25121510.891 8 130814259.812 8     -3163.223          48.000    25121508.844 8 101153875.620 8     -2445.965          51.000
C23  24769888.102 7 128983323.375 7      2962.801          44.000
C24  23589514.680 6 122836789.091 6     -2338.027          40.000
C25  21818344.375 8 113613899.095 8       701.199          51.000
E02  24552562.516 8 129024553.833 8      2323.648          51.000    24552561.820 8  98863044.131 8      1780.455          51.000
E03  23659720.070 8 124332651.100 8      -858.758          51.000    23659721.945 8  95267899.501 8      -657.988          51.000
E05  27250451.211 6 143202120.063 6     -2485.988          38.000    27250454.133 5 109726295.918 5     -1904.869          35.000
E24                                                                  25590278.906 5 103041438.563 5     -2050.448          33.000
E25  24039543.891 8 126328702.809 8      -446.742          51.000    24039546.211 8  96797373.175 8      -342.342          51.000
> 2020 05 02 04 06 30.0000000  0 18        .000000000000
G05  20745606.555 8 109018921.886 8     -1123.309          50.000    20745606.828 8  84949777.165 8      -875.305          50.000
G28  21607482.508 7 113548089.965 7      2086.715          44.000    21607480.469 7  88479036.188 7      1626.009          44.000
G30  20648011.547 8 108506045.138 8     -1179.613          51.000    20648012.789 8  84550184.019 8      -919.182          51.000
R02  21271546.188 8 113509033.580 8     -3173.781          49.000    21271548.977 8  88284795.511 8     -2468.497          48.000
R03  19195752.062 8 102756401.136 8       260.082          51.000    19195753.211 7  79921640.093 7       202.283          47.000
R12  21607547.812 5 115423624.231 5     -3604.457          33.000
R13  19149051.594 6 102254896.825 6        23.516          38.000    19149055.609 7  79531567.452 7        18.290          44.000
R14  21411760.430 8 114136757.698 8      3617.375          51.000    21411759.539 7  88773055.007 7      2813.514          42.000
C05  39781335.328 5 207151852.083 5         3.707          35.000    39781334.859 6 160182945.213 6         2.589          41.000
C14  25139751.742 7 130909243.017 7     -3168.309          46.000    25139750.711 8 101227322.620 8     -2449.880          51.000
C23  24752839.695 7 128894551.898 7      2955.934          43.000
C24  23603010.078 6 122907064.957 6     -2346.582          40.000
C25  21814347.094 8 113593086.086 8       687.047          51.000
E02  24539328.016 8 128955008.619 8      2313.496          51.000    24539327.891 8  98809756.230 8      1772.736          51.000
E03  23664649.508 8 124358554.525 8      -867.363          51.000    23664651.164 8  95287747.564 8      -664.588          51.000
E05  27264657.102 6 143276774.968 6     -2490.133          39.000    27264660.336 5 109783498.953 5     -1907.916          35.000
E24                                                                  25605573.375 5 103103023.277 5     -2054.841          32.000
E25  24042136.969 8 126342329.847 8      -460.867          51.000    24042139.758 8  96807814.658 8      -353.111          51.000
> 2020 05 02 04 07  0.0000000  0 17        .000000000000
G05  20752078.859 8 109052934.549 8     -1142.973          49.000    20752079.156 8  84976280.511 8      -890.628          50.000
G28  21595618.875 8 113485744.894 8      2070.777          50.000    21595617.594 7  88430455.585 7      1613.590          45.000
G30  20654785.766 8 108541644.393 8     -1192.477          51.000    20654787.062 8  84577923.676 8      -929.203          51.000
R02  21289430.039 7 113604474.418 7     -3187.668          45.000    21289435.570 8  88359027.297 8     -2479.297          49.000
R03  19194357.320 8 102748935.643 8       238.906          50.000    19194358.859 7  79915833.570 7       185.816          47.000
R13  19148993.023 6 102254584.537 6        -1.473          39.000    19148997.195 7  79531324.578 7        -1.145          44.000
R14  21391444.891 8 114028466.832 8      3603.281          51.000    21391443.273 7  88688828.823 7      2802.552          43.000
C05  39781321.109 5 207151778.294 5         2.914          35.000    39781320.711 6 160182888.114 6         2.120          41.000
C14  25158023.898 7 131004392.056 7     -3173.781          44.000    25158024.094 8 101300897.857 8     -2454.145          51.000
C23  24735832.977 7 128805997.740 7      2948.762          43.000
C24  23616555.750 6 122977605.020 6     -2355.125          40.000
C25  21810433.812 8 113572710.834 8       672.570          51.000
E02  24526153.859 8 128885782.305 8      2302.840          51.000    24526154.875 8  98756712.690 8      1764.481          51.000
E03  23669631.961 8 124384737.385 8      -876.828          51.000    23669633.477 8  95307809.742 8      -671.879          51.000
E05  27278888.352 5 143351568.548 5     -2494.914          33.000    27278892.984 5 109840808.255 5     -1911.206          33.000
E24                                                                  25620903.680 5 103164762.073 5     -2059.499          30.000
E25  24044812.797 8 126356390.932 8      -475.289          51.000    24044815.555 8  96818588.724 8      -364.224          51.000
> 2020 05 02 04 07 30.0000000  0 16        .000000000000
G05  20758673.625 8 109087591.349 8     -1165.285          50.000    20758673.695 8  85003285.800 8      -908.014          50.000
G28  21583856.227 8 113423926.817 8      2052.422          51.000    21583854.914 7  88382285.625 7      1599.290          47.000
G30  20661644.195 8 108577686.305 8     -1208.125          51.000    20661645.641 8  84606008.253 8      -941.396          51.000
R02  21307403.555 8 113700389.424 8     -3204.332          48.000    21307410.633 8  88433627.906 8     -2492.258          50.000
R03  19193091.734 8 102742161.218 8       214.855          50.000    19193093.477 8  79910564.565 8       167.110          48.000
R13  19149085.289 6 102255076.678 6       -29.027          40.000    19149089.266 7  79531707.360 7       -22.577          43.000
R14  21371219.062 8 113920654.423 8      3586.320          51.000    21371218.281 7  88604974.774 7      2789.360          45.000
C05  39781321.117 5 207151777.844 5        -1.094          35.000    39781320.641 6 160182887.734 6         -.574          41.000
C14  25176336.898 6 131099757.832 6     -3181.695          41.000    25176338.523 8 101374640.724 8     -2460.382          51.000
C23  24718878.188 7 128717714.423 7      2938.793          42.000
C24  23630162.086 6 123048459.774 6     -2366.348          39.000
C25  21806614.727 8 113552825.432 8       655.312          51.000
E02  24513050.766 8 128816928.890 8      2289.504          51.000    24513052.758 8  98703954.899 8      1754.307          51.000
E03  23674677.453 8 124411252.729 8      -888.762          51.000    23674679.094 8  95328126.670 8      -681.002          51.000
E05                                                                  27293160.203 5 109898246.070 5     -1917.509          32.000
E25  24047581.016 8 126370938.086 8      -492.340          51.000    24047583.477 8  96829735.215 8      -377.241          51.000
> 2020 05 02 04 08  0.0000000  0 16        .000000000000
G05  20765356.609 8 109122710.515 8     -1180.254          51.000    20765356.219 8  85030651.375 8      -919.678          51.000
G28  21572159.680 8 113362456.573 8      2041.359          51.000    21572158.125 7  88334386.718 7      1590.670          46.000
G30  20668552.242 8 108613988.377 8     -1216.215          51.000    20668553.852 8  84634295.556 8      -947.700          51.000
R02  21325433.062 8 113796593.105 8     -3213.512          51.000    21325439.375 8  88508453.022 8     -2499.395          49.000
R03  19191921.062 8 102735894.854 8       198.477          50.000    19191922.844 8  79905690.708 8       154.371          48.000
R13  19149294.055 6 102256188.956 6       -49.172          40.000    19149297.195 7  79532572.469 7       -38.245          43.000
R14  21351049.336 8 113813139.326 8      3576.953          49.000    21351050.469 7  88521351.935 7      2782.075          47.000
C05  39781300.570 5 207151671.212 5         3.973          35.000    39781300.211 6 160182805.252 6         2.827          41.000
C14  25194656.008 6 131195159.575 6     -3182.332          39.000    25194659.430 8 101448411.408 8     -2460.857          51.000
C23  24701940.727 6 128629523.571 6      2936.531          40.000
C24  23643794.781 6 123119448.023 6     -2370.641          37.000
C25  21802855.359 8 113533250.194 8       645.449          51.000
E02  24499984.758 8 128748268.485 8      2283.570          51.000    24499987.367 8  98651344.996 8      1749.752          51.000
E03  23679751.867 8 124437919.763 8      -893.242          51.000    23679753.633 8  95348559.838 8      -684.462          51.000
E05  27307427.734 6 143501494.772 6     -2502.305          36.000    27307429.969 5 109955709.222 5     -1916.913          34.000
E25  24050407.109 8 126385789.388 8      -501.887          51.000    24050409.562 8  96841114.781 8      -384.530          51.000
> 2020 05 02 04 08 30.0000000  0 16        .000000000000
G05  20772149.578 8 109158406.396 8     -1199.539          51.000    20772148.797 8  85058466.339 8      -934.706          51.000
G28  21560551.234 8 113301451.800 8      2025.672          50.000    21560549.875 8  88286850.549 8      1578.449          48.000
G30  20675531.656 8 108650664.656 8     -1228.711          51.000    20675533.109 8  84662874.456 8      -957.437          51.000
R02  21343538.531 8 113893200.912 8     -3227.059          50.000    21343543.672 7  88583592.411 7     -2509.934          46.000
R03  19190868.062 8 102730255.865 8       177.512          49.000    19190869.625 8  79901304.835 8       138.065          49.000
R13  19149640.203 6 102258036.603 6       -73.691          41.000    19149642.812 7  79534009.552 7       -57.316          43.000
R14  21330958.031 8 113706040.945 8      3562.965          48.000    21330961.086 8  88438053.195 8      2771.195          48.000
C05  39781281.703 6 207151572.920 6         2.910          36.000    39781281.344 6 160182729.207 6         2.314          41.000
C14  25213005.055 6 131290710.344 6     -3187.387          39.000    25213008.664 8 101522297.300 8     -2464.747          49.000
C23  24685041.695 6 128541540.811 6      2929.477          37.000
C24  23657475.016 5 123190682.222 5     -2379.164          35.000
C25  21799177.969 8 113514099.261 8       631.316          51.000
E02  24486978.008 8 128679917.678 8      2273.133          51.000    24486980.695 8  98598972.312 8      1741.796          51.000
E03  23684877.242 8 124464854.165 8      -902.367          51.000    23684879.047 8  95369197.879 8      -691.409          51.000
E05  27321724.766 6 143576613.869 6     -2506.125          38.000    27321724.234 6 110013267.971 6     -1920.385          36.000
E25  24053312.961 8 126401059.554 8      -515.965          51.000    24053315.422 8  96852815.286 8      -395.401          51.000
> 2020 05 02 04 09  0.0000000  0 17        .000000000000
G05  20779055.383 8 109194695.559 8     -1219.484          51.000    20779054.305 8  85086743.607 8      -950.248          51.000
G07  22727897.719 6 119435854.715 6     -2544.652          36.000
G28  21549034.500 8 113240932.382 8      2009.375          49.000    21549034.047 8  88239692.583 8      1565.747          48.000
G30  20682585.414 8 108687731.402 8     -1242.004          51.000    20682586.703 8  84691757.626 8      -967.795          51.000
R02  21361722.578 8 113990229.166 8     -3241.148          50.000    21361726.195 7  88659058.770 7     -2520.893          43.000
R03  19189935.328 7 102725263.884 7       155.637          47.000    19189937.398 8  79897422.159 8       121.048          49.000
R13  19150127.500 6 102260637.510 6       -99.168          40.000    19150129.797 7  79536032.486 7       -77.131          43.000
R14  21310948.453 8 113599379.703 8      3548.215          48.000    21310952.820 8  88355094.420 8      2759.720          48.000
C05  39781267.688 5 207151500.374 5         2.055          35.000    39781267.469 6 160182673.071 6         1.698          41.000
C14  25231386.594 6 131386426.436 6     -3193.301          40.000    25231389.352 7 101596310.969 7     -2469.121          47.000
C23  24668183.352 5 128453784.737 5      2922.062          34.000
C24  23671204.453 5 123262178.217 5     -2387.273          35.000
C25  21795585.469 8 113495389.966 8       616.383          51.000
E02  24474033.953 8 128611895.311 8      2262.109          51.000    24474035.922 8  98546851.297 8      1733.287          51.000
E03  23690056.844 8 124492073.915 8      -911.934          51.000    23690058.867 8  95390054.556 8      -698.721          51.000
E05  27336047.680 6 143651875.104 6     -2510.629          38.000    27336046.281 6 110070935.539 6     -1923.992          37.000
E25  24056301.672 8 126416765.429 8      -530.738          51.000    24056303.828 8  96864849.629 8      -406.634          51.000
> 2020 05 02 04 09 30.0000000  0 17        .000000000000
G05  20786065.461 8 109231532.672 8     -1236.582          51.000    20786063.922 8  85115447.846 8      -963.570          51.000
G07  22742435.930 5 119512239.239 5     -2548.207          35.000    22742437.812 5  93126470.782 5     -1985.622          35.000
G28  21537601.492 8 113180855.336 8      1995.430          48.000    21537602.062 7  88192879.292 7      1554.877          47.000
G30  20689704.648 8 108725142.344 8     -1252.367          51.000    20689705.961 8  84720909.003 8      -975.871          51.000
R02  21379976.047 8 114087631.065 8     -3252.496          49.000    21379978.453 7  88734815.666 7     -2529.722          45.000
R03  19189116.148 8 102720874.647 8       136.609          48.000    19189117.359 8  79894008.327 8       106.252          49.000
R13  19150746.508 6 102263943.976 6      -121.602          40.000    19150748.906 7  79538604.186 7       -94.579          43.000
R14  21291012.578 8 113493112.869 8      3535.988          49.000    21291017.422 7  88272442.407 7      2750.213          47.000
C05  39781250.281 5 207151409.130 5         4.070          35.000    39781250.000 6 160182602.507 6         2.891          41.000
C14  25249792.047 7 131482261.887 7     -3196.039          42.000    25249792.938 7 101670416.941 7     -2471.356          45.000
C23  24651362.078 5 128366212.074 5      2916.371          35.000
C24  23684975.094 6 123333889.744 6     -2393.707          36.000
C25  21792069.117 8 113477077.535 8       604.215          51.000
E02  24461144.062 8 128544157.717 8      2253.562          51.000    24461144.992 8  98494948.461 8      1726.705          51.000
E03  23695282.383 8 124519534.415 8      -918.961          51.000    23695284.555 8  95411095.711 8      -704.121          51.000
E05  27350388.156 6 143727233.042 6     -2513.266          40.000    27350387.688 6 110128677.251 6     -1925.674          38.000
E25  24059364.641 8 126432861.312 8      -542.680          51.000    24059366.641 8  96877182.827 8      -415.808          51.000
> 2020 05 02 04 10  0.0000000  0 16        .000000000000
G05  20793178.344 8 109268910.228 8     -1254.742          51.000    20793176.562 8  85144573.212 8      -977.721          51.000
G28  21526252.109 8 113121216.557 8      1980.852          48.000    21526253.328 7  88146407.492 7      1543.521          46.000
G30  20696887.961 8 108762890.005 8     -1263.676          51.000    20696889.344 8  84750322.751 8      -984.685          51.000
R02  21398296.953 8 114185398.558 8     -3264.672          48.000    21398300.328 7  88810856.989 7     -2539.189          47.000
R03  19188407.867 7 102717083.479 7       116.527          47.000    19188408.844 8  79891059.658 8        90.632          49.000
R13  19151496.461 6 102267949.044 6      -144.879          40.000    19151498.992 7  79541719.246 7      -112.684          43.000
R14  21271150.641 8 113387236.871 8      3522.980          51.000    21271153.844 7  88190094.449 7      2740.099          45.000
C05  39781227.969 5 207151293.136 5         4.508          35.000    39781227.781 6 160182512.766 6         3.604          41.000
C14  25268219.086 6 131578209.308 6     -3199.719          41.000    25268217.977 7 101744609.492 7     -2474.280          43.000
C23  24634578.445 6 128278817.757 6      2910.637          39.000
C24  23698786.266 6 123405808.936 6     -2400.738          38.000
C25  21788627.758 8 113459155.648 8       591.109          51.000
E02  24448307.398 8 128476699.886 8      2244.230          51.000    24448307.195 8  98443259.985 8      1719.674          51.000
E03  23700552.719 8 124547229.805 8      -926.801          51.000    23700554.836 8  95432316.846 8      -710.143          51.000
E05  27364745.242 6 143802681.146 6     -2516.199          40.000    27364746.086 6 110186488.132 6     -1927.970          40.000
E25  24062500.594 8 126449340.295 8      -555.340          51.000    24062502.742 8  96889809.563 8      -425.469          51.000
> 2020 05 02 04 10 30.0000000  0 17        .000000000000
G05  20800396.531 8 109306842.057 8     -1274.059          51.000    20800394.742 8  85174130.473 8      -992.773          51.000
G07  22771585.633 5 119665473.423 5     -2558.133          34.000    22771586.266 5  93245838.116 5     -1993.350          32.000
G28  21514989.977 8 113062033.231 8      1964.609          49.000    21514990.773 7  88100290.615 7      1530.867          45.000
G30  20704138.016 8 108800988.260 8     -1276.266          51.000    20704139.281 8  84780009.683 8      -994.493          51.000
R02  21416688.359 7 114283545.275 7     -3278.465          44.000    21416693.422 8  88887193.315 8     -2549.917          48.000
R03  19187814.641 8 102713907.368 8        95.090          49.000    19187815.828 8  79888589.346 8        73.959          49.000
R13  19152379.656 6 102272666.491 6      -169.438          39.000    19152382.391 7  79545388.380 7      -131.785          43.000
R14  21251365.977 8 113281769.615 8      3508.230          51.000    21251367.164 7  88108064.414 7      2728.624          45.000
C05  39781203.891 5 207151167.580 5         3.344          35.000    39781203.703 6 160182415.623 6         3.008          41.000
C14  25286670.094 6 131674282.557 6     -3204.836          40.000    25286666.875 6 101818899.401 6     -2478.276          41.000
C23  24617833.281 6 128191618.238 6      2902.781          39.000
C24  23712639.812 6 123477949.172 6     -2409.098          37.000
C25  21785264.180 8 113441639.225 8       576.641          51.000
E02  24435526.914 8 128409538.324 8      2233.227          51.000    24435525.742 8  98391798.528 8      1711.165          49.000
E03  23705870.688 8 124575175.714 8      -936.262          51.000    23705872.844 8  95453729.929 8      -717.383          51.000
E05  27379122.297 6 143878234.433 6     -2520.699          38.000    27379124.562 7 110244379.584 7     -1931.600          42.000
E25  24065712.055 8 126466216.890 8      -569.668          51.000    24065714.523 8  96902740.976 8      -436.529          51.000
> 2020 05 02 04 11  0.0000000  0 17        .000000000000
G05  20807723.047 8 109345343.531 8     -1292.496          51.000    20807721.219 8  85204131.634 8     -1007.140          51.000
G07  22786204.727 6 119742300.884 6     -2563.102          36.000    22786213.727 5  93305735.336 5     -1997.246          34.000
G28  21503818.344 8 113003324.090 8      1949.438          51.000    21503818.500 7  88054543.259 7      1519.042          45.000
G30  20711457.547 8 108839452.231 8     -1287.828          51.000    20711458.570 8  84809981.590 8     -1003.502          51.000
R02  21435152.461 7 114382086.641 7     -3290.918          43.000    21435160.086 8  88963836.561 8     -2559.603          48.000
R03  19187340.000 8 102711364.496 8        74.629          49.000    19187340.625 8  79886611.583 8        58.048          48.000
R13  19153399.242 6 102278112.120 6      -193.195          39.000    19153401.961 7  79549623.876 7      -150.266          44.000
R14  21231661.789 8 113176730.369 8      3494.562          51.000    21231662.625 7  88026367.247 7      2717.993          47.000
C05                                                                  39781180.961 6 160182323.824 6         3.244          41.000
C14  25305146.820 6 131770496.540 6     -3208.980          36.000    25305143.250 7 101893298.185 7     -2481.469          43.000
C23  24601129.547 6 128104630.914 6      2897.055          38.000
C24  23726537.562 5 123550324.997 5     -2416.398          31.000
C25  21781981.414 8 113424544.360 8       563.172          51.000
E02  24422806.000 8 128342690.667 8      2223.441          51.000    24422803.938 8  98340577.599 8      1703.733          48.000
E03  23711239.398 8 124603388.886 8      -944.441          51.000    23711241.805 8  95475347.800 8      -723.660          51.000
E05  27393521.734 6 143953909.009 6     -2524.008          38.000    27393526.188 7 110302363.901 7     -1933.929          42.000
E25  24069002.305 8 126483506.722 8      -582.836          51.000    24069004.734 8  96915989.028 8      -446.571          51.000
> 2020 05 02 04 11 30.0000000  0 17        .000000000000
G05  20815154.383 8 109384396.507 8     -1311.133          51.000    20815152.891 8  85234562.514 8     -1021.662          51.000
G07  22800852.477 6 119819271.833 6     -2568.719          37.000    22800839.828 5  93365626.445 5     -2001.599          31.000
G28  21492734.172 8 112945073.364 8      1933.965          51.000    21492733.430 7  88009153.105 7      1506.989          43.000
G30  20718842.938 8 108878262.864 8     -1299.535          51.000    20718844.047 8  84840223.638 8     -1012.625          51.000
R02  21453688.320 7 114481002.573 7     -3303.426          45.000    21453696.906 7  89040771.245 7     -2569.328          47.000
R03  19186980.062 8 102709438.551 8        53.840          50.000    19186980.500 8  79885113.610 8        41.875          48.000
R13  19154551.414 6 102284266.098 6      -216.922          39.000    19154554.711 7  79554410.321 7      -168.717          44.000
R14  21212034.469 8 113072103.823 8      3480.625          49.000    21212035.664 7  87944991.034 7      2707.153          47.000
C05  39781156.305 6 207150919.487 6         4.527          36.000    39781156.117 6 160182223.763 6         3.298          41.000
C14  25323645.453 5 131866832.519 5     -3213.289          35.000    25323643.930 7 101967791.307 7     -2484.870          45.000
C23  24584463.148 6 128017839.564 6      2889.816          37.000
C24  23740478.992 5 123622897.075 5     -2424.578          32.000
C25  21778775.797 8 113407853.225 8       549.562          51.000
E02  24410141.461 8 128276140.418 8      2213.164          51.000    24410138.938 8  98289584.572 8      1695.840          48.000
E03  23716655.805 8 124631851.959 8      -953.156          51.000    23716658.320 8  95497157.144 8      -730.317          51.000
E05  27407940.578 6 144029686.806 6     -2527.828          37.000    27407946.547 6 110360427.394 6     -1936.817          40.000
E25  24072367.695 8 126501191.350 8      -596.285          51.000    24072369.867 8  96929539.570 8      -456.906          51.000
> 2020 05 02 04 12  0.0000000  0 16        .000000000000
G05  20822691.023 8 109424003.850 8     -1329.176          51.000    20822690.242 8  85265425.349 8     -1035.724          51.000
G28  21481738.188 8 112887287.108 8      1918.707          51.000    21481736.992 7  87964124.861 7      1495.096          43.000
G30  20726294.766 8 108917422.575 8     -1310.824          51.000    20726296.039 8  84870737.680 8     -1021.421          51.000
R02  21472296.680 8 114580295.284 8     -3315.727          49.000    21472304.008 7  89117998.933 7     -2578.895          46.000
R03  19186736.648 8 102708134.886 8        33.445          50.000    19186736.891 8  79884099.656 8        26.013          48.000
R13  19155837.047 6 102291131.460 6      -240.543          40.000    19155840.211 7  79559750.041 7      -187.089          44.000
R14  21192485.500 8 112967896.343 8      3466.879          48.000    21192487.039 8  87863940.741 8      2696.461          48.000
C05  39781130.320 6 207150784.289 6         4.734          36.000    39781130.000 6 160182118.391 6         3.897          41.000
C14  25342169.008 5 131963292.949 5     -3217.312          35.000    25342168.875 7 102042380.595 7     -2487.501          46.000
C23  24567835.609 6 127931248.925 6      2883.215          40.000
C24  23754464.008 5 123695707.604 5     -2430.512          35.000
C25  21775648.383 8 113391569.317 8       536.344          51.000
E02  24397534.273 8 128209892.470 8      2203.562          51.000    24397532.148 8  98238823.179 8      1688.471          49.000
E03  23722120.648 8 124660568.947 8      -961.125          51.000    23722123.031 8  95519161.041 8      -736.384          51.000
E05  27422379.828 6 144105571.170 6     -2530.652          36.000    27422386.477 6 110418572.556 6     -1939.209          40.000
E25  24075808.688 8 126519273.676 8      -608.957          51.000    24075810.898 8  96943394.843 8      -466.588          51.000
> 2020 05 02 04 12 30.0000000  0 17        .000000000000
G05  20830334.219 8 109464170.467 8     -1348.207          50.000    20830334.023 8  85296723.992 8     -1050.551          50.000
G07  22830210.984 5 119973574.472 5     -2577.707          32.000
G28  21470831.719 8 112829973.336 8      1902.543          49.000    21470830.398 7  87919464.763 7      1482.501          44.000
G30  20733814.031 8 108956936.344 8     -1323.117          51.000    20733815.242 8  84901527.612 8     -1031.003          51.000
R02  21490977.727 8 114679969.715 8     -3328.914          51.000    21490982.461 7  89195523.428 7     -2589.158          45.000
R03  19186610.641 8 102707461.456 8        11.816          51.000    19186611.031 7  79883575.853 7         9.191          47.000
R13  19157256.773 6 102298713.203 6      -264.664          39.000    19157259.898 7  79565646.940 7      -205.847          45.000
R14  21173016.648 7 112864116.848 7      3452.039          46.000    21173018.367 7  87783223.355 7      2684.919          47.000
C05  39781104.117 5 207150647.499 5         4.137          35.000    39781103.742 6 160182012.609 6         3.437          41.000
C14  25360718.602 5 132059882.872 5     -3222.121          35.000    25360718.414 7 102117069.989 7     -2491.289          47.000
C23  24551248.633 7 127844866.458 7      2875.781          42.000
C24  23768490.477 6 123768741.104 6     -2438.395          37.000
C25  21772600.531 8 113375698.634 8       522.039          51.000
E02  24384986.336 8 128143954.389 8      2192.629          51.000    24384985.008 8  98188299.205 8      1680.135          51.000
E03  23727635.070 8 124689546.544 8      -970.312          51.000    23727637.281 8  95541364.627 8      -743.510          51.000
E05  27436840.961 6 144181568.210 6     -2535.316          36.000    27436848.328 6 110476803.933 6     -1942.427          40.000
E25  24079326.430 8 126537759.249 8      -622.926          51.000    24079328.750 8  96957559.117 8      -477.361          51.000
> 2020 05 02 04 13  0.0000000  0 17        .000000000000
G05  20838083.227 8 109504891.188 8     -1368.441          51.000    20838083.273 8  85328454.419 8     -1066.318          51.000
G07  22844961.383 6 120051050.689 6     -2584.883          36.000
G28  21460014.523 8 112773129.869 8      1884.992          49.000    21460013.477 7  87875171.148 7      1468.825          45.000
G30  20741399.555 8 108996798.711 8     -1336.535          51.000    20741400.641 8  84932589.202 8     -1041.456          51.000
R02  21509729.086 8 114780020.027 8     -3343.250          51.000    21509731.203 7  89273340.192 7     -2600.312          43.000
R03  19186601.969 8 102707415.375 8       -10.895          51.000    19186602.430 7  79883539.994 7        -8.474          47.000
R13  19158810.039 6 102307006.493 6      -290.297          39.000    19158813.297 7  79572097.279 7      -225.786          44.000
R14  21153626.000 7 112760763.801 7      3436.047          45.000    21153629.023 7  87702837.597 7      2672.478          46.000
C05  39781077.023 6 207150507.277 6         2.867          36.000    39781076.727 6 160181903.376 6         2.338          41.000
C14  25379292.133 5 132156596.764 5     -3228.098          33.000    25379291.789 8 102191855.288 8     -2495.916          48.000
C23  24534701.055 7 127758689.306 7      2867.305          44.000
C24  23782557.836 6 123841991.680 6     -2447.219          37.000
C25  21769631.062 8 113360236.927 8       506.637          51.000
E02  24372497.391 8 128078323.242 8      2180.703          51.000    24372497.078 8  98138010.420 8      1670.961          51.000
E03  23733198.352 8 124718780.989 8      -980.691          51.000    23733200.656 8  95563765.022 8      -751.430          51.000
E05  27451323.445 6 144257673.420 6     -2540.695          38.000    27451330.773 6 110535118.251 6     -1946.776          41.000
E25  24082919.797 8 126556643.216 8      -638.031          51.000    24082921.836 8  96972028.633 8      -488.899          51.000
> 2020 05 02 04 13 30.0000000  0 17        .000000000000
G05  20845942.508 8 109546191.120 8     -1385.316          50.000    20845942.750 8  85360636.178 8     -1079.470          50.000
G07  22859725.336 5 120128634.483 5     -2588.445          34.000    22859741.719 5  93606808.701 5     -2016.980          34.000
G28  21449292.539 8 112716785.196 8      1870.750          51.000    21449291.562 7  87831266.192 7      1457.724          46.000
G30  20749056.188 8 109037034.667 8     -1346.578          51.000    20749057.234 8  84963941.888 8     -1049.282          51.000
R02  21528554.828 8 114880471.404 8     -3354.125          51.000    21528555.203 6  89351468.927 6     -2608.767          41.000
R03  19186715.688 8 102708025.114 8       -30.367          51.000    19186715.984 7  79884014.215 7       -23.619          46.000
R13  19160500.992 6 102316035.338 6      -312.102          39.000    19160503.695 7  79579119.693 7      -242.746          44.000
R14  21134321.148 8 112657866.203 8      3423.121          48.000    21134324.758 7  87622806.097 7      2662.428          45.000
C05  39781054.008 6 207150386.676 6         4.426          36.000    39781053.766 7 160181810.878 7         3.425          42.000
C14                                                                  25397893.750 8 102266755.606 8     -2497.852          48.000
C23  24518197.680 7 127672744.769 7      2861.762          45.000
C24  23796670.539 5 123915483.857 5     -2453.125          34.000
C25  21766744.938 8 113345209.922 8       494.523          51.000
E02  24360072.398 8 128013026.501 8      2171.879          51.000    24360073.258 8  98087977.864 8      1664.137          51.000
E03  23738815.555 8 124748298.890 8      -987.742          51.000    23738817.859 8  95586382.601 8      -756.832          51.000
E05  27465831.828 6 144333912.702 6     -2542.523          38.000    27465838.617 7 110593535.322 7     -1948.242          42.000
E25  24086593.906 8 126575951.017 8      -649.910          51.000    24086595.703 8  96986822.898 8      -497.926          51.000
> 2020 05 02 04 14  0.0000000  0 17        .000000000000
G05  20853905.391 8 109588035.687 8     -1404.344          50.000    20853905.375 8  85393242.307 8     -1094.297          50.000
G07  22874515.109 5 120206354.138 5     -2593.438          31.000    22874533.734 4  93667369.447 4     -2020.860          26.000
G28  21438659.531 8 112660907.732 8      1854.340          50.000    21438658.945 7  87787725.305 7      1444.937          47.000
G30  20756777.367 8 109077609.407 8     -1358.543          51.000    20756778.539 8  84995558.552 8     -1058.608          51.000
R02  21547447.812 8 114981287.691 8     -3367.020          48.000    21547448.688 7  89429881.562 7     -2618.793          44.000
R03  19186946.016 8 102709257.900 8       -51.914          51.000    19186946.500 7  79884973.010 7       -40.381          47.000
R13  19162323.359 6 102325765.827 6      -336.504          38.000    19162326.000 7  79586687.856 7      -261.725          45.000
R14  21115097.898 8 112555392.540 8      3408.281          51.000    21115100.805 7  87543104.396 7      2650.888          46.000
C05  39781028.852 5 207150255.642 5         4.656          35.000    39781028.617 6 160181709.549 6         3.383          41.000
C14                                                                  25416517.758 7 102341744.363 7     -2501.401          47.000
C23  24501731.938 7 127587000.845 7      2854.395          46.000
C24  23810822.133 5 123989182.692 5     -2460.816          33.000
C25  21763936.055 8 113330584.222 8       480.418          51.000
E02  24347704.938 8 127948031.879 8      2161.039          51.000    24347706.672 8  98038176.801 8      1655.912          51.000
E03  23744480.430 8 124778067.083 8      -996.828          51.000    23744482.438 8  95609191.972 8      -763.806          51.000
E05  27480359.469 5 144410252.356 5     -2546.609          35.000    27480365.742 6 110652029.315 6     -1951.406          40.000
E25  24090342.164 8 126595648.375 8      -663.426          51.000    24090344.547 8  97001915.677 8      -508.333          51.000
> 2020 05 02 04 14 30.0000000  0 16        .000000000000
G05  20861974.234 8 109630436.059 8     -1422.633          51.000    20861973.383 8  85426281.543 8     -1108.545          51.000
G28  21428117.859 8 112605511.911 8      1838.391          49.000    21428117.867 8  87744559.745 8      1432.512          48.000
G30  20764565.070 8 109118533.840 8     -1369.992          51.000    20764566.242 8  85027447.713 8     -1067.526          51.000
R02  21566408.625 7 115082479.701 7     -3379.234          44.000    21566413.195 7  89508586.455 7     -2628.293          45.000
R03  19187295.141 8 102711127.536 8       -73.039          50.000    19187296.000 7  79886427.126 7       -56.811          47.000
R13  19164278.625 6 102336207.389 6      -360.023          36.000    19164281.500 7  79594809.056 7      -280.018          44.000
R14  21095957.469 8 112453358.019 8      3393.797          51.000    21095959.633 7  87463744.231 7      2639.623          46.000
C05  39781003.812 5 207150125.451 5         4.434          35.000    39781003.609 6 160181608.835 6         3.304          41.000
C14  25435168.562 5 132447602.341 5     -3238.477          30.000    25435165.797 7 102416829.903 7     -2504.452          47.000
C23  24485306.703 7 127501470.830 7      2847.254          46.000
C24  23825015.484 4 124063098.607 4     -2468.129          29.000
C25  21761206.430 8 113316371.678 8       466.812          51.000
E02  24335397.250 8 127883352.828 8      2150.707          51.000    24335399.398 8  97988617.536 8      1647.911          51.000
E03  23750195.211 8 124808098.176 8     -1005.477          51.000    23750196.961 8  95632202.784 8      -770.406          51.000
E05  27494908.664 6 144486704.313 6     -2550.105          36.000    27494914.258 6 110710609.369 6     -1954.264          41.000
E25  24094166.805 8 126615746.764 8      -676.582          51.000    24094169.430 8  97017315.732 8      -518.399          50.000
> 2020 05 02 04 15  0.0000000  0 15        .000000000000
G05  20870142.945 8 109673360.525 8     -1435.859          51.000    20870140.906 8  85459729.168 8     -1118.851          51.000
G28  21417662.227 8 112550568.835 8      1827.602          50.000    21417662.688 8  87701746.962 8      1424.102          48.000
G30  20772413.227 8 109159776.174 8     -1376.379          51.000    20772414.227 8  85059584.594 8     -1072.503          51.000
R02  21585434.195 7 115184014.895 7     -3386.418          46.000    21585441.711 7  89587558.264 7     -2633.884          46.000
R03  19187758.211 8 102713604.414 8       -88.945          51.000    19187758.570 7  79888353.569 7       -69.180          46.000
R13  19166361.328 6 102347328.902 6      -378.109          38.000    19166364.102 7  79603459.063 7      -294.088          45.000
R14  21076893.742 8 112351734.253 8      3384.383          51.000    21076896.148 8  87384703.534 8      2632.298          48.000
C05  39780973.141 5 207149965.996 5         9.445          35.000    39780972.977 6 160181485.503 6         7.545          41.000
C14  25453833.680 6 132544798.282 6     -3237.816          36.000    25453831.727 7 102491987.889 7     -2503.501          45.000
C23  24468917.062 7 127416125.708 7      2845.316          47.000
C25  21758550.570 8 113302541.863 8       458.285          51.000
E02  24323143.570 8 127818960.058 8      2145.520          51.000    24323145.891 8  97939277.624 8      1643.946          51.000
E03  23755954.094 8 124838362.023 8     -1008.820          51.000    23755955.828 8  95655391.940 8      -772.968          51.000
E05  27509472.922 6 144563237.734 6     -2548.766          36.000    27509478.820 7 110769251.808 7     -1952.932          42.000
E25  24098061.805 8 126636214.876 8      -684.598          50.000    24098064.172 8  97032999.076 8      -524.562          49.000
> 2020 05 02 04 15 30.0000000  0 17        .000000000000
G05  20878407.672 8 109716790.335 8     -1458.707          51.000    20878404.914 8  85493570.574 8     -1136.655          51.000
G07  22919035.602 5 120440344.987 5     -2606.395          32.000
G28  21407289.922 8 112496062.658 8      1806.969          50.000    21407290.414 7  87659274.608 7      1408.028          47.000
G30  20780318.203 8 109201317.281 8     -1392.301          51.000    20780319.109 8  85091954.284 8     -1084.910          51.000
R02  21604522.867 8 115285873.517 8     -3403.289          49.000    21604530.086 7  89666781.604 7     -2647.006          46.000
R03  19188331.219 8 102716671.741 8      -114.801          49.000    19188331.516 7  79890739.262 7       -89.289          47.000
R12  21980394.758 5 117415295.240 5     -3764.809          30.000
R13  19168568.125 6 102359109.927 6      -406.582          38.000    19168570.781 7  79612622.071 7      -316.230          45.000
R14  21057904.047 8 112250505.649 8      3365.055          51.000    21057906.664 8  87305970.175 8      2617.265          48.000
C05  39780933.586 5 207149759.737 5         5.328          35.000    39780933.391 6 160181326.017 6         4.066          41.000
C14  25472513.633 6 132642068.929 6     -3246.094          39.000    25472511.555 7 102567203.627 7     -2510.089          43.000
C23  24452559.602 7 127330949.004 7      2833.887          46.000
C25  21755964.852 8 113289076.788 8       440.145          51.000
E02  24310940.734 8 127754836.915 8      2130.434          50.000    24310943.188 8  97890144.296 8      1632.359          51.000
E03  23761754.125 8 124868841.113 8     -1022.180          51.000    23761755.930 8  95678746.028 8      -783.217          51.000
E05  27524049.484 6 144639834.443 6     -2556.867          37.000    27524055.328 6 110827942.762 6     -1959.278          41.000
E25  24102023.555 8 126657034.043 8      -702.453          50.000    24102026.273 8  97048951.433 8      -538.234          49.000
> 2020 05 02 04 16  0.0000000  0 15        .000000000000
G05  20886809.391 8 109760941.485 8     -1478.094          51.000    20886806.727 8  85527974.059 8     -1151.761          51.000
G28  21397042.664 8 112442213.142 8      1789.676          50.000    21397042.820 7  87617313.932 7      1394.553          46.000
G30  20788321.109 8 109243373.419 8     -1404.828          51.000    20788322.086 8  85124725.289 8     -1094.671          51.000
R02  21623713.680 8 115388275.021 8     -3416.629          49.000    21623719.867 7  89746427.194 7     -2657.378          46.000
R03  19189056.250 8 102720552.550 8      -137.164          49.000    19189056.852 8  79893757.630 8      -106.683          48.000
R13  19170939.469 6 102371770.179 6      -431.027          39.000    19170941.578 7  79622468.901 7      -335.243          45.000
R14  21039030.273 8 112149895.510 8      3349.141          51.000    21039032.820 8  87227717.841 8      2604.887          48.000
C05  39780926.391 5 207149722.465 5         3.473          35.000    39780926.195 6 160181297.158 6         3.027          41.000
C14  25491248.406 6 132739628.758 6     -3251.289          40.000    25491246.383 7 102642642.947 7     -2514.052          43.000
C23  24436275.320 7 127246157.553 7      2825.391          44.000
C25  21753490.594 8 113276191.796 8       425.414          51.000
E02  24298830.844 8 127691202.148 8      2118.672          50.000    24298832.930 8  97841385.162 8      1623.335          51.000
E03  23767636.547 8 124899753.354 8     -1031.957          51.000    23767638.172 8  95702432.027 8      -790.741          51.000
E05  27538678.945 5 144716733.748 5     -2561.480          34.000    27538684.781 6 110886848.690 6     -1962.675          40.000
E25  24106093.258 8 126678421.027 8      -716.699          50.000    24106096.336 8  97065338.880 8      -549.192          49.000
> 2020 05 02 04 16 30.0000000  0 16        .000000000000
G05  20895295.375 8 109805536.645 8     -1495.992          51.000    20895293.055 8  85562723.535 8     -1165.708          51.000
G28  21386868.258 8 112388745.755 8      1773.746          50.000    21386868.156 7  87575651.032 7      1382.140          46.000
G30  20796369.234 8 109285666.848 8     -1415.820          51.000    20796370.164 8  85157681.194 8     -1103.237          51.000
R02  21642953.273 8 115490936.709 8     -3428.484          50.000    21642958.945 7  89826275.139 7     -2666.599          47.000
R03  19189881.133 8 102724966.597 8      -158.176          50.000    19189881.547 8  79897190.792 8      -123.026          48.000
R13  19173422.320 6 102385027.764 6      -454.148          39.000    19173424.734 7  79632780.370 7      -353.227          46.000
R14  21020219.953 8 112049625.722 8      3334.562          50.000    21020222.477 7  87149730.204 7      2593.549          47.000
C05  39780899.023 5 207149580.211 5         4.316          35.000    39780898.891 6 160181187.137 6         3.477          41.000
C14  25509985.648 6 132837202.454 6     -3254.836          41.000    25509984.500 7 102718092.995 7     -2516.737          44.000
C23  24420011.906 7 127161478.575 7      2818.926          44.000
C24  23882198.461 5 124360884.088 5     -2496.031          34.000
C25  21751075.031 8 113263612.677 8       412.070          51.000
E02  24286761.844 8 127627780.465 8      2108.391          51.000    24286762.797 8  97792789.317 8      1615.502          51.000
E03  23773548.391 8 124930822.689 8     -1040.250          51.000    23773549.891 8  95726238.397 8      -797.144          51.000
E05                                                                  27553314.375 5 110945757.580 5     -1965.045          35.000
E25  24110218.258 8 126700098.587 8      -729.461          50.000    24110220.719 8  97081948.972 8      -558.914          48.000
> 2020 05 02 04 17  0.0000000  0 16        .000000000000
G05  20903888.391 8 109850694.761 8     -1514.059          51.000    20903886.633 8  85597911.687 8     -1179.786          51.000
G28  21376789.781 8 112335782.434 8      1757.609          50.000    21376789.320 7  87534380.903 7      1369.566          45.000
G30  20804485.133 8 109328316.180 8     -1426.957          51.000    20804485.938 8  85190914.413 8     -1111.918          51.000
R02  21662263.977 8 115593978.556 8     -3440.500          49.000    21662269.008 7  89906418.800 7     -2675.944          46.000
R03  19190828.258 8 102730037.322 8      -179.395          49.000    19190828.750 8  79901134.689 8      -139.529          48.000
R13  19176039.516 6 102399002.213 6      -477.395          40.000    19176041.766 7  79643649.367 7      -371.307          45.000
R14  21001496.211 8 111949820.337 8      3319.691          51.000    21001498.320 7  87072103.797 7      2581.985          46.000
C05  39780874.492 5 207149452.033 5         5.301          35.000    39780874.312 6 160181088.053 6         3.522          41.000
C14  25528748.102 6 132934907.620 6     -3258.422          41.000    25528748.320 7 102793644.768 7     -2519.685          45.000
C23  24403793.156 7 127077032.115 7      2811.562          44.000
C24  23896594.359 5 124435856.920 5     -2501.672          30.000
C25  21748740.781 8 113251457.940 8       398.609          51.000
E02  24274756.750 8 127564692.896 8      2097.871          51.000    24274756.188 8  97744449.511 8      1607.445          50.000
E03  23779512.969 8 124962169.319 8     -1049.012          51.000    23779514.570 8  95750257.247 8      -803.827          51.000
E05  27567961.781 5 144870616.413 5     -2568.246          32.000    27567968.047 6 111004761.003 6     -1967.754          36.000
E25  24114421.203 8 126722185.786 8      -742.504          50.000    24114423.086 7  97098872.933 7      -568.970          47.000
> 2020 05 02 04 17 30.0000000  0 15        .000000000000
G05  20912577.906 8 109896360.645 8     -1531.668          51.000    20912576.695 8  85633495.492 8     -1193.508          51.000
G28  21366797.031 8 112283271.061 8      1741.875          49.000    21366796.250 7  87493462.938 7      1357.305          45.000
G30  20812658.195 8 109371266.403 8     -1437.715          51.000    20812659.102 8  85224382.108 8     -1120.297          51.000
R02  21681634.336 7 115697344.571 7     -3451.934          46.000    21681639.812 7  89986814.578 7     -2684.837          46.000
R03  19191887.883 8 102735711.532 8      -200.191          50.000    19191888.992 8  79905547.952 8      -155.704          48.000
R13  19178780.203 6 102413638.134 6      -500.016          40.000    19178782.562 7  79655032.858 7      -388.901          45.000
R14  20982850.414 8 111850427.593 8      3305.098          51.000    20982851.094 7  86994798.360 7      2570.635          46.000
C05  39780842.391 5 207149284.936 5         5.145          35.000    39780842.234 6 160180958.797 6         4.029          41.000
C14  25547525.320 6 133032689.782 6     -3261.582          40.000    25547526.844 7 102869256.060 7     -2522.120          46.000
C23  24387609.992 7 126992766.115 7      2804.797          45.000
C25  21746477.945 8 113239674.144 8       385.645          51.000
E02  24262805.461 8 127501886.999 8      2087.742          51.000    24262803.500 8  97696325.537 8      1599.734          50.000
E03  23785520.227 8 124993739.917 8     -1057.078          51.000    23785522.156 8  95774447.700 8      -809.993          51.000
E05                                                                  27582635.008 6 111063817.625 6     -1970.310          38.000
E25  24118691.875 8 126744628.128 8      -755.059          49.000    24118693.797 8  97116069.034 8      -578.590          48.000
> 2020 05 02 04 18  0.0000000  0 15        .000000000000
G05  20921376.227 8 109942597.718 8     -1550.094          51.000    20921375.094 8  85669524.351 8     -1207.865          51.000
G28  21356902.914 8 112231278.394 8      1725.023          48.000    21356901.977 7  87452949.144 7      1344.174          45.000
G30  20820900.547 8 109414581.169 8     -1449.230          51.000    20820901.680 8  85258133.843 8     -1129.270          51.000
R02  21701076.875 7 115801099.203 7     -3464.328          47.000    21701083.344 7  90067512.603 7     -2694.477          45.000
R03  19193073.125 8 102742056.488 8      -222.074          50.000    19193074.484 8  79910482.911 8      -172.724          48.000
R13  19181656.750 6 102428999.657 6      -523.539          40.000    19181659.453 7  79666980.717 7      -407.197          44.000
R14  20964294.688 8 111751515.569 8      3289.676          51.000    20964295.633 7  86917866.814 7      2558.640          47.000
C05                                                                  39780815.062 6 160180849.291 6         3.809          41.000
C14  25566329.703 6 133130611.970 6     -3265.988          39.000    25566332.078 7 102944975.670 7     -2525.219          45.000
C23  24371475.227 7 126908746.087 7      2797.184          47.000
C25  21744298.562 8 113228325.266 8       371.758          51.000
E02  24250920.352 8 127439428.824 8      2076.754          51.000    24250918.102 8  97648467.994 8      1591.345          51.000
E03  23791582.875 8 125025599.745 8     -1066.098          51.000    23791584.969 8  95798859.770 8      -816.910          51.000
E05  27597320.102 5 145024895.394 5     -2575.230          33.000    27597327.594 6 111122976.895 6     -1973.166          39.000
E25  24123042.203 8 126767489.659 8      -768.387          49.000    24123044.445 8  97133586.329 8      -588.764          48.000
> 2020 05 02 04 18 30.0000000  0 18        .000000000000
G05  20930263.773 8 109989301.700 8     -1567.918          51.000    20930262.305 8  85705917.052 8     -1221.754          51.000
G07  23008810.906 5 120912116.858 5     -2633.367          30.000
G28  21347088.047 7 112179703.082 7      1708.938          46.000    21347087.719 7  87412760.601 7      1331.643          46.000
G30  20829192.453 8 109458155.828 8     -1460.172          51.000    20829193.609 8  85292088.103 8     -1137.796          51.000
R02  21720573.695 8 115905134.919 8     -3475.840          51.000    21720579.555 7  90148429.270 7     -2703.431          43.000
R03  19194363.859 8 102748968.094 8      -243.320          49.000    19194365.469 8  79915858.592 8      -189.252          48.000
R12  22108054.039 5 118097242.967 5     -3810.344          33.000
R13  19184649.180 6 102444979.602 6      -546.469          40.000    19184651.969 7  79679409.546 7      -425.031          44.000
R14  20945809.578 8 111652982.038 8      3274.762          50.000    20945811.641 8  86841229.634 8      2547.037          48.000
C05  39780773.188 5 207148925.060 5         4.777          35.000    39780773.133 6 160180680.450 6         4.063          41.000
C14  25585141.680 6 133228570.574 6     -3269.145          39.000    25585144.383 7 103020723.471 7     -2527.916          43.000
C23  24355368.492 7 126824870.842 7      2790.066          47.000
C24  23940004.211 5 124661885.041 5     -2521.133          32.000
C25  21742182.898 8 113217308.619 8       358.410          51.000
E02  24239081.828 8 127377216.222 8      2066.293          51.000    24239080.508 8  97600798.622 8      1583.239          51.000
E03  23797681.250 8 125057645.857 8     -1074.707          51.000    23797683.289 8  95823414.553 8      -823.513          51.000
E05  27612016.133 5 145102125.810 5     -2578.461          33.000    27612025.742 6 111182159.515 6     -1975.635          39.000
E25  24127452.539 8 126790666.239 8      -781.195          48.000    24127455.008 8  97151345.016 8      -598.587          48.000
> 2020 05 02 04 19  0.0000000  0 18        .000000000000
G05  20939268.039 8 110036617.980 8     -1586.559          51.000    20939266.383 8  85742786.852 8     -1236.279          51.000
G07  23023867.055 5 120991217.936 5     -2638.980          32.000
G28  21337381.172 8 112128693.720 8      1691.680          49.000    21337380.703 7  87373013.016 7      1318.189          45.000
G30  20837561.547 8 109502135.687 8     -1471.855          51.000    20837562.680 8  85326358.119 8     -1146.900          51.000
R02  21740151.391 8 116009599.499 8     -3488.367          51.000    21740154.281 6  90229679.400 6     -2713.178          38.000
R03  19195788.938 8 102756597.095 8      -265.355          50.000    19195790.602 8  79921792.252 8      -206.388          48.000
R12  22129478.680 6 118211672.882 6     -3818.531          36.000
R13  19187785.039 6 102461726.037 6      -570.277          41.000    19187788.148 7  79692434.556 7      -443.549          45.000
R14  20927423.789 8 111554978.177 8      3258.770          50.000    20927427.094 8  86765004.419 8      2534.599          49.000
C05  39780744.383 5 207148775.356 5         4.609          35.000    39780744.406 6 160180564.711 6         3.552          41.000
C14  25603988.297 6 133326709.545 6     -3273.520          38.000    25603991.602 7 103096610.741 7     -2531.260          42.000
C23  24339317.242 7 126741286.825 7      2782.129          47.000
C24  23954554.391 5 124737648.777 5     -2529.578          35.000
C25  21740158.961 8 113206769.168 8       344.215          51.000
E02  24227317.938 8 127315396.918 8      2054.949          51.000    24227318.273 8  97553430.600 8      1574.577          51.000
E03  23803843.188 8 125090025.118 8     -1083.949          51.000    23803845.266 8  95848224.610 8      -830.621          51.000
E05  27626747.602 5 145179537.860 5     -2582.723          35.000    27626757.211 6 111241477.497 6     -1978.652          39.000
E25  24131950.688 8 126814303.558 8      -794.598          48.000    24131953.242 8  97169456.740 8      -608.869          49.000
> 2020 05 02 04 19 30.0000000  0 18        .000000000000
G05  20948373.820 8 110084467.382 8     -1604.000          51.000    20948372.203 8  85780072.077 8     -1249.870          51.000
G07  23038947.031 5 121070473.190 5     -2643.461          33.000    23038949.609 5  94340641.374 5     -2059.837          34.000
G28  21327768.023 8 112078174.321 8      1675.672          50.000    21327767.109 7  87333647.251 7      1305.718          44.000
G30  20845992.789 8 109546441.791 8     -1482.406          51.000    20845993.891 8  85360882.354 8     -1155.122          51.000
R02  21759793.727 8 116114412.125 8     -3499.734          49.000    21759792.969 6  90311200.123 6     -2722.022          40.000
R03  19197333.328 8 102764865.346 8      -286.434          49.000    19197335.258 7  79928223.089 7      -222.782          47.000
R12  22150939.359 6 118326308.504 6     -3824.602          36.000
R13  19191049.430 6 102479158.475 6      -592.660          41.000    19191053.008 7  79705993.125 7      -460.958          44.000
R14  20909123.312 8 111457427.518 8      3244.078          51.000    20909127.320 8  86689131.686 8      2523.172          48.000
C05  39780714.180 5 207148617.564 5         4.922          35.000    39780714.109 6 160180442.645 6         4.177          41.000
C14  25622854.523 6 133424950.666 6     -3276.887          37.000    25622859.000 6 103172577.019 6     -2533.640          38.000
C23  24323307.461 8 126657918.211 8      2775.203          49.000
C24  23969141.625 6 124813602.944 6     -2535.062          38.000
C25  21738211.812 8 113196629.626 8       331.188          51.000
E02  24215614.234 8 127253894.411 8      2044.707          51.000    24215616.344 8  97506305.304 8      1566.691          51.000
E03  23810053.828 8 125122660.250 8     -1092.227          51.000    23810055.805 8  95873230.714 8      -836.904          51.000
E05  27641498.320 5 145257052.610 5     -2585.359          35.000    27641507.617 6 111300871.120 6     -1981.050          38.000
E25  24136521.383 8 126838323.170 8      -807.180          48.000    24136524.055 8  97187861.376 8      -618.512          50.000
> 2020 05 02 04 20  0.0000000  0 18        .000000000000
G05  20957582.367 8 110132856.842 8     -1622.684          51.000    20957580.852 8  85817778.143 8     -1264.429          51.000
G07  23054050.055 5 121149832.026 5     -2648.586          34.000    23054050.188 5  94402479.584 5     -2063.818          34.000
G28  21318250.141 8 112028154.854 8      1658.285          50.000    21318248.672 7  87294671.064 7      1292.173          44.000
G30  20854487.391 8 109591081.003 8     -1494.188          51.000    20854488.352 8  85395666.142 8     -1164.305          51.000
R02  21779501.688 7 116219579.033 7     -3511.992          45.000    21779502.203 7  90392996.552 7     -2731.546          45.000
R03  19198998.750 8 102773782.628 8      -308.855          48.000    19199000.836 7  79935158.736 7      -240.221          47.000
R12  22172437.977 5 118441154.781 5     -3832.641          35.000    22172444.953 4  92120946.829 4     -2980.943          28.000
R13  19194443.234 6 102497282.144 6      -616.320          41.000    19194446.719 7  79720089.300 7      -479.360          43.000
R14  20890910.180 8 111360340.873 8      3227.691          50.000    20890914.383 8  86613619.833 8      2510.427          48.000
C05  39780683.844 5 207148459.785 5         4.848          35.000    39780683.805 6 160180320.650 6         3.392          41.000
C14  25641741.852 5 133523300.752 5     -3280.738          35.000    25641749.633 6 103248627.631 6     -2537.132          37.000
C23  24307341.172 8 126574774.230 8      2766.961          50.000
C24  23983765.914 6 124889754.117 6     -2542.566          36.000
C25  21736342.789 8 113186897.675 8       316.852          51.000
E02  24203972.633 8 127192717.972 8      2033.098          51.000    24203976.031 8  97459429.833 8      1557.816          51.000
E03  23816314.797 8 125155559.659 8     -1101.762          51.000    23816316.438 8  95898439.332 8      -844.225          51.000
E05  27656269.539 5 145334672.894 5     -2589.625          35.000    27656277.445 5 111360346.343 5     -1984.417          35.000
E25  24141166.352 8 126862732.274 8      -820.867          48.000    24141169.109 8  97206564.446 8      -628.970          50.000
> 2020 05 02 04 20 30.0000000  0 17        .000000000000
G05  20966894.312 8 110181790.557 8     -1639.883          51.000    20966893.109 8  85855908.309 8     -1277.831          51.000
G28  21308828.922 8 111978642.787 8      1642.223          51.000    21308826.711 7  87256090.241 7      1279.654          44.000
G30  20863046.172 8 109636057.569 8     -1504.539          51.000    20863047.055 8  85430712.804 8     -1172.368          51.000
R02  21799276.594 7 116325104.593 7     -3523.277          45.000    21799279.617 7  90475072.028 7     -2740.327          47.000
R03  19200787.211 8 102783355.675 8      -329.773          49.000    19200788.781 7  79942604.426 7      -256.490          46.000
R12  22193976.164 5 118556214.295 5     -3838.531          35.000    22193984.031 4  92210437.496 4     -2985.524          28.000
R13  19197967.617 6 102516102.616 6      -638.609          41.000    19197971.320 7  79734727.456 7      -496.696          43.000
R14  20872785.836 8 111263726.142 8      3212.941          51.000    20872789.773 7  86538475.007 7      2498.951          47.000
C05  39780654.734 5 207148307.869 5         4.598          35.000    39780654.641 6 160180203.116 6         4.026          41.000
C14  25660650.773 5 133621763.985 5     -3283.465          33.000    25660662.297 6 103324765.693 6     -2539.334          38.000
C23  24291419.312 8 126491861.605 8      2760.184          51.000
C24  23998427.289 5 124966106.253 5     -2548.363          34.000
C25  21734553.094 8 113177578.503 8       303.996          51.000
E02  24192394.406 8 127131874.253 8      2022.801          51.000    24192398.422 8  97412809.313 8      1549.947          51.000
E03  23822627.141 8 125188729.292 8     -1109.871          51.000    23822629.031 8  95923854.999 8      -850.454          51.000
E05  27671061.570 5 145412408.991 5     -2592.344          31.000    27671067.836 5 111419907.144 5     -1986.437          34.000
E25  24145886.695 7 126887535.608 7      -833.094          46.000    24145889.219 8  97225569.588 8      -638.345          50.000
> 2020 05 02 04 21  0.0000000  0 17        .000000000000
G05  20976308.031 8 110231259.873 8     -1657.176          51.000    20976307.031 8  85894455.824 8     -1291.306          51.000
G28  21299503.383 8 111929633.036 8      1625.969          51.000    21299500.805 7  87217900.819 7      1266.989          46.000
G30  20871667.617 8 109681363.388 8     -1514.926          51.000    20871668.758 8  85466016.042 8     -1180.462          51.000
R02  21819117.672 8 116430979.405 8     -3534.199          48.000    21819122.031 8  90557419.072 8     -2748.825          49.000
R03  19202696.992 8 102793578.704 8      -351.000          49.000    19202698.602 7  79950555.644 7      -273.003          47.000
R12  22215552.156 5 118671476.749 5     -3844.539          34.000    22215562.047 4  92300086.032 4     -2990.197          28.000
R13  19201620.742 6 102535610.793 6      -660.883          41.000    19201624.336 6  79749900.493 6      -514.023          41.000
R14  20854749.594 8 111167578.842 8      3197.891          51.000    20854752.266 7  86463693.772 7      2487.248          46.000
C05  39780625.398 5 207148155.036 5         5.789          35.000    39780625.375 6 160180084.920 6         4.791          41.000
C14                                                                  25679593.281 5 103400985.025 5     -2541.388          34.000
C23  24275540.375 8 126409174.773 8      2753.090          51.000
C24  24013124.969 5 125042650.923 5     -2553.664          32.000
C25  21732841.352 8 113168665.035 8       291.133          51.000
E02  24180878.367 8 127071357.531 8      2012.559          51.000    24180882.320 8  97366439.363 8      1542.081          51.000
E03  23828989.453 8 125222162.630 8     -1118.102          51.000    23828991.633 8  95949472.732 8      -856.697          51.000
E05                                                                  27685878.297 5 111479559.095 5     -1988.523          31.000
E25  24150680.312 7 126912725.399 7      -845.289          45.000    24150682.531 8  97244870.870 8      -647.614          50.000
> 2020 05 02 04 21 30.0000000  0 17        .000000000000
G05  20985822.953 8 110281261.771 8     -1675.887          51.000    20985822.164 8  85933418.328 8     -1305.886          51.000
G28  21290272.914 8 111881124.771 8      1608.211          51.000    21290270.641 7  87180102.190 7      1253.154          47.000
G30  20880350.969 8 109726994.546 8     -1526.742          51.000    20880352.438 8  85501572.785 8     -1189.669          51.000
R02  21839024.234 8 116537199.585 8     -3546.742          50.000    21839028.492 8  90640034.741 8     -2758.577          50.000
R03  19204728.219 8 102804450.068 8      -373.555          50.000    19204729.578 7  79959011.148 7      -290.543          46.000
R12  22237165.242 5 118786936.355 5     -3852.238          35.000    22237175.953 4  92389887.891 4     -2996.185          27.000
R13  19205401.758 6 102555801.792 6      -684.762          41.000    19205404.867 7  79765604.602 7      -532.592          42.000
R14  20836801.227 8 111071898.703 8      3181.160          51.000    20836801.875 7  86389275.936 7      2474.239          45.000
C05  39780595.414 5 207147998.925 5         5.340          35.000    39780595.422 6 160179964.215 6         3.948          41.000
C14                                                                  25698541.219 5 103477282.780 5     -2544.985          33.000
C23  24259703.930 8 126326712.222 8      2744.617          50.000
C24  24027859.500 5 125119384.141 5     -2561.215          31.000
C25  21731206.656 8 113160154.294 8       276.766          51.000
E02  24169424.531 8 127011166.337 8      2000.605          51.000    24169427.703 8  97320318.853 8      1532.940          51.000
E03  23835401.391 8 125255857.320 8     -1127.887          51.000    23835403.703 8  95975290.735 8      -864.201          51.000
E05  27700705.039 5 145568210.057 5     -2600.031          33.000
E25  24155547.070 7 126938298.252 7      -859.098          47.000    24155548.812 8  97264465.626 8      -658.306          50.000
> 2020 05 02 04 22  0.0000000  0 16        .000000000000
G05  20995437.867 8 110331790.079 8     -1693.344          51.000    20995437.352 8  85972791.017 8     -1319.489          51.000
G28  21281136.891 8 111833114.962 8      1591.602          51.000    21281134.898 7  87142691.968 7      1240.209          47.000
G30  20889095.156 8 109772945.126 8     -1537.359          51.000    20889096.547 8  85537378.423 8     -1197.942          51.000
R02  21858993.891 8 116643758.514 8     -3557.957          48.000    21858998.148 8  90722913.889 8     -2767.300          49.000
R03  19206879.570 8 102815966.432 8      -394.961          49.000    19206881.094 7  79967968.301 7      -307.195          47.000
R12  22258813.680 5 118902585.178 5     -3858.121          34.000    22258823.883 4  92479838.927 4     -3000.761          27.000
R13  19209309.695 6 102576669.066 6      -707.145          41.000    19209312.867 7  79781834.708 7      -550.001          42.000
R14  20818939.555 8 110976683.306 8      3165.797          51.000    20818939.578 7  86315219.584 7      2462.289          46.000
C05  39780564.062 5 207147836.144 5         5.199          35.000    39780563.984 6 160179837.525 6         4.123          41.000
C14  25717495.758 5 133917747.092 5     -3294.281          32.000    25717503.055 5 103553654.200 5     -2547.356          33.000
C23  24243909.656 8 126244470.542 8      2737.371          50.000
C24  24042629.859 5 125196299.716 5     -2567.457          34.000
C25  21729648.516 8 113152041.310 8       263.547          51.000
E02  24158032.180 8 126951297.137 8      1989.934          51.000    24158033.984 8  97274445.058 8      1524.772          51.000
E03  23841861.984 8 125289809.060 8     -1136.250          51.000    23841864.578 8  96001305.710 8      -870.636          51.000
E25  24160485.570 7 126964248.559 7      -871.613          46.000    24160487.289 8  97284349.592 8      -667.863          50.000
> 2020 05 02 04 22 30.0000000  0 17        .000000000000
G05  21005153.438 8 110382847.544 8     -1711.387          51.000    21005153.148 8  86012576.031 8     -1333.551          51.000
G07  23129922.781 6 121548558.114 6     -2669.098          36.000    23129923.531 5  94713139.687 5     -2079.816          32.000
G28  21272096.609 8 111785609.597 8      1574.422          51.000    21272094.516 7  87105674.785 7      1226.822          46.000
G30  20897900.766 8 109819218.143 8     -1548.469          51.000    20897901.711 8  85573435.305 8     -1206.599          51.000
R02  21879026.875 8 116750658.526 8     -3569.703          48.000    21879031.312 8  90806058.315 8     -2776.439          48.000
R03  19209152.766 8 102828132.905 8      -417.062          50.000    19209154.031 7  79977431.105 7      -324.382          47.000
R12  22280498.023 5 119018424.165 5     -3865.035          33.000    22280508.055 4  92569925.887 4     -3006.138          26.000
R13  19213344.711 6 102598215.478 6      -730.074          41.000    19213347.867 7  79798593.032 7      -567.836          42.000
R14  20801165.695 8 110881939.340 8      3149.695          51.000    20801166.906 7  86241529.850 7      2449.760          47.000
C05  39780532.023 6 207147669.070 6         4.840          36.000    39780531.969 6 160179708.307 6         3.860          41.000
C14  25736485.062 5 134016610.564 5     -3298.203          32.000    25736484.922 5 103630101.628 5     -2550.220          34.000
C23  24228159.422 8 126162455.140 8      2729.430          51.000
C24  24057436.773 5 125273385.164 5     -2573.988          30.000
C25  21728167.703 8 113144329.983 8       249.707          51.000
E02  24146702.141 8 126891755.360 8      1978.551          51.000    24146702.484 8  97228822.147 8      1516.029          51.000
E03  23848372.266 8 125324022.540 8     -1145.570          51.000    23848375.078 8  96027521.242 8      -877.709          51.000
E25  24165496.117 7 126990579.720 7      -884.715          45.000    24165497.914 8  97304525.409 8      -677.919          49.000
> 2020 05 02 04 23  0.0000000  0 15        .000000000000
G05  21014968.500 8 110434426.895 8     -1728.547          51.000    21014968.336 8  86052767.729 8     -1346.920          51.000
G28  21263151.617 8 111738605.168 8      1557.906          51.000    21263149.359 7  87069047.929 7      1213.950          46.000
G30  20906766.406 8 109865806.816 8     -1558.828          51.000    20906767.078 8  85609738.156 8     -1214.671          51.000
R02  21899122.922 8 116857892.538 8     -3580.488          49.000    21899126.359 7  90889462.532 7     -2784.824          44.000
R03  19211546.477 8 102840945.195 8      -438.430          50.000    19211547.703 7  79987396.217 7      -341.001          47.000
R12  22302216.164 5 119134444.714 5     -3870.746          32.000
R13  19217505.688 6 102620433.736 6      -752.379          40.000    19217508.797 7  79815873.914 7      -585.181          42.000
R14  20783478.891 8 110787663.799 8      3133.977          50.000    20783481.914 8  86168204.393 8      2437.537          48.000
C05  39780498.312 5 207147493.429 5         5.328          35.000    39780498.234 6 160179572.462 6         4.271          41.000
C14                                                                  25755487.289 5 103706620.037 5     -2552.195          30.000
C23  24212452.422 8 126080661.750 8      2722.223          51.000
C25  21726762.961 8 113137014.445 8       236.711          51.000
E02  24135433.430 8 126832536.596 8      1968.129          51.000    24135432.953 8  97183446.728 8      1508.038          51.000
E03  23854931.414 8 125358492.522 8     -1153.832          51.000    23854934.328 8  96053933.304 8      -884.033          51.000
E25  24170577.945 7 127017285.384 7      -896.980          46.000    24170579.453 8  97324988.139 8      -687.111          49.000
> 2020 05 02 04 23 30.0000000  0 14        .000000000000
G05  21024902.602 8 110486630.556 8     -1746.500          51.000    21024902.258 8  86093445.883 8     -1360.909          51.000
G28  21254322.156 8 111692206.979 8      1540.473          51.000    21254319.703 7  87032893.486 7      1200.371          46.000
G30  20915711.531 8 109912813.619 8     -1569.941          51.000    20915712.289 8  85646366.819 8     -1223.331          51.000
R02  21919300.680 8 116965563.513 8     -3592.293          50.000    21919302.461 6  90973206.594 6     -2794.006          41.000
R03  19214080.445 8 102854509.929 8      -460.719          50.000    19214082.008 7  79997946.562 7      -358.337          47.000
R13  19221811.789 6 102643427.106 6      -775.422          39.000    19221814.656 7  79833757.642 7      -603.106          42.000
R14  20765899.844 8 110693964.104 8      3117.785          50.000    20765904.508 8  86095326.778 8      2424.944          48.000
C05  39780482.781 5 207147412.231 5         4.855          35.000    39780482.641 6 160179509.649 6         3.872          41.000
C14                                                                  25774525.852 5 103783288.015 5     -2555.252          32.000
C23  24196807.867 8 125999194.284 8      2714.137          51.000
C25  21725454.086 8 113130197.155 8       222.910          51.000
E02  24124245.930 8 126773745.638 8      1956.488          51.000    24124245.445 8  97138399.095 8      1499.169          51.000
E03  23861559.367 8 125393323.082 8     -1163.000          51.000    23861561.969 8  96080621.646 8      -891.121          51.000
E25  24175750.328 7 127044468.351 7      -909.887          45.000    24175752.477 8  97345816.605 8      -697.300          49.000
> 2020 05 02 04 24  0.0000000  0 15        .000000000000
G05  21034913.352 8 110539235.393 8     -1763.418          51.000    21034912.789 8  86134436.635 8     -1374.095          51.000
G28  21245566.203 8 111646194.671 8      1524.055          50.000    21245563.766 7  86997039.752 7      1187.578          47.000
G30  20924693.672 8 109960015.307 8     -1579.809          51.000    20924694.633 8  85683147.336 8     -1231.020          51.000
R02  21939516.844 8 117073444.905 8     -3602.844          49.000    21939518.344 6  91057114.262 6     -2802.215          40.000
R03  19216712.734 8 102868601.866 8      -481.812          50.000    19216714.859 8  80008906.945 8      -374.743          48.000
R13  19226220.242 6 102666968.388 6      -797.090          39.000    19226222.844 7  79852067.524 7      -619.959          42.000
R14  20748387.992 8 110600617.143 8      3102.328          51.000    20748393.156 8  86022723.539 8      2412.922          49.000
C05  39780443.039 5 207147205.651 5         6.273          35.000    39780443.000 6 160179349.923 6         4.446          41.000
C14  25793565.227 5 134313872.296 5     -3306.766          31.000    25793558.297 6 103859934.278 6     -2556.799          36.000
C23  24181183.500 8 125917833.980 8      2706.918          50.000
C24  24102107.547 5 125505959.319 5     -2590.762          34.000
C25  21724198.422 8 113123657.792 8       210.082          51.000
E02  24113097.578 8 126715161.658 8      1946.117          51.000    24113097.859 8  97093510.072 8      1491.199          51.000
E03  23868213.844 8 125428292.613 8     -1171.266          51.000    23868216.125 8  96107416.451 8      -897.445          51.000
E25  24180971.117 7 127071905.730 7      -922.242          45.000    24180973.938 8  97366840.028 8      -706.557          48.000
> 2020 05 02 04 24 30.0000000  0 15        .000000000000
G05  21045031.047 8 110592401.005 8     -1781.027          51.000    21045030.078 8  86175864.359 8     -1387.814          51.000
G28  21236914.688 8 111600731.202 8      1506.844          50.000    21236912.531 7  86961613.671 7      1174.164          46.000
G30  20933743.328 8 110007571.772 8     -1590.707          51.000    20933744.297 8  85720204.289 8     -1239.512          51.000
R02  21959802.016 8 117181697.968 8     -3614.148          48.000    21959803.734 6  91141311.014 6     -2811.007          39.000
R03  19219474.305 8 102883386.190 8      -503.965          50.000    19219476.977 7  80020405.844 7      -391.973          47.000
R13  19230761.781 6 102691218.921 6      -819.410          39.000    19230764.281 7  79870929.033 7      -637.319          42.000
R14  20730974.078 8 110507788.951 8      3085.984          51.000    20730979.164 8  85950523.825 8      2400.210          49.000
C05  39780409.938 5 207147033.659 5         5.168          35.000    39780410.031 6 160179216.861 6         4.319          41.000
C14  25812625.055 5 134413123.224 5     -3309.980          30.000    25812618.055 6 103936681.352 6     -2559.635          40.000
C23  24165609.812 8 125836741.630 8      2699.023          48.000
C24  24117052.242 5 125583790.694 5     -2597.066          35.000
C25  21723026.508 8 113117555.592 8       196.504          51.000
E02  24102019.359 8 126656946.843 8      1934.789          51.000    24102020.797 8  97048903.904 8      1482.507          51.000
E03  23874925.523 8 125463562.502 8     -1180.297          51.000    23874927.625 8  96134441.390 8      -904.353          51.000
E25  24186271.117 7 127099757.713 7      -934.930          46.000    24186273.469 7  97388181.132 7      -716.366          47.000
> 2020 05 02 04 25  0.0000000  0 16        .000000000000
G05  21055240.500 8 110646049.460 8     -1779.500          51.000    21055239.133 8  86217668.341 8     -1386.623          51.000
G07  23206372.344 5 121950299.215 5     -2669.641          35.000    23206378.711 5  95026235.722 5     -2080.239          34.000
G28  21228353.094 8 111555741.486 8      1508.574          48.000    21228351.688 7  86926556.750 7      1175.515          47.000
G30  20942845.680 8 110055405.135 8     -1582.297          51.000    20942846.516 8  85757477.003 8     -1232.962          51.000
R02  21980142.352 8 117290243.354 8     -3605.980          48.000    21980144.531 6  91225735.152 6     -2804.655          41.000
R03  19222350.828 8 102898786.052 8      -506.512          50.000    19222353.625 7  80032383.496 7      -393.954          47.000
R13  19235421.203 6 102716099.564 6      -822.711          39.000    19235423.484 7  79890280.647 7      -639.886          42.000
R14  20713642.961 8 110415403.717 8      3089.125          50.000    20713647.781 8  85878668.683 8      2402.653          48.000
C05  39780369.047 5 207146820.388 5        24.512          35.000    39780369.148 6 160179051.942 6        18.848          41.000
C14                                                                  25831689.227 6 104013469.592 6     -2547.519          41.000
C23  24150073.141 8 125755842.469 8      2710.027          48.000
C24  24132024.547 5 125661760.606 5     -2584.695          34.000
C25  21721924.023 8 113111814.262 8       201.945          51.000
E02  24090996.930 8 126599025.706 8      1942.551          51.000    24090999.625 8  97004522.758 8      1488.436          51.000
E03  23881679.664 8 125499056.533 8     -1170.051          51.000    23881681.562 8  96161638.064 8      -896.526          51.000
E25  24191635.250 7 127127946.847 7      -928.375          47.000    24191637.234 7  97409780.569 7      -711.358          46.000
> 2020 05 02 04 25 30.0000000  0 16        .000000000000
G05  21065528.648 8 110700113.721 8     -1816.906          51.000    21065527.367 8  86259796.329 8     -1415.768          51.000
G07  23221706.883 5 122030862.570 5     -2693.379          34.000    23221713.039 5  95089012.159 5     -2098.740          33.000
G28  21219869.211 7 111511161.857 7      1471.227          47.000    21219868.992 7  86891819.373 7      1146.410          47.000
G30  20951988.062 8 110103448.886 8     -1612.766          51.000    20951989.062 8  85794913.669 8     -1256.700          51.000
R02  22000525.523 8 117399012.668 8     -3637.273          48.000    22000528.547 7  91310333.491 7     -2828.990          44.000
R03  19225330.102 8 102914735.858 8      -548.902          50.000    19225333.117 8  80044788.876 8      -426.927          48.000
R13  19240185.953 6 102741541.736 6      -865.551          38.000    19240187.797 7  79910068.964 7      -673.206          44.000
R14  20696382.742 7 110323398.100 7      3052.512          47.000    20696385.766 7  85807108.815 7      2374.179          44.000
C05  39780307.781 5 207146501.466 5         4.680          35.000    39780307.922 6 160178805.307 6         3.531          41.000
C14                                                                  25850758.180 6 104090248.006 6     -2565.253          40.000
C23  24134562.188 8 125675072.977 8      2682.395          49.000
C24  24147010.055 5 125739802.852 5     -2610.117          34.000
C25  21720878.391 8 113106368.750 8       168.844          51.000
E02  24080018.227 8 126541334.015 8      1911.301          51.000    24080021.555 8  96960317.418 8      1464.569          51.000
E03  23888464.109 8 125534709.729 8     -1198.965          51.000    23888465.906 8  96188956.713 8      -918.726          51.000
E25  24197050.984 7 127156406.921 7      -960.918          47.000    24197053.023 7  97431587.647 7      -736.348          45.000
> 2020 05 02 04 26  0.0000000  0 15        .000000000000
G05  21075986.086 8 110755069.871 8     -1831.375          51.000    21075985.234 8  86302619.285 8     -1427.045          51.000
G28  21211555.102 8 111467471.777 8      1456.820          48.000    21211555.328 8  86857775.115 8      1135.182          48.000
G30  20961261.180 8 110152179.389 8     -1620.453          51.000    20961262.539 8  85832885.487 8     -1262.691          51.000
R02  22021041.820 8 117508489.232 8     -3645.383          49.000    22021045.336 7  91395481.916 7     -2835.298          45.000
R03  19228503.484 8 102931722.973 8      -568.031          50.000    19228506.555 8  80058001.049 8      -441.802          48.000
R13  19245146.117 6 102768029.226 6      -884.754          38.000    19245148.133 7  79930670.341 7      -688.142          44.000
R14  20679284.250 7 110232258.442 7      3039.172          47.000    20679284.742 7  85736222.443 7      2363.800          43.000
C05  39780317.172 5 207146550.444 5         7.586          35.000    39780317.336 6 160178843.149 6         5.806          41.000
C14                                                                  25869914.734 6 104167381.573 6     -2565.253          37.000
C23  24119167.797 8 125594907.630 8      2677.344          50.000
C24  24162099.672 5 125818389.125 5     -2612.973          32.000
C25  21719980.289 8 113101691.914 8       158.242          51.000
E02  24069174.539 8 126484350.494 8      1902.977          51.000    24069177.688 8  96916654.705 8      1458.143          51.000
E03  23895369.859 8 125571000.037 8     -1204.973          51.000    23895371.859 8  96216763.531 8      -923.273          51.000
E25  24202609.172 7 127185614.693 7      -970.793          47.000    24202611.078 7  97453967.628 7      -743.938          43.000
> 2020 05 02 04 26 30.0000000  0 15        .000000000000
G05  21086489.008 8 110810265.102 8     -1850.301          51.000    21086488.492 8  86345628.536 8     -1441.793          51.000
G07  23252523.148 5 122192809.880 5     -2700.098          35.000
G28  21203287.047 8 111424021.176 8      1437.988          49.000    21203287.414 7  86823917.481 7      1120.510          47.000
G30  20970540.789 8 110200943.747 8     -1632.359          51.000    20970542.242 8  85870883.670 8     -1271.968          51.000
R02  22041566.594 8 117618009.643 8     -3657.918          49.000    22041570.250 7  91480664.419 7     -2845.050          46.000
R03  19231746.703 8 102949084.420 8      -591.547          50.000    19231749.484 8  80071504.372 8      -460.092          48.000
R13  19250177.867 6 102794897.703 6      -908.387          38.000    19250179.750 7  79951568.011 7      -706.523          44.000
R14  20662224.805 8 110141326.338 8      3021.168          50.000    20662225.836 7  85665497.465 7      2349.797          45.000
C05                                                                  39780273.477 6 160178666.213 6         4.588          41.000
C14                                                                  25889035.984 5 104244370.061 5     -2568.851          35.000
C23  24103765.906 8 125514701.776 8      2667.938          50.000
C25  21719105.797 8 113097137.601 8       143.434          51.000
E02  24058342.055 8 126427424.506 8      1890.121          51.000    24058344.547 8  96873036.091 8      1448.334          51.000
E03  23902272.836 8 125607276.101 8     -1215.316          51.000    23902275.281 8  96244559.431 8      -931.258          51.000
E25  24208185.281 8 127214917.497 8      -984.801          49.000    24208187.141 7  97476420.406 7      -754.528          42.000
> 2020 05 02 04 27  0.0000000  0 16        .000000000000
G05  21097098.703 8 110866022.188 8     -1866.277          50.000    21097098.625 8  86389075.588 8     -1454.245          50.000
G07  23267949.977 4 122273900.650 4     -2703.215          29.000    23267942.742 4  95278335.525 4     -2106.401          28.000
G28  21195126.453 8 111381135.927 8      1421.801          51.000    21195126.859 7  86790500.422 7      1107.897          47.000
G30  20979888.352 8 110250065.374 8     -1641.602          51.000    20979889.672 8  85909160.240 8     -1279.170          51.000
R02  22062161.203 8 117727901.271 8     -3667.477          51.000    22062164.328 7  91566135.635 7     -2852.482          45.000
R03  19235122.078 8 102967151.933 8      -612.363          51.000    19235124.273 8  80085556.865 8      -476.283          48.000
R12  22477175.867 5 120069037.970 5     -3915.422          33.000
R13  19255341.977 6 102822474.471 6      -929.555          38.000    19255344.188 7  79973016.596 7      -722.987          44.000
R14  20645267.484 8 110050932.977 8      3005.805          51.000    20645269.422 7  85595191.530 7      2337.848          47.000
C05  39780237.883 5 207146137.054 5         7.066          35.000    39780237.992 6 160178523.438 6         5.561          41.000
C14  25908184.086 4 134910716.548 4     -3323.062          29.000    25908182.953 5 104321461.325 5     -2570.424          33.000
C23  24088418.211 8 125434778.236 8      2661.109          50.000
C25  21718316.461 8 113093027.105 8       131.273          51.000
E02  24047582.578 8 126370881.774 8      1880.074          51.000    24047584.250 8  96829711.162 8      1440.591          51.000
E03  23909234.961 8 125643862.871 8     -1223.129          51.000    23909237.836 8  96272593.409 8      -937.113          51.000
E25  24213841.070 8 127244639.069 8      -995.965          48.000    24213842.914 7  97499194.076 7      -763.181          42.000
> 2020 05 02 04 27 30.0000000  0 14        .000000000000
G05  21107804.852 8 110922286.319 8     -1884.012          50.000    21107805.062 8  86432917.746 8     -1468.061          50.000
G28  21187063.719 8 111338764.060 8      1403.598          51.000    21187063.570 7  86757483.379 7      1093.712          46.000
G30  20989293.359 8 110299489.231 8     -1652.648          51.000    20989294.695 8  85947672.335 8     -1287.778          51.000
R02  22082814.773 8 117838107.815 8     -3678.996          50.000    22082817.453 7  91651851.765 7     -2861.444          46.000
R03  19238619.438 8 102985871.587 8      -635.051          51.000    19238621.328 8  80100116.570 8      -493.931          49.000
R13  19260628.398 6 102850704.200 6      -951.898          39.000    19260630.883 7  79994973.044 7      -740.365          44.000
R14  20628401.867 8 109961026.100 8      2988.445          51.000    20628404.367 8  85525263.969 8      2324.346          49.000
C05  39780200.742 5 207145943.638 5         6.344          35.000    39780200.812 6 160178373.853 6         4.948          41.000
C14                                                                  25927343.781 5 104398613.158 5     -2573.502          33.000
C23  24073114.266 8 125355084.922 8      2652.305          49.000
C25  21717601.836 8 113089306.720 8       117.285          51.000
E02  24036886.156 8 126314669.640 8      1868.023          51.000    24036886.898 8  96786639.544 8      1431.358          51.000
E03  23916246.227 8 125680706.941 8     -1232.598          51.000    23916249.156 8  96300824.552 8      -944.449          51.000
E25  24219566.477 7 127274724.740 7     -1008.965          47.000    24219567.750 6  97522246.749 6      -773.196          41.000
> 2020 05 02 04 28  0.0000000  0 15        .000000000000
G05  21118594.016 8 110978984.482 8     -1900.602          50.000    21118594.023 8  86477098.117 8     -1480.988          51.000
G28  21179085.438 8 111296836.126 8      1386.617          51.000    21179084.531 7  86724812.284 7      1080.481          45.000
G30  20998742.078 8 110349142.943 8     -1662.516          51.000    20998743.594 8  85986363.545 8     -1295.467          51.000
R02  22103512.688 8 117948555.207 8     -3689.121          50.000    22103516.109 7  91737755.235 7     -2869.316          47.000
R03  19242225.312 8 103005171.730 8      -656.590          51.000    19242226.578 8  80115127.759 8      -510.681          48.000
R12  22521223.648 5 120304299.649 5     -3926.191          33.000    22521229.844 4  93570047.519 4     -3053.707          29.000
R13  19266022.906 6 102879510.887 6      -973.379          39.000    19266025.273 7  80017378.243 7      -757.072          44.000
R14  20611614.734 8 109871535.989 8      2972.469          51.000    20611617.609 8  85455660.553 8      2311.920          49.000
C05  39780148.414 5 207145671.009 5         7.113          35.000    39780148.539 6 160178163.028 6         5.352          41.000
C14                                                                  25946505.961 5 104475770.039 5     -2574.635          34.000
C23  24057840.711 8 125275552.478 8      2644.934          49.000
C25  21716948.531 8 113085905.523 8       104.625          51.000
E02  24026239.312 8 126258717.979 8      1857.188          51.000    24026238.961 8  96743767.498 8      1423.061          51.000
E03  23923293.117 8 125717737.457 8     -1240.969          51.000    23923296.078 8  96329198.573 8      -950.872          51.000
E25  24225347.156 8 127305102.399 8     -1020.906          48.000    24225347.922 6  97545523.152 6      -782.304          41.000
> 2020 05 02 04 28 30.0000000  0 15        .000000000000
G05  21129496.148 8 111036274.568 8     -1917.535          51.000    21129495.539 8  86521739.748 8     -1494.183          51.000
G28  21171221.883 8 111255512.629 8      1369.348          50.000    21171220.156 7  86692612.180 7      1067.024          44.000
G30  21008264.711 8 110399184.626 8     -1672.559          51.000    21008266.273 8  86025357.042 8     -1303.292          51.000
R02  22124285.266 8 118059403.050 8     -3699.555          49.000    22124289.930 7  91823970.202 7     -2877.431          47.000
R03  19245970.133 8 103025215.411 8      -678.555          51.000    19245970.461 8  80130717.291 8      -527.765          48.000
R12  22543290.219 5 120422176.793 5     -3931.211          33.000    22543297.625 4  93661729.714 4     -3057.609          29.000
R13  19271555.766 6 102909055.124 6      -995.047          39.000    19271558.250 7  80040357.102 7      -773.925          45.000
R14  20594936.281 8 109782626.169 8      2955.949          50.000    20594939.305 8  85386508.437 8      2299.069          50.000
C05  39780111.195 5 207145477.374 5         7.000          35.000    39780111.359 6 160178013.244 6         5.503          41.000
C14  25965704.938 5 135210230.558 5     -3332.730          32.000    25965700.523 5 104553053.063 5     -2576.928          34.000
C23  24042628.453 8 125196339.892 8      2637.039          49.000
C25  21716386.789 8 113082980.931 8        91.488          51.000
E02  24015672.453 8 126203187.113 8      1845.887          51.000    24015670.758 8  96701217.880 8      1414.378          50.000
E03  23930405.711 8 125755114.033 8     -1249.742          51.000    23930409.062 8  96357837.731 8      -957.592          51.000
E25  24231213.516 7 127335930.405 7     -1033.238          47.000    24231214.492 6  97569144.616 6      -791.771          41.000
> 2020 05 02 04 29  0.0000000  0 15        .000000000000
G05  21140494.648 8 111094070.054 8     -1935.156          51.000    21140493.484 8  86566775.198 8     -1507.914          51.000
G28  21163457.242 8 111214711.027 8      1351.137          49.000    21163455.359 7  86660818.750 7      1052.834          45.000
G30  21017844.789 8 110449528.304 8     -1683.426          50.000    21017846.367 8  86064585.849 8     -1311.763          51.000
R02  22145116.656 8 118170563.681 8     -3710.980          49.000    22145122.273 8  91910428.464 8     -2886.318          48.000
R03  19249837.539 8 103045917.025 8      -701.395          51.000    19249837.344 7  80146818.551 7      -545.529          47.000
R12  22565385.883 5 120540199.771 5     -3936.672          34.000    22565391.984 4  93753525.373 4     -3061.859          28.000
R13  19277210.117 6 102939249.192 6     -1017.469          40.000    19277212.562 7  80063841.361 7      -791.365          45.000
R14  20578349.844 8 109694212.988 8      2938.379          49.000    20578353.961 8  85317742.586 8      2285.403          48.000
C05  39780073.148 5 207145279.923 5         6.344          34.000    39780073.258 6 160177859.752 6         4.914          41.000
C14  25984911.531 5 135310252.478 5     -3335.344          31.000
C23  24027461.883 8 125117364.285 8      2628.301          48.000
C25  21715900.477 8 113080448.510 8        77.516          51.000
E02  24005169.367 8 126147993.342 8      1833.812          51.000    24005167.031 8  96658926.559 8      1405.246          51.000
E03  23937568.141 8 125792752.218 8     -1259.230          51.000    23937571.477 8  96386677.358 8      -964.832          51.000
E25  24237149.547 7 127367123.054 7     -1046.137          47.000    24237151.109 6  97593045.490 6      -801.660          41.000
> 2020 05 02 04 29 30.0000000  0 16        .000000000000
G05  21151579.266 8 111152318.145 8     -1949.730          51.000    21151577.859 8  86612163.306 8     -1519.270          51.000
G07  23345337.531 5 122680574.764 5     -2718.586          34.000    23345342.047 5  95595270.894 5     -2118.379          32.000
G28  21155782.266 8 111174381.211 8      1335.949          48.000    21155781.086 7  86629392.925 7      1041.002          47.000
G30  21027472.352 8 110500121.546 8     -1691.207          50.000    21027473.945 8  86104009.132 8     -1317.824          50.000
R02  22165996.625 8 118281983.237 8     -3718.859          49.000    22166002.875 7  91997088.070 7     -2892.449          47.000
R03  19253818.133 8 103067225.455 8      -720.941          51.000    19253817.852 7  80163391.764 7      -560.732          47.000
R12  22587497.891 5 120658313.909 5     -3938.785          31.000    22587504.625 5  93845391.858 5     -3063.503          30.000
R13  19282975.922 6 102970038.093 6     -1036.664          39.000    19282978.305 7  80087788.257 7      -806.294          46.000
R14  20561845.875 8 109606246.550 8      2924.219          49.000    20561850.883 7  85249324.230 7      2274.392          45.000
C05                                                                  39780024.578 6 160177663.544 6         6.706          41.000
C14  26004121.211 4 135410286.331 4     -3335.523          29.000
C23  24012330.930 7 125038576.101 7      2622.559          46.000
C25  21715479.586 8 113078257.120 8        66.805          51.000
E02  23994720.391 8 126093086.533 8      1824.836          51.000    23994718.398 8  96616855.135 8      1398.260          51.000
E03  23944770.734 8 125830601.162 8     -1265.738          51.000    23944773.719 8  96415678.500 8      -969.854          51.000
E25  24243144.812 7 127398628.274 7     -1055.820          47.000    24243146.469 6  97617185.848 6      -809.056          41.000
> 2020 05 02 04 30  0.0000000  0 15        .000000000000
G05  21162773.594 8 111211143.417 8     -1970.230          51.000    21162772.141 8  86658001.165 8     -1535.245          51.000
G07  23360886.508 5 122762286.316 5     -2726.301          31.000    23360891.141 5  95658943.373 5     -2124.393          31.000
G28  21148221.414 8 111134650.238 8      1314.508          49.000    21148221.023 8  86598433.730 8      1024.292          48.000
G30  21037171.086 8 110551089.067 8     -1704.895          50.000    21037172.680 8  86143724.052 8     -1328.489          50.000
R02  22186948.539 8 118393787.421 8     -3733.020          48.000    22186954.852 7  92084046.857 7     -2903.460          46.000
R03  19257936.008 8 103089269.661 8      -746.910          50.000    19257935.539 7  80180537.235 7      -580.933          46.000
R12  22609650.633 5 120776643.917 5     -3948.059          32.000    22609657.461 5  93937426.262 5     -3070.712          32.000
R13  19288876.789 6 103001548.626 6     -1062.340          40.000    19288879.359 7  80112296.434 7      -826.267          46.000
R14  20545451.008 8 109518856.951 8      2903.508          51.000    20545454.664 7  85181354.617 7      2258.287          44.000
C05  39779988.984 5 207144841.157 5         4.941          35.000    39779989.156 6 160177521.175 6         4.193          41.000
C23  23997259.406 7 124960101.260 7      2610.711          45.000
C25  21715148.008 8 113076531.098 8        49.945          51.000
E02  23984349.781 8 126038593.647 8      1809.723          50.000    23984348.898 8  96575100.854 8      1386.689          51.000
E03  23952037.453 8 125868787.075 8     -1278.332          51.000    23952040.242 8  96444937.824 8      -979.462          51.000
E25  24249223.203 7 127430570.982 7     -1071.855          47.000    24249224.430 7  97641661.423 7      -821.247          42.000
> 2020 05 02 04 30 30.0000000  0 15        .000000000000
G05  21174070.328 8 111270507.577 8     -1987.750          51.000    21174069.086 8  86704258.932 8     -1548.899          51.000
G28  21140768.195 8 111095483.363 8      1296.195          50.000    21140767.828 8  86567914.057 8      1010.022          48.000
G30  21046933.828 8 110602392.940 8     -1715.742          50.000    21046935.609 8  86183701.057 8     -1336.945          50.000
R02  22207965.352 8 118505937.250 8     -3744.090          48.000    22207970.945 7  92171274.472 7     -2912.070          44.000
R03  19262184.641 8 103112012.659 8      -769.719          51.000    19262183.297 7  80198226.225 7      -598.670          45.000
R12  22631837.266 5 120895149.920 5     -3952.906          32.000    22631842.367 5  94029597.541 5     -3074.486          32.000
R13  19294905.172 6 103033740.827 6     -1084.367          41.000    19294907.859 7  80137334.808 7      -843.397          45.000
R14  20529159.352 8 109432008.964 8      2885.848          51.000    20529162.414 7  85113806.226 7      2244.551          47.000
C05  39779960.133 5 207144690.691 5         4.121          35.000    39779960.281 6 160177404.830 6         3.477          41.000
C23  23982242.047 7 124881904.451 7      2602.055          47.000
C24  24298934.773 4 126530923.774 4     -2666.262          29.000
C25  21714898.656 8 113075233.582 8        36.125          51.000
E02  23974050.766 8 125984478.988 8      1797.590          48.000    23974051.562 8  96533636.351 8      1377.347          51.000
E03  23959361.305 8 125907273.556 8     -1287.816          51.000    23959363.992 8  96474427.458 8      -986.786          51.000
E25  24255377.688 7 127462913.541 7     -1084.801          46.000    24255379.352 7  97666443.361 7      -831.193          43.000
> 2020 05 02 04 31  0.0000000  0 14        .000000000000
G05  21185458.703 8 111330353.959 8     -2009.250          51.000    21185457.781 8  86750892.470 8     -1565.649          51.000
G28  21133412.438 8 111056827.618 8      1273.703          51.000    21133411.883 8  86537792.667 8       992.496          48.000
G30  21056750.070 8 110653977.738 8     -1730.777          50.000    21056752.000 8  86223896.992 8     -1348.658          50.000
R02  22229036.781 8 118618375.605 8     -3759.141          50.000    22229040.906 7  92258726.487 7     -2923.776          44.000
R03  19266553.742 8 103135400.213 8      -796.797          51.000    19266552.648 7  80216416.495 7      -619.731          46.000
R13  19301050.680 6 103066557.501 6     -1110.703          41.000    19301053.422 7  80162858.878 7      -863.880          46.000
R14  20512959.805 8 109345649.662 8      2863.961          51.000    20512963.039 8  85046637.897 8      2227.525          50.000
C05  39779927.398 5 207144520.288 5          .020          35.000    39779927.609 6 160177273.068 6         -.208          41.000
C23  23967268.961 8 124803933.083 8      2588.945          49.000
C24  24314302.258 5 126610960.143 5     -2676.938          31.000
C25  21714721.234 8 113074310.376 8        18.211          51.000
E02  23963814.188 8 125930689.363 8      1781.152          49.000    23963816.266 8  96492420.887 8      1364.839          51.000
E03  23966731.922 8 125946006.714 8     -1301.574          51.000    23966734.617 8  96504106.094 8      -997.334          51.000
E25  24261597.516 7 127495600.714 7     -1101.465          45.000    24261600.391 7  97691489.384 7      -844.144          43.000
> 2020 05 02 04 31 30.0000000  0 14        .000000000000
G05  21196943.031 8 111390705.739 8     -2017.539          51.000    21196942.648 8  86797919.815 8     -1572.108          51.000
G28  21126158.930 8 111018708.281 8      1264.250          51.000    21126158.266 8  86508089.267 8       985.127          48.000
G30  21066624.070 8 110705865.902 8     -1731.926          48.000    21066625.688 8  86264329.315 8     -1349.553          48.000
R02  22250166.328 8 118731124.834 8     -3760.711          49.000    22250169.750 7  92346420.251 7     -2925.000          46.000
R03  19271047.930 8 103159456.981 8      -810.395          51.000    19271046.930 7  80235127.271 7      -630.307          46.000
R13  19307317.078 6 103100020.365 6     -1123.250          41.000    19307319.812 7  80188885.556 7      -873.642          45.000
R14  20496856.008 8 109259805.351 8      2855.523          50.000    20496859.633 8  84979870.093 8      2220.963          50.000
C05  39779895.406 5 207144353.716 5         7.863          34.000    39779895.672 6 160177144.233 6         6.126          41.000
C23  23952344.219 8 124726211.709 8      2589.188          50.000
C24  24329702.875 5 126691158.946 5     -2673.125          35.000
C25  21714620.141 8 113073784.501 8        13.555          51.000
E02  23953645.148 8 125877249.332 8      1778.121          51.000    23953647.766 8  96451473.323 8      1362.465          51.000
E03  23974154.086 8 125985010.496 8     -1302.051          51.000    23974156.625 8  96533992.083 8      -997.699          51.000
E25  24267887.625 7 127528655.185 7     -1105.266          45.000    24267890.531 7  97716816.849 7      -846.844          43.000
> 2020 05 02 04 32  0.0000000  0 17        .000000000000
G05  21208505.617 8 111451470.579 8     -2030.668          49.000    21208505.953 8  86845269.017 8     -1582.342          49.000
G07  23423285.031 6 123090193.022 6     -2735.066          37.000    23423280.609 5  95914418.022 5     -2131.221          33.000
G15  22460797.133 5 118032296.963 5      2906.539          34.000    22460791.969 5  91973195.833 5      2264.833          33.000
G28  21118990.375 8 110981036.856 8      1249.750          50.000    21118989.828 8  86478734.916 8       973.831          48.000
G30  21076538.375 7 110757966.060 7     -1738.750          47.000    21076539.570 7  86304926.847 7     -1354.870          47.000
R02  22271335.914 8 118844090.869 8     -3767.570          48.000    22271339.906 7  92434282.623 7     -2930.336          47.000
R03  19275649.945 8 103184091.701 8      -829.309          50.000    19275648.930 7  80254287.599 7      -645.018          47.000
R12  22698517.211 5 121251315.033 5     -3959.086          33.000    22698522.625 5  94306619.661 5     -3079.292          31.000
R13  19313687.078 6 103134035.755 6     -1141.652          41.000    19313689.680 7  80215341.966 7      -887.952          46.000
R14  20480830.281 7 109174386.459 7      2841.723          47.000    20480835.664 8  84913433.123 8      2210.226          50.000
C05  39779847.172 5 207144102.758 5        11.645          35.000    39779847.320 6 160176949.390 6         8.923          41.000
C23  23937450.695 8 124648652.093 8      2584.070          50.000
C24  24345117.883 5 126771428.629 5     -2675.340          34.000
C25  21714577.914 8 113073566.073 8         3.648          51.000
E02  23943526.250 8 125824069.766 8      1769.816          51.000    23943528.930 8  96410725.350 8      1356.090          51.000
E03  23981610.789 8 126024194.983 8     -1307.629          51.000    23981612.969 8  96564016.538 8     -1001.928          51.000
E25  24274230.664 7 127561985.899 7     -1113.973          45.000    24274232.617 7  97742355.948 7      -853.668          43.000
> 2020 05 02 04 32 30.0000000  0 16        .000000000000
G05  21220155.289 8 111512692.138 8     -2043.469          50.000    21220155.680 8  86892974.112 8     -1592.313          50.000
G07  23438913.891 6 123172314.456 6     -2733.789          37.000    23438902.539 4  95978389.882 4     -2130.219          28.000
G15  22444235.703 5 117945246.654 5      2903.277          33.000
G28  21111915.672 8 110943859.384 8      1235.945          50.000    21111915.109 7  86449765.455 7       963.074          47.000
G30  21086501.320 8 110810322.161 8     -1744.469          48.000    21086502.453 7  86345723.803 7     -1359.326          47.000
R02  22292554.344 8 118957318.284 8     -3773.504          49.000    22292559.281 7  92522348.317 7     -2934.951          47.000
R03  19280368.492 8 103209350.807 8      -847.383          49.000    19280368.000 8  80273933.564 8      -659.076          48.000
R12  22720770.727 5 121370209.512 5     -3959.426          35.000    22720780.469 4  94399093.108 4     -3079.556          29.000
R13  19320168.664 6 103168647.407 6     -1158.430          40.000    19320171.539 7  80242262.126 7      -901.001          45.000
R14  20464893.695 8 109089440.806 8      2828.547          49.000    20464900.016 8  84847364.253 8      2199.981          48.000
C05  39779791.086 5 207143810.542 5        14.734          35.000    39779791.234 6 160176723.374 6        11.816          41.000
C23  23922595.875 8 124571300.091 8      2579.746          49.000
C25  21714603.273 8 113073699.357 8        -5.496          51.000
E02  23933465.844 8 125771196.838 8      1762.188          51.000    23933468.258 8  96370212.325 8      1350.269          51.000
E03  23989110.500 8 126063605.653 8     -1312.625          51.000    23989112.359 8  96594214.312 8     -1005.727          51.000
E25  24280634.547 7 127595636.929 7     -1122.176          45.000    24280636.070 7  97768140.518 7      -859.840          44.000
> 2020 05 02 04 33  0.0000000  0 16        .000000000000
G05  21231920.625 8 111574518.546 8     -2057.160          51.000    21231920.578 8  86941150.534 8     -1602.982          51.000
G07  23454583.312 6 123254646.775 6     -2734.074          38.000    23454575.000 6  96042544.977 6     -2130.444          36.000
G28  21104963.750 8 110907327.812 8      1220.672          50.000    21104963.070 7  86421299.247 7       951.173          44.000
G30  21096541.492 7 110863083.531 7     -1751.703          47.000    21096542.531 7  86386836.558 7     -1364.963          47.000
R02  22313849.953 8 119070957.471 8     -3780.730          48.000    22313855.930 8  92610734.322 8     -2940.571          48.000
R03  19285232.531 8 103235388.661 8      -866.844          49.000    19285232.812 8  80294185.239 8      -674.212          48.000
R12  22743070.914 5 121489341.434 5     -3961.242          33.000    22743081.586 4  94491751.244 4     -3080.963          27.000
R13  19326790.039 6 103204005.654 6     -1177.121          40.000    19326792.734 7  80269762.973 7      -915.542          45.000
R14  20449076.773 8 109005123.206 8      2814.074          51.000    20449081.727 7  84781783.912 7      2188.724          47.000
C05  39779755.852 5 207143627.270 5        17.656          34.000    39779756.047 6 160176581.645 6        13.955          41.000
C23  23907809.234 8 124494305.949 8      2574.125          49.000
C24  24376071.539 5 126932601.702 5     -2678.309          32.000
C25  21714724.883 8 113074333.018 8       -15.793          51.000
E02  23923492.445 8 125718781.982 8      1753.367          51.000    23923494.367 8  96330050.299 8      1343.504          51.000
E03  23996681.617 8 126103393.263 8     -1318.777          51.000    23996683.336 8  96624700.915 8     -1010.441          51.000
E25  24287127.703 7 127629757.862 7     -1131.445          46.000    24287129.375 7  97794285.105 7      -866.877          45.000
> 2020 05 02 04 33 30.0000000  0 16        .000000000000
G05  21243758.516 8 111636725.216 8     -2084.973          51.000    21243757.922 8  86989623.271 8     -1624.657          51.000
G07  23470248.805 5 123336965.682 5     -2748.566          34.000    23470240.094 5  96106689.454 5     -2141.746          34.000
G28  21098092.336 8 110871220.129 8      1191.371          49.000    21098091.859 7  86393163.373 7       928.341          45.000
G30  21106616.180 7 110916025.603 7     -1773.035          45.000    21106616.750 7  86428090.116 7     -1381.586          45.000
R02  22335179.680 7 119184779.988 7     -3802.172          47.000    22335186.469 7  92699262.912 7     -2957.245          47.000
R03  19290199.570 8 103261977.827 8      -900.734          50.000    19290200.102 8  80314865.727 8      -700.571          48.000
R12  22765373.164 5 121608481.100 5     -3976.777          35.000    22765383.930 4  94584463.372 4     -3093.052          27.000
R13  19333508.406 6 103239881.996 6     -1209.391          41.000    19333511.219 7  80297666.788 7      -940.637          45.000
R14  20433335.867 8 108921208.991 8      2785.281          51.000    20433338.648 7  84716517.335 7      2166.330          47.000
C05  39779699.133 5 207143331.923 5         6.441          35.000    39779699.305 6 160176353.252 6         5.192          41.000
C23  23893049.336 8 124417449.413 8      2554.477          50.000
C24  24391565.117 5 127013286.789 5     -2695.254          35.000
C25  21714899.945 8 113075245.184 8       -40.055          51.000
E02  23913563.648 8 125666602.847 8      1730.215          51.000    23913564.984 8  96290068.887 8      1325.737          51.000
E03  24004281.906 8 126143334.774 8     -1338.965          51.000    24004283.906 8  96655305.441 8     -1026.023          51.000
E25  24293667.406 7 127664124.295 7     -1154.621          45.000    24293669.305 7  97820617.820 7      -884.734          45.000
> 2020 05 02 04 34  0.0000000  0 16        .000000000000
G05  21255726.219 8 111699614.157 8     -2089.527          51.000    21255725.055 8  87038627.624 8     -1628.203          51.000
G07  23485964.156 5 123419569.828 5     -2740.453          35.000    23485967.133 5  96171108.454 5     -2135.418          35.000
G28  21091360.156 8 110835841.265 8      1185.219          51.000    21091359.078 7  86365595.425 7       923.547          43.000
G30  21116782.773 7 110969450.701 7     -1770.656          44.000    21116783.117 7  86469720.072 7     -1379.732          44.000
R02  22356600.383 7 119299092.075 7     -3800.125          46.000    22356607.852 7  92788172.317 7     -2955.653          45.000
R03  19295327.523 8 103289428.360 8      -910.957          51.000    19295328.172 8  80336216.134 8      -708.522          48.000
R12  22787735.289 5 121727934.165 5     -3967.969          35.000    22787745.234 4  94677369.236 4     -3086.201          27.000
R13  19340381.242 6 103276582.307 6     -1218.773          41.000    19340383.844 7  80326211.456 7      -947.935          45.000
R14  20417728.695 8 108838008.420 8      2779.801          51.000    20417730.406 8  84651805.826 8      2162.070          49.000
C05  39779678.672 5 207143225.691 5        17.953          34.000    39779678.969 6 160176271.085 6        14.000          41.000
C23  23878374.008 8 124341032.384 8      2557.824          50.000
C24  24407122.930 5 127094310.608 5     -2688.480          31.000
C25  21715186.359 8 113076736.223 8       -41.414          51.000
E02  23903737.547 8 125614963.976 8      1730.301          51.000    23903738.047 8  96250501.441 8      1325.887          51.000
E03  24011969.578 8 126183734.062 8     -1336.262          51.000    24011971.914 8  96686260.715 8     -1023.925          51.000
E25  24300311.344 7 127699038.840 7     -1154.789          44.000    24300312.867 7  97847370.520 7      -884.856          45.000
> 2020 05 02 04 34 30.0000000  0 15        .000000000000
G05  21267764.695 8 111762875.608 8     -2120.742          51.000    21267763.258 8  87087922.253 8     -1652.526          51.000
G07  23501685.000 6 123502164.681 6     -2758.344          36.000
G28  21084708.656 8 110800884.618 8      1152.297          51.000    21084706.375 7  86338356.507 7       897.897          42.000
G30  21126982.461 7 111023049.953 7     -1795.281          44.000    21126982.883 7  86511485.729 7     -1398.920          44.000
R02  22378054.477 7 119413579.029 7     -3825.203          47.000    22378060.727 6  92877217.736 6     -2975.158          40.000
R03  19300558.016 8 103317427.103 8      -948.508          51.000    19300558.516 7  80357992.891 7      -737.728          47.000
R12  22810097.141 5 121847385.126 5     -3987.895          35.000    22810105.516 4  94770271.479 4     -3101.699          29.000
R13  19347349.617 6 103313791.398 6     -1254.785          41.000    19347351.914 7  80355151.838 7      -975.947          45.000
R14  20402196.391 8 108755211.106 8      2747.215          50.000    20402198.164 8  84587407.923 8      2136.720          50.000
C05  39779635.969 5 207143002.724 5         3.211          34.000    39779636.391 6 160176099.418 6         2.631          41.000
C23  23863725.047 8 124264750.988 8      2534.699          50.000
C25  21715525.336 8 113078500.643 8       -69.184          51.000
E02  23893955.445 8 125563558.524 8      1703.699          51.000    23893955.211 8  96211112.857 8      1305.474          51.000
E03  24019685.875 8 126224283.563 8     -1360.000          51.000    24019688.656 8  96717331.096 8     -1042.111          51.000
E25  24307001.016 7 127734192.706 7     -1181.734          43.000    24307001.953 7  97874306.583 7      -905.521          46.000
> 2020 05 02 04 35  0.0000000  0 15        .000000000000
G05  21279899.828 8 111826645.651 8     -2132.012          51.000    21279898.258 8  87137613.191 8     -1661.308          51.000
G13  20647042.766 5 108500941.382 5      1430.555          30.000
G28  21078163.883 8 110766489.335 8      1139.246          51.000    21078160.758 7  86311555.032 7       887.727          43.000
G30  21137241.195 7 111076959.638 7     -1800.023          45.000    21137241.867 7  86553493.247 7     -1402.616          45.000
R02  22399568.477 8 119528378.317 8     -3829.684          49.000    22399569.750 6  92966505.988 6     -2978.649          36.000
R03  19305917.172 8 103346114.830 8      -965.555          51.000    19305916.922 7  80380305.533 7      -750.987          45.000
R12  22832484.656 5 121966970.862 5     -3986.242          34.000    22832491.148 4  94863282.537 4     -3100.411          29.000
R13  19354438.688 6 103351647.037 6     -1270.125          41.000    19354441.219 7  80384595.126 7      -987.875          45.000
R14  20386764.820 8 108672958.545 8      2734.773          50.000    20386767.828 8  84523433.656 8      2127.043          49.000
C05  39779597.297 5 207142801.484 5         8.555          35.000    39779597.781 6 160175943.811 6         6.597          41.000
C23  23849128.953 8 124188742.514 8      2531.141          51.000
C25  21715942.727 8 113080674.141 8       -77.215          51.000
E02  23884243.461 8 125512524.930 8      1697.008          51.000    23884243.062 8  96172009.214 8      1300.359          51.000
E03  24027456.992 8 126265121.116 8     -1363.918          51.000    24027460.086 8  96748622.180 8     -1045.074          51.000
E25  24313762.055 7 127769722.357 7     -1188.559          44.000    24313763.422 7  97901530.619 7      -910.699          46.000
> 2020 05 02 04 35 30.0000000  0 15        .000000000000
G05  21292120.438 8 111890866.005 8     -2148.859          51.000    21292119.273 8  87187654.998 8     -1674.436          51.000
G28  21071715.477 8 110732600.307 8      1120.422          51.000    21071711.938 7  86285148.051 7       873.059          44.000
G30  21147548.055 7 111131122.334 7     -1810.406          44.000    21147548.828 7  86595697.918 7     -1410.706          44.000
R02  22421130.172 8 119643431.142 8     -3840.000          49.000    22421127.680 6  93055991.334 6     -2986.673          39.000
R03  19311394.133 8 103375434.189 8      -988.539          51.000    19311393.688 7  80403109.428 7      -768.864          46.000
R12  22854886.289 5 122086631.385 5     -3990.469          33.000    22854891.008 5  94956351.771 5     -3103.701          30.000
R13  19361637.930 6 103390089.644 6     -1292.008          41.000    19361640.297 7  80414494.892 7     -1004.898          45.000
R14  20371425.938 8 108591195.576 8      2716.547          51.000    20371428.867 7  84459840.248 7      2112.870          47.000
C05  39779551.930 5 207142565.663 5         7.441          35.000    39779552.477 6 160175761.409 6         5.944          41.000
C23  23834575.188 8 124112952.327 8      2521.953          51.000
C24  24453911.953 5 127337946.837 5     -2714.117          32.000
C25  21716427.930 8 113083200.470 8       -90.805          51.000
E02  23874591.594 8 125461807.890 8      1684.527          51.000    23874591.664 8  96133148.127 8      1290.742          51.000
E03  24035272.250 8 126306190.691 8     -1373.676          51.000    24035275.750 8  96780091.048 8     -1052.530          51.000
E25  24320583.602 7 127805570.585 7     -1200.832          44.000    24320585.844 7  97928998.726 7      -920.241          47.000
> 2020 05 02 04 36  0.0000000  0 16        .000000000000
G05  21304434.367 8 111955577.323 8     -2164.848          51.000    21304433.953 8  87238079.367 8     -1686.894          51.000
G07  23548927.297 5 123750448.038 5     -2763.238          33.000
G28  21065371.430 8 110699261.200 8      1102.418          51.000    21065368.180 7  86259169.560 7       859.027          46.000
G30  21157910.844 7 111185579.161 7     -1819.719          44.000    21157911.438 7  86638131.797 7     -1417.963          44.000
R02  22442747.188 8 119758778.534 8     -3849.559          49.000    22442746.125 7  93145705.899 7     -2994.104          42.000
R03  19316996.992 8 103405429.327 8     -1010.680          50.000    19316997.031 7  80426438.941 7      -786.087          46.000
R12  22877309.664 5 122206407.022 5     -3994.242          31.000    22877312.969 5  95049510.456 5     -3106.636          32.000
R13  19368954.406 6 103429159.795 6     -1312.445          40.000    19368956.984 7  80444882.795 7     -1020.788          44.000
R14  20356188.125 8 108509967.368 8      2698.969          51.000    20356190.156 7  84396662.800 7      2099.201          47.000
C05  39779508.125 5 207142337.326 5         8.418          34.000    39779508.664 6 160175584.851 6         6.144          41.000
C23  23820071.469 8 124037423.460 8      2513.668          51.000
C24  24469562.047 5 127419431.081 5     -2718.148          33.000
C25  21716988.961 8 113086121.068 8      -103.637          51.000
E02  23865008.688 8 125411450.722 8      1672.941          51.000    23865009.273 8  96094562.780 8      1281.879          51.000
E03  24043139.617 8 126347534.929 8     -1382.379          51.000    24043143.672 8  96811770.360 8     -1059.160          51.000
E25  24327473.883 7 127841778.726 7     -1212.535          44.000    24327476.273 7  97956742.601 7      -929.064          47.000
> 2020 05 02 04 36 30.0000000  0 15        .000000000000
G05  21316840.195 8 112020769.959 8     -2181.133          51.000    21316840.055 8  87288878.803 8     -1699.584          51.000
G28  21059130.578 8 110666465.496 8      1084.035          51.000    21059127.656 7  86233614.458 7       844.703          47.000
G30  21168328.000 7 111240321.260 7     -1829.613          43.000    21168328.383 7  86680787.958 7     -1425.673          43.000
R02  22464417.188 8 119874410.606 8     -3859.227          49.000    22464417.688 7  93235641.929 7     -3001.621          44.000
R03  19322724.367 8 103436092.423 8     -1033.324          49.000    19322725.289 7  80450288.016 7      -803.694          47.000
R12  22899752.656 5 122326287.086 5     -3996.840          32.000    22899755.125 5  95142750.437 5     -3108.656          33.000
R13  19376386.500 6 103468846.828 6     -1333.188          40.000    19376388.773 7  80475750.455 7     -1036.924          44.000
R14  20341048.938 8 108429267.604 8      2681.137          51.000    20341051.398 8  84333896.349 8      2085.329          48.000
C05  39779464.398 5 207142109.145 5         7.145          35.000    39779464.898 6 160175408.348 6         5.790          41.000
C23  23805615.875 8 123962149.339 8      2504.871          50.000
C24  24485239.367 5 127501057.043 5     -2723.375          31.000
C25  21717624.016 8 113089427.700 8      -116.633          51.000
E02  23855493.484 8 125361446.609 8      1660.867          51.000    23855494.258 8  96056247.942 8      1272.624          51.000
E03  24051057.820 8 126389146.343 8     -1391.520          51.000    24051062.461 8  96843654.392 8     -1066.268          51.000
E25  24334430.922 7 127878337.992 7     -1224.465          42.000    24334433.312 8  97984755.532 8      -938.241          48.000
> 2020 05 02 04 37  0.0000000  0 15        .000000000000
G05  21329337.414 8 112086442.578 8     -2196.891          51.000    21329337.094 8  87340052.261 8     -1711.863          51.000
G15  22297012.789 6 117171595.097 6      2835.004          37.000
G28  21052993.297 8 110634215.364 8      1066.055          51.000    21052991.086 8  86208484.475 8       830.692          48.000
G30  21178799.141 7 111295348.107 7     -1838.879          42.000    21178799.781 7  86723665.994 7     -1432.893          43.000
R02  22486139.867 7 119990325.875 7     -3868.449          47.000    22486141.789 7  93325798.247 7     -3008.794          45.000
R03  19328576.609 8 103467424.727 8     -1055.348          48.000    19328578.641 8  80474657.600 8      -820.826          48.000
R12  22922214.148 5 122446269.562 5     -4000.957          32.000    22922216.516 5  95236070.066 5     -3111.859          33.000
R13  19383934.047 6 103509150.003 6     -1353.457          40.000    19383936.312 7  80507097.356 7     -1052.689          44.000
R14  20326008.617 8 108349098.822 8      2663.660          50.000    20326012.555 8  84271542.854 8      2071.736          49.000
C05  39779420.820 5 207141882.987 5         7.645          35.000    39779421.305 6 160175232.690 6         6.038          41.000
C23  23791208.305 8 123887131.711 8      2496.578          48.000
C25  21718333.344 8 113093120.531 8      -129.352          51.000
E02  23846045.805 8 125311797.103 8      1649.301          51.000    23846046.672 8  96018204.818 8      1263.771          51.000
E03  24059027.180 8 126431025.860 8     -1400.305          51.000    24059031.914 8  96875743.873 8     -1072.961          51.000
E25  24341454.500 6 127915248.030 6     -1236.035          39.000    24341457.125 8  98013037.258 8      -947.140          48.000
> 2020 05 02 04 37 30.0000000  0 16        .000000000000
G05  21341920.477 8 112152567.008 8     -2210.570          51.000    21341919.953 8  87391577.777 8     -1722.522          51.000
G15  22280848.734 6 117086636.885 6      2829.977          38.000    22280849.281 5  91236329.131 5      2205.177          33.000
G28  21046954.875 8 110602484.587 8      1050.031          51.000    21046953.383 8  86183759.174 8       818.203          49.000
G30  21189318.938 6 111350631.575 6     -1846.238          41.000    21189320.383 6  86766743.996 6     -1438.627          41.000
R02  22507909.812 7 120106495.011 7     -3875.414          46.000    22507913.055 7  93416152.026 7     -3014.211          45.000
R03  19334549.297 8 103499398.789 8     -1075.488          49.000    19334552.164 8  80499526.340 8      -836.491          49.000
R12  22944688.750 4 122566407.453 4     -4002.016          29.000    22944691.609 5  95329446.072 5     -3112.679          32.000
R13  19391591.297 6 103550039.462 6     -1371.730          40.000    19391593.797 7  80538900.282 7     -1066.901          43.000
R14  20311063.875 8 108269436.090 8      2647.980          51.000    20311068.297 8  84209582.909 8      2059.537          50.000
C05  39779372.398 5 207141630.458 5        10.031          35.000    39779372.859 6 160175037.418 6         7.576          41.000
C23  23776844.703 8 123812344.907 8      2490.020          48.000
C24  24516662.453 5 127664687.382 5     -2730.402          33.000
C25  21719111.695 8 113097172.269 8      -140.039          51.000
E02  23836660.555 8 125262476.158 8      1639.504          51.000    23836661.539 8  95980413.456 8      1256.249          51.000
E03  24067042.602 8 126473146.745 8     -1407.043          51.000    24067046.906 8  96908018.314 8     -1078.151          51.000
E25  24348539.836 6 127952480.854 6     -1245.496          38.000    24348542.297 8  98041566.312 8      -954.407          48.000
> 2020 05 02 04 38  0.0000000  0 15        .000000000000
G05  21354598.766 8 112219191.938 8     -2229.922          50.000    21354598.266 8  87443493.287 8     -1737.601          51.000
G15  22264729.750 6 117001917.556 6      2819.754          37.000    22264741.172 4  91170314.168 4      2197.214          28.000
G28  21041025.109 8 110571324.723 8      1028.406          51.000    21041023.969 8  86159478.743 8       801.356          49.000
G30  21199897.047 6 111406221.101 6     -1858.758          41.000    21199899.422 6  86810060.511 6     -1448.386          41.000
R02  22529736.836 7 120222967.245 7     -3888.145          47.000    22529740.672 7  93506741.496 7     -3024.115          45.000
R03  19340652.289 8 103532066.912 8     -1101.230          50.000    19340655.312 8  80524934.879 8      -856.513          49.000
R13  19399367.586 6 103591563.820 6     -1395.191          40.000    19399369.617 7  80571196.974 7     -1085.152          43.000
R14  20296224.539 8 108190332.319 8      2626.742          51.000    20296228.898 8  84148057.754 8      2043.022          50.000
C05  39779328.680 5 207141403.085 5         6.520          35.000    39779329.156 6 160174861.562 6         5.005          41.000
C23  23762536.328 8 123737840.113 8      2478.145          48.000
C24  24532416.242 5 127746729.388 5     -2738.000          34.000
C25  21719968.391 8 113101632.551 8      -156.223          51.000
E02  23827347.453 8 125213535.317 8      1624.305          51.000    23827348.812 8  95942913.347 8      1244.642          51.000
E03  24075113.852 8 126515559.954 8     -1419.305          51.000    24075117.680 8  96940516.737 8     -1087.513          51.000
E25  24355695.516 6 127990086.080 6     -1260.312          37.000    24355698.320 8  98070380.712 8      -965.667          48.000
> 2020 05 02 04 38 30.0000000  0 16        .000000000000
G05  21367358.852 8 112286245.875 8     -2240.660          51.000    21367358.180 8  87495743.106 8     -1745.969          51.000
G07  23628041.047 6 124166184.483 6     -2775.039          37.000
G15  22248641.953 5 116917370.004 5      2817.105          35.000    22248625.805 5  91104430.693 5      2195.153          35.000
G28  21035191.148 8 110540668.006 8      1015.113          51.000    21035190.219 8  86135590.374 8       790.997          49.000
G30  21210519.984 6 111462046.110 6     -1863.211          40.000    21210523.031 6  86853560.520 6     -1451.853          40.000
R02  22551606.961 7 120339670.313 7     -3892.406          47.000    22551611.047 7  93597510.470 7     -3027.430          44.000
R03  19346872.172 8 103565358.349 8     -1118.383          51.000    19346874.914 8  80550828.207 8      -869.856          48.000
R13  19407248.914 6 103633649.876 6     -1410.535          40.000    19407251.281 7  80603930.579 7     -1097.086          44.000
R14  20281477.312 8 108111718.862 8      2613.910          51.000    20281480.938 8  84086913.982 8      2033.041          49.000
C05  39779276.641 5 207141132.117 5        11.957          35.000    39779277.188 6 160174652.042 6         8.754          41.000
C23  23748269.719 8 123663549.547 8      2474.457          49.000
C24  24548186.508 5 127828863.091 5     -2737.605          31.000
C25  21720890.281 8 113106431.984 8      -164.004          51.000
E02  23818093.602 8 125164906.004 8      1617.445          51.000    23818095.180 8  95905651.928 8      1239.317          51.000
E03  24083227.641 8 126558196.235 8     -1423.297          51.000    24083231.141 8  96973186.070 8     -1090.575          51.000
E25  24362908.219 6 128027993.204 6     -1267.090          36.000    24362911.719 7  98099426.444 7      -970.779          47.000
> 2020 05 02 04 39  0.0000000  0 14        .000000000000
G05  21380219.367 8 112353827.022 8     -2262.148          51.000    21380218.070 8  87548403.704 8     -1762.713          51.000
G15  22232605.734 5 116833096.083 5      2803.625          35.000    22232591.977 5  91038762.850 5      2184.646          32.000
G28  21029472.078 8 110510615.323 8       991.020          50.000    21029471.328 8  86112172.685 8       772.223          49.000
G30  21221206.758 6 111518205.416 6     -1878.055          39.000    21221209.695 6  86897320.989 6     -1463.422          39.000
R02  22573538.844 8 120456703.707 8     -3907.340          48.000    22573543.188 7  93688536.368 7     -3039.045          42.000
R03  19353227.617 8 103599375.465 8     -1146.820          51.000    19353229.953 7  80577285.929 7      -891.971          47.000
R13  19415254.273 6 103676397.592 6     -1436.652          39.000    19415256.734 7  80637178.785 7     -1117.396          43.000
R14  20266841.062 8 108033699.127 8      2589.969          51.000    20266844.016 8  84026232.008 8      2014.420          48.000
C05  39779235.320 5 207140917.040 5         5.852          35.000    39779235.828 6 160174485.687 6         4.180          41.000
C23  23734063.617 8 123589573.356 8      2459.898          50.000
C25  21721896.148 8 113111669.074 8      -182.598          51.000
E02  23808917.969 8 125116689.085 8      1599.645          51.000    23808919.633 8  95868706.475 8      1225.669          51.000
E03  24091403.117 8 126601155.832 8     -1438.082          51.000    24091406.008 8  97006103.126 8     -1101.943          51.000
E25  24370198.414 5 128066255.166 5     -1283.945          34.000    24370201.172 7  98128779.319 7      -984.099          47.000
> 2020 05 02 04 39 30.0000000  0 14        .000000000000
G05  21393197.188 8 112422025.230 8     -2275.496          51.000    21393194.859 8  87601545.111 8     -1773.114          51.000
G28  21023885.648 8 110481260.261 8       974.816          50.000    21023885.039 8  86089298.615 8       759.597          48.000
G30  21231974.633 5 111574790.145 5     -1885.133          35.000    21231977.148 6  86941412.967 6     -1468.938          36.000
R02  22595550.188 7 120574158.956 7     -3914.145          47.000    22595554.070 7  93779890.427 7     -3044.335          42.000
R03  19359735.922 8 103634212.219 8     -1166.754          51.000    19359737.781 7  80604381.150 7      -907.475          46.000
R13  19423400.234 6 103719897.998 6     -1454.457          39.000    19423402.906 7  80671012.433 7     -1131.244          44.000
R14  20252333.297 8 107956368.412 8      2574.316          50.000    20252336.812 7  83966085.923 7      2002.246          47.000
C05  39779222.320 5 207140848.535 5         7.137          35.000    39779222.852 6 160174433.444 6         5.673          41.000
C23  23719936.164 8 123516004.027 8      2453.473          51.000
C24  24579860.820 5 127993763.448 5     -2749.688          33.000
C25  21723003.445 8 113117434.714 8      -193.039          51.000
E02  23799838.188 8 125068977.751 8      1589.957          50.000    23799840.156 8  95832148.418 8      1218.267          51.000
E03  24099657.703 8 126644531.267 8     -1444.816          51.000    24099659.641 8  97039338.819 8     -1107.085          51.000
E25  24377581.258 5 128105054.222 5     -1293.457          32.000    24377584.031 7  98158509.240 7      -991.156          47.000
> 2020 05 02 04 40  0.0000000  0 14        .000000000000
G05  21406218.664 8 112490453.497 8     -2288.320          51.000    21406215.531 8  87654865.797 8     -1783.107          51.000
G28  21018358.727 8 110452218.092 8       959.375          48.000    21018358.477 8  86066668.335 8       747.565          48.000
G30  21242749.961 6 111631413.522 6     -1891.191          36.000    21242751.898 5  86985535.073 5     -1473.659          35.000
R02  22617566.266 7 120691642.359 7     -3920.258          43.000    22617570.086 7  93871266.309 7     -3049.095          42.000
R03  19366323.602 8 103669476.168 8     -1186.238          50.000    19366325.289 7  80631808.613 7      -922.630          46.000
R13  19431613.625 6 103763756.621 6     -1471.414          39.000    19431616.203 7  80705124.669 7     -1144.433          43.000
R14  20237881.672 8 107879337.579 8      2559.117          50.000    20237886.031 7  83906173.015 7      1990.421          47.000
C05  39779164.445 5 207140547.721 5        10.898          35.000    39779164.977 6 160174200.055 6         8.180          41.000
C23  23705813.875 8 123442460.491 8      2447.477          51.000
C24  24595700.445 5 128076269.638 5     -2752.254          30.000
C25  21724138.656 8 113123346.185 8      -202.980          51.000
E02  23790781.539 8 125021387.193 8      1580.852          50.000    23790783.914 8  95795682.904 8      1211.284          51.000
E03  24107917.953 8 126687937.149 8     -1450.875          51.000    24107919.008 8  97072597.840 8     -1111.685          51.000
E25  24384985.250 5 128143959.654 5     -1301.855          33.000    24384987.203 7  98188319.955 7      -997.609          47.000
> 2020 05 02 04 40 30.0000000  0 16        .000000000000
G05  21419335.148 8 112559381.907 8     -2297.109          51.000    21419331.766 8  87708576.229 8     -1789.955          51.000
G13  20560830.852 5 108047894.642 5      1324.473          32.000
G15  22184741.266 5 116581602.084 5      2794.004          34.000
G28  21012943.344 8 110423761.852 8       947.621          48.000    21012943.539 8  86044494.633 8       738.406          48.000
G30  21253584.156 6 111688346.360 6     -1894.227          38.000    21253585.562 6  87029898.278 6     -1476.021          38.000
R02  22639636.992 6 120809428.085 6     -3922.324          38.000    22639642.461 6  93962877.379 6     -3050.697          41.000
R03  19373042.578 8 103705444.241 8     -1201.738          50.000    19373044.156 7  80659783.763 7      -934.685          46.000
R12  23079931.492 5 123288750.005 5     -4011.703          32.000
R13  19439945.273 6 103808247.255 6     -1484.605          39.000    19439947.930 7  80739728.488 7     -1154.693          43.000
R14  20223539.352 8 107802883.859 8      2547.758          51.000    20223543.750 8  83846709.018 8      1981.589          48.000
C05  39779113.430 5 207140281.319 5        17.141          35.000    39779113.875 6 160173994.019 6        13.082          41.000
C23  23691748.352 8 123369213.109 8      2445.332          51.000
C25  21725353.844 8 113129672.309 8      -209.078          51.000
E02  23781800.164 8 124974190.167 8      1575.340          51.000    23781802.734 8  95759518.941 8      1207.123          51.000
E03  24116235.727 8 126731645.568 8     -1453.172          51.000    24116236.445 8  97106088.681 8     -1113.511          51.000
E25  24392461.367 5 128183249.417 5     -1306.543          34.000    24392462.445 7  98218418.971 7     -1001.414          47.000
> 2020 05 02 04 41  0.0000000  0 15        .000000000000
G05  21432526.914 8 112628707.340 8     -2321.605          51.000    21432523.992 8  87762596.036 8     -1809.043          51.000
G15  22168854.797 5 116498107.612 5      2776.379          34.000    22168856.539 4  90777761.625 4      2163.412          28.000
G28  21007620.758 8 110395791.490 8       920.086          49.000    21007620.906 7  86022699.528 7       716.947          47.000
G30  21264457.477 6 111745486.114 6     -1912.039          37.000    21264458.828 6  87074422.685 6     -1489.904          37.000
R02  22661742.539 6 120927410.732 6     -3940.414          36.000    22661751.883 7  94054641.719 7     -3064.763          42.000
R03  19379873.641 8 103742013.605 8     -1233.234          50.000    19379875.398 7  80688226.550 7      -959.185          47.000
R12  23102499.273 5 123409330.651 5     -4023.688          33.000
R13  19448375.773 6 103853264.377 6     -1513.305          38.000    19448378.109 7  80774741.805 7     -1177.015          43.000
R14  20209286.844 8 107726906.658 8      2520.414          51.000    20209290.984 8  83787615.640 8      1960.322          49.000
C05                                                                  39779050.297 6 160173737.946 6         6.298          41.000
C23  23677719.758 8 123296162.627 8      2427.691          48.000
C25  21726628.922 8 113136312.093 8      -230.734          51.000
E02  23772874.781 8 124927286.194 8      1554.438          51.000    23772877.227 8  95723579.529 8      1191.065          51.000
E03  24124591.586 8 126775555.462 8     -1471.180          51.000    24124592.250 8  97139733.871 8     -1127.268          51.000
E25  24399988.516 5 128222804.025 5     -1327.297          34.000    24399989.734 7  98248727.801 7     -1016.969          47.000
> 2020 05 02 04 41 30.0000000  0 15        .000000000000
G05  21445814.594 8 112698537.057 8     -2341.176          50.000    21445812.250 8  87817008.772 8     -1824.293          50.000
G07  23723496.109 6 124667788.591 6     -2799.750          38.000    23723492.508 6  97143740.707 6     -2181.626          37.000
G28  21002412.141 8 110368417.317 8       897.387          50.000    21002411.367 7  86001368.994 7       699.262          47.000
G30  21275390.352 5 111802940.971 5     -1926.422          31.000    21275392.234 4  87119192.774 4     -1501.108          28.000
R02  22683911.336 7 121045699.939 7     -3953.273          42.000    22683919.531 6  94146644.427 6     -3074.768          41.000
R03  19386838.250 8 103779295.607 8     -1259.770          51.000    19386839.867 8  80717223.645 8      -979.821          48.000
R12  23125094.086 5 123530031.422 5     -4030.195          34.000
R13  19456925.195 6 103898917.625 6     -1537.465          38.000    19456927.430 7  80810249.895 7     -1195.806          42.000
R14  20195144.336 8 107651518.254 8      2497.852          51.000    20195148.352 8  83728980.190 8      1942.770          50.000
C05  39778994.648 5 207139663.132 5         3.523          34.000    39778995.148 6 160173515.907 6         2.939          41.000
C23  23663747.234 7 123223418.432 7      2414.684          44.000
C25  21727985.133 8 113143373.344 8      -247.469          51.000
E02  23764026.266 8 124880785.511 8      1538.129          51.000    23764028.438 8  95687949.126 8      1178.581          51.000
E03  24133006.469 8 126819776.413 8     -1484.336          51.000    24133006.648 8  97173617.432 8     -1137.363          51.000
E25  24407589.320 6 128262741.889 6     -1342.926          37.000    24407589.445 7  98279329.494 7     -1028.935          47.000
> 2020 05 02 04 42  0.0000000  0 17        .000000000000
G05  21459196.664 8 112768861.607 8     -2350.570          50.000    21459194.859 8  87871807.103 8     -1831.613          50.000
G07  23739460.539 5 124751682.728 5     -2796.539          35.000    23739453.875 5  97209112.674 5     -2179.127          34.000
G13  20538551.523 5 107930836.604 5      1284.281          35.000
G15  22137229.578 5 116331934.882 5      2763.277          33.000
G28  20997315.656 8 110341632.432 8       884.770          51.000    20997314.445 7  85980497.669 7       689.431          47.000
G30  21286381.852 5 111860690.262 5     -1928.633          31.000    21286384.172 5  87164201.559 5     -1502.828          32.000
R02  22706136.680 7 121164285.831 7     -3955.871          44.000    22706143.000 6  94238877.854 6     -3076.792          39.000
R03  19393934.617 8 103817282.841 8     -1276.148          50.000    19393936.281 8  80746769.263 8      -992.563          48.000
R12  23147708.805 5 123650842.087 5     -4026.320          31.000
R13  19465591.695 6 103945195.595 6     -1551.113          38.000    19465593.969 7  80846243.861 7     -1206.421          42.000
R14  20181110.414 8 107576712.892 8      2485.645          50.000    20181115.164 8  83670798.204 8      1933.279          50.000
C05  39778946.469 5 207139412.647 5         9.348          35.000    39778947.070 6 160173322.207 6         7.458          41.000
C23  23649834.094 7 123150973.978 7      2411.699          47.000
C25  21729420.727 8 113150847.952 8      -254.207          51.000
E02  23755253.234 8 124834681.348 8      1532.043          51.000    23755254.969 8  95652622.538 8      1174.005          51.000
E03  24141479.031 8 126864301.048 8     -1487.258          51.000    24141478.859 8  97207733.681 8     -1139.563          51.000
E25  24415260.758 5 128303053.205 5     -1348.039          35.000    24415260.445 7  98310217.389 7     -1032.871          47.000
> 2020 05 02 04 42 30.0000000  0 16        .000000000000
G05  21472690.500 8 112839771.781 8     -2368.234          50.000    21472689.164 8  87927061.783 8     -1845.377          50.000
G13  20531280.898 4 107892605.018 4      1271.734          29.000
G28  20992348.977 8 110315530.920 8       863.797          51.000    20992347.641 7  85960158.836 7       673.088          46.000
G30  21297449.086 6 111918849.700 6     -1940.320          37.000    21297451.969 6  87209520.637 6     -1511.938          37.000
R02  22728434.203 7 121283260.324 7     -3966.961          46.000    22728438.633 6  94331413.473 6     -3085.417          36.000
R03  19401180.484 8 103856069.856 8     -1300.914          51.000    19401182.062 8  80776936.913 8     -1011.822          49.000
R12  23170361.734 5 123771854.327 5     -4031.672          33.000
R13  19474392.367 6 103992190.905 6     -1572.844          36.000    19474394.438 7  80882795.761 7     -1223.323          42.000
R14  20167204.398 8 107502586.483 8      2464.816          51.000    20167209.219 8  83613144.329 8      1917.079          49.000
C05  39778923.227 5 207139291.291 5         7.215          35.000    39778923.812 6 160173228.355 6         5.325          41.000
C23  23635997.570 7 123078922.206 7      2400.238          47.000
C24  24675329.398 5 128490916.622 5     -2775.590          31.000
C25  21730952.844 8 113158827.283 8      -269.316          51.000
E02  23746573.469 8 124789067.376 8      1517.453          51.000    23746574.617 8  95617671.564 8      1162.715          51.000
E03  24150026.875 8 126909222.431 8     -1498.926          50.000    24150027.078 8  97242153.963 8     -1148.501          51.000
E25  24423018.953 6 128343829.850 6     -1361.465          39.000    24423020.227 7  98341461.845 7     -1043.446          46.000
> 2020 05 02 04 43  0.0000000  0 15        .000000000000
G05  21486237.078 8 112910958.287 8     -2375.219          51.000    21486236.297 8  87982531.773 8     -1850.823          51.000
G28  20987453.945 8 110289806.456 8       853.465          51.000    20987452.414 7  85940113.804 7       665.038          47.000
G30  21308533.547 5 111977098.946 5     -1940.777          33.000    21308536.500 5  87254909.650 5     -1512.294          33.000
R02  22750745.148 7 121402309.094 7     -3967.258          45.000    22750748.172 6  94424006.874 6     -3085.645          36.000
R03  19408517.539 8 103895343.729 8     -1314.965          51.000    19408518.672 8  80807483.255 8     -1022.750          48.000
R12  23192993.922 5 123892753.503 5     -4025.855          33.000
R13  19483268.203 6 104039588.323 6     -1584.328          38.000    19483270.336 7  80919660.401 7     -1232.258          42.000
R14  20153368.273 8 107428828.910 8      2454.621          51.000    20153372.695 8  83555777.339 8      1909.150          49.000
C05  39778866.336 5 207138995.632 5        15.133          35.000    39778866.859 6 160172998.926 6        11.572          41.000
C23  23622178.430 7 123006959.652 7      2399.582          47.000
C24  24691316.688 5 128574171.477 5     -2771.465          31.000
C25  21732523.547 8 113167006.235 8      -273.723          51.000
E02  23737928.516 8 124743637.089 8      1513.617          51.000    23737929.328 8  95582861.325 8      1159.770          51.000
E03  24158590.992 8 126954233.454 8     -1499.617          48.000    24158592.633 8  97276642.929 8     -1148.980          51.000
E25  24430807.852 6 128384763.579 6     -1364.887          38.000    24430809.680 7  98372826.541 7     -1045.730          46.000
> 2020 05 02 04 43 30.0000000  0 17        .000000000000
G05  21499857.781 8 112982533.769 8     -2397.977          51.000    21499857.500 8  88038304.843 8     -1868.553          51.000
G07  23787442.219 6 125003807.090 6     -2806.824          36.000    23787432.531 5  97405584.075 5     -2187.142          35.000
G13  20516847.312 5 107816788.012 5      1249.898          32.000
G28  20982652.711 8 110264574.917 8       827.199          51.000    20982651.023 7  85920452.872 7       644.571          47.000
G30  21319656.852 6 112035551.337 6     -1956.812          37.000    21319659.406 6  87300457.011 6     -1524.786          37.000
R02  22773091.070 7 121521547.184 7     -3983.465          45.000    22773094.047 6  94516747.546 6     -3098.253          39.000
R03  19415967.250 8 103935220.927 8     -1345.016          51.000    19415968.312 8  80838498.836 8     -1046.123          48.000
R12  23215626.914 5 124013653.559 5     -4035.699          31.000
R13  19492240.977 6 104087501.963 6     -1611.824          36.000    19492243.305 6  80956926.550 6     -1253.641          41.000
R14  20139623.531 8 107355558.126 8      2428.426          51.000    20139627.648 8  83498788.984 8      1888.779          50.000
C05                                                                  39778798.180 6 160172722.074 6         5.694          41.000
C23  23608398.414 8 122935201.031 8      2383.027          48.000
C24  24707317.297 5 128657484.727 5     -2783.375          31.000
C25  21734154.023 8 113175497.772 8      -293.859          51.000
E02  23729340.508 8 124698505.931 8      1493.773          51.000    23729341.188 8  95548280.315 8      1144.556          51.000
E03  24167194.203 8 126999448.960 8     -1516.207          49.000    24167197.406 8  97311288.582 8     -1161.772          51.000
E25  24438648.617 5 128425965.675 5     -1383.770          32.000    24438650.555 7  98404398.499 7     -1060.303          45.000
> 2020 05 02 04 44  0.0000000  0 15        .000000000000
G05  21513606.453 8 113054781.305 8     -2417.414          51.000    21513606.344 8  88094601.611 8     -1883.699          51.000
G07  23803477.172 5 125088109.480 5     -2813.836          34.000
G28  20977999.469 8 110240121.412 8       804.195          51.000    20977997.148 7  85901398.191 7       626.643          46.000
G30  21330872.953 6 112094490.883 6     -1970.777          36.000    21330875.234 6  87346383.926 6     -1535.677          36.000
R02  22795526.219 7 121641261.151 7     -3996.312          47.000    22795529.273 6  94609858.340 6     -3108.246          40.000
R03  19423583.648 8 103975991.887 8     -1371.812          51.000    19423584.930 8  80870209.551 8     -1066.968          48.000
R12  23238313.180 5 124134841.597 5     -4042.547          31.000
R13  19501363.938 6 104136218.746 6     -1635.121          37.000    19501365.891 6  80994817.375 6     -1271.761          40.000
R14  20126024.500 8 107283064.855 8      2405.504          51.000    20126028.078 8  83442405.346 8      1870.947          49.000
C05  39778771.359 5 207138500.898 5         2.727          35.000    39778771.914 6 160172616.294 6         2.323          41.000
C23  23594712.070 8 122863929.469 8      2369.688          50.000
C25  21735898.695 8 113184583.558 8      -310.734          51.000
E02  23720863.797 8 124653959.616 8      1477.164          51.000    23720864.453 8  95514147.413 8      1131.931          51.000
E03  24175891.367 8 127045154.071 8     -1529.621          51.000    24175895.289 8  97346309.370 8     -1172.074          51.000
E25  24446593.766 6 128467718.019 6     -1399.129          37.000    24446596.930 7  98436395.176 7     -1072.132          46.000
> 2020 05 02 04 44 30.0000000  0 15        .000000000000
G05  21527409.438 8 113127315.008 8     -2417.367          51.000    21527409.281 8  88151121.373 8     -1883.663          51.000
G07  23819520.133 5 125172431.931 5     -2801.797          34.000
G28  20973421.297 8 110216063.010 8       800.434          51.000    20973418.977 8  85882651.382 8       623.714          48.000
G30  21342108.516 6 112153532.148 6     -1964.281          38.000    21342110.438 6  87392390.073 6     -1530.612          38.000
R02  22817976.883 7 121761058.762 7     -3989.430          46.000    22817979.773 6  94703034.181 6     -3102.893          39.000
R03  19431293.766 8 104017265.521 8     -1378.867          50.000    19431295.422 8  80902311.244 8     -1072.452          48.000
R12  23260979.805 5 124255924.457 5     -4028.902          32.000
R13  19510563.781 6 104185345.430 6     -1639.242          36.000    19510565.883 6  81033026.983 6     -1274.966          40.000
R14  20112497.938 8 107210960.892 8      2402.203          51.000    20112501.250 8  83386324.478 8      1868.380          49.000
C05  39778714.672 5 207138205.038 5        17.586          35.000    39778715.078 6 160172387.488 6        13.644          41.000
C23  23581046.734 8 122792765.384 8      2375.414          50.000
C25  21737684.055 8 113193882.340 8      -308.441          51.000
E02  23712425.195 8 124609614.766 8      1480.074          51.000    23712426.203 8  95480168.870 8      1134.098          51.000
E03  24184608.984 8 127090964.833 8     -1523.516          51.000    24184613.008 8  97381411.085 8     -1167.369          51.000
E25  24454572.383 6 128509645.574 6     -1394.902          38.000    24454575.508 7  98468521.401 7     -1068.929          46.000
> 2020 05 02 04 45  0.0000000  0 16        .000000000000
G05  21541298.453 8 113200302.085 8     -2436.453          51.000    21541298.164 8  88207994.416 8     -1898.535          51.000
G07  23835564.961 5 125256740.489 5     -2808.730          34.000    23835565.383 5  97602642.218 5     -2188.624          35.000
G28  20968950.586 8 110192570.315 8       777.422          51.000    20968948.945 8  85864345.406 8       605.783          48.000
G30  21353395.180 6 112212843.630 6     -1977.477          41.000    21353396.625 6  87438606.812 6     -1540.891          41.000
R02  22840474.719 7 121881110.481 7     -4001.855          44.000    22840477.445 6  94796407.653 6     -3112.557          38.000
R03  19439129.586 8 104059213.999 8     -1405.434          48.000    19439132.062 8  80934937.820 8     -1093.115          48.000
R12  23283658.766 5 124377072.142 5     -4035.164          31.000    23283662.812 4  96737783.374 4     -3138.467          26.000
R13  19519872.047 6 104235052.113 6     -1662.500          36.000    19519873.922 6  81071687.732 6     -1293.056          39.000
R14  20099076.789 8 107139420.167 8      2379.207          51.000    20099080.375 8  83330681.690 8      1850.494          49.000
C05                                                                  39778660.039 6 160172165.806 6        10.240          41.000
C23  23567433.758 8 122721877.794 8      2362.203          50.000
C24  24755508.547 4 128908428.380 4     -2790.531          29.000
C25  21739542.492 8 113203561.517 8      -325.121          51.000
E02  23704057.062 8 124565641.766 8      1463.520          51.000    23704058.820 8  95446475.245 8      1121.386          51.000
E03  24193379.188 8 127137051.045 8     -1536.832          51.000    24193382.930 8  97416723.856 8     -1177.573          51.000
E25  24462615.453 6 128551910.706 6     -1410.523          37.000    24462618.617 7  98500906.305 7     -1080.812          46.000
> 2020 05 02 04 45 30.0000000  0 15        .000000000000
G05  21555269.977 8 113273723.603 8     -2453.062          51.000    21555269.438 8  88265205.979 8     -1911.477          51.000
G07  23851626.312 5 125341128.274 5     -2812.688          34.000    23851626.648 5  97668422.487 5     -2191.705          34.000
G28  20964584.594 8 110169627.305 8       757.105          51.000    20964583.031 7  85846467.706 7       589.949          47.000
G30  21364729.945 6 112272407.406 6     -1988.008          40.000    21364730.289 6  87485020.060 6     -1549.100          40.000
R02  22863016.484 6 122001397.109 6     -4012.160          41.000    22863018.508 6  94889963.850 6     -3120.572          36.000
R03  19447088.352 8 104101820.328 8     -1429.684          48.000    19447091.531 7  80968076.047 7     -1111.976          47.000
R13  19529285.461 6 104285318.906 6     -1683.359          37.000    19529287.531 6  81110784.111 6     -1309.280          39.000
R14  20085758.445 8 107068426.801 8      2358.855          51.000    20085762.172 8  83275464.631 8      1834.665          48.000
C05  39778603.117 5 207137624.499 5        11.461          35.000    39778603.648 6 160171938.534 6         8.742          41.000
C23  23553870.102 8 122651250.936 8      2351.434          49.000
C24  24771610.383 5 128992268.079 5     -2793.902          32.000
C25  21741470.750 8 113213603.646 8      -339.328          51.000
E02  23695756.734 8 124522024.412 8      1449.406          51.000    23695759.047 8  95413054.150 8      1110.542          51.000
E03  24202198.711 8 127183395.947 8     -1547.758          51.000    24202202.250 8  97452234.841 8     -1185.938          51.000
E25  24470719.352 6 128594495.342 6     -1423.359          39.000    24470722.766 7  98533536.072 7     -1090.719          46.000
> 2020 05 02 04 46  0.0000000  0 14        .000000000000
G05  21569345.328 8 113347691.558 8     -2478.887          50.000    21569344.359 8  88322843.312 8     -1931.600          50.000
G28  20960345.008 8 110147348.967 8       727.281          50.000    20960343.773 8  85829107.924 8       566.713          48.000
G30  21376134.117 6 112332336.367 6     -2008.191          39.000    21376133.891 6  87531717.896 6     -1564.828          39.000
R02  22885622.031 5 122122032.021 5     -4030.809          33.000    22885624.320 5  94983790.945 5     -3135.073          33.000
R03  19455192.164 8 104145200.420 8     -1463.207          50.000    19455195.070 8  81001816.111 8     -1138.050          48.000
R13  19538825.281 6 104336259.051 6     -1713.137          36.000    19538826.859 6  81150404.211 6     -1332.440          38.000
R14  20072564.531 8 106998098.084 8      2328.871          51.000    20072568.023 7  83220764.518 7      1811.344          47.000
C05                                                                  39778567.602 6 160171793.256 6          .245          41.000
C23  23540378.617 8 122580998.805 8      2331.238          50.000
C24  24787754.922 5 129076327.126 5     -2810.102          32.000
C25  21743490.609 8 113224121.155 8      -362.723          51.000
E02  23687546.086 8 124478877.566 8      1426.129          51.000    23687548.539 8  95379993.581 8      1092.688          51.000
E03  24211089.195 8 127230113.779 8     -1567.711          51.000    24211092.664 8  97488031.585 8     -1201.215          51.000
E25  24478905.391 6 128637512.593 6     -1445.273          41.000    24478908.977 7  98566497.265 7     -1107.501          46.000
> 2020 05 02 04 46 30.0000000  0 13        .000000000000
G05  21583504.461 8 113422100.294 8     -2480.230          49.000    21583503.164 8  88380824.132 8     -1932.647          49.000
G28  20956212.289 8 110125632.105 8       721.938          51.000    20956211.578 7  85812185.699 7       562.549          47.000
G30  21387587.625 6 112392525.670 6     -2003.699          36.000    21387588.266 6  87578618.618 6     -1561.327          37.000
R03  19463421.211 8 104189248.724 8     -1471.867          51.000    19463423.469 8  81036075.858 8     -1144.789          49.000
R13  19548471.250 6 104387765.128 6     -1718.723          37.000    19548472.914 6  81190464.479 6     -1336.784          39.000
R14  20059475.773 8 106928330.412 8      2323.738          51.000    20059479.359 8  83166500.763 8      1807.352          48.000
C05  39778531.742 5 207137253.464 5        13.898          35.000    39778532.281 6 160171650.822 6        10.351          41.000
C23  23526939.961 8 122511019.563 8      2335.414          51.000
C24  24803924.219 4 129160538.354 4     -2799.977          29.000
C25  21745582.070 8 113235010.636 8      -361.828          51.000
E02  23679405.602 8 124436098.295 8      1427.184          51.000    23679407.812 8  95347214.658 8      1093.550          51.000
E03  24220030.797 8 127277101.076 8     -1563.379          51.000    24220034.266 8  97524034.798 8     -1197.914          51.000
E25  24487153.742 7 128680857.621 7     -1442.969          42.000    24487157.094 7  98599709.615 7     -1105.574          47.000
> 2020 05 02 04 47  0.0000000  0 15        .000000000000
G05  21597710.148 8 113496753.405 8     -2490.242          50.000    21597709.039 8  88438995.371 8     -1940.448          50.000
G28  20952150.016 8 110104283.887 8       707.734          51.000    20952149.070 7  85795550.711 7       551.481          46.000
G30  21399053.578 6 112452779.920 6     -2007.227          36.000    21399055.109 6  87625569.961 6     -1564.070          37.000
R02  22930930.047 6 122363817.974 6     -4029.047          37.000    22930930.617 4  95171890.997 4     -3133.703          27.000
R03  19471738.328 8 104233766.876 8     -1489.512          51.000    19471739.820 8  81070701.069 8     -1158.509          48.000
R12  23374493.719 5 124862290.782 5     -4037.207          33.000
R13  19558185.477 6 104439636.699 6     -1732.918          37.000    19558186.750 6  81230809.055 6     -1347.828          36.000
R14  20046455.953 8 106858928.302 8      2309.598          51.000    20046460.141 8  83112521.348 8      1796.357          49.000
C05  39778460.148 5 207136879.721 5        17.695          34.000    39778460.750 6 160171362.553 6        13.668          41.000
C23  23513517.156 8 122441121.734 8      2330.742          51.000
C24  24820080.328 5 129244665.106 5     -2800.062          30.000
C25  21747707.945 8 113246078.972 8      -369.707          51.000
E02  23671298.125 8 124393493.075 8      1419.406          51.000    23671300.070 8  95314569.099 8      1087.663          51.000
E03  24228986.969 8 127324163.706 8     -1567.844          51.000    24228990.172 8  97560095.751 8     -1201.350          51.000
E25  24495427.094 6 128724335.003 6     -1449.129          41.000    24495430.516 7  98633023.424 7     -1110.419          47.000
> 2020 05 02 04 47 30.0000000  0 16        .000000000000
G05  21612007.398 8 113571885.561 8     -2513.285          51.000    21612006.531 8  88497539.896 8     -1958.404          51.000
G15  21966501.352 5 115434772.610 5      2674.531          32.000
G28  20948202.984 8 110083540.900 8       680.398          51.000    20948201.680 7  85779387.362 7       530.184          47.000
G30  21410576.953 5 112513335.002 5     -2024.621          35.000    21410578.461 5  87672755.715 5     -1577.633          35.000
R02  22953645.734 6 122485015.275 6     -4045.836          39.000    22953642.602 4  95266138.482 4     -3146.767          28.000
R03  19480188.109 8 104278995.939 8     -1520.402          51.000    19480188.641 8  81105879.225 8     -1182.535          49.000
R12  23397209.539 4 124983633.662 4     -4046.520          29.000    23397208.031 4  97209532.657 4     -3147.293          25.000
R13  19568012.594 6 104492111.361 6     -1760.105          36.000    19568013.391 6  81271622.657 6     -1368.971          37.000
R14  20033550.594 8 106790133.603 8      2281.988          51.000    20033554.961 8  83059014.370 8      1774.880          49.000
C05  39778397.523 5 207136554.326 5         9.363          35.000    39778398.109 6 160171110.152 6         6.993          41.000
C23  23500154.812 8 122371540.906 8      2313.172          51.000
C24  24836262.789 5 129328927.928 5     -2811.652          31.000
C25  21749912.977 8 113257560.122 8      -390.418          51.000
E02  23663268.617 8 124351299.435 8      1398.578          51.000    23663270.320 8  95282238.924 8      1071.728          51.000
E03  24238002.562 8 127371538.654 8     -1585.289          51.000    24238005.469 8  97596396.022 8     -1214.681          51.000
E25  24503770.680 7 128768180.484 7     -1468.762          43.000    24503774.359 7  98666619.288 7     -1125.382          47.000
> 2020 05 02 04 48  0.0000000  0 14        .000000000000
G05  21626434.445 8 113647698.051 8     -2526.363          51.000    21626433.531 8  88556614.541 8     -1968.595          51.000
G28  20944409.977 8 110063607.242 8       663.027          51.000    20944408.609 7  85763854.677 7       516.648          47.000
G30  21422195.742 5 112574398.530 5     -2031.777          33.000    21422196.945 5  87720332.994 5     -1583.200          33.000
R02  22976450.117 6 122606696.183 6     -4051.816          39.000    22976445.523 4  95360778.595 4     -3151.413          27.000
R03  19488808.789 8 104325142.401 8     -1541.180          51.000    19488809.172 8  81141770.903 8     -1198.695          49.000
R13  19577990.586 5 104545393.311 5     -1777.773          35.000    19577991.969 6  81313064.180 6     -1382.710          37.000
R14  20020798.266 8 106722153.407 8      2264.711          51.000    20020801.805 8  83006140.895 8      1761.442          48.000
C05  39778382.297 5 207136474.610 5        10.293          34.000    39778383.062 6 160171049.229 6         8.056          41.000
C23  23486892.195 8 122302479.026 8      2305.422          51.000
C24  24852511.094 4 129413529.791 4     -2814.262          27.000
C25  21752235.523 8 113269654.380 8      -401.430          51.000
E02  23655356.023 8 124309720.894 8      1387.598          51.000    23655357.344 8  95250380.071 8      1063.299          51.000
E03  24247116.008 8 127419428.908 8     -1592.992          51.000    24247118.664 8  97633091.132 8     -1220.607          51.000
E25  24512222.883 7 128812595.777 7     -1478.090          44.000    24512226.383 7  98700651.752 7     -1132.631          47.000
> 2020 05 02 04 48 30.0000000  0 14        .000000000000
G05  21640888.203 8 113723650.988 8     -2528.715          51.000    21640887.000 8  88615798.614 8     -1970.427          51.000
G15  21936076.766 5 115274832.832 5      2671.566          35.000
G28  20940668.742 8 110043946.004 8       656.191          51.000    20940667.055 7  85748534.246 7       511.318          47.000
G30  21433807.469 6 112635419.824 6     -2028.105          37.000    21433808.438 6  87767882.041 6     -1580.342          37.000
R02  22999241.344 5 122728312.748 5     -4047.434          35.000    22999234.898 4  95455363.175 4     -3148.004          25.000
R03  19497498.148 8 104371658.255 8     -1551.145          51.000    19497498.648 8  81177949.905 8     -1206.446          48.000
R13  19588016.828 5 104598933.438 5     -1783.590          35.000    19588017.883 6  81354706.470 6     -1387.237          37.000
R14  20008096.219 8 106654443.853 8      2257.934          51.000    20008099.133 8  82953477.918 8      1756.171          48.000
C05  39778312.578 5 207136111.991 5        22.238          34.000    39778313.203 6 160170768.032 6        17.323          41.000
C23  23473627.188 8 122233404.212 8      2308.090          51.000
C25  21754573.617 8 113281828.329 8      -401.789          51.000
E02  23647458.812 8 124268220.535 8      1387.496          51.000    23647459.219 8  95218581.090 8      1063.185          51.000
E03  24256225.031 8 127467296.949 8     -1589.793          51.000    24256227.641 8  97669769.212 8     -1218.141          51.000
E25  24520680.695 7 128857042.051 7     -1476.516          44.000    24520683.688 7  98734707.970 7     -1131.440          47.000
> 2020 05 02 04 49  0.0000000  0 13        .000000000000
G05  21655444.109 8 113800141.470 8     -2564.184          51.000    21655442.766 8  88675401.555 8     -1998.065          50.000
G28  20937055.414 8 110024957.408 8       616.199          51.000    20937053.703 8  85733737.958 8       480.155          48.000
G30  21445488.180 6 112696803.281 6     -2057.648          37.000    21445489.727 6  87815713.290 6     -1603.365          36.000
R03  19506332.664 8 104418950.339 8     -1595.000          51.000    19506333.062 8  81214732.634 8     -1240.559          49.000
R13  19598166.688 5 104653134.779 5     -1823.098          35.000    19598168.758 6  81396863.062 6     -1417.965          38.000
R14  19995520.758 8 106587411.540 8      2217.480          51.000    19995524.117 8  82901341.657 8      1724.707          50.000
C05  39778264.133 5 207135859.728 5          .891          35.000    39778264.805 6 160170572.953 6          .855          41.000
C23  23460435.836 8 122164713.240 8      2277.844          51.000
C24  24884968.102 5 129582557.672 5     -2830.277          32.000
C25  21757002.617 8 113294477.062 8      -434.980          51.000
E02  23639652.906 8 124227198.573 8      1353.887          51.000    23639652.734 8  95187148.660 8      1037.373          51.000
E03  24265405.992 8 127515542.409 8     -1620.020          51.000    24265408.422 8  97706736.481 8     -1241.287          51.000
E25  24529220.023 7 128901917.765 7     -1508.598          45.000    24529222.844 7  98769093.214 7     -1155.870          47.000
> 2020 05 02 04 49 30.0000000  0 14        .000000000000
G05  21670077.992 8 113877042.530 8     -2568.699          50.000    21670076.867 8  88735324.431 8     -2001.584          50.000
G15  21905810.562 5 115115810.981 5      2642.250          30.000
G28  20933546.383 8 110006517.411 8       606.969          51.000    20933544.625 8  85719369.127 8       472.963          48.000
G30  21457214.039 6 112758423.080 6     -2056.543          40.000    21457216.312 6  87863728.666 6     -1602.501          40.000
R02  23044998.750 5 122972535.900 5     -4074.891          33.000    23044991.508 5  95645263.823 5     -3169.359          31.000
R03  19515288.195 8 104466890.738 8     -1607.324          51.000    19515288.859 8  81252019.573 8     -1250.141          48.000
R13  19608416.297 5 104707867.651 5     -1831.844          33.000    19608418.367 6  81439433.023 6     -1424.767          36.000
R14  19983048.883 8 106520931.227 8      2208.348          51.000    19983053.359 8  82849634.748 8      1717.604          51.000
C05                                                                  39778214.047 6 160170368.484 6         8.255          41.000
C23  23447294.211 8 122096283.366 8      2278.211          51.000
C25  21759499.211 8 113307476.260 8      -437.699          51.000
E02  23631914.344 8 124186530.767 8      1351.117          51.000    23631914.352 8  95155987.606 8      1035.305          51.000
E03  24274635.172 8 127564040.579 8     -1619.355          51.000    24274637.203 8  97743897.399 8     -1240.811          51.000
E25  24537817.438 7 128947096.911 7     -1509.488          47.000    24537820.352 8  98803710.980 8     -1156.696          48.000
> 2020 05 02 04 50  0.0000000  0 14        .000000000000
G05  21684787.234 8 113954340.137 8     -2583.582          50.000    21684786.445 8  88795556.309 8     -2013.181          50.000
G13  20429343.273 5 107356920.535 5      1107.078          30.000
G28  20930139.453 8 109988614.263 8       587.465          51.000    20930137.586 8  85705418.610 8       457.765          49.000
G30  21468982.828 6 112820265.710 6     -2065.879          37.000    21468985.320 6  87911917.736 6     -1609.776          36.000
R02  23067927.969 6 123094897.692 6     -4082.508          37.000    23067925.148 5  95740433.901 5     -3175.287          32.000
R03  19524362.578 8 104515466.871 8     -1630.242          51.000    19524363.156 7  81289800.967 7     -1267.969          46.000
R13  19618762.609 5 104763117.133 5     -1850.625          34.000    19618764.914 5  81482404.839 5     -1439.375          35.000
R14  19970678.984 8 106454991.999 8      2188.477          51.000    19970683.805 8  82798348.689 8      1702.148          50.000
C05  39778158.109 5 207135307.118 5         9.203          34.000    39778158.734 6 160170145.567 6         7.485          41.000
C23  23434200.930 8 122028103.497 8      2267.938          51.000
C25  21762060.531 8 113320813.193 8      -450.621          51.000
E02  23624241.055 8 124146205.685 8      1338.062          51.000    23624241.430 8  95125089.171 8      1025.257          51.000
E03  24283909.852 8 127612779.471 8     -1629.102          51.000    24283911.531 8  97781242.770 8     -1248.246          51.000
E25  24546469.953 8 128992566.221 8     -1520.965          48.000    24546473.109 7  98838551.063 7     -1165.382          47.000
> 2020 05 02 04 50 30.0000000  0 15        .000000000000
G05  21699574.070 8 114032046.757 8     -2596.965          49.000    21699573.680 8  88856106.904 8     -2023.609          50.000
G13  20423056.516 5 107323870.098 5      1096.070          34.000
G28  20926837.375 8 109971263.547 8       569.059          50.000    20926835.984 8  85691898.573 8       443.422          49.000
G30  21480796.961 5 112882344.991 5     -2073.828          34.000    21480799.109 5  87960291.222 5     -1615.970          33.000
R02  23090894.961 6 123217467.658 6     -4089.113          40.000    23090892.383 5  95835765.947 5     -3180.424          31.000
R03  19533558.398 8 104564693.588 8     -1651.805          51.000    19533559.016 7  81328088.365 7     -1284.737          46.000
R13  19629208.641 5 104818895.369 5     -1868.172          32.000    19629210.367 5  81525787.868 5     -1453.023          35.000
R14  19958413.492 8 106389610.133 8      2169.988          51.000    19958418.141 8  82747496.157 8      1687.769          49.000
C05  39778101.031 5 207135009.981 5        10.188          34.000    39778101.688 6 160169915.780 6         7.775          41.000
C23  23421159.242 8 121960189.132 8      2259.277          51.000
C24  24933827.703 5 129836979.113 5     -2830.969          32.000
C25  21764688.789 8 113334501.749 8      -462.242          51.000
E02  23616636.062 8 124106238.793 8      1326.207          51.000    23616636.562 8  95094465.182 8      1016.128          51.000
E03  24293232.891 8 127661773.975 8     -1637.508          50.000    24293234.281 8  97818783.996 8     -1254.705          51.000
E25  24555180.039 8 129038339.297 8     -1530.891          48.000    24555183.320 7  98873623.916 7     -1173.008          47.000
> 2020 05 02 04 51  0.0000000  0 15        .000000000000
G05  21714442.367 8 114110183.392 8     -2611.500          48.000    21714442.562 8  88916992.585 8     -2034.935          48.000
G13  20416835.688 5 107291182.831 5      1083.793          32.000    20416836.484 5  83603507.334 5       844.514          32.000
G28  20923644.891 8 109954488.706 8       549.809          50.000    20923643.672 8  85678827.237 8       428.419          49.000
G30  21492659.820 6 112944682.855 6     -2081.891          38.000    21492661.570 6  88008866.140 6     -1622.252          37.000
R02  23113905.641 6 123340266.851 6     -4097.031          37.000    23113904.961 5  95931276.347 5     -3186.580          32.000
R03  19542880.023 8 104614593.632 8     -1674.215          50.000    19542881.031 7  81366899.462 7     -1302.170          47.000
R13  19639757.078 5 104875223.896 5     -1886.402          31.000    19639758.844 5  81569598.947 5     -1467.202          34.000
R14  19946257.039 8 106324810.423 8      2150.496          51.000    19946261.398 8  82697096.408 8      1672.611          48.000
C05                                                                  39778047.336 6 160169696.941 6         7.098          41.000
C23  23408173.062 8 121892563.910 8      2249.531          51.000
C24  24950151.078 5 129921982.444 5     -2834.820          32.000
C25  21767389.336 8 113348563.989 8      -474.738          51.000
E02  23609103.578 8 124066653.650 8      1313.281          51.000    23609104.055 8  95064133.697 8      1006.319          51.000
E03  24302608.641 8 127711047.130 8     -1646.984          49.000    24302610.289 8  97856538.741 8     -1261.984          51.000
E25  24563952.320 8 129084437.982 8     -1541.738          48.000    24563955.484 7  98908946.261 7     -1181.419          47.000
> 2020 05 02 04 51 30.0000000  0 15        .000000000000
G05  21729377.852 7 114188674.788 7     -2622.168          46.000    21729378.836 7  88978154.744 7     -2043.245          45.000
G13  20410669.430 5 107258779.697 5      1075.410          33.000
G15  21845896.633 5 114800960.830 5      2609.516          35.000
G28  20920548.227 8 109938217.500 8       533.953          49.000    20920547.273 8  85666148.343 8       416.067          49.000
G30  21504557.109 5 113007205.404 5     -2087.340          31.000    21504559.102 4  88057584.934 4     -1626.502          29.000
R03  19552313.609 8 104665092.291 8     -1693.230          50.000    19552314.758 7  81406176.182 7     -1316.957          47.000
R13  19650393.977 5 104932024.945 5     -1901.898          30.000    19650395.289 5  81613777.504 5     -1479.257          34.000
R14  19934196.539 8 106260520.179 8      2134.555          51.000    19934200.586 8  82647092.881 8      1660.209          49.000
C05  39777981.180 5 207134386.157 5        12.203          34.000    39777981.875 6 160169433.347 6         9.479          41.000
C23  23395227.875 8 121825156.537 8      2243.262          49.000
C24  24966482.508 5 130007024.350 5     -2835.281          31.000
C25  21770147.344 8 113362926.966 8      -483.684          51.000
E02  23601629.922 8 124027377.979 8      1304.012          51.000    23601630.398 8  95034039.356 8       999.148          51.000
E03  24312023.273 8 127760526.122 8     -1652.738          49.000    24312025.477 8  97894451.217 8     -1266.375          50.000
E25  24572772.789 8 129130788.231 8     -1549.273          49.000    24572775.797 8  98944461.350 8     -1187.094          48.000
> 2020 05 02 04 52  0.0000000  0 14        .000000000000
G05  21744416.578 8 114267705.472 8     -2640.234          48.000    21744417.734 8  89039737.123 8     -2057.325          48.000
G13  20404593.906 5 107226853.596 5      1059.426          34.000
G28  20917582.977 8 109922637.210 8       510.848          48.000    20917582.688 8  85654007.848 8       398.063          48.000
R02  23160052.344 4 123586479.000 4     -4111.250          29.000    23160057.273 6  96122830.282 6     -3197.639          40.000
R03  19561894.094 8 104716379.322 8     -1719.633          50.000    19561895.930 8  81446066.111 8     -1337.492          48.000
R13  19661154.102 5 104989485.529 5     -1922.293          30.000    19661157.102 5  81658469.082 5     -1495.117          34.000
R14  19922267.805 8 106196930.070 8      2111.031          51.000    19922271.500 8  82597633.903 8      1641.910          50.000
C05  39777940.234 5 207134172.796 5         7.949          35.000    39777940.969 6 160169268.349 6         5.993          41.000
C23  23382359.852 8 121758152.883 8      2229.840          49.000
C24  24982859.070 5 130092288.347 5     -2842.758          30.000
C25  21772998.312 8 113377774.967 8      -500.031          51.000
E02  23594250.680 8 123988599.197 8      1287.230          51.000    23594251.328 8  95004325.744 8       986.331          51.000
E03  24321513.289 8 127810397.863 8     -1665.926          51.000    24321515.242 8  97932664.606 8     -1276.465          50.000
E25  24581676.219 8 129177575.572 8     -1563.992          49.000    24581679.102 8  98980311.365 8     -1198.390          48.000
> 2020 05 02 04 52 30.0000000  0 13        .000000000000
G05  21759516.555 8 114347053.431 8     -2649.625          50.000    21759517.164 8  89101566.687 8     -2064.643          50.000
G13  20398567.672 5 107195184.587 5      1050.691          30.000    20398571.109 3  83528733.897 3       818.721          22.000
G28  20914707.406 7 109907528.444 7       496.336          47.000    20914707.391 7  85642234.763 7       386.755          47.000
R02  23183174.266 6 123709888.184 6     -4115.125          36.000    23183185.055 6  96218815.111 6     -3200.653          40.000
R03  19571580.289 8 104768230.495 8     -1737.121          51.000    19571582.273 8  81486394.794 8     -1351.094          48.000
R13  19671996.398 5 105047380.138 5     -1936.172          32.000    19671999.070 5  81703498.220 5     -1505.911          32.000
R14  19910428.438 8 106133818.373 8      2096.332          51.000    19910432.086 8  82548547.026 8      1630.480          50.000
C05  39777882.039 5 207133869.361 5        11.652          35.000    39777882.711 6 160169033.694 6         9.418          41.000
C23  23369528.109 8 121691335.959 8      2224.719          50.000
C25  21775900.953 8 113392889.394 8      -507.711          51.000
E02  23586924.156 8 123950098.018 8      1279.223          51.000    23586925.023 8  94974824.846 8       980.267          51.000
E03  24331036.602 8 127860442.605 8     -1670.480          51.000    24331038.086 8  97971010.536 8     -1279.982          51.000
E25  24590620.789 8 129224579.037 8     -1569.793          50.000    24590623.211 8  99016326.979 8     -1202.828          48.000
> 2020 05 02 04 53  0.0000000  0 15        .000000000000
G05  21774690.711 8 114426789.739 8     -2663.773          51.000    21774690.078 8  89163698.818 8     -2075.671          51.000
G07  24094170.266 5 126615719.208 5     -2845.098          31.000    24094166.391 5  98661579.609 5     -2216.953          31.000
G13  20392604.875 6 107163858.553 6      1039.340          36.000
G15  21801484.727 5 114567586.475 5      2582.594          33.000
G28  20911935.711 8 109892964.896 8       476.945          48.000    20911935.758 7  85630886.516 7       371.646          46.000
R02  23206337.102 6 123833484.139 6     -4122.402          41.000    23206347.125 6  96314945.254 6     -3206.316          39.000
R03  19581385.375 8 104820719.501 8     -1759.691          50.000    19581387.266 7  81527219.551 7     -1368.649          47.000
R13  19682932.922 5 105105780.125 5     -1953.371          30.000    19682935.109 5  81748920.422 5     -1519.286          32.000
R14  19898692.555 8 106071260.502 8      2076.680          51.000    19898696.414 8  82499890.916 8      1615.195          50.000
C05  39777820.445 5 207133548.568 5        11.078          35.000    39777821.102 6 160168785.570 6         9.161          41.000
C23  23356746.742 8 121624778.981 8      2214.742          50.000
C25  21778868.414 8 113408341.854 8      -520.098          51.000
E02  23579664.219 8 123911948.054 8      1266.574          51.000    23579665.359 8  94945593.058 8       970.471          51.000
E03  24340607.000 8 127910733.403 8     -1679.750          51.000    24340608.156 8  98009544.999 8     -1287.006          51.000
E25  24599620.320 8 129271870.487 8     -1580.398          50.000    24599622.312 8  99052563.259 8     -1210.961          49.000
> 2020 05 02 04 53 30.0000000  0 15        .000000000000
G05  21789930.320 8 114506870.142 8     -2662.828          51.000    21789927.789 8  89226099.059 8     -2074.934          51.000
G07  24110416.625 5 126701095.093 5     -2833.375          33.000    24110413.438 5  98728106.123 5     -2207.825          34.000
G13  20386697.164 5 107132811.247 5      1041.953          34.000    20386689.812 5  83480106.984 5       811.930          31.000
G28  20909260.539 8 109878904.992 8       472.469          50.000    20909260.414 7  85619930.741 7       368.157          46.000
R02  23229525.961 7 123957222.903 7     -4114.629          42.000    23229536.500 6  96411186.458 6     -3200.270          38.000
R03  19591301.461 8 104873803.095 8     -1766.953          50.000    19591303.664 8  81568506.759 8     -1374.297          48.000
R13  19693955.430 5 105164640.004 5     -1956.957          32.000    19693957.398 5  81794715.333 5     -1522.078          32.000
R14  19887052.648 8 106009215.050 8      2072.066          51.000    19887056.742 8  82451633.361 8      1611.607          49.000
C05  39777747.477 5 207133169.051 5        25.988          35.000    39777748.281 6 160168492.115 6        19.972          41.000
C23  23344007.938 8 121558441.392 8      2219.738          51.000
C24  25032012.867 5 130348255.669 5     -2834.062          30.000
C25  21781892.789 8 113424090.197 8      -517.754          51.000
E02  23572463.211 8 123874108.114 8      1268.422          51.000    23572464.406 8  94916598.818 8       971.938          51.000
E03  24350216.312 8 127961228.538 8     -1674.223          51.000    24350217.898 8  98048236.040 8     -1282.852          51.000
E25  24608666.367 8 129319406.934 8     -1576.230          49.000    24608668.195 8  99088987.271 8     -1207.794          49.000
> 2020 05 02 04 54  0.0000000  0 15        .000000000000
G05  21805248.211 8 114587362.839 8     -2695.062          51.000    21805244.125 8  89288820.560 8     -2100.052          51.000
G07  24126676.359 5 126786542.227 5     -2854.148          32.000    24126672.094 4  98794688.202 4     -2224.018          24.000
G13  20380857.328 5 107102126.530 5      1010.871          33.000    20380857.203 5  83456196.865 5       787.701          31.000
G28  20906694.859 8 109865419.596 8       434.691          51.000    20906694.102 7  85609422.650 7       338.721          46.000
R02  23252754.086 6 124081173.226 6     -4140.621          40.000    23252764.398 6  96507592.214 6     -3220.483          36.000
R03  19601341.641 7 104927552.330 7     -1807.949          47.000    19601344.492 8  81610311.688 8     -1406.186          48.000
R13  19705076.695 5 105224028.183 5     -1993.695          32.000    19705078.422 5  81840906.143 5     -1550.652          32.000
R14  19875522.367 8 105947754.657 8      2033.629          51.000    19875526.789 8  82403830.855 8      1581.711          49.000
C05  39777676.883 5 207132800.988 5         7.090          35.000    39777677.664 6 160168207.489 6         5.355          41.000
C23  23331324.727 8 121492393.762 8      2191.539          51.000
C24  25048427.297 5 130433729.182 5     -2855.910          31.000
C25  21784987.188 8 113440203.369 8      -548.281          51.000
E02  23565334.836 8 123836649.107 8      1237.105          51.000    23565336.078 8  94887896.464 8       947.924          51.000
E03  24359877.836 8 128011998.421 8     -1702.133          51.000    24359880.133 8  98087137.611 8     -1304.211          51.000
E25  24617771.984 8 129367257.532 8     -1605.484          49.000    24617773.688 8  99125652.001 8     -1230.128          49.000
> 2020 05 02 04 54 30.0000000  0 14        .000000000000
G05  21820686.133 8 114668487.780 8     -2712.629          51.000    21820681.656 8  89352034.735 8     -2113.737          51.000
G13  20375129.094 5 107072024.371 5       996.160          33.000    20375128.484 4  83432728.540 4       776.229          29.000
G28  20904280.938 8 109852731.762 8       411.684          51.000    20904279.305 7  85599536.026 7       320.792          46.000
R02  23276063.273 6 124205558.724 6     -4151.516          38.000    23276072.734 5  96604336.395 5     -3228.960          33.000
R03  19611548.273 8 104982193.016 8     -1834.102          48.000    19611551.602 8  81652809.998 8     -1426.523          48.000
R13  19716339.438 5 105284169.047 5     -2014.535          33.000    19716340.516 5  81887678.316 5     -1566.864          32.000
R14  19864144.867 8 105887106.278 8      2010.176          51.000    19864149.203 8  82356659.900 8      1563.470          49.000
C05  39777650.781 5 207132666.052 5         2.582          35.000    39777651.539 6 160168102.350 6         2.030          40.000
C23  23318739.328 8 121426857.359 8      2177.949          51.000
C24  25064902.609 5 130519522.395 5     -2862.953          31.000
C25  21788193.688 8 113456901.033 8      -564.348          51.000
E02  23558321.328 8 123799794.045 8      1220.512          51.000    23558322.930 8  94859656.883 8       935.218          51.000
E03  24369633.945 8 128063265.575 8     -1715.074          51.000    24369636.852 8  98126420.206 8     -1314.130          51.000
E25  24626979.539 8 129415643.577 8     -1619.770          49.000    24626981.227 8  99162727.004 8     -1241.065          49.000
> 2020 05 02 04 55  0.0000000  0 14        .000000000000
G05  21836136.023 8 114749677.331 8     -2726.203          51.000    21836132.141 8  89415299.263 8     -2124.317          51.000
G13  20369408.055 5 107041949.510 5       983.723          33.000
G28  20901911.102 8 109840275.991 8       392.594          51.000    20901909.188 7  85589830.264 7       305.920          47.000
R02  23299345.828 6 124329802.894 6     -4158.070          36.000    23299355.102 4  96700970.681 4     -3234.058          29.000
R03  19621814.867 8 105037148.369 8     -1856.207          51.000    19621818.117 8  81695553.075 8     -1443.714          49.000
R13  19727634.047 5 105344483.495 5     -2031.973          30.000    19727635.555 5  81934589.533 5     -1580.423          32.000
R14  19852812.469 8 105826696.734 8      1990.629          51.000    19852816.539 8  82309674.715 8      1548.267          50.000
C05                                                                  39777562.414 6 160167743.331 6         1.818          41.000
C23  23306144.242 8 121361272.324 8      2168.395          50.000
C24  25081330.688 5 130605073.363 5     -2866.023          35.000
C25  21791404.828 8 113473621.728 8      -576.312          51.000
E02  23551315.227 8 123762977.664 8      1207.793          51.000    23551317.062 8  94831446.933 8       925.413          51.000
E03  24379376.656 8 128114464.230 8     -1724.312          51.000    24379380.320 8  98165650.323 8     -1321.209          51.000
E25  24636180.984 8 129463998.047 8     -1630.070          49.000    24636183.312 8  99199777.823 8     -1248.964          50.000
> 2020 05 02 04 55 30.0000000  0 14        .000000000000
G05  21851728.484 8 114831618.139 8     -2728.555          51.000    21851725.844 8  89479149.201 8     -2126.147          51.000
G13  20363820.273 6 107012585.311 6       981.875          36.000    20363814.281 5  83386432.528 5       765.091          32.000
G28  20899716.484 8 109828742.171 8       384.289          51.000    20899714.727 7  85580842.898 7       299.449          47.000
R02  23322733.883 6 124454603.370 6     -4153.703          36.000    23322741.523 4  96798035.638 4     -3230.661          27.000
R03  19632271.531 8 105093119.756 8     -1867.062          51.000    19632274.461 8  81739086.345 8     -1452.160          50.000
R13  19739092.023 5 105405669.791 5     -2039.043          31.000    19739095.070 5  81982178.858 5     -1585.925          32.000
R14  19841656.312 8 105767226.602 8      1982.090          51.000    19841659.953 8  82263420.150 8      1541.625          49.000
C05  39777540.672 5 207132092.426 5        12.828          34.000    39777541.414 6 160167658.753 6        10.107          41.000
C23  23293670.977 8 121296322.442 8      2169.461          51.000
C24  25097844.781 5 130691063.980 5     -2858.391          35.000
C25  21794751.383 8 113491047.636 8      -577.527          51.000
E02  23544448.000 8 123726889.724 8      1206.000          51.000    23544449.570 8  94803795.111 8       924.093          51.000
E03  24389237.234 8 128166283.589 8     -1722.461          51.000    24389241.609 8  98205356.067 8     -1319.868          51.000
E25  24645507.242 8 129513008.959 8     -1629.328          49.000    24645510.344 8  99237331.620 8     -1248.398          50.000
> 2020 05 02 04 56  0.0000000  0 16        .000000000000
G05  21867321.531 8 114913564.318 8     -2733.609          50.000    21867320.852 8  89543003.369 8     -2130.085          50.000
G07  24191880.414 5 127129185.555 5     -2848.273          32.000    24191881.383 5  99061688.066 5     -2219.434          32.000
G13  20358227.281 6 106983192.056 6       977.934          38.000    20358221.617 5  83363528.754 5       762.029          32.000
G28  20897555.641 8 109817386.435 8       373.535          51.000    20897553.836 7  85571994.292 7       291.066          47.000
G30  21613752.242 5 113581029.174 5     -2149.797          34.000
R02  23346085.070 6 124579202.761 6     -4152.098          37.000    23346094.398 4  96894946.252 4     -3229.409          28.000
R03  19642776.445 8 105149348.783 8     -1880.609          51.000    19642778.766 8  81782820.015 8     -1462.696          49.000
R13  19750570.789 4 105466946.688 4     -2046.820          28.000    19750573.828 5  82029855.771 5     -1591.968          30.000
R14  19830535.250 8 105707942.695 8      1971.078          51.000    19830538.023 8  82217310.401 8      1533.058          48.000
C05  39777446.336 5 207131600.371 5        20.723          35.000    39777447.125 6 160167279.035 6        16.030          41.000
C23  23281178.719 8 121231271.578 8      2167.992          51.000
C24  25114301.664 6 130776756.200 6     -2853.527          36.000
C25  21798091.617 8 113508441.062 8      -581.227          51.000
E02  23537578.094 8 123690787.063 8      1201.652          51.000    23537579.469 8  94776132.033 8       920.747          51.000
E03  24399074.180 8 128217980.092 8     -1723.078          51.000    24399079.281 8  98244967.656 8     -1320.308          51.000
E25  24654816.906 8 129561931.432 8     -1631.234          49.000    24654819.977 8  99274817.665 8     -1249.919          50.000
> 2020 05 02 04 56 30.0000000  0 16        .000000000000
G05  21883020.969 8 114996069.497 8     -2757.926          50.000    21883022.211 8  89607293.138 8     -2149.033          50.000
G07  24208202.281 5 127214962.696 5     -2861.855          31.000
G13  20352734.453 6 106954326.654 6       955.023          38.000    20352730.266 5  83341036.253 5       744.174          32.000
G28  20895534.469 8 109806765.228 8       343.352          51.000    20895532.750 8  85563718.033 8       267.547          48.000
R02  23369503.195 6 124704162.937 6     -4169.797          37.000    23369512.586 5  96992137.447 5     -3243.175          31.000
R03  19653434.977 8 105206400.969 8     -1913.859          51.000    19653436.891 8  81827193.902 8     -1488.560          49.000
R13  19762176.781 5 105528921.523 5     -2075.539          30.000    19762179.547 5  82078058.364 5     -1614.311          31.000
R14  19819554.484 8 105649409.748 8      1940.074          51.000    19819556.977 8  82171784.748 8      1508.947          48.000
C05  39777384.594 5 207131279.694 5         9.477          35.000    39777385.375 6 160167030.273 6         7.394          41.000
C23  23268772.852 8 121166671.359 8      2147.340          50.000
C24  25130806.883 5 130862699.710 5     -2867.426          35.000
C25  21801531.203 8 113526352.010 8      -604.109          51.000
E02  23530811.062 8 123655226.079 8      1177.941          51.000    23530812.664 8  94748884.010 8       902.564          51.000
E03  24408993.836 8 128270109.636 8     -1743.312          51.000    24408999.109 8  98284911.055 8     -1335.776          51.000
E08  21666613.555 6 113858820.746 6       867.230          39.000    21666615.430 6  87242478.829 6       664.370          40.000
E25  24664215.461 8 129611320.152 8     -1652.473          49.000    24664217.938 8  99312660.964 8     -1266.207          49.000
> 2020 05 02 04 57  0.0000000  0 17        .000000000000
G05  21898801.836 8 115078998.539 8     -2776.934          51.000    21898804.016 8  89671913.181 8     -2163.844          51.000
G07  24224541.438 4 127300823.725 4     -2869.078          29.000    24224538.117 4  99195433.972 4     -2235.645          27.000
G13  20347316.656 6 106925857.722 6       936.594          38.000    20347312.898 4  83318852.609 4       729.807          28.000
G28  20893627.844 8 109796746.331 8       318.238          51.000    20893626.523 8  85555911.116 8       247.978          48.000
G30  21638477.562 5 113710973.746 5     -2181.457          31.000    21638479.820 5  88605948.859 5     -1699.840          31.000
R02  23392962.695 6 124829346.975 6     -4182.379          36.000    23392971.469 5  97089502.790 5     -3252.961          32.000
R03  19664221.297 8 105264140.554 8     -1941.805          51.000    19664223.297 8  81872102.410 8     -1510.296          48.000
R13  19773883.531 4 105591433.890 4     -2098.336          28.000    19773886.664 5  82126679.126 5     -1632.036          33.000
R14  19808689.180 8 105591494.300 8      1914.512          51.000    19808691.703 8  82126739.412 8      1489.065          48.000
C05  39777330.125 5 207130996.298 5         2.961          34.000    39777331.016 6 160166811.108 6         2.767          41.000
C23  23256428.086 8 121102391.144 8      2131.734          50.000
C24  25147334.805 5 130948762.081 5     -2876.648          35.000
C25  21805044.891 8 113544648.304 8      -621.773          51.000
E02  23524122.016 8 123620074.667 8      1159.457          51.000    23524123.617 8  94721949.792 8       888.334          51.000
E03  24418971.102 8 128322539.597 8     -1758.242          51.000    24418975.750 8  98325084.638 8     -1347.135          51.000
E08  21661689.820 6 113832946.224 6       851.934          41.000    21661693.406 7  87222652.875 7       652.559          42.000
E25  24673677.164 8 129661041.309 8     -1668.387          50.000    24673679.289 8  99350758.994 8     -1278.332          49.000
> 2020 05 02 04 57 30.0000000  0 16        .000000000000
G05  21914681.656 8 115162444.951 8     -2779.684          51.000    21914683.656 8  89736936.349 8     -2165.987          51.000
G13  20341992.680 6 106897882.277 6       934.621          40.000    20341988.711 5  83297053.564 5       728.270          33.000
G28  20891854.023 8 109787425.484 8       309.426          51.000    20891853.242 8  85548648.125 8       241.111          48.000
G30  21650948.273 5 113776498.650 5     -2179.594          35.000    21650947.523 5  88657007.134 5     -1698.385          34.000
R02  23416481.570 6 124954849.574 6     -4178.355          36.000    23416493.297 5  97187116.002 5     -3249.829          34.000
R03  19675153.258 8 105322663.770 8     -1953.199          49.000    19675155.844 7  81917620.451 7     -1519.155          47.000
R13  19785708.602 5 105654577.521 5     -2104.594          31.000    19785711.305 5  82175796.647 5     -1636.906          30.000
R14  19797958.109 8 105534294.273 8      1905.273          50.000    19797960.945 8  82082250.540 8      1481.879          49.000
C05                                                                  39777302.141 6 160166694.860 6        10.267          41.000
C23  23244163.539 8 121038526.349 8      2132.207          51.000
C24  25163902.750 5 131035036.719 5     -2869.141          35.000
C25  21808650.680 8 113563423.727 8      -623.418          51.000
E02  23517529.164 8 123585428.806 8      1156.852          51.000    23517530.641 8  94695402.930 8       886.422          51.000
E03  24429024.000 8 128375365.472 8     -1756.953          51.000    24429027.648 8  98365561.585 8     -1346.258          51.000
E08  21656844.211 6 113807486.767 6       852.285          40.000    21656849.297 7  87203144.950 7       653.011          43.000
E25  24683220.031 8 129711189.191 8     -1668.164          50.000    24683222.070 8  99389183.967 8     -1278.219          49.000
> 2020 05 02 04 58  0.0000000  0 16        .000000000000
G05  21930593.211 8 115246057.471 8     -2794.375          51.000    21930594.461 8  89802088.945 8     -2177.438          51.000
G13  20336696.773 7 106870053.028 7       920.867          42.000    20336692.906 5  83275368.411 5       717.556          30.000
G28  20890146.523 8 109778453.894 8       288.508          50.000    20890146.117 8  85541657.255 8       224.811          48.000
G30  21663420.016 6 113842034.638 6     -2189.078          37.000    21663418.750 6  88708074.110 6     -1705.772          37.000
R02  23439994.188 6 125080314.429 6     -4185.914          37.000    23440006.875 5  97284699.861 5     -3255.708          34.000
R03  19686164.930 8 105381614.545 8     -1976.777          49.000    19686168.391 8  81963471.041 8     -1537.493          48.000
R13  19797585.234 5 105717998.661 5     -2122.871          31.000    19797585.500 5  82225111.560 5     -1651.122          31.000
R14  19787294.977 8 105477456.765 8      1883.918          49.000    19787298.914 8  82038043.602 8      1465.270          49.000
C05  39777231.617 5 207130482.355 5        11.090          35.000    39777232.477 6 160166414.463 6         8.560          41.000
C23  23231912.789 8 120974732.060 8      2120.840          51.000
C24  25180444.859 6 131121176.876 6     -2873.707          37.000
C25  21812281.539 8 113582331.785 8      -636.953          51.000
E02  23510966.102 8 123550940.016 8      1142.355          51.000    23510967.664 8  94668976.454 8       875.347          51.000
E03  24439085.812 8 128428238.424 8     -1767.855          51.000    24439088.641 8  98406074.569 8     -1354.600          51.000
E08  21652011.812 6 113782094.818 6       840.465          40.000    21652017.359 7  87183688.752 7       644.193          43.000
E25  24692777.438 8 129761413.692 8     -1680.035          49.000    24692779.625 8  99427667.642 8     -1287.276          49.000
> 2020 05 02 04 58 30.0000000  0 16        .000000000000
G05  21946580.773 8 115330070.065 8     -2804.395          51.000    21946581.172 8  89867553.269 8     -2185.246          51.000
G13  20331474.203 7 106842607.397 7       911.207          42.000    20331471.008 6  83253982.249 6       710.034          37.000
G15  21642618.602 4 113732727.589 4      2481.875          28.000
G28  20888550.453 8 109770068.158 8       272.586          49.000    20888550.594 8  85535122.904 8       212.402          49.000
G30  21675937.852 6 113907817.005 6     -2194.141          37.000    21675937.000 6  88759333.076 6     -1709.726          37.000
R03  19697301.742 8 105441232.416 8     -1995.559          51.000    19697305.578 8  82009840.445 8     -1552.101          48.000
R13  19809556.977 5 105781929.688 5     -2136.602          32.000    19809559.695 5  82274835.743 5     -1661.798          33.000
R14  19776745.766 8 105421222.218 8      1867.098          50.000    19776750.312 8  81994305.612 8      1452.184          50.000
C05  39777166.133 5 207130141.661 5        13.652          35.000    39777167.055 6 160166151.007 6        10.542          41.000
C23  23219720.023 8 120911243.116 8      2113.957          50.000
C24  25197005.695 5 131207415.501 5     -2872.855          35.000
C25  21815982.508 8 113601605.663 8      -645.887          51.000
E02  23504478.086 8 123516844.987 8      1132.508          51.000    23504479.641 8  94642851.707 8       867.862          51.000
E03  24449201.422 8 128481394.544 8     -1773.867          51.000    24449203.398 8  98446804.539 8     -1359.254          51.000
E08  21647237.680 6 113757007.838 6       833.863          40.000    21647242.609 7  87164466.271 7       638.982          42.000
E25  24702394.102 8 129811949.713 8     -1687.113          48.000    24702396.727 8  99466390.038 8     -1292.669          49.000
> 2020 05 02 04 59  0.0000000  0 15        .000000000000
G05  21962646.547 8 115414494.385 8     -2821.652          51.000    21962646.086 8  89933338.400 8     -2198.690          51.000
G13  20326327.367 7 106815560.550 7       893.980          43.000    20326324.523 5  83232906.774 5       696.611          35.000
G28  20887068.695 8 109762282.602 8       248.809          49.000    20887069.203 8  85529056.223 8       193.877          49.000
G30  21688504.656 6 113973858.581 6     -2206.391          36.000    21688503.469 5  88810794.050 5     -1719.265          35.000
R03  19708566.102 8 105501530.854 8     -2022.023          51.000    19708569.461 8  82056739.184 8     -1572.688          48.000
R13  19821627.328 5 105846383.960 5     -2157.648          32.000    19821629.906 5  82324976.296 5     -1678.177          31.000
R14  19766312.367 8 105365605.906 8      1842.781          49.000    19766317.148 8  81951048.491 8      1433.274          50.000
C05  39777107.648 5 207129838.000 5         8.852          35.000    39777108.523 6 160165915.416 6         6.893          41.000
C23  23207588.117 8 120848074.098 8      2099.586          50.000
C24  25213588.383 5 131293765.354 5     -2880.320          34.000
C25  21819756.695 8 113621258.395 8      -662.059          51.000
E02  23498067.852 8 123483158.154 8      1115.355          51.000    23498069.383 8  94617039.711 8       854.626          51.000
E03  24459373.281 8 128534847.854 8     -1787.363          51.000    24459374.797 8  98487762.212 8     -1369.565          51.000
E08  21642525.031 6 113732241.198 6       819.281          40.000    21642528.633 7  87145489.177 7       627.956          43.000
E25  24712072.375 8 129862810.023 8     -1701.379          49.000    24712075.547 8  99505360.922 8     -1303.660          49.000
> 2020 05 02 04 59 30.0000000  0 15        .000000000000
G05  21978783.117 8 115499291.706 8     -2831.602          51.000    21978781.758 8  89999414.164 8     -2206.443          51.000
G13  20321249.711 7 106788877.746 7       884.496          42.000    20321247.391 6  83212114.944 6       689.218          38.000
G28  20885694.398 8 109755061.352 8       232.379          49.000    20885694.680 8  85523429.265 8       181.074          49.000
G30  21701113.633 5 114040122.430 5     -2211.785          35.000    21701111.320 5  88862428.140 5     -1723.472          34.000
R03  19719951.172 8 105562472.145 8     -2040.961          51.000    19719953.602 7  82104137.925 7     -1587.417          47.000
R13  19833787.609 5 105911321.102 5     -2170.645          31.000    19833790.023 5  82375480.441 5     -1688.279          32.000
R14  19755988.422 8 105310572.154 8      1825.914          50.000    19755992.555 8  81908244.486 8      1420.155          49.000
C05  39777049.359 5 207129533.975 5        10.965          35.000    39777050.164 6 160165680.302 6         8.844          41.000
C23  23195511.789 8 120785189.999 8      2092.473          51.000
C24  25230185.383 4 131380195.211 4     -2880.633          27.000
C25  21823596.430 8 113641253.452 8      -671.047          51.000
E02  23491728.219 8 123449843.890 8      1105.457          51.000    23491730.086 8  94591513.199 8       846.976          51.000
E03  24469594.688 8 128588562.304 8     -1793.660          51.000    24469596.484 8  98528919.975 8     -1374.411          51.000
E08  21637866.953 7 113707760.014 7       812.367          43.000    21637869.617 7  87126730.870 7       622.448          44.000
E25  24721805.359 8 129913957.421 8     -1708.406          49.000    24721808.617 8  99544551.768 8     -1309.065          48.000
