     3.04           OBSERVATION DATA    M (MIXED)           RINEX VERSION / TYPE
Convert 2.6.2       NovAtel             20200515 160045 UTC PGM / RUN BY / DATE 
Rinex Version 3.04 Observation File                         COMMENT             
                                                            MARKER NAME         
                                                            MARKER NUMBER       
                                                            MARKER TYPE         
                                                            OBSERVER / AGENCY   
                    NovAtel GPSCard                         REC # / TYPE / VERS 
                                                            ANT # / TYPE        
        0.0000        0.0000        0.0000                  APPROX POSITION XYZ 
        0.0000        0.0000        0.0000                  ANTENNA: DELTA H/E/N
G    8 C1C L1C D1C S1C C2W L2W D2W S2W                      SYS / # / OBS TYPES 
R    8 C1C L1C D1C S1C C2P L2P D2P S2P                      SYS / # / OBS TYPES 
E    8 C1C L1C D1C S1C C7Q L7Q D7Q S7Q                      SYS / # / OBS TYPES 
C    8 C2I L2I D2I S2I C7I L7I D7I S7I                      SYS / # / OBS TYPES 
DBHZ                                                        SIGNAL STRENGTH UNIT
    30.000                                                  INTERVAL            
  2020    05    10    06    00    0.0000000     GPS         TIME OF FIRST OBS   
  2020    05    10    06    59   30.0000000     GPS         TIME OF LAST OBS    
G L1C  0.00000  08 G15 G17 G13 G28 G19 G24 G12 G20          SYS / PHASE SHIFT   
G L2W  0.00000  07 G15 G17 G13 G28 G19 G24 G12              SYS / PHASE SHIFT   
R L1C  0.00000  07 R03 R15 R04 R14 R23 R05 R17              SYS / PHASE SHIFT   
R L2P  0.25000  07 R03 R15 R04 R14 R23 R05 R17              SYS / PHASE SHIFT   
E L1C  0.50000  05 E31 E04 E24 E01 E09                      SYS / PHASE SHIFT   
E L7Q -0.25000  05 E31 E04 E24 E09 E01                      SYS / PHASE SHIFT   
C L2I  0.00000  04 C25 C23 C24 C11                          SYS / PHASE SHIFT   
C L7I  0.00000  03 C05 C14 C11                              SYS / PHASE SHIFT   
  7 R03  5 R15  0 R04  6 R14 -7 R23  3 R05  1 R17  4        GLONASS SLOT / FRQ #
 C1C  -71.950 C2C  -71.950 C2P  -71.950                     GLONASS COD/PHS/BIS 
     0     0     0     0GPS                                 LEAP SECONDS        
                                                            END OF HEADER       
> 2020 05 10 06 00  0.0000000  0 19      -0.000000000000
G15  20331539.609 8 106842951.935 8      -332.902          51.000    20331539.352 8  83254255.335 8      -259.405          51.000  
G17  22743042.414 5 119515507.925 5      1457.367          31.000    22743039.367 5  93128964.051 5      1135.605          31.000  
G13  20761375.500 8 109101762.881 8     -1797.016          51.000    20761374.711 8  85014337.747 8     -1400.275          48.000  
G28  22293545.523 6 117153355.929 6     -2549.980          38.000    22293546.789 5  91288341.492 5     -1986.977          32.000  
G19  23351560.289 8 122713279.092 8      3087.426          50.000    23351556.820 6  95620716.869 6      2405.787          40.000  
R03  23461548.727 4 125591098.87324     -4559.355          28.000    23461540.805 4  97681950.24024     -3546.166          26.000  
R15  20434685.180 6 109196363.138 6      1951.902          38.000    20434697.125 4  84930531.724 4      1518.144          27.000  
R04  19935198.711 8 106751705.710 8     -2459.227          50.000    19935198.961 7  83029091.747 7     -1912.732          45.000  
R14  19655310.109 6 104773454.299 6     -1401.844          41.000    19655311.367 5  81490481.768 5     -1090.323          35.000  
R23  22851852.828 5 122241578.72425      1828.391          31.000                                                                  
E31  23426729.828 8 123108298.892 8      -409.020          51.000    23426733.289 8  94329747.194 8      -313.420          51.000  
E04  26324407.078 8 138335656.100 8     -2863.297          49.000    26324407.664 7 105997431.610 7     -2193.932          46.000  
E24  23263421.711 8 122250136.254 8      2002.969          51.000    23263435.227 8  93672174.012 8      1534.785          51.000  
E01  26375912.250 6 138606353.533 6     -2456.605          38.000                                                                  
E09  21705315.398 8 114062208.460 8      -762.645          51.000    21705317.672 8  87398305.919 8      -584.403          51.000  
C25  22043557.750 7 114786568.779 7       769.668          42.000                                                                  
C05                                                                  39769577.375 6 160135606.858 6        20.416          36.000  
C14                                                                  25762448.562 5 103734716.463 5     -2679.083          35.000  
C23  25365534.781 6 132084957.582 6      2575.559          36.000                                                                  
> 2020 05 10 06 00 30.0000000  0 19      -0.000000000000
G15  20333501.188 8 106853260.295 8      -353.098          51.000    20333500.734 8  83262287.823 8      -275.141          51.000  
G17  22734774.359 5 119472045.45725      1440.770          35.000                                                                  
G13  20771685.539 8 109155940.396 8     -1813.605          51.000    20771684.242 8  85056553.982 8     -1413.199          48.000  
G28  22308138.070 5 117230037.668 5     -2560.410          31.000    22308138.023 5  91348095.372 5     -1995.110          31.000  
G19  23333969.875 8 122620837.735 8      3076.547          50.000    23333964.500 6  95548684.684 6      2397.313          39.000  
R03  23487104.281 5 125727927.851 5     -4563.980          31.000    23487109.508 4  97788403.039 4     -3549.763          26.000  
R15  20423775.242 6 109138058.646 6      1936.406          38.000                                                                  
R04  19949047.867 8 106825871.719 8     -2483.977          48.000    19949049.234 7  83086776.400 7     -1931.982          44.000  
R14  19663241.633 6 104815739.386 6     -1415.984          40.000    19663244.703 5  81523370.145 5     -1101.324          35.000  
E31  23429100.328 8 123120756.057 8      -420.070          51.000    23429103.836 8  94339292.298 8      -321.860          51.000  
E04  26340776.547 8 138421679.527 8     -2870.262          49.000    26340775.078 7 106063345.621 7     -2199.299          44.000  
E24  23252017.195 8 122190206.023 8      1993.695          51.000    23252031.812 8  93626253.459 8      1527.656          51.000  
E01  26389952.172 6 138680128.319 6     -2460.785          38.000                                                                  
E09  21709715.273 8 114085327.970 8      -777.254          51.000    21709717.359 8  87416020.869 8      -595.553          51.000  
C24  23187483.398 5 120743320.489 5     -1963.465          32.000                                                                  
C25  22039157.719 7 114763657.600 7       758.988          42.000                                                                  
C05                                                                  39769434.039 6 160135030.296 6        19.199          36.000  
C14                                                                  25782419.422 5 103815127.733 5     -2680.657          35.000  
C23  25350715.305 6 132007797.738 6      2569.551          36.000                                                                  
> 2020 05 10 06 01  0.0000000  0 17      -0.000000000000
G15  20335561.938 8 106864089.661 8      -374.926          51.000    20335561.180 8  83270726.286 8      -292.150          51.000  
G13  20782073.484 8 109210527.808 8     -1831.645          51.000    20782072.234 8  85099089.566 8     -1427.256          48.000  
G28  22322774.438 5 117306953.670 5     -2573.766          34.000    22322773.344 4  91408030.084 4     -2005.517          29.000  
G19  23316425.055 8 122528637.486 8      3063.906          49.000    23316419.062 6  95476840.374 6      2387.460          41.000  
R15  20412934.578 5 109080121.333 5      1919.258          32.000                                                                  
R04  19963018.609 8 106900687.486 8     -2510.109          49.000    19963020.812 7  83144966.456 7     -1952.308          44.000  
R14  19671238.477 6 104858368.835 6     -1432.129          40.000    19671242.203 5  81556526.351 5     -1113.878          35.000  
E31  23431518.477 8 123133463.425 8      -432.945          51.000    23431522.109 8  94349029.122 8      -331.746          51.000  
E04  26357170.211 8 138507830.422 8     -2879.031          48.000    26357166.812 7 106129357.269 7     -2205.881          44.000  
E24  23240650.281 8 122130474.572 8      1982.555          50.000    23240665.727 8  93580485.205 8      1519.080          51.000  
E01  26403999.406 6 138753951.727 6     -2466.555          38.000                                                                  
E09  21714182.875 8 114108804.159 8      -793.754          51.000    21714184.891 8  87434009.129 8      -608.198          51.000  
C24  23198802.266 5 120802260.946 5     -1972.102          33.000                                                                  
C25  22034802.523 6 114740979.710 6       746.930          41.000                                                                  
C05                                                                  39769284.828 6 160134430.22026        16.583          36.000  
C14                                                                  25802387.406 6 103895527.799 6     -2683.847          36.000  
C23  25335912.695 5 131930726.359 5      2562.445          34.000                                                                  
> 2020 05 10 06 01 30.0000000  0 17      -0.000000000000
G15  20337738.484 8 106875527.918 8      -388.691          51.000    20337737.586 8  83279639.212 8      -302.877          51.000  
G13  20792555.898 8 109265612.257 8     -1841.637          51.000    20792554.430 7  85142012.450 7     -1435.045          47.000  
G28  22337471.945 5 117384189.797 5     -2577.375          33.000                                                                  
G19  23298942.766 8 122436769.056 8      3059.523          49.000    23298937.508 7  95405254.637 7      2384.048          43.000  
R15  20402170.328 5 109022648.522 5      1911.520          32.000                                                                  
R04  19977127.742 8 106976239.725 8     -2527.824          51.000    19977130.086 7  83203729.310 7     -1966.086          45.000  
R14  19679316.828 6 104901429.826 6     -1439.852          40.000    19679321.039 5  81590018.197 5     -1119.888          34.000  
E31  23434000.805 8 123146507.819 8      -437.730          51.000    23434004.359 8  94359024.197 8      -335.416          51.000  
E04  26373604.570 8 138594195.336 8     -2879.801          48.000    26373601.031 7 106195532.912 7     -2206.554          44.000  
E24  23229338.414 8 122071029.919 8      1979.348          51.000    23229353.336 8  93534936.694 8      1516.611          51.000  
E01  26418070.109 6 138827891.469 6     -2464.738          36.000    26418071.047 5 106374617.408 5     -1888.522          34.000  
E09  21718734.438 8 114132724.752 8      -802.156          50.000    21718736.914 8  87452337.877 8      -614.628          51.000  
C24  23210161.555 5 120861413.263 5     -1972.715          35.000                                                                  
C25  22030508.930 6 114718621.871 6       742.430          41.000                                                                  
C05                                                                  39769146.328 6 160133871.382 6        20.014          36.000  
C14                                                                  25822368.961 6 103975982.332 6     -2680.690          36.000  
C23  25321144.070 5 131853830.740 5      2562.887          35.000                                                                  
> 2020 05 10 06 02  0.0000000  0 16      -0.000000000000
G15  20340012.383 8 106887477.714 8      -407.055          51.000    20340011.258 8  83288950.736 8      -317.186          51.000  
G13  20803114.055 8 109321095.643 8     -1856.277          51.000    20803112.328 7  85185246.201 7     -1446.450          47.000  
G28  22352210.602 4 117461659.50424     -2586.031          28.000                                                                  
G19  23281505.406 7 122345138.847 7      3050.160          47.000    23281501.633 7  95333854.494 7      2376.749          45.000  
R15  20391488.062 6 108965525.390 6      1897.738          38.000    20391503.602 4  84751045.35124      1476.010          25.000  
R04  19991356.000 8 107052426.727 8     -2550.336          51.000    19991357.992 7  83262985.818 7     -1983.598          46.000  
R14  19687457.320 6 104944820.927 6     -1451.723          36.000    19687460.359 5  81623766.816 5     -1129.115          33.000  
E31  23436528.695 8 123159791.035 8      -446.898          51.000    23436531.961 8  94369202.251 8      -342.471          51.000  
E04  26390060.969 7 138680675.664 7     -2884.891          47.000    26390058.719 7 106261796.999 7     -2210.448          45.000  
E24  23218062.992 8 122011774.929 8      1971.789          51.000    23218076.414 8  93489533.528 8      1510.879          51.000  
E09  21723352.148 8 114156992.285 8      -814.855          50.000    21723354.742 8  87470932.475 8      -624.370          51.000  
C24  23221542.688 6 120920680.086 6     -1977.734          36.000                                                                  
C25  22026258.492 6 114696487.365 6       733.859          41.000                                                                  
C05                                                                  39769000.125 5 160133282.675 5        20.078          35.000  
C14                                                                  25842345.508 5 104056415.096 5     -2680.917          34.000  
C23  25306392.266 6 131777014.791 6      2558.949          36.000                                                                  
> 2020 05 10 06 02 30.0000000  0 17      -0.000000000000
G15  20342391.375 8 106899980.160 8      -424.930          51.000    20342390.234 8  83298692.899 8      -331.114          51.000  
G13  20813755.430 8 109377018.488 8     -1870.391          50.000    20813754.164 7  85228822.430 7     -1457.448          47.000  
G28  22366998.031 5 117539356.215 5     -2594.230          34.000                                                                  
G19  23264121.484 7 122253791.295 7      3041.168          47.000    23264119.523 7  95262674.603 7      2369.742          45.000  
R15  20380881.602 6 108908801.613 6      1885.539          37.000    20380883.789 4  84706905.65124      1466.522          28.000  
R04  20005709.914 8 107129287.099 8     -2572.121          51.000    20005711.375 7  83322766.081 7     -2000.539          47.000  
R14  19695667.836 6 104988582.286 6     -1463.961          38.000    19695670.492 6  81657803.465 6     -1138.633          36.000  
R23  22802173.148 5 121975828.51725      1717.652          32.000                                                                  
E31  23439109.375 8 123173353.086 8      -455.668          51.000    23439112.766 8  94379593.957 8      -349.106          51.000  
E04  26406546.734 7 138767311.061 7     -2889.309          46.000    26406546.484 7 106328179.930 7     -2213.956          46.000  
E24  23206831.500 8 121952750.869 8      1964.691          51.000    23206843.781 8  93444307.314 8      1505.390          51.000  
E09  21728044.211 8 114181647.649 8      -827.285          51.000    21728046.109 8  87489824.239 8      -633.858          51.000  
C24  23232954.219 6 120980101.142 6     -1982.359          39.000                                                                  
C25  22022057.773 6 114674616.583 6       725.633          40.000                                                                  
C05                                                                  39768853.938 6 160132694.015 6        20.603          36.000  
C14                                                                  25862324.070 5 104136855.984 5     -2680.138          31.000  
C23  25291664.164 6 131700319.278 6      2555.383          39.000                                                                  
> 2020 05 10 06 03  0.0000000  0 18      -0.000000000000
G24  21660133.398 5 113824776.091 5      2268.164          34.000    21660126.961 5  88694598.509 5      1767.401          32.000  
G15  20344861.852 8 106912963.664 8      -445.391          51.000    20344860.898 8  83308809.899 8      -347.058          51.000  
G17  22694764.781 5 119261787.659 5      1360.332          35.000    22694767.367 5  92931262.837 5      1059.996          34.000  
G13  20824466.031 8 109433307.988 8     -1887.027          48.000    20824465.914 8  85272684.404 8     -1470.411          48.000  
G28  22381823.484 5 117617256.714 5     -2604.012          34.000                                                                  
G19  23246778.781 7 122162657.795 7      3029.613          47.000    23246778.031 7  95191661.466 7      2360.738          46.000  
R04  20020174.844 8 107206745.225 8     -2596.547          51.000    20020175.859 7  83383011.291 7     -2019.537          46.000  
R14  19703932.508 5 105032639.095 5     -1478.164          35.000    19703937.211 6  81692069.887 6     -1149.680          36.000  
R23  22792599.906 5 121924603.815 5      1692.594          31.000                                                                  
E31  23441729.344 8 123187121.510 8      -467.000          51.000    23441732.930 8  94390143.788 8      -357.873          51.000  
E04  26423047.469 7 138854028.735 7     -2896.645          44.000    26423049.484 7 106394625.930 7     -2219.514          46.000  
E24  23195630.023 8 121893886.430 8      1954.855          51.000    23195642.188 8  93399203.381 8      1497.823          51.000  
E09  21732796.617 8 114206619.154 8      -842.301          51.000    21732797.617 8  87508958.252 8      -645.421          51.000  
C24  23244382.273 6 121039604.603 6     -1989.211          41.000                                                                  
C25  22017893.594 6 114652938.312 6       714.875          40.000                                                                  
C05                                                                  39768694.242 6 160132050.528 6        18.528          36.000  
C14                                                                  25882289.602 5 104217248.573 5     -2682.433          32.000  
C23  25276946.172 6 131623673.568 6      2549.801          39.000                                                                  
> 2020 05 10 06 03 30.0000000  0 17      -0.000000000000
G15  20347450.391 8 106926566.657 8      -460.930          51.000    20347449.445 8  83319409.634 8      -359.166          51.000  
G17  22687034.586 6 119221183.706 6      1346.922          37.000    22687038.797 6  92899623.557 6      1049.550          37.000  
G13  20835273.234 8 109490102.079 8     -1898.770          51.000    20835273.633 8  85316939.569 8     -1479.558          49.000  
G19  23229504.211 7 122071879.980 7      3022.891          47.000    23229504.148 7  95120925.508 7      2355.500          47.000  
R15  20359872.484 5 108796599.81225      1858.953          32.000                                                                  
R04  20034776.703 8 107284938.874 8     -2615.777          51.000    20034777.109 7  83443828.573 7     -2034.491          45.000  
R14  19712279.195 6 105077129.455 6     -1487.559          40.000    19712283.523 5  81726673.650 5     -1156.993          34.000  
R23  22783162.766 4 121874124.554 4      1673.582          28.000    22783161.469 4  94791013.470 4      1301.678          25.000  
E31  23444414.914 8 123201233.433 8      -473.355          51.000    23444418.344 8  94400956.810 8      -362.701          51.000  
E04  26439589.594 7 138940965.466 7     -2898.758          43.000    26439593.539 7 106461239.777 7     -2221.139          47.000  
E24  23184485.031 8 121835319.906 8      1950.074          51.000    23184497.672 8  93354327.708 8      1494.181          51.000  
E09  21737635.328 8 114232044.753 8      -852.297          51.000    21737635.797 8  87528440.188 8      -653.065          51.000  
C24  23255852.438 6 121099326.498 6     -1991.484          38.000                                                                  
C25  22013793.625 6 114631589.241 6       708.754          40.000                                                                  
C05                                                                  39768547.008 6 160131458.050 6        21.035          36.000  
C14                                                                  25902268.852 5 104297696.881 5     -2680.823          33.000  
C23  25262263.984 6 131547214.777 6      2548.527          39.000                                                                  
> 2020 05 10 06 04  0.0000000  0 17      -0.000000000000
G24  21634301.906 5 113689018.097 5      2258.789          33.000    21634310.727 5  88588865.729 5      1760.093          33.000  
G15  20350141.148 8 106940708.229 8      -475.680          49.000    20350140.227 8  83330429.051 8      -370.660          49.000  
G17  22679396.750 6 119181051.714 6      1334.445          36.000    22679399.758 6  92868351.779 6      1039.825          36.000  
G13  20846161.664 8 109547318.528 8     -1909.707          51.000    20846161.547 8  85361523.831 8     -1488.084          49.000  
G19  23212282.922 8 121981379.958 8      3016.383          48.000    23212282.961 7  95050405.997 7      2350.429          46.000  
R04  20049499.758 8 107363782.759 8     -2634.262          51.000    20049500.117 7  83505151.591 7     -2048.874          45.000  
R14  19720691.539 6 105121969.540 6     -1496.082          41.000    19720694.477 5  81761549.140 5     -1163.623          34.000  
E31  23447150.156 8 123215606.925 8      -478.922          51.000    23447153.438 8  94411970.277 8      -366.972          51.000  
E04  26456158.961 7 139028039.046 7     -2900.211          45.000    26456163.188 7 106527958.492 7     -2222.166          47.000  
E24  23173381.523 8 121776970.553 8      1945.883          51.000    23173394.648 8  93309618.457 8      1490.996          51.000  
E01  26488580.648 5 139198400.347 5     -2471.188          33.000                                                                  
E09  21742544.828 8 114257843.356 8      -861.613          51.000    21742545.320 8  87548207.934 8      -660.227          51.000  
C24  23267347.656 6 121159185.660 6     -1992.988          36.000                                                                  
C25  22009741.406 6 114610488.813 6       703.828          40.000                                                                  
C05                                                                  39768396.938 6 160130854.500 6        23.702          36.000  
C14                                                                  25922246.672 5 104378137.335 5     -2677.803          35.000  
C23  25247602.406 6 131470862.991 6      2547.812          39.000                                                                  
> 2020 05 10 06 04 30.0000000  0 19      -0.000000000000
G24  21621463.516 5 113621557.11325      2246.051          33.000                                                                  
G15  20352948.070 8 106955460.364 8      -499.875          49.000    20352946.992 8  83341924.208 8      -389.513          49.000  
G13  20857144.406 8 109605029.479 8     -1929.801          51.000    20857143.609 8  85406493.376 8     -1503.741          49.000  
G28  22426629.727 5 117852742.118 5     -2628.988          32.000                                                                  
G19  23195129.000 8 121891233.860 8      3001.254          49.000    23195128.906 7  94980162.297 7      2338.640          46.000  
G12  24196414.828 5 127153028.654 5      3826.781          35.000    24196423.219 6  99080299.961 6      2981.899          36.000  
R15  20339152.188 5 108685860.888 5      1830.453          33.000                                                                  
R04  20064357.594 8 107443347.796 8     -2661.945          51.000    20064358.680 7  83567035.466 7     -2070.405          46.000  
R14  19729181.086 6 105167230.603 6     -1513.246          36.000    19729185.539 5  81796752.128 5     -1176.966          35.000  
E31  23449948.891 8 123230313.675 8      -493.684          51.000    23449952.047 8  94423239.087 8      -378.271          51.000  
E04  26472769.312 7 139115320.807 7     -2910.852          47.000    26472772.703 8 106594836.709 8     -2230.349          48.000  
E24  23162333.125 8 121718911.125 8      1932.613          51.000    23162346.414 8  93265131.387 8      1480.804          51.000  
E01  26502733.414 6 139272796.954 6     -2478.855          38.000                                                                  
E09  21747539.016 8 114284087.345 8      -880.121          51.000    21747539.938 8  87568316.954 8      -674.394          51.000  
C24  23278881.555 6 121219253.168 6     -2003.273          36.000                                                                  
C25  22005750.375 6 114589708.782 6       689.480          39.000                                                                  
C05                                                                  39768258.008 6 160130295.477 6        19.658          36.000  
C14                                                                  25942236.289 5 104458624.053 5     -2682.083          35.000  
C23  25232974.828 6 131394690.402 6      2538.219          38.000                                                                  
> 2020 05 10 06 05  0.0000000  0 19      -0.000000000000
G15  20355844.195 8 106970679.041 8      -519.016          51.000    20355842.617 8  83353782.912 8      -404.428          51.000  
G13  20868193.492 8 109663089.535 8     -1945.094          51.000    20868192.102 8  85451734.932 8     -1515.661          49.000  
G28  22441649.234 5 117931671.370 5     -2637.324          34.000    22441652.289 5  91894814.038 5     -2055.058          34.000  
G19  23178015.461 8 121801300.779 8      2990.113          49.000    23178015.172 7  94910084.609 7      2329.959          45.000  
G12  24174568.125 4 127038236.518 4      3821.438          29.000    24174577.500 4  98990851.495 4      2977.741          29.000  
R15  20328902.461 6 108631086.269 6      1816.281          38.000                                                                  
R04  20079322.836 8 107523484.056 8     -2684.758          51.000    20079324.273 7  83629363.642 7     -2088.145          47.000  
R14  19737723.172 6 105212764.257 6     -1526.375          41.000    19737728.398 5  81832167.265 5     -1187.181          35.000  
R23  22755613.820 5 121726800.297 5      1601.812          30.000    22755619.773 5  94676395.274 5      1245.854          30.000  
E31  23452783.523 8 123245208.424 8      -503.480          51.000    23452786.586 8  94434651.941 8      -385.808          51.000  
E04  26489392.289 8 139202665.167 8     -2916.363          49.000    26489394.531 8 106661762.882 8     -2234.683          48.000  
E24  23151312.234 8 121660997.617 8      1924.156          51.000    23151325.828 8  93220756.115 8      1474.375          51.000  
E01  26516880.891 6 139347148.560 6     -2481.934          39.000                                                                  
E09  21752590.336 8 114310632.286 8      -893.707          51.000    21752591.961 8  87588656.571 8      -684.795          51.000  
C24  23290428.977 6 121279385.091 6     -2009.211          36.000                                                                  
C25  22001792.812 6 114569105.913 6       679.918          38.000                                                                  
C05                                                                  39768102.766 6 160129669.414 6        19.162          36.000  
C14                                                                  25962209.453 5 104539044.761 5     -2682.201          31.000  
C23  25218352.570 5 131318554.334 5      2533.027          34.000                                                                  
> 2020 05 10 06 05 30.0000000  0 16      -0.000000000000
G15  20358857.391 8 106986512.604 8      -537.539          51.000    20358855.547 8  83366120.770 8      -418.862          51.000  
G17  22657056.562 5 119063632.88325      1279.254          34.000                                                                  
G13  20879336.891 8 109721646.373 8     -1959.633          51.000    20879334.992 8  85497363.590 8     -1526.990          48.000  
G28  22456727.609 5 118010908.396 5     -2645.449          34.000                                                                  
G19  23160971.125 7 121711732.395 7      2980.055          47.000    23160970.555 7  94840291.081 7      2322.121          45.000  
R15  20318739.766 5 108576774.370 5      1803.562          35.000                                                                  
R04  20094422.227 8 107604339.572 8     -2706.555          51.000    20094423.859 7  83692251.245 7     -2105.102          47.000  
R14  19746344.797 6 105258719.142 6     -1538.355          40.000    19746348.844 5  81867909.907 5     -1196.499          34.000  
E31  23455681.750 8 123260438.600 8      -512.660          51.000    23455684.883 8  94446321.820 8      -392.833          51.000  
E04  26506055.188 8 139290219.216 8     -2921.297          50.000    26506056.570 8 106728849.712 8     -2238.413          49.000  
E24  23140347.156 8 121603378.578 8      1916.316          51.000    23140361.297 8  93176606.475 8      1468.344          51.000  
E09  21757726.805 8 114337626.370 8      -906.727          51.000    21757729.398 8  87609340.331 8      -694.741          51.000  
C24  23302016.922 5 121339727.573 5     -2014.445          35.000                                                                  
C25  21997897.867 6 114548826.873 6       671.047          37.000                                                                  
C05                                                                  39767959.359 5 160129091.968 5        19.020          35.000  
C23  25203764.422 5 131242601.985 5      2528.660          33.000                                                                  
> 2020 05 10 06 06  0.0000000  0 15      -0.000000000000
G15  20361969.828 8 107002868.481 8      -554.766          50.000    20361968.078 8  83378865.597 8      -432.285          50.000  
G17  22649794.719 6 119025463.459 6      1263.668          38.000    22649788.750 6  92747099.178 6       984.671          36.000  
G13  20890556.750 8 109780606.677 8     -1972.871          51.000    20890554.844 7  85543306.641 7     -1537.306          47.000  
G28  22471846.727 5 118090358.662 5     -2652.090          35.000                                                                  
G19  23143978.914 7 121622439.374 7      2971.109          47.000    23143978.047 7  94770712.139 7      2315.154          44.000  
R04  20109637.625 8 107685817.243 8     -2727.074          51.000    20109639.258 7  83755622.742 7     -2121.058          46.000  
R14  19755027.133 6 105304999.390 6     -1548.973          40.000    19755030.109 5  81903905.653 5     -1204.757          35.000  
E31  23458626.031 8 123275910.661 8      -520.555          51.000    23458628.938 8  94458177.033 8      -398.858          51.000  
E04  26522739.680 8 139377889.075 8     -2925.031          50.000    26522740.383 8 106796025.276 8     -2241.256          48.000  
E24  23129421.109 8 121545961.627 8      1909.789          51.000    23129435.531 8  93132611.688 8      1463.253          51.000  
E09  21762931.023 8 114364976.825 8      -918.387          51.000    21762934.430 8  87630297.160 8      -703.705          51.000  
C24  23313626.703 5 121400188.179 5     -2018.254          35.000                                                                  
C25  21994048.664 6 114528779.767 6       663.531          41.000                                                                  
C05                                                                  39767810.086 5 160128491.211 5        19.770          35.000  
C23  25189194.789 5 131166741.866 5      2526.895          30.000                                                                  
> 2020 05 10 06 06 30.0000000  0 14      -0.000000000000
G15  20365191.188 8 107019796.310 8      -572.660          51.000    20365189.453 8  83392056.101 8      -446.229          51.000  
G13  20901862.281 8 109840018.995 8     -1986.930          51.000    20901861.031 7  85589601.937 7     -1548.254          47.000  
G28  22487015.477 5 118170069.708 5     -2660.281          35.000                                                                  
G19  23127049.180 7 121533474.992 7      2961.031          46.000    23127047.797 7  94701389.262 7      2307.301          43.000  
R04  20124977.586 8 107767964.916 8     -2748.375          49.000    20124979.195 7  83819515.363 7     -2137.628          46.000  
R14  19763779.672 6 105351653.722 6     -1560.109          39.000    19763782.406 5  81940192.368 5     -1213.419          35.000  
E31  23461625.664 8 123291673.666 8      -529.242          51.000    23461628.203 8  94470255.180 8      -405.547          51.000  
E04  26539455.062 8 139465723.450 8     -2929.523          50.000    26539455.391 8 106863326.921 8     -2244.680          48.000  
E24  23118543.344 8 121488796.927 8      1902.340          51.000    23118558.008 8  93088810.177 8      1457.608          51.000  
E09  21768212.797 8 114392733.440 8      -930.973          51.000    21768216.508 8  87651565.210 8      -713.331          51.000  
C24  23325268.961 5 121460815.364 5     -2022.387          34.000                                                                  
C25  21990253.922 6 114509013.871 6       655.324          41.000                                                                  
C05                                                                  39767664.562 5 160127905.451 5        20.014          35.000  
C23  25174653.273 4 131091023.895 4      2522.422          29.000                                                                  
> 2020 05 10 06 07  0.0000000  0 14      -0.000000000000
G15  20368506.883 8 107037219.342 8      -590.027          51.000    20368505.258 8  83405632.481 8      -459.759          51.000  
G17  22635548.562 5 118950592.382 5      1232.117          34.000    22635558.516 5  92688840.998 5       960.089          33.000  
G13  20913239.055 8 109899806.570 8     -2000.195          51.000    20913238.414 7  85636189.656 7     -1558.591          47.000  
G19  23110168.016 7 121444765.883 7      2951.688          46.000    23110166.352 7  94632265.311 7      2300.020          43.000  
R04  20140426.742 8 107850701.281 8     -2768.770          48.000    20140429.523 7  83883865.857 7     -2153.488          46.000  
R14  19772587.258 6 105398602.067 6     -1570.965          36.000    19772590.609 5  81976707.740 5     -1221.859          35.000  
E31  23464665.578 8 123307649.907 8      -537.094          51.000    23464668.102 8  94482496.726 8      -411.585          51.000  
E04  26556186.570 8 139553644.304 8     -2933.152          50.000    26556186.914 7 106930694.815 7     -2247.446          47.000  
E24  23107698.750 8 121431807.941 8      1895.641          51.000    23107713.750 8  93045143.299 8      1452.544          51.000  
E09  21773557.219 8 114420819.244 8      -942.680          51.000    21773561.023 8  87673085.497 8      -722.304          51.000  
C24  23336928.555 6 121521532.438 6     -2026.453          37.000                                                                  
C25  21986497.859 7 114489452.884 7       647.723          42.000                                                                  
C05                                                                  39767508.102 5 160127274.834 5        21.014          35.000  
C23  25160123.633 4 131015372.176 4      2519.875          29.000                                                                  
> 2020 05 10 06 07 30.0000000  0 16      -0.000000000000
G15  20371937.453 8 107055245.664 8      -612.309          51.000    20371935.828 8  83419678.968 8      -477.124          51.000  
G17  22628561.805 5 118913901.82725      1211.023          30.000    22628562.914 5  92660188.38525       943.655          30.000  
G13  20924707.773 8 109960076.325 8     -2018.414          51.000    20924707.328 8  85683153.118 8     -1572.791          48.000  
G19  23093356.656 7 121356423.641 7      2937.316          43.000    23093355.242 7  94563427.220 7      2288.822          43.000  
R15  20278811.820 5 108363434.912 5      1748.719          33.000                                                                  
R04  20156006.680 8 107934133.333 8     -2794.035          50.000    20156009.891 7  83948757.448 7     -2173.139          45.000  
R14  19781469.102 6 105445952.378 6     -1586.738          38.000    19781474.953 5  82013535.701 5     -1234.127          35.000  
R23  22712281.508 5 121494958.670 5      1484.281          30.000    22712289.586 4  94496133.664 4      1154.444          28.000  
E31  23467766.609 8 123323946.547 8      -549.926          51.000    23467769.164 8  94494983.758 8      -421.414          51.000  
E04  26572954.492 8 139641758.424 8     -2941.723          49.000    26572954.758 7 106998210.794 7     -2254.049          45.000  
E24  23096907.836 8 121375103.006 8      1884.008          51.000    23096923.203 8  93001694.061 8      1443.597          51.000  
E09  21778984.633 8 114449342.170 8      -959.516          51.000    21778988.617 8  87694940.711 8      -735.184          51.000  
C24  23348627.164 5 121582445.567 5     -2034.953          34.000                                                                  
C25  21982801.086 6 114470203.722 6       635.176          41.000                                                                  
C05                                                                  39767361.297 6 160126684.218 6        17.879          36.000  
C23  25145626.641 5 130939894.258 5      2512.250          30.000                                                                  
> 2020 05 10 06 08  0.0000000  0 14      -0.000000000000
G15  20375478.172 8 107073850.999 8      -619.043          51.000    20375476.625 8  83434176.619 8      -482.371          51.000  
G13  20936263.648 8 110020803.364 8     -2021.055          51.000    20936263.453 8  85730472.870 8     -1574.848          49.000  
G19  23076611.250 7 121268427.356 7      2938.230          45.000    23076610.242 7  94494858.713 7      2289.531          42.000  
R04  20171712.523 8 108018233.635 8     -2803.453          51.000    20171715.078 7  84014168.778 7     -2180.467          45.000  
R14  19790422.250 6 105493678.150 6     -1586.121          37.000    19790428.328 5  82050655.824 5     -1233.647          33.000  
R23  22704017.500 5 121450730.466 5      1473.238          34.000    22704026.062 4  94461755.59824      1145.852          29.000  
E31  23470924.047 8 123340538.668 8      -547.184          51.000    23470926.758 8  94507697.189 8      -419.232          51.000  
E04  26589753.984 7 139730040.528 7     -2934.641          46.000    26589754.078 7 107065855.496 7     -2248.685          42.000  
E24  23086166.297 8 121318658.298 8      1887.977          51.000    23086181.516 8  92958444.208 8      1446.623          51.000  
E09  21784490.727 8 114478277.946 8      -960.559          51.000    21784494.648 8  87717112.273 8      -736.016          51.000  
C24  23360358.547 6 121643530.102 6     -2028.676          38.000                                                                  
C25  21979159.906 7 114451242.348 7       637.926          42.000                                                                  
C05                                                                  39767219.781 5 160126114.177 5        27.258          35.000  
C23  25131160.188 4 130864545.51924      2519.199          27.000                                                                  
> 2020 05 10 06 08 30.0000000  0 16      -0.000000000000
G15  20379088.266 8 107092822.033 8      -638.117          51.000    20379086.977 8  83448959.234 8      -497.234          51.000  
G13  20947865.977 8 110081773.343 8     -2035.965          51.000    20947865.492 8  85777981.923 8     -1586.470          49.000  
G19  23059892.352 7 121180567.184 7      2926.793          47.000    23059890.641 6  94426396.209 6      2280.619          41.000  
R15  20259265.656 4 108259018.962 4      1732.773          28.000                                                                  
R04  20187502.172 8 108102781.755 8     -2825.297          50.000    20187503.492 7  84079928.374 7     -2197.457          45.000  
R14  19799405.453 6 105541561.210 6     -1598.133          37.000    19799410.312 5  82087898.207 5     -1242.992          33.000  
R23  22695848.172 5 121407024.719 5      1449.113          35.000    22695852.219 4  94427762.209 4      1127.085          28.000  
E31  23474096.820 8 123357211.948 8      -556.746          51.000    23474099.891 8  94520472.817 8      -426.568          51.000  
E04  26606543.961 7 139818275.956 7     -2940.035          44.000    26606542.148 5 107133464.371 5     -2252.364          35.000  
E24  23075434.070 8 121262260.631 8      1879.609          51.000    23075448.609 8  92915230.406 8      1440.212          51.000  
E01  26616278.242 6 139869480.534 6     -2486.277          36.000                                                                  
E09  21790035.062 8 114507413.022 8      -974.055          51.000    21790038.398 8  87739436.558 8      -746.345          51.000  
C24  23372082.422 6 121704573.870 6     -2033.906          37.000                                                                  
C25  21975533.703 7 114432357.087 7       628.660          42.000                                                                  
C05                                                                  39767042.711 6 160125401.324 6        26.436          36.000  
C23  25116697.273 5 130789223.831 5      2514.223          31.000                                                                  
> 2020 05 10 06 09  0.0000000  0 16      -0.000000000000
G15  20382819.320 8 107112428.737 8      -665.363          51.000    20382817.977 8  83464237.167 8      -518.465          51.000  
G13  20959565.969 8 110143255.869 8     -2059.227          51.000    20959564.852 8  85825890.379 8     -1604.593          49.000  
G19  23043251.648 8 121093116.717 8      2906.883          48.000    23043249.180 7  94358252.978 7      2265.104          42.000  
R15  20249606.961 6 108207409.624 6      1711.207          36.000    20249619.742 4  84161353.589 4      1330.933          26.000  
R04  20203426.305 8 108188049.879 8     -2855.559          51.000    20203426.844 7  84146248.006 7     -2220.990          47.000  
R14  19808469.406 6 105589873.805 6     -1618.711          40.000    19808474.359 5  82125474.685 5     -1258.995          33.000  
R23  22687829.820 6 121364113.317 6      1416.062          39.000    22687830.195 4  94394381.630 4      1101.382          24.000  
E31  23477336.461 8 123374235.879 8      -574.578          51.000    23477339.445 8  94533517.122 8      -440.234          51.000  
E04  26623375.227 7 139906733.862 7     -2953.645          43.000    26623366.633 5 107201268.687 5     -2263.429          32.000  
E24  23064762.617 8 121206180.619 8      1862.766          51.000    23064776.523 8  92872260.003 8      1427.354          51.000  
E01  26630515.422 6 139944291.057 6     -2497.680          36.000    26630518.422 5 107230055.566 5     -1913.820          32.000  
E09  21795668.695 8 114537017.598 8      -995.906          51.000    21795671.461 8  87762120.590 8      -763.094          51.000  
C24  23383849.992 5 121765843.979 5     -2047.625          33.000                                                                  
C25  21971973.328 7 114413815.666 7       611.148          43.000                                                                  
C05                                                                  39766881.648 5 160124752.782 5        19.480          35.000  
C23  25102259.570 5 130714042.307 5      2501.629          34.000                                                                  
> 2020 05 10 06 09 30.0000000  0 15      -0.000000000000
G15  20386666.750 8 107132646.591 8      -682.809          51.000    20386665.227 8  83479991.333 8      -532.059          51.000  
G13  20971358.531 8 110205225.457 8     -2072.473          51.000    20971357.031 8  85874178.349 8     -1614.914          48.000  
G19  23026684.898 7 121006054.928 7      2896.809          46.000    23026682.078 7  94290412.663 7      2257.257          42.000  
R04  20219479.195 8 108274010.100 8     -2875.523          51.000    20219479.883 7  84213105.941 7     -2236.519          47.000  
R14  19817609.445 6 105638589.089 6     -1629.145          41.000    19817612.695 5  82163364.363 5     -1267.116          32.000  
R23  22679950.734 5 121321973.766 5      1393.508          31.000                                                                  
E31  23480638.039 8 123391584.945 8      -582.449          51.000    23480640.680 8  94546810.559 8      -446.305          51.000  
E04  26640244.492 7 139995388.433 7     -2957.102          44.000    26640236.289 5 107269198.642 5     -2265.593          35.000  
E24  23054147.109 8 121150393.879 8      1855.953          51.000    23054160.289 8  92829514.335 8      1422.062          51.000  
E01  26644773.062 5 140019226.688 5     -2498.129          33.000    26644781.297 5 107287466.907 5     -1914.119          32.000  
E09  21801386.703 8 114567066.881 8     -1007.844          51.000    21801389.234 8  87785145.353 8      -772.217          51.000  
C24  23395655.273 6 121827315.328 6     -2050.996          36.000                                                                  
C25  21968474.070 7 114395593.537 7       603.402          44.000                                                                  
C05                                                                  39766731.773 5 160124148.796 5        20.310          35.000  
C23  25087853.992 5 130639043.954 5      2498.344          34.000                                                                  
> 2020 05 10 06 10  0.0000000  0 15      -0.000000000000
G15  20390624.281 8 107153443.276 8      -709.285          51.000    20390622.617 8  83496196.539 8      -552.690          51.000  
G13  20983237.359 8 110267649.312 8     -2094.691          51.000    20983235.492 8  85922820.305 8     -1632.228          48.000  
G19  23010186.414 7 120919353.098 7      2877.684          45.000    23010183.375 7  94222852.828 7      2242.352          44.000  
R04  20235653.945 8 108360626.514 8     -2904.641          51.000    20235654.875 7  84280474.242 7     -2259.165          47.000  
R14  19826817.406 6 105687672.817 6     -1648.980          39.000    19826820.234 5  82201540.588 5     -1282.541          32.000  
R23  22672212.734 5 121280576.026 5      1361.469          35.000                                                                  
E31  23483994.914 8 123409226.279 8      -599.332          50.000    23483997.867 8  94560327.936 8      -459.199          51.000  
E04  26657145.844 7 140084206.410 7     -2969.680          44.000    26657143.883 6 107337253.916 6     -2275.629          41.000  
E24  23043581.242 8 121094868.658 8      1840.070          51.000    23043593.789 8  92786969.061 8      1409.880          51.000  
E01  26659045.070 5 140094226.569 5     -2508.324          32.000    26659055.672 5 107344969.921 5     -1921.778          30.000  
E09  21807183.406 8 114597528.610 8     -1028.715          51.000    21807185.539 8  87808486.151 8      -788.201          51.000  
C24  23407492.172 6 121888955.552 6     -2063.469          36.000                                                                  
C25  21965030.414 7 114377658.830 7       586.852          45.000                                                                  
C05                                                                  39766587.156 5 160123566.832 5        14.447          35.000  
C23  25073474.609 4 130564197.579 4      2485.918          28.000                                                                  
> 2020 05 10 06 10 30.0000000  0 14      -0.000000000000
G15  20394683.523 8 107174775.538 8      -724.520          51.000    20394681.969 8  83512819.067 8      -564.564          51.000  
G17  22588664.984 5 118704235.609 5      1108.820          34.000    22588665.281 5  92496816.465 5       864.019          33.000  
G13  20995194.148 8 110330483.284 8     -2105.723          51.000    20995191.984 7  85971781.849 7     -1640.823          47.000  
G19  22993748.484 7 120832971.213 7      2869.508          44.000    22993745.828 7  94155542.304 7      2235.981          44.000  
G12  23936093.062 6 125785009.362 6      3765.594          39.000    23936090.812 4  98014299.142 4      2934.230          29.000  
R04  20251942.375 8 108447851.983 8     -2922.277          51.000    20251943.227 7  84348316.266 7     -2272.883          46.000  
R14  19836085.414 6 105737079.026 6     -1657.023          37.000    19836088.258 4  82239967.693 4     -1288.793          28.000  
E31  23487398.828 8 123427115.754 8      -604.973          50.000    23487402.445 8  94574035.446 8      -463.551          51.000  
E04  26674070.375 7 140173143.369 7     -2971.027          44.000    26674073.062 7 107405400.342 7     -2276.572          45.000  
E24  23033056.828 8 121039561.986 8      1835.449          51.000    23033068.422 8  92744591.222 8      1406.351          51.000  
E09  21813050.516 8 114628359.380 8     -1038.359          51.000    21813052.156 8  87832109.728 8      -795.603          51.000  
C24  23419352.836 6 121950720.804 6     -2065.426          36.000                                                                  
C25  21961633.977 7 114359968.557 7       581.156          44.000                                                                  
C05                                                                  39766439.539 5 160122972.834 5        16.797          35.000  
> 2020 05 10 06 11  0.0000000  0 17      -0.000000000000
G15  20398856.656 8 107196706.256 8      -739.277          51.000    20398855.414 8  83529907.929 8      -576.060          51.000  
G13  21007240.789 8 110393789.757 8     -2116.379          51.000    21007238.516 7  86021111.570 7     -1649.127          45.000  
G28  22625473.297 5 118897664.378 5     -2730.566          34.000                                                                  
G19  22977383.789 7 120746975.926 7      2861.672          44.000    22977382.109 7  94088533.001 7      2229.875          44.000  
G12  23914597.414 6 125672045.093 6      3763.582          40.000    23914588.594 4  97926275.218 4      2932.674          28.000  
R04  20268356.211 8 108535747.596 8     -2939.191          51.000    20268356.773 7  84416679.525 7     -2286.038          46.000  
R14  19845426.297 5 105786869.943 5     -1664.457          34.000    19845421.000 4  82278682.92524     -1294.578          26.000  
R23  22657131.359 5 121200000.601 5      1320.062          30.000                                                                  
E31  23490861.867 8 123445315.605 8      -610.043          50.000    23490865.719 8  94587980.769 8      -467.484          51.000  
E04  26691029.680 7 140262261.111 7     -2971.832          44.000    26691034.188 7 107473685.324 7     -2277.113          46.000  
E24  23022585.977 8 120984537.215 8      1831.129          51.000    23022597.242 8  92702429.388 8      1403.083          51.000  
E01  26687623.836 5 140244408.452 5     -2504.777          33.000                                                                  
E09  21818999.867 8 114659622.091 8     -1047.578          51.000    21819001.305 8  87856064.257 8      -802.720          51.000  
C24  23431249.516 5 122012673.107 5     -2066.641          34.000                                                                  
C25  21958295.961 7 114342584.979 7       576.102          45.000                                                                  
C05                                                                  39766301.109 5 160122415.264 5        19.594          35.000  
C23  25044799.602 5 130414846.718 5      2484.457          30.000                                                                  
> 2020 05 10 06 11 30.0000000  0 17      -0.000000000000
G15  20403119.484 8 107219107.687 8      -755.621          51.000    20403118.336 8  83547363.587 8      -588.796          51.000  
G13  21019353.109 8 110457440.220 8     -2128.473          51.000    21019350.625 7  86070709.321 7     -1658.551          44.000  
G28  22641069.742 5 118979623.53825     -2735.199          33.000                                                                  
G19  22961069.039 7 120661243.015 7      2852.371          45.000    22961068.305 7  94021728.117 7      2222.627          43.000  
G12  23893116.672 6 125559158.148 6      3760.383          41.000    23893104.891 4  97838311.368 4      2930.172          29.000  
R15  20202519.531 5 107955717.89625      1646.195          30.000                                                                  
R04  20284870.289 8 108624180.124 8     -2957.688          50.000    20284870.945 7  84485460.372 7     -2300.424          47.000  
R14  19854813.641 6 105836914.492 6     -1673.410          36.000    19854820.555 5  82317615.294 5     -1301.542          31.000  
E31  23494359.562 8 123463697.334 8      -616.809          50.000    23494363.141 8  94602065.452 8      -472.578          51.000  
E04  26707999.133 7 140351430.852 7     -2974.137          43.000    26708003.516 7 107542010.155 7     -2278.891          47.000  
E24  23012144.359 8 120929666.922 8      1825.410          51.000    23012156.258 8  92660385.948 8      1398.698          51.000  
E01  26701920.641 5 140319534.075 5     -2504.555          33.000                                                                  
E09  21825006.977 8 114691188.961 8     -1058.273          51.000    21825008.555 8  87880251.829 8      -810.915          51.000  
C24  23443157.773 5 122074685.297 5     -2069.184          32.000                                                                  
C25  21954992.203 7 114325381.587 7       569.430          45.000                                                                  
C05                                                                  39766147.328 5 160121796.379 5        20.461          35.000  
C23  25030488.078 5 130340327.960 5      2482.754          33.000                                                                  
> 2020 05 10 06 12  0.0000000  0 16      -0.000000000000
G15  20407476.211 8 107242002.404 8      -769.121          51.000    20407475.164 8  83565203.626 8      -599.315          51.000  
G13  21031535.195 8 110521456.700 8     -2137.719          51.000    21031532.391 7  86120592.247 7     -1665.758          43.000  
G19  22944809.648 7 120575798.709 7      2845.555          45.000    22944809.227 7  93955148.121 7      2217.316          43.000  
G12  23871655.141 6 125446373.930 6      3759.980          40.000    23871642.117 3  97750427.632 3      2929.859          22.000  
R04  20301489.133 8 108713169.756 8     -2973.340          51.000    20301489.445 7  84554674.501 7     -2312.598          47.000  
R14  19864253.516 6 105887233.604 6     -1679.777          37.000    19864262.141 5  82356752.466 5     -1306.494          33.000  
R23  22642569.219 6 121122088.318 6      1278.285          36.000                                                                  
E31  23497896.164 8 123482282.875 8      -620.656          51.000    23497899.656 8  94616306.316 8      -475.583          51.000  
E04  26724982.617 6 140440674.110 6     -2973.617          41.000    26724985.914 7 107610391.315 7     -2278.544          47.000  
E24  23001736.266 8 120874974.201 8      1822.395          51.000    23001749.680 8  92618478.546 8      1396.366          51.000  
E01  26716216.602 5 140394662.186 5     -2501.348          33.000                                                                  
E09  21831076.336 8 114723082.539 8     -1066.312          51.000    21831077.758 8  87904689.744 8      -817.042          51.000  
C24  23455081.695 6 122136779.074 6     -2068.539          37.000                                                                  
C25  21951727.648 7 114308380.826 7       565.641          47.000                                                                  
C05                                                                  39765982.828 5 160121133.662 5        24.596          34.000  
C23  25016192.078 5 130265878.239 5      2482.531          31.000                                                                  
> 2020 05 10 06 12 30.0000000  0 17      -0.000000000000
G15  20411945.398 8 107265488.620 8      -793.121          51.000    20411944.680 8  83583504.560 8      -618.017          51.000  
G17  22564002.141 5 118574655.151 5      1045.051          35.000    22564010.469 5  92395839.837 5       814.319          34.000  
G13  21043805.406 8 110585936.383 8     -2157.391          51.000    21043802.352 7  86170836.074 7     -1681.087          44.000  
G19  22928624.594 7 120490744.620 7      2828.152          45.000    22928623.961 7  93888872.242 7      2203.756          42.000  
G12  23850231.750 6 125333792.454 6      3749.375          38.000    23850222.180 4  97662670.952 4      2921.601          29.000  
R04  20318229.656 8 108802813.393 8     -2999.320          51.000    20318229.977 7  84624397.297 7     -2332.805          47.000  
R14  19873762.719 6 105937925.576 6     -1696.566          37.000    19873770.008 5  82396179.497 5     -1319.552          34.000  
R23  22635496.438 6 121084234.055 6      1248.777          37.000                                                                  
E31  23501490.305 8 123501169.768 8      -634.934          51.000    23501494.141 8  94630778.097 8      -486.484          51.000  
E04  26741998.367 6 140530088.133 6     -2983.516          41.000    26742000.523 8 107678903.325 8     -2286.114          48.000  
E24  22991380.688 8 120820557.708 8      1808.969          51.000    22991395.914 8  92576782.767 8      1386.106          51.000  
E01  26730529.867 5 140469877.301 5     -2509.047          34.000    26730536.500 5 107632794.773 5     -1922.197          33.000  
E09  21837226.383 8 114755401.007 8     -1084.625          51.000    21837227.727 8  87929453.237 8      -831.041          51.000  
C24  23467040.539 6 122199051.528 6     -2078.840          37.000                                                                  
C25  21948520.531 7 114291679.999 7       551.391          47.000                                                                  
C05                                                                  39765826.062 5 160120502.672 5        20.081          34.000  
C23  25001930.562 5 130191595.486 5      2473.211          31.000                                                                  
> 2020 05 10 06 13  0.0000000  0 15      -0.000000000000
G15  20416521.211 8 107289535.754 8      -813.285          51.000    20416521.039 8  83602242.553 8      -633.729          51.000  
G13  21056157.805 8 110650847.813 8     -2173.234          51.000    21056155.133 7  86221416.367 7     -1693.433          45.000  
G19  22912508.633 7 120406053.704 7      2814.703          45.000    22912507.258 6  93822879.384 6      2193.279          40.000  
G12  23828840.578 5 125221385.452 5      3741.078          33.000    23828857.125 5  97575189.287 5      2915.139          31.000  
R04  20335085.211 8 108893076.792 8     -3021.430          50.000    20335086.367 7  84694602.145 7     -2350.001          47.000  
R14  19883335.844 6 105988957.445 6     -1709.055          38.000    19883341.477 5  82435870.961 5     -1329.265          31.000  
R23  22628559.234 5 121047120.250 5      1222.305          35.000                                                                  
E31  23505135.906 8 123520326.692 8      -645.395          51.000    23505139.984 8  94645456.781 8      -494.461          51.000  
E04  26759040.828 6 140619641.193 6     -2989.770          40.000    26759041.773 8 107747521.889 8     -2290.864          48.000  
E24  22981072.531 8 120766387.191 8      1799.289          51.000    22981088.547 8  92535275.468 8      1378.704          51.000  
E01  26744853.742 5 140545154.001 5     -2512.184          35.000    26744859.961 5 107690467.919 5     -1924.894          32.000  
E09  21843451.070 8 114788113.680 8     -1099.277          51.000    21843452.914 8  87954518.778 8      -842.298          51.000  
C24  23479028.312 6 122261471.506 6     -2085.469          41.000                                                                  
C25  21945364.523 7 114275248.793 7       541.016          46.000                                                                  
C05                                                                  39765671.289 5 160119879.61425        18.682          34.000  
> 2020 05 10 06 13 30.0000000  0 18      -0.000000000000
G15  20421191.922 8 107314080.434 8      -830.430          51.000    20421191.766 8  83621368.261 8      -647.088          51.000  
G17  22552243.688 5 118512855.733 5      1010.195          35.000    22552255.164 4  92347686.398 4       787.193          28.000  
G13  21068579.773 8 110716127.682 8     -2186.035          50.000    21068578.336 7  86272283.786 7     -1703.405          46.000  
G28  22703876.570 5 119309665.25825     -2765.941          30.000                                                                  
G19  22896450.156 7 120321666.456 7      2803.840          42.000    22896448.711 6  93757123.123 6      2184.814          41.000  
R15  20166120.445 5 107761250.413 5      1591.172          33.000                                                                  
R04  20352043.508 8 108983892.712 8     -3040.445          49.000    20352046.227 7  84765236.770 7     -2364.791          47.000  
R14  19892961.992 6 106040263.908 6     -1718.746          38.000    19892962.195 4  82475789.87124     -1336.812          28.000  
R23  22621747.422 5 121010685.167 5      1199.215          34.000                                                                  
E31  23508820.562 8 123539689.945 8      -652.734          50.000    23508824.508 8  94660293.547 8      -500.111          51.000  
E04  26776097.523 6 140709269.272 6     -2992.703          38.000    26776097.547 8 107816197.921 8     -2293.183          49.000  
E24  22970799.672 8 120712400.015 8      1792.676          51.000    22970814.867 8  92493908.679 8      1373.621          51.000  
E01  26759176.820 5 140620420.776 5     -2512.883          33.000    26759181.930 4 107748137.718 4     -1925.116          29.000  
E09  21849739.000 8 114821157.473 8     -1110.840          51.000    21849741.305 8  87979838.041 8      -851.131          51.000  
C24  23491032.578 6 122323976.283 6     -2089.020          41.000                                                                  
C25  21942248.305 7 114259024.814 7       533.520          47.000                                                                  
C05                                                                  39765506.805 5 160119216.877 5        19.902          34.000  
C23  24973475.594 5 130043440.55925      2463.531          30.000                                                                  
> 2020 05 10 06 14  0.0000000  0 18      -0.000000000000
G15  20425985.359 8 107339269.384 8      -842.812          51.000    20425984.602 8  83640996.013 8      -656.737          51.000  
G17  22546522.016 5 118482772.88525       999.422          31.000    22546531.211 5  92324275.48525       778.771          30.000  
G13  21081099.125 8 110781921.789 8     -2194.230          49.000    21081099.453 7  86323551.951 7     -1709.791          47.000  
G28  22719677.859 5 119392726.267 5     -2766.008          34.000                                                                  
G19  22880476.750 6 120237733.304 6      2798.180          38.000    22880477.156 6  93691720.627 6      2180.397          37.000  
R15  20157226.891 6 107713710.269 6      1584.230          37.000    20157228.109 4  83777346.803 4      1232.179          26.000  
R04  20369132.609 8 109075407.537 8     -3054.266          49.000    20369136.297 7  84836414.985 7     -2375.540          45.000  
R14  19902664.586 5 106091991.819 5     -1723.309          33.000    19902666.086 5  82516016.552 5     -1340.351          30.000  
R23  22615091.430 5 120975080.651 5      1180.793          33.000    22615099.906 4  94091782.048 4       918.401          25.000  
E31  23512572.164 8 123559405.632 8      -655.473          50.000    23512576.133 8  94675400.353 8      -502.231          51.000  
E04  26793195.422 6 140799118.003 6     -2991.078          38.000    26793195.414 8 107885043.075 8     -2291.794          48.000  
E24  22960589.656 8 120658743.391 8      1790.621          51.000    22960603.023 8  92452795.195 8      1371.996          51.000  
E01  26773526.852 5 140695832.498 5     -2508.297          35.000                                                                  
E09  21856117.945 8 114854679.073 8     -1117.750          51.000    21856120.633 8  88005523.422 8      -856.482          51.000  
C24  23503080.125 6 122386710.604 6     -2087.688          38.000                                                                  
C25  21939200.188 7 114243153.536 7       530.738          46.000                                                                  
C05                                                                  39765360.445 5 160118627.690 5        24.319          34.000  
C23  24959295.539 6 129969591.158 6      2465.293          36.000                                                                  
> 2020 05 10 06 14 30.0000000  0 17      -0.000000000000
G15  20430863.664 8 107364904.792 8      -867.320          51.000    20430862.609 8  83660971.645 8      -675.834          51.000  
G17  22540883.672 6 118453142.462 6       975.219          36.000    22540912.664 5  92301219.997 5       759.914          33.000  
G13  21093679.250 8 110848031.941 8     -2214.332          51.000    21093680.062 8  86375066.377 8     -1725.454          48.000  
G28  22735498.055 5 119475847.70025     -2778.980          35.000                                                                  
G19  22864553.930 7 120154060.138 7      2779.203          43.000    22864555.039 6  93626520.731 6      2165.614          41.000  
G12  23764860.227 5 124885194.648 5      3725.574          33.000                                                                  
R15  20148386.195 5 107666464.357 5      1564.297          33.000                                                                  
R04  20386314.438 8 109167416.722 8     -3080.590          49.000    20386317.875 7  84907977.650 7     -2396.015          43.000  
R23  22608557.016 5 120940128.93325      1150.391          30.000                                                                  
E31  23516353.070 8 123579275.252 8      -670.223          51.000    23516357.539 8  94690625.119 8      -513.548          51.000  
E04  26810295.438 6 140888988.657 6     -3001.332          36.000    26810297.750 8 107953904.989 8     -2299.747          48.000  
E24  22950404.609 8 120605219.916 8      1776.547          51.000    22950416.758 8  92411783.724 8      1361.251          51.000  
E01  26787866.664 5 140771186.738 5     -2516.211          34.000                                                                  
E09  21862550.188 8 114888480.600 8     -1136.707          51.000    21862553.172 8  88031423.274 8      -870.996          51.000  
C24  23515133.719 6 122449478.147 6     -2098.090          40.000                                                                  
C25  21936182.062 7 114227438.931 7       515.988          45.000                                                                  
C23  24945124.031 6 129895767.313 6      2455.320          36.000                                                                  
> 2020 05 10 06 15  0.0000000  0 18      -0.000000000000
G15  20435858.133 8 107391150.612 8      -884.883          51.000    20435857.062 8  83681422.908 8      -689.519          51.000  
G17  22535356.156 5 118424095.949 5       958.504          35.000    22535395.047 5  92278586.278 5       746.892          30.000  
G13  21106351.078 8 110914620.777 8     -2227.359          51.000    21106351.641 7  86426953.777 7     -1735.605          47.000  
G28  22751378.227 5 119559299.25525     -2785.461          33.000                                                                  
G19  22848713.711 7 120070814.192 7      2767.977          46.000    22848713.406 6  93561653.756 6      2156.865          39.000  
G12  23743598.000 5 124773447.968 5      3719.129          33.000                                                                  
R15  20139632.125 6 107619679.708 6      1552.125          37.000                                                                  
R04  20403619.336 8 109260084.133 8     -3099.656          49.000    20403622.141 7  84980052.277 7     -2410.844          44.000  
R14  19922227.750 6 106196287.392 6     -1750.289          38.000                                                                  
E31  23520194.344 8 123599462.078 8      -677.906          51.000    23520199.273 8  94706092.927 8      -519.429          51.000  
E04  26827428.375 5 140979044.003 5     -3004.629          35.000    26827435.273 7 108022908.480 7     -2302.297          47.000  
E24  22940275.906 8 120551993.966 8      1769.531          51.000    22940288.242 8  92371000.220 8      1355.854          51.000  
E01  26802226.555 5 140846650.743 5     -2517.277          33.000                                                                  
E09  21869066.914 8 114922725.914 8     -1148.645          51.000    21869070.094 8  88057663.176 8      -880.146          51.000  
C24  23527225.664 6 122512440.726 6     -2101.820          39.000                                                                  
C25  21933225.086 7 114212043.537 7       508.148          45.000                                                                  
C05                                                                  39765040.695 5 160117340.146 5        20.162          34.000  
C23  24930983.812 4 129822132.209 4      2451.473          27.000                                                                  
> 2020 05 10 06 15 30.0000000  0 15      -0.000000000000
G15  20440987.484 8 107418104.947 8      -904.750          51.000    20440986.219 8  83702426.265 8      -705.000          51.000  
G17  22529959.367 5 118395732.475 5       940.000          34.000    22529964.875 5  92256411.537 5       732.465          32.000  
G13  21119132.711 8 110981786.191 8     -2242.918          51.000    21119132.828 8  86479290.434 8     -1747.729          48.000  
G19  22832974.500 7 119988097.386 7      2753.859          47.000    22832972.289 6  93497199.158 6      2145.868          39.000  
R15  20130982.219 5 107573456.793 5      1537.012          34.000    20130988.836 4  83668278.734 4      1195.454          25.000  
R04  20421065.250 8 109353507.073 8     -3121.129          50.000    20421067.977 7  85052714.533 7     -2427.545          44.000  
R14  19932139.820 6 106249101.069 6     -1762.566          39.000                                                                  
R23  22595943.859 5 120872685.311 5      1099.008          32.000                                                                  
E31  23524114.664 8 123620063.868 8      -688.082          51.000    23524119.547 8  94721878.700 8      -527.199          51.000  
E04  26844615.516 5 141069407.512 5     -3010.625          35.000    26844626.562 7 108092128.200 7     -2306.637          47.000  
E24  22930222.562 8 120499164.406 8      1759.926          51.000    22930235.820 8  92330520.422 8      1348.488          51.000  
E09  21875686.930 8 114957513.412 8     -1163.098          51.000    21875690.016 8  88084318.524 8      -891.172          51.000  
C24  23539372.602 6 122575695.539 6     -2107.820          40.000                                                                  
C25  21930348.727 7 114197064.959 7       497.754          45.000                                                                  
C05                                                                  39764917.188 5 160116842.342 5        18.522          34.000  
> 2020 05 10 06 16  0.0000000  0 15      -0.000000000000
G15  20446187.789 8 107445431.749 8      -921.648          51.000    20446186.211 8  83723719.878 8      -718.168          51.000  
G17  22524628.508 5 118367721.28925       923.328          31.000                                                                  
G13  21131959.852 8 111049191.566 8     -2255.398          51.000    21131959.336 8  86531814.069 8     -1757.454          48.000  
G19  22817272.461 8 119905577.797 8      2743.016          48.000    22817268.312 6  93432898.228 6      2137.416          37.000  
R15  20122367.062 4 107527442.66624      1525.859          28.000                                                                  
R04  20438588.398 8 109447340.031 8     -3139.203          51.000    20438590.469 7  85125695.664 7     -2441.603          44.000  
R14  19942073.219 6 106302054.881 6     -1771.953          40.000    19942072.969 4  82679399.21824     -1378.186          27.000  
E31  23528050.125 8 123640744.154 8      -695.051          51.000    23528054.562 8  94737724.624 8      -532.578          51.000  
E04  26861795.023 5 141159684.469 5     -3012.371          34.000    26861807.656 7 108161306.074 7     -2308.661          45.000  
E24  22920180.945 8 120446395.837 8      1753.496          51.000    22920194.922 8  92290087.354 8      1343.610          51.000  
E09  21882346.273 8 114992507.147 8     -1174.309          51.000    21882349.086 8  88111131.913 8      -899.798          51.000  
C24  23551511.898 6 122638909.412 6     -2110.918          39.000                                                                  
C25  21927488.531 7 114182170.482 7       490.645          44.000                                                                  
C05                                                                  39764760.391 5 160116212.15625        19.773          33.000  
C23  24902836.242 5 129675579.638 5      2442.031          31.000                                                                  
> 2020 05 10 06 16 30.0000000  0 14      -0.000000000000
G15  20451494.102 8 107473316.564 8      -941.336          51.000    20451492.500 8  83745448.318 8      -733.509          51.000  
G13  21144867.578 8 111117021.604 8     -2270.602          51.000    21144866.727 7  86584668.593 7     -1769.303          47.000  
G28  22799235.648 4 119810791.77124     -2806.340          27.000                                                                  
G19  22801643.562 8 119823444.282 8      2728.805          48.000    22801638.914 6  93368898.146 6      2126.345          38.000  
R04  20456223.172 8 109541769.044 8     -3160.125          51.000    20456224.078 7  85199140.407 7     -2457.878          44.000  
R14  19952067.297 6 106355335.251 6     -1784.121          39.000    19952067.703 4  82720836.041 4     -1387.650          29.000  
E31  23532035.750 8 123661687.772 8      -705.070          51.000    23532039.914 8  94753772.327 8      -540.249          51.000  
E04  26879001.156 6 141250097.305 6     -3018.586          37.000    26879013.539 7 108230583.409 7     -2312.800          43.000  
E24  22910186.516 8 120393874.157 8      1744.043          51.000    22910200.383 8  92249843.477 8      1336.366          51.000  
E09  21889080.156 8 115027892.552 8     -1188.605          51.000    21889082.586 8  88138245.394 8      -910.699          51.000  
C24  23563678.719 6 122702265.512 6     -2116.312          38.000                                                                  
C25  21924679.281 7 114167543.974 7       480.566          43.000                                                                  
C05                                                                  39764605.875 5 160115589.93025        18.540          34.000  
C23  24888715.109 5 129602081.989 5      2436.336          30.000                                                                  
> 2020 05 10 06 17  0.0000000  0 15      -0.000000000000
G15  20456889.812 8 107501672.171 8      -956.262          51.000    20456888.766 8  83767543.580 8      -745.139          51.000  
G13  21157839.297 8 111185188.756 8     -2281.156          51.000    21157838.664 8  86637785.811 8     -1777.525          48.000  
G28  22815274.055 5 119895073.93925     -2810.461          33.000                                                                  
G19  22786071.852 7 119741613.229 7      2719.363          47.000    22786067.391 6  93305133.741 6      2118.988          39.000  
R15  20105391.945 5 107436671.156 5      1500.023          31.000    20105369.914 5  83561820.235 5      1166.682          31.000  
R04  20473951.727 8 109636702.239 8     -3176.172          51.000    20473952.711 7  85272977.302 7     -2470.356          45.000  
R14  19962106.828 6 106408852.502 6     -1791.387          38.000    19962108.453 5  82762460.516 5     -1393.301          34.000  
E31  23536054.836 8 123682807.077 8      -710.207          51.000    23536058.805 8  94769954.655 8      -544.140          51.000  
E04  26896216.422 6 141340551.874 6     -3018.945          41.000    26896227.672 6 108299892.787 6     -2313.333          40.000  
E24  22900222.734 8 120341512.773 8      1739.406          51.000    22900235.641 8  92209722.440 8      1332.757          51.000  
E09  21895871.875 8 115063582.513 8     -1198.043          51.000    21895873.750 8  88165592.241 8      -918.002          51.000  
C24  23575855.633 6 122765677.444 6     -2117.500          39.000                                                                  
C25  21921905.461 7 114153099.343 7       475.223          44.000                                                                  
C05                                                                  39764436.969 5 160114909.82725        20.951          34.000  
C23  24874667.383 5 129528880.473 5      2435.727          35.000                                                                  
> 2020 05 10 06 17 30.0000000  0 15      -0.000000000000
G15  20462380.250 8 107530524.986 8      -977.848          51.000    20462379.695 8  83790026.282 8      -761.959          51.000  
G13  21170879.922 8 111253718.534 8     -2298.242          51.000    21170879.508 7  86691185.634 7     -1790.836          47.000  
G28  22831317.625 5 119979336.144 5     -2819.934          32.000                                                                  
G19  22770562.602 6 119660114.742 6      2703.152          41.000    22770558.750 6  93241628.450 6      2106.353          41.000  
R15  20096968.375 5 107391745.526 5      1483.273          34.000    20096963.445 4  83526878.199 4      1153.651          29.000  
R04  20491778.438 8 109732163.260 8     -3198.828          51.000    20491779.836 7  85347224.726 7     -2487.978          44.000  
R14  19972194.391 6 106462631.798 6     -1804.879          36.000    19972200.078 5  82804288.911 5     -1403.792          35.000  
R23  22572305.195 5 120746195.58125       999.664          31.000                                                                  
E31  23540112.219 8 123704127.872 8      -721.965          51.000    23540115.711 8  94786291.369 8      -553.182          51.000  
E04  26913444.875 7 141431073.673 7     -3026.391          42.000    26913455.609 5 108369253.697 5     -2319.122          35.000  
E24  22890294.547 8 120289338.561 8      1728.129          51.000    22890306.656 8  92169744.817 8      1324.163          51.000  
E09  21902726.367 8 115099603.387 8     -1214.109          51.000    21902727.648 8  88193192.631 8      -930.304          51.000  
C24  23588049.055 6 122829170.764 6     -2125.652          38.000                                                                  
C25  21919171.852 7 114138862.850 7       463.293          45.000                                                                  
C23  24860630.273 5 129455759.050 5      2428.309          32.000                                                                  
> 2020 05 10 06 18  0.0000000  0 14      -0.000000000000
G15  20468017.445 8 107560148.776 8      -989.727          51.000    20468017.086 8  83813109.764 8      -771.213          51.000  
G13  21184041.570 8 111322884.775 8     -2305.621          51.000    21184041.234 7  86745081.434 7     -1796.588          47.000  
G28  22847438.586 5 120064100.279 5     -2819.910          31.000                                                                  
G19  22755169.398 6 119579227.132 6      2696.883          40.000    22755166.758 6  93178599.194 6      2101.468          38.000  
G12  23616731.070 5 124106746.10425      3689.539          31.000                                                                  
R04  20509755.805 8 109828428.910 8     -3211.484          51.000    20509756.828 7  85422097.944 7     -2497.825          44.000  
R14  19982383.312 6 106516950.403 6     -1808.883          40.000    19982390.195 5  82846536.717 5     -1406.909          34.000  
E31  23544259.945 8 123725924.140 8      -723.879          51.000    23544262.781 8  94802992.399 8      -554.694          51.000  
E04  26930738.055 6 141521936.313 6     -3023.949          41.000    26930749.359 5 108438875.798 5     -2316.808          34.000  
E24  22880454.219 8 120237626.605 8      1726.590          51.000    22880466.391 8  92130121.384 8      1322.963          51.000  
E01  26888555.703 6 141300288.842 6     -2520.938          36.000                                                                  
E09  21909696.008 8 115136229.678 8     -1220.438          51.000    21909697.023 8  88221256.913 8      -935.132          51.000  
C24  23600311.062 6 122893017.281 6     -2123.488          38.000                                                                  
C25  21916530.086 7 114125106.654 7       460.988          45.000                                                                  
> 2020 05 10 06 18 30.0000000  0 15      -0.000000000000
G15  20473727.133 8 107590153.004 8     -1006.559          51.000    20473726.789 8  83836489.684 8      -784.332          51.000  
G20  23219893.414 5 122021371.429 5      -366.758          33.000                                                                  
G13  21197250.070 8 111392295.454 8     -2317.867          51.000    21197249.852 8  86799167.676 8     -1806.131          48.000  
G19  22739817.703 5 119498562.825 5      2685.062          34.000    22739817.320 5  93115743.900 5      2092.260          34.000  
R15  20080426.883 5 107303321.762 5      1464.680          31.000    20080448.555 4  83458178.626 4      1139.193          25.000  
R04  20527808.375 8 109925097.314 8     -3229.137          50.000    20527808.531 7  85497284.460 7     -2511.551          43.000  
R14  19992599.484 6 106571409.658 6     -1817.812          41.000    19992604.297 5  82888893.865 5     -1413.854          35.000  
R23  22561346.602 4 120687553.776 4       956.758          29.000                                                                  
E31  23548423.570 8 123747803.983 8      -730.762          51.000    23548426.008 8  94819757.470 8      -559.920          51.000  
E04  26948020.430 6 141612747.601 6     -3026.434          39.000    26948030.039 5 108508458.481 5     -2318.598          35.000  
E24  22870627.289 8 120185986.021 8      1720.113          51.000    22870640.258 8  92090552.631 8      1318.025          51.000  
E01  26902964.812 5 141375978.183 5     -2520.891          34.000                                                                  
E09  21916706.391 8 115173070.007 8     -1231.637          51.000    21916707.414 8  88249485.187 8      -943.737          51.000  
C25  21913906.281 7 114111443.158 7       453.840          46.000                                                                  
C23  24832678.688 4 129310274.24724      2426.594          28.000                                                                  
> 2020 05 10 06 19  0.0000000  0 15      -0.000000000000
G15  20479543.828 8 107620719.487 8     -1030.297          51.000    20479543.438 8  83860307.715 8      -802.829          51.000  
G13  21210539.883 8 111462132.323 8     -2336.996          51.000    21210539.789 8  86853586.005 8     -1821.036          48.000  
G19  22724543.422 6 119418285.389 6      2666.277          37.000    22724545.281 6  93053207.051 6      2077.619          38.000  
G12  23574703.180 5 123885904.35725      3672.176          33.000    23574697.695 5  96534456.68025      2861.434          34.000  
R15  20072267.922 4 107259702.36824      1446.273          28.000                                                                  
R04  20545969.867 8 110022350.736 8     -3253.484          50.000    20545969.680 7  85572926.021 7     -2530.488          44.000  
R14  20002876.867 6 106626193.074 6     -1833.332          38.000    20002880.312 5  82931503.136 5     -1425.928          35.000  
R23  22556064.195 6 120659319.029 6       926.176          36.000                                                                  
E31  23552637.750 8 123769949.118 8      -744.602          51.000    23552640.156 8  94836725.814 8      -570.542          51.000  
E04  26965326.430 6 141703688.725 6     -3035.637          39.000    26965332.664 6 108578140.637 6     -2325.637          37.000  
E24  22860848.719 8 120134599.628 8      1706.578          51.000    22860862.406 8  92051178.651 8      1307.621          51.000  
E01  26917379.727 5 141451784.558 5     -2527.699          32.000                                                                  
E09  21923792.352 8 115210306.619 8     -1249.848          51.000    21923793.328 8  88278017.114 8      -957.691          51.000  
C24  23624846.273 6 123020768.122 6     -2136.578          36.000                                                                  
C25  21911335.531 7 114098053.199 7       439.711          46.000                                                                  
> 2020 05 10 06 19 30.0000000  0 15      -0.000000000000
G15  20485483.680 8 107651933.236 8     -1046.133          51.000    20485483.125 8  83884630.101 8      -815.172          51.000  
G13  21223926.734 8 111532479.802 8     -2348.316          51.000    21223926.641 7  86908402.200 7     -1829.861          46.000  
G19  22709366.633 7 119338527.850 7      2655.391          43.000    22709368.867 7  92991058.343 7      2069.136          42.000  
G12  23553761.625 5 123775852.54225      3667.820          35.000    23553757.070 5  96448698.64425      2858.049          35.000  
R15  20064179.531 5 107216549.514 5      1434.891          34.000    20064183.773 4  83390639.777 4      1116.023          28.000  
R04  20564256.375 8 110120273.222 8     -3269.977          50.000    20564255.867 7  85649087.944 7     -2543.316          44.000  
R14  20013229.672 6 106681385.627 6     -1841.547          36.000    20013234.859 5  82974430.774 5     -1432.312          35.000  
R23  22550946.273 5 120631947.167 5       903.766          31.000                                                                  
E31  23556918.469 8 123792444.398 8      -750.637          51.000    23556921.023 8  94853962.452 8      -575.179          51.000  
E04  26982673.281 6 141794844.210 6     -3036.863          41.000    26982675.812 6 108647987.087 6     -2327.158          38.000  
E24  22851134.672 8 120083553.304 8      1700.930          51.000    22851148.516 8  92012065.240 8      1303.269          51.000  
E09  21930970.016 8 115248024.851 8     -1260.277          51.000    21930971.164 8  88306918.092 8      -965.683          51.000  
C24  23637173.078 5 123084954.909 5     -2138.555          34.000                                                                  
C25  21908833.148 7 114085021.517 7       433.480          46.000                                                                  
C23  24804814.555 6 129165171.582 6      2415.145          36.000                                                                  
> 2020 05 10 06 20  0.0000000  0 14      -0.000000000000
G15  20491504.070 8 107683569.483 8     -1073.367          51.000    20491503.211 8  83909281.708 8      -836.390          51.000  
G13  21237367.727 8 111603112.910 8     -2371.090          51.000    21237367.203 7  86963440.956 7     -1847.603          46.000  
G28  22912174.766 5 120404270.289 5     -2856.230          34.000                                                                  
G19  22694243.117 7 119259046.919 7      2633.336          46.000    22694244.438 6  92929125.176 6      2051.951          41.000  
G12  23532832.922 6 123665872.019 6      3652.758          36.000    23532829.016 6  96362999.589 6      2846.312          36.000  
R04  20582624.398 8 110218632.539 8     -3297.934          50.000    20582623.633 7  85725589.613 7     -2565.060          44.000  
R14  20023616.898 6 106736758.055 6     -1860.746          38.000    20023623.945 5  83017498.297 5     -1447.244          33.000  
E31  23561222.898 8 123815064.393 8      -767.988          51.000    23561225.406 8  94871294.655 8      -588.492          51.000  
E04  27000018.320 6 141885988.281 6     -3049.715          41.000    27000017.445 6 108717824.752 6     -2336.790          39.000  
E24  22841442.594 8 120032622.704 8      1683.883          51.000    22841455.992 8  91973040.498 8      1290.237          51.000  
E09  21938196.242 8 115285999.831 8     -1281.977          51.000    21938198.172 8  88336015.776 8      -982.309          51.000  
C24  23649500.234 6 123149148.280 6     -2151.934          36.000                                                                  
C25  21906356.617 7 114072125.474 7       415.785          45.000                                                                  
C23  24790909.250 6 129092757.796 6      2402.066          37.000                                                                  
> 2020 05 10 06 20 30.0000000  0 15      -0.000000000000
G15  20497641.281 8 107715819.603 8     -1075.992          51.000    20497640.141 8  83934411.657 8      -838.436          51.000  
G13  21250899.062 8 111674221.682 8     -2368.957          50.000    21250898.414 7  87018850.365 7     -1845.941          46.000  
G28  22928452.555 6 120489813.096 6     -2846.637          36.000                                                                  
G19  22679209.461 7 119180038.200 7      2634.766          45.000    22679209.852 7  92867559.985 7      2053.068          42.000  
G12  23511954.789 5 123556155.033 5      3661.926          35.000    23511949.711 6  96277505.849 6      2853.449          36.000  
R04  20601109.570 8 110317621.076 8     -3300.672          50.000    20601109.273 7  85802580.677 7     -2567.190          45.000  
R14  20034074.984 6 106792503.570 6     -1855.035          39.000    20034080.867 4  83060855.964 4     -1442.808          29.000  
E31  23565587.625 8 123838000.429 8      -760.531          51.000    23565589.672 8  94888869.015 8      -582.808          51.000  
E04  27017397.703 6 141977311.925 6     -3037.668          41.000    27017394.523 6 108787799.984 6     -2327.739          39.000  
E24  22831809.398 8 119982000.177 8      1691.555          51.000    22831822.406 8  91934251.815 8      1296.136          51.000  
E01  26960689.508 5 141679377.555 5     -2522.559          31.000                                                                  
E09  21945508.016 8 115324423.314 8     -1278.922          51.000    21945510.492 8  88365457.136 8      -980.011          51.000  
C24  23661865.898 5 123213538.101 5     -2140.293          34.000                                                                  
C25  21903943.352 7 114059555.451 7       422.801          46.000                                                                  
C23  24777041.859 6 129020544.879 6      2412.863          36.000                                                                  
> 2020 05 10 06 21  0.0000000  0 16      -0.000000000000
G15  20503867.133 8 107748536.707 8     -1099.031          51.000    20503865.812 8  83959905.491 8      -856.388          51.000  
G17  22476832.266 5 118116534.601 5       750.219          33.000    22476827.352 5  92038862.424 5       584.580          32.000  
G13  21264492.898 8 111745659.263 8     -2387.395          50.000    21264492.250 7  87074515.954 7     -1860.308          45.000  
G19  22664237.781 7 119101358.585 7      2616.309          45.000    22664237.750 7  92806251.248 7      2038.683          42.000  
G12  23491099.852 5 123446557.427 5      3650.258          34.000    23491093.305 5  96192105.120 5      2844.358          32.000  
R04  20619683.328 8 110417086.160 8     -3324.074          50.000    20619683.969 7  85879942.405 7     -2585.392          46.000  
R14  20044574.734 6 106848472.136 6     -1870.109          39.000    20044577.281 4  83104386.950 4     -1454.533          29.000  
R23  22536397.773 5 120554097.994 5       828.285          35.000                                                                  
E31  23569984.531 8 123861105.368 8      -773.684          51.000    23569986.156 8  94906572.789 8      -592.808          51.000  
E04  27034783.508 6 142068667.573 6     -3046.285          39.000    27034778.258 6 108857799.712 6     -2334.177          39.000  
E24  22822207.266 8 119931539.600 8      1678.559          51.000    22822220.344 8  91895587.221 8      1286.178          51.000  
E01  26975128.938 5 141755250.278 5     -2528.918          35.000                                                                  
E09  21952877.414 8 115363148.632 8     -1296.586          51.000    21952880.039 8  88395129.787 8      -993.479          51.000  
C24  23674240.117 5 123277978.978 5     -2150.070          33.000                                                                  
C25  21901564.852 7 114047166.303 7       409.316          45.000                                                                  
C23  24763183.492 5 128948388.246 5      2404.027          34.000                                                                  
> 2020 05 10 06 21 30.0000000  0 15      -0.000000000000
G15  20510194.000 8 107781785.308 8     -1122.047          51.000    20510192.680 8  83985813.486 8      -874.323          51.000  
G13  21278161.617 8 111817489.124 8     -2405.863          51.000    21278160.859 7  87130487.256 7     -1874.696          45.000  
G19  22649341.539 7 119023075.918 7      2597.734          46.000    22649340.734 6  92745251.781 6      2024.209          41.000  
G12  23470279.891 5 123337145.305 5      3638.918          34.000    23470273.438 5  96106848.994 5      2835.524          35.000  
R04  20638358.141 8 110517089.960 8     -3347.449          50.000    20638359.492 7  85957723.130 7     -2603.572          47.000  
R14  20055127.969 6 106904727.030 6     -1884.742          38.000    20055132.172 5  83148140.701 5     -1465.911          33.000  
R23  22531825.922 5 120529637.651 5       797.492          31.000                                                                  
E31  23574425.562 8 123884442.837 8      -786.848          51.000    23574427.094 8  94924454.761 8      -602.969          51.000  
E04  27052187.375 5 142160118.389 5     -3054.773          34.000    27052179.875 6 108927872.372 6     -2340.983          39.000  
E24  22812648.141 8 119881305.625 8      1665.566          51.000    22812661.625 8  91857096.245 8      1276.196          51.000  
E01  26989573.414 6 141831142.605 6     -2535.098          39.000    26989575.164 5 108675830.646 5     -1942.302          33.000  
E09  21960316.422 8 115402239.894 8     -1314.234          51.000    21960318.938 8  88425082.840 8     -1006.987          51.000  
C24  23686635.875 5 123342533.947 5     -2158.652          34.000                                                                  
C25  21899232.430 7 114035021.777 7       396.020          44.000                                                                  
C23  24749347.688 5 128876352.139 5      2394.262          32.000                                                                  
> 2020 05 10 06 22  0.0000000  0 16      -0.000000000000
G24  21200700.156 5 111410434.885 5      1964.066          30.000    21200697.438 5  86813314.933 5      1530.442          31.000  
G15  20516654.797 8 107815738.108 8     -1133.613          51.000    20516653.711 8  84012270.199 8      -883.335          51.000  
G13  21291937.867 8 111889883.763 8     -2412.617          51.000    21291937.328 7  87186898.679 7     -1879.959          45.000  
G19  22634554.359 7 118945367.132 7      2590.504          46.000    22634552.406 6  92684699.508 6      2018.575          40.000  
G12  23449528.141 5 123228094.338 5      3638.730          32.000    23449522.555 5  96021874.257 5      2835.375          30.000  
R15  20024839.242 5 107006283.906 5      1371.953          34.000    20024847.555 4  83227117.406 4      1067.075          28.000  
R04  20657166.422 8 110617805.959 8     -3358.957          50.000    20657167.852 7  86036057.774 7     -2612.526          47.000  
R14  20065768.023 6 106961442.975 6     -1888.082          40.000    20065773.945 5  83192253.170 5     -1468.505          33.000  
R23  22527426.297 6 120506122.402 6       778.664          37.000                                                                  
E31  23578943.703 8 123908185.572 8      -788.215          51.000    23578945.062 8  94942647.249 8      -603.927          51.000  
E04                                                                  27069632.445 6 108998150.071 6     -2338.472          38.000  
E24  22803164.836 8 119831472.091 8      1664.422          51.000    22803178.484 8  91818912.087 8      1275.340          51.000  
E01  27004055.008 6 141907231.439 6     -2529.578          38.000    27004055.812 5 108734132.438 5     -1937.941          34.000  
E09  21967858.102 8 115441870.308 8     -1320.059          51.000    21967860.172 8  88455449.001 8     -1011.456          51.000  
C24  23699087.078 5 123407374.598 5     -2156.152          32.000                                                                  
C25  21896979.297 7 114023293.794 7       393.988          43.000                                                                  
> 2020 05 10 06 22 30.0000000  0 16      -0.000000000000
G15  20523187.398 8 107850068.146 8     -1151.648          51.000    20523186.336 8  84039020.880 8      -897.389          51.000  
G17  22464478.695 5 118051590.759 5       697.664          35.000    22464476.609 5  91988280.743 5       543.641          33.000  
G13  21305759.078 8 111962515.989 8     -2426.012          51.000    21305759.234 7  87243495.223 7     -1890.396          46.000  
G19  22619814.922 7 118867908.977 7      2576.625          46.000    22619812.172 6  92624342.554 6      2007.763          41.000  
R15  20017185.656 6 106965370.755 6      1358.512          36.000                                                                  
R04  20676045.211 8 110718897.935 8     -3377.141          50.000    20676046.031 7  86114684.803 7     -2626.668          45.000  
R14  20076432.453 6 107018287.323 6     -1898.125          41.000    20076435.539 5  83236465.370 5     -1476.320          30.000  
R23  22523139.055 5 120483197.694 5       752.891          35.000                                                                  
E31  23583476.641 8 123932006.373 8      -796.324          51.000    23583477.703 8  94960899.549 8      -610.189          51.000  
E04                                                                  27087073.844 6 109068381.776 6     -2341.369          36.000  
E24  22793695.414 8 119781712.742 8      1656.371          51.000    22793708.641 8  91780784.788 8      1269.153          51.000  
E01  27018511.133 6 141983189.623 6     -2530.602          37.000    27018510.430 5 108792334.128 5     -1938.989          32.000  
E09  21975440.109 8 115481713.071 8     -1332.629          51.000    21975441.781 8  88485977.867 8     -1021.136          51.000  
C24  23711531.867 6 123472176.919 6     -2160.648          36.000                                                                  
C25  21894744.586 7 114011658.886 7       385.137          44.000                                                                  
C23  24721795.703 5 128732879.243 5      2392.578          31.000                                                                  
> 2020 05 10 06 23  0.0000000  0 16      -0.000000000000
G24  21178422.875 5 111293389.254 5      1938.336          35.000    21178427.617 5  86722115.022 5      1510.383          31.000  
G15  20529844.695 8 107885053.712 8     -1176.242          51.000    20529843.727 8  84066282.348 8      -916.553          51.000  
G17  22460582.258 6 118031096.982 6       673.023          36.000    22460566.430 4  91972311.599 4       524.422          28.000  
G13  21319678.234 8 112035663.016 8     -2446.027          51.000    21319678.703 7  87300492.889 7     -1905.996          46.000  
G19  22605176.469 7 118790983.427 7      2556.352          44.000    22605172.984 6  92564400.651 6      1991.966          41.000  
R15  20009627.242 6 106924970.481 6      1338.637          37.000    20009626.508 4  83163882.601 4      1041.168          28.000  
R04  20695046.117 8 110820646.227 8     -3401.719          49.000    20695046.359 7  86193822.284 7     -2645.785          45.000  
R14  20087172.836 6 107075540.992 6     -1914.402          41.000    20087172.664 5  83280995.941 5     -1488.983          32.000  
E31  23588077.180 8 123956183.139 8      -811.031          51.000    23588078.188 8  94979424.601 8      -621.479          51.000  
E04                                                                  27104556.430 6 109138780.115 6     -2348.912          36.000  
E24  22784293.438 8 119732306.541 8      1641.719          50.000    22784306.242 8  91742928.082 8      1258.007          51.000  
E01  27032993.750 5 142059295.156 5     -2538.605          35.000                                                                  
E09  21983115.469 8 115522046.559 8     -1351.809          51.000    21983116.773 8  88516882.747 8     -1035.799          51.000  
C24  23724023.039 6 123537216.514 6     -2171.270          38.000                                                                  
C25  21892580.945 7 114000393.088 7       370.309          45.000                                                                  
C23  24708053.797 6 128661352.438 6      2380.664          36.000                                                                  
> 2020 05 10 06 23 30.0000000  0 17      -0.000000000000
G24  21167367.375 5 111235265.58825      1936.023          35.000                                                                  
G15  20536600.070 8 107920554.124 8     -1188.277          51.000    20536599.094 8  84093944.995 8      -925.931          51.000  
G17  22456781.258 5 118011121.479 5       661.023          31.000    22456798.938 4  91956818.059 4       515.089          27.000  
G13  21333668.977 8 112109183.885 8     -2453.395          51.000    21333669.195 7  87357781.852 7     -1911.737          46.000  
G19  22590612.859 7 118714453.961 7      2547.949          42.000    22590609.359 6  92504767.373 6      1985.416          38.000  
G12  23387434.062 5 122901786.064 5      3617.461          35.000    23387444.664 5  95767652.631 5      2818.805          34.000  
R15  20002136.781 6 106884940.776 6      1331.906          36.000    20002143.805 4  83132748.564 4      1035.933          28.000  
R04  20714141.320 8 110922904.544 8     -3413.371          48.000    20714142.141 7  86273356.500 7     -2654.845          44.000  
R14  20097963.484 7 107133060.109 7     -1918.031          43.000    20097962.836 5  83325733.003 5     -1491.805          34.000  
E31  23592718.680 8 123980575.020 8      -813.070          51.000    23592720.000 8  94998114.486 8      -623.059          51.000  
E04  27122059.352 5 142527383.016 5     -3062.672          35.000    27122054.203 6 109209236.878 6     -2346.969          36.000  
E24  22774932.414 8 119683113.636 8      1639.688          50.000    22774945.516 8  91705234.831 8      1256.385          51.000  
E01  27047476.398 6 142135407.263 6     -2533.348          37.000                                                                  
E09  21990857.406 8 115562730.351 8     -1358.504          51.000    21990858.344 8  88548056.035 8     -1040.926          51.000  
C24  23736534.047 6 123602354.162 6     -2169.164          36.000                                                                  
C25  21890461.234 7 113989357.556 7       367.496          44.000                                                                  
C23  24694333.266 5 128589933.726 5      2382.527          34.000                                                                  
> 2020 05 10 06 24  0.0000000  0 16      -0.000000000000
G15  20543431.836 8 107956455.077 8     -1207.520          51.000    20543431.000 8  84121919.725 8      -940.928          51.000  
G17  22453056.812 5 117991611.000 5       640.422          33.000    22453070.750 5  91941593.683 5       499.058          34.000  
G13  21347709.164 8 112182963.690 8     -2467.859          51.000    21347708.781 7  87415272.589 7     -1923.008          46.000  
G19  22576101.695 6 118638210.024 6      2532.535          36.000    22576101.016 6  92445356.483 6      1973.402          36.000  
G12  23366798.797 6 122793337.387 6      3609.422          36.000    23366808.078 5  95683147.222 5      2812.541          35.000  
R15  19994691.641 5 106845166.276 5      1317.148          32.000                                                                  
R04  20733309.086 8 111025553.912 8     -3432.465          49.000    20733311.336 7  86353194.920 7     -2669.695          45.000  
R14  20108782.539 7 107190727.943 7     -1929.027          42.000    20108782.430 5  83370585.718 5     -1500.355          35.000  
R23  22511174.227 5 120419234.997 5       674.082          32.000                                                                  
E31  23597379.531 8 124005067.552 8      -822.297          51.000    23597381.242 8  95016881.487 8      -630.075          51.000  
E04  27139549.508 6 142619296.615 6     -3067.488          39.000    27139545.500 6 109279664.086 6     -2350.540          36.000  
E24  22765590.344 8 119634020.568 8      1630.602          50.000    22765604.320 8  91667618.079 8      1249.384          51.000  
E01  27061938.477 6 142211411.590 6     -2535.883          39.000                                                                  
E09  21998644.109 8 115603650.362 8     -1372.148          51.000    21998644.664 8  88579410.318 8     -1051.393          51.000  
C24  23749041.320 6 123667476.847 6     -2174.598          38.000                                                                  
C25  21888364.297 7 113978439.574 7       357.852          44.000                                                                  
> 2020 05 10 06 24 30.0000000  0 15      -0.000000000000
G15  20550382.414 8 107992979.549 8     -1226.531          51.000    20550381.359 8  84150380.309 8      -955.739          51.000  
G17  22449453.438 6 117972672.270 6       621.746          36.000    22449456.836 5  91926836.427 5       484.484          35.000  
G13  21361840.852 8 112257224.952 8     -2482.121          51.000    21361840.258 7  87473138.465 7     -1934.121          46.000  
G19  22561689.656 6 118562478.587 6      2517.051          40.000    22561688.828 6  92386344.899 6      1961.342          39.000  
G12  23346218.930 6 122685182.055 6      3602.039          37.000    23346228.094 6  95598870.406 6      2806.788          37.000  
R15  19987330.805 4 106805854.428 4      1302.867          29.000                                                                  
R04  20752592.914 8 111128817.973 8     -3451.051          51.000    20752595.922 7  86433511.432 7     -2684.151          46.000  
R14  20119670.992 6 107248769.171 6     -1939.707          41.000    20119671.961 6  83415728.959 6     -1508.658          36.000  
E31  23602102.008 8 124029883.218 8      -831.199          51.000    23602103.875 8  95035896.088 8      -636.902          51.000  
E04  27157074.719 6 142711393.708 6     -3071.785          40.000    27157072.312 6 109350231.886 6     -2353.818          38.000  
E24  22756309.703 8 119585250.891 8      1621.539          51.000    22756324.328 8  91630249.096 8      1242.539          51.000  
E01  27076422.578 6 142287530.668 6     -2537.746          40.000                                                                  
E09  22006518.062 8 115645029.520 8     -1385.582          51.000    22006518.266 8  88611116.406 8     -1061.722          51.000  
C24  23761588.148 6 123732805.102 6     -2179.758          39.000                                                                  
C25  21886332.812 7 113967860.431 7       348.473          45.000                                                                  
> 2020 05 10 06 25  0.0000000  0 17      -0.000000000000
G15  20557434.711 8 108030037.420 8     -1244.227          51.000    20557432.977 8  84179256.562 8      -969.527          51.000  
G17  22445952.781 5 117954275.805 5       603.828          35.000    22445952.875 5  91912501.365 5       470.494          34.000  
G13  21376046.758 8 112331877.219 8     -2494.984          51.000    21376046.000 7  87531308.998 7     -1944.144          46.000  
G19  22547360.055 7 118487172.861 7      2503.047          43.000    22547358.195 6  92327665.187 6      1950.430          37.000  
G12  23325676.789 5 122577232.972 5      3594.633          35.000    23325690.453 5  95514754.176 5      2801.013          35.000  
R15  19980058.164 5 106766976.435 5      1289.316          30.000    19980060.656 4  83040987.42724      1002.805          28.000  
R04  20771974.773 8 111232602.332 8     -3468.254          51.000    20771977.430 7  86514232.592 7     -2697.534          47.000  
R14  20130611.336 6 107307091.834 6     -1948.707          39.000    20130613.703 6  83461091.046 6     -1515.658          37.000  
R05  19859909.805 6 106162212.153 6       512.039          38.000    19859905.852 5  82570595.513 5       398.259          30.000  
R23  22503918.414 5 120380345.462 5       620.727          32.000                                                                  
E31  23606868.734 8 124054931.947 8      -838.797          51.000    23606870.570 8  95055089.267 8      -642.715          51.000  
E04  27174617.562 6 142803583.786 6     -3074.414          41.000    27174616.930 6 109420870.972 6     -2355.805          39.000  
E24  22747073.898 8 119536715.509 8      1614.008          51.000    22747087.969 8  91593059.639 8      1236.714          50.000  
E01  27090911.680 6 142363674.641 6     -2538.504          38.000                                                                  
E09  22014462.312 8 115686778.108 8     -1397.668          51.000    22014462.289 8  88643105.552 8     -1070.929          51.000  
C24  23774156.672 6 123798250.190 6     -2183.691          37.000                                                                  
C25  21884349.484 7 113957531.564 7       340.234          45.000                                                                  
> 2020 05 10 06 25 30.0000000  0 17      -0.000000000000
G15  20564569.109 8 108067527.534 8     -1262.910          51.000    20564567.016 8  84208469.635 8      -984.086          51.000  
G17  22442535.781 5 117936322.023 5       585.727          34.000    22442533.906 5  91898511.498 5       456.413          34.000  
G13  21390307.727 8 112406818.841 8     -2508.844          51.000    21390306.695 7  87589705.024 7     -1954.947          46.000  
G19  22533093.445 7 118412196.124 7      2487.598          46.000    22533090.492 6  92269241.772 6      1938.391          37.000  
G12  23305152.570 5 122469391.244 5      3587.586          31.000    23305174.203 5  95430721.652 5      2795.519          31.000  
R04  20791433.773 8 111336800.733 8     -3486.266          51.000    20791436.305 8  86595275.768 8     -2711.541          48.000  
R14  20141585.656 6 107365592.115 6     -1958.895          39.000    20141587.562 6  83506591.275 6     -1523.585          36.000  
R05  19857088.000 5 106147161.269 5       483.512          34.000    19857095.453 5  82558889.300 5       376.062          34.000  
R23  22500491.188 6 120361998.411 6       594.090          36.000                                                                  
E31  23611660.414 8 124080112.373 8      -847.500          51.000    23611662.312 8  95074383.356 8      -649.410          51.000  
E04  27192158.805 6 142895765.216 6     -3078.551          41.000    27192160.203 6 109491503.385 6     -2358.906          41.000  
E24  22737863.805 8 119488314.046 8      1605.207          51.000    22737876.430 8  91555972.812 8      1229.947          50.000  
E01  27105386.305 6 142439742.157 6     -2540.344          37.000                                                                  
E09  22022457.555 8 115728795.147 8     -1411.012          51.000    22022457.703 8  88675300.411 8     -1081.219          51.000  
C24  23786727.758 6 123863711.756 6     -2188.277          41.000                                                                  
C25  21882394.789 7 113947353.230 7       330.648          45.000                                                                  
C23  24639662.836 5 128305177.794 5      2361.762          33.000                                                                  
> 2020 05 10 06 26  0.0000000  0 17      -0.000000000000
G15  20571827.406 8 108105670.031 8     -1279.816          51.000    20571825.555 8  84238191.046 8      -997.263          51.000  
G13  21404665.641 8 112482269.947 8     -2521.004          51.000    21404664.648 7  87648498.080 7     -1964.419          46.000  
G19  22518931.883 7 118337772.777 7      2473.883          45.000    22518928.367 6  92211249.597 6      1927.702          38.000  
G12  23284691.727 5 122361884.359 5      3580.098          31.000    23284714.398 5  95346946.623 5      2789.678          30.000  
R15  19965706.805 5 106690305.757 5      1264.375          32.000    19965702.680 4  82981341.273 4       983.400          24.000  
R04  20811010.305 8 111441635.278 8     -3502.539          49.000    20811013.305 7  86676813.733 7     -2724.198          47.000  
R14  20152635.531 7 107424493.142 7     -1967.551          42.000    20152636.023 6  83552403.166 6     -1530.318          38.000  
R05  19854447.797 5 106133059.618 5       455.969          31.000    19854458.180 5  82547921.342 5       354.636          34.000  
R23  22497231.500 6 120344550.796 6       569.211          40.000                                                                  
E31  23616519.250 8 124105645.033 8      -854.406          51.000    23616521.328 8  95093947.330 8      -654.657          51.000  
E04  27209740.633 6 142988157.954 6     -3080.574          40.000    27209743.664 6 109562297.796 6     -2360.708          41.000  
E24  22728721.391 8 119440268.016 8      1598.172          50.000    22728733.359 8  91519158.341 8      1224.580          51.000  
E01  27119888.430 5 142515953.984 5     -2540.336          35.000                                                                  
E09  22030545.906 8 115771301.526 8     -1422.449          51.000    22030546.695 8  88707870.192 8     -1089.962          51.000  
C24  23799344.695 6 123929408.753 6     -2191.359          39.000                                                                  
C25  21880511.125 7 113937544.588 7       323.422          45.000                                                                  
C23  24626066.164 5 128234382.430 5      2358.273          33.000                                                                  
> 2020 05 10 06 26 30.0000000  0 14      -0.000000000000
G15  20579184.484 8 108144331.722 8     -1297.602          51.000    20579183.047 8  84268317.023 8     -1011.118          51.000  
G13  21419094.695 8 112558095.870 8     -2534.066          51.000    21419094.188 7  87707583.186 7     -1974.601          46.000  
G19  22504850.242 7 118263772.469 7      2459.656          43.000    22504846.195 6  92153587.057 6      1916.619          36.000  
R04  20830678.742 8 111546966.134 8     -3519.484          48.000    20830682.609 7  86758737.720 7     -2737.380          45.000  
R14  20163734.844 7 107483657.812 7     -1976.746          42.000    20163736.516 6  83598420.108 6     -1537.469          41.000  
R05  19851960.930 5 106119772.452 5       429.137          35.000    19851970.867 5  82537586.855 5       333.770          31.000  
R23  22494113.492 6 120327868.409 6       543.324          38.000                                                                  
E31  23621419.508 8 124131395.574 8      -862.188          51.000    23621421.922 8  95113678.262 8      -660.700          51.000  
E04  27227337.102 6 143080627.367 6     -3083.711          37.000    27227341.133 6 109633150.926 6     -2362.977          40.000  
E24  22719621.125 8 119392444.076 8      1590.113          51.000    22719633.375 8  91482514.029 8      1218.414          51.000  
E09  22038702.211 8 115814163.260 8     -1434.926          51.000    22038703.547 8  88740712.268 8     -1099.468          51.000  
C24  23811980.570 6 123995208.336 6     -2194.941          36.000                                                                  
C25  21878673.383 7 113927973.409 7       314.871          46.000                                                                  
C23  24612493.156 5 128163705.353 5      2353.547          34.000                                                                  
> 2020 05 10 06 27  0.0000000  0 16      -0.000000000000
G15  20586635.742 8 108183488.597 8     -1316.258          51.000    20586634.727 8  84298828.884 8     -1025.656          51.000  
G17  22432966.594 4 117886025.34724       530.391          29.000                                                                  
G13  21433590.555 8 112634272.723 8     -2547.719          50.000    21433590.234 7  87766941.745 7     -1985.239          47.000  
G28  23142903.164 5 121616767.895 5     -2925.480          34.000                                                                  
G19  22490845.328 6 118190175.936 6      2443.336          41.000    22490841.445 6  92096239.057 6      1903.896          36.000  
R04  20850436.219 8 111652766.435 8     -3537.266          50.000    20850439.461 7  86841026.790 7     -2751.210          45.000  
R14  20174878.688 6 107543061.189 6     -1986.590          39.000    20174882.484 6  83644622.726 6     -1545.126          41.000  
R05  19849622.195 6 106107277.851 6       400.418          36.000    19849631.977 4  82527868.840 4       311.436          29.000  
R23  22491134.742 6 120311929.597 6       516.398          37.000                                                                  
E31  23626356.484 8 124157340.449 8      -870.781          51.000    23626359.180 8  95133558.101 8      -667.213          51.000  
E04  27244943.703 5 143173149.474 5     -3087.547          35.000    27244948.406 6 109704044.485 6     -2366.030          39.000  
E24  22710558.773 8 119344819.665 8      1581.500          51.000    22710571.273 8  91446022.601 8      1211.755          51.000  
E09  22046921.867 8 115857357.191 8     -1448.102          51.000    22046923.398 8  88773808.891 8     -1109.522          50.000  
C24  23824631.312 6 124061087.556 6     -2200.102          39.000                                                                  
C25  21876876.516 7 113918617.023 7       305.594          45.000                                                                  
C23  24598938.438 5 128093124.191 5      2348.602          33.000                                                                  
> 2020 05 10 06 27 30.0000000  0 15      -0.000000000000
G15  20594194.789 8 108223213.276 8     -1332.559          51.000    20594194.188 8  84329783.179 8     -1038.358          51.000  
G13  21448167.047 8 112710872.486 8     -2559.090          49.000    21448166.594 7  87826629.852 7     -1994.097          47.000  
G28  23159609.867 5 121704580.730 5     -2928.836          33.000                                                                  
G19  22476931.586 7 118117059.261 7      2430.219          42.000    22476928.039 5  92039265.055 5      1893.674          32.000  
R15  19944732.273 5 106578285.489 5      1224.793          34.000                                                                  
R04  20870295.742 8 111759107.267 8     -3552.527          51.000    20870296.977 7  86923736.264 7     -2763.080          44.000  
R14  20186081.023 6 107602776.313 6     -1994.738          39.000    20186085.773 6  83691067.859 6     -1551.460          40.000  
R05  19847446.500 5 106095651.616 5       374.195          34.000    19847453.984 4  82518826.197 4       291.038          27.000  
R23  22488308.000 6 120296810.282 6       491.406          37.000                                                                  
E31  23631344.367 8 124183552.130 8      -876.957          51.000    23631346.805 8  95153642.366 8      -671.931          51.000  
E04  27262573.742 5 143265791.192 5     -3088.922          34.000    27262579.266 6 109775033.602 6     -2367.113          38.000  
E24  22701548.328 8 119297468.229 8      1575.047          51.000    22701560.250 8  91409740.316 8      1206.777          50.000  
E09  22055218.719 8 115900956.073 8     -1458.820          51.000    22055220.008 8  88807215.824 8     -1117.855          50.000  
C24  23837311.875 5 124127118.425 5     -2202.230          35.000                                                                  
C25  21875134.016 7 113909547.930 7       298.648          44.000                                                                  
> 2020 05 10 06 28  0.0000000  0 16      -0.000000000000
G15  20601852.438 8 108263456.817 8     -1348.398          51.000    20601852.414 8  84361141.761 8     -1050.700          51.000  
G13  21462814.484 8 112787845.633 8     -2570.352          48.000    21462813.883 7  87886608.950 7     -2002.872          47.000  
G28  23176344.023 5 121792531.537 5     -2932.684          35.000                                                                  
G19  22463100.633 7 118044377.340 7      2417.098          42.000    22463096.945 6  91982629.824 6      1883.456          36.000  
R15  19937889.273 5 106541725.149 5      1213.848          31.000                                                                  
R04  20890246.094 8 111865935.622 8     -3567.316          51.000    20890246.328 7  87006824.928 7     -2774.583          45.000  
R14  20197332.859 6 107662752.483 6     -2001.777          37.000    20197335.648 6  83737715.925 6     -1556.944          38.000  
R05  19845426.297 6 106084845.522 6       348.227          37.000    19845430.742 5  82510413.515 5       270.849          30.000  
R23  22485625.484 6 120282462.753 6       466.996          38.000                                                                  
E31  23636373.789 8 124209981.404 8      -882.910          51.000    23636376.031 8  95173893.359 8      -676.537          51.000  
E04  27280217.375 5 143358513.052 5     -3090.105          34.000    27280224.422 6 109846080.277 6     -2368.062          38.000  
E24  22692580.133 8 119250341.551 8      1568.730          50.000    22692591.359 8  91373630.264 8      1202.033          49.000  
E09  22063583.328 8 115944911.049 8     -1469.473          51.000    22063584.383 8  88840895.598 8     -1125.975          50.000  
C24  23850011.547 5 124193252.618 5     -2204.555          35.000                                                                  
C25  21873437.742 7 113900718.129 7       292.121          44.000                                                                  
C23  24571924.250 5 127952460.887 5      2342.262          30.000                                                                  
> 2020 05 10 06 28 30.0000000  0 17      -0.000000000000
G15  20609634.742 8 108304353.846 8     -1374.645          51.000    20609635.062 8  84393009.573 8     -1071.152          51.000  
G17  22424354.859 6 117840781.244 6       469.594          38.000                                                                  
G13  21477558.039 8 112865326.615 8     -2591.652          48.000    21477557.695 7  87946983.779 7     -2019.467          45.000  
G28  23193131.500 6 121880753.909 6     -2945.523          36.000                                                                  
G19  22449378.859 7 117972268.764 7      2393.348          43.000    22449376.266 6  91926441.368 6      1864.950          38.000  
G12  23183023.609 6 121827656.840 6      3537.992          37.000    23183020.664 6  94930596.749 6      2756.875          38.000  
R04  20910311.750 8 111973386.002 8     -3592.512          49.000    20910312.406 7  87090397.427 7     -2794.176          45.000  
R14  20208657.898 6 107723125.513 6     -2019.793          40.000    20208660.633 6  83784672.616 6     -1570.953          37.000  
R05  19843586.031 5 106074998.587 5       311.801          35.000    19843589.391 4  82502754.753 4       242.506          28.000  
R23  22483113.875 6 120269026.239 6       432.332          41.000                                                                  
E31  23641470.039 8 124236762.948 8      -899.090          51.000    23641472.648 8  95194414.284 8      -688.943          51.000  
E04  27297901.391 5 143451444.352 5     -3101.812          34.000    27297909.836 5 109917287.412 5     -2376.685          34.000  
E24  22683679.906 8 119203575.248 8      1552.355          49.000    22683690.719 8  91337796.359 8      1189.450          49.000  
E09  22072041.031 8 115989357.123 8     -1490.293          51.000    22072042.344 8  88874951.647 8     -1141.857          51.000  
C24  23862756.227 5 124259623.816 5     -2216.406          34.000                                                                  
C25  21871814.117 7 113892261.794 7       275.172          45.000                                                                  
C23  24558474.602 5 127882426.175 5      2329.840          34.000                                                                  
> 2020 05 10 06 29  0.0000000  0 18      -0.000000000000
G15  20617498.359 8 108345678.514 8     -1384.641          51.000    20617498.938 8  84425210.599 8     -1078.944          51.000  
G17  22421692.625 6 117826786.312 6       458.816          36.000    22421684.805 5  91813026.531 5       357.519          32.000  
G13  21492355.680 8 112943089.232 8     -2596.738          50.000    21492355.281 7  88007578.050 7     -2023.433          44.000  
G28  23209928.312 5 121969020.815 5     -2942.539          33.000                                                                  
G19  22435724.227 7 117900512.020 7      2385.973          43.000    22435722.664 6  91870527.095 6      1859.203          37.000  
G12  23162809.117 6 121721451.940 6      3537.785          38.000    23162809.695 6  94847839.681 6      2756.719          39.000  
R15  19924454.641 5 106469919.693 5      1186.246          33.000                                                                  
R04  20930448.867 7 112081225.155 7     -3601.082          47.000    20930451.156 7  87174272.318 7     -2800.839          44.000  
R14  20220013.992 6 107783665.330 6     -2020.699          39.000    20220017.484 6  83831759.117 6     -1571.655          37.000  
R05  19841882.883 6 106065882.746 6       291.621          40.000    19841882.883 4  82495662.13924       226.819          26.000  
R23  22480729.609 6 120256272.773 6       413.785          40.000                                                                  
E31  23646590.328 8 124263670.875 8      -899.066          51.000    23646593.227 8  95215032.046 8      -688.946          51.000  
E04  27315582.391 5 143544358.788 5     -3097.379          34.000    27315592.727 5 109988569.690 5     -2372.761          33.000  
E24  22674805.523 8 119156944.388 8      1552.070          49.000    22674816.836 8  91302066.259 8      1189.267          49.000  
E09  22080549.055 8 116034068.695 8     -1494.840          51.000    22080550.805 8  88909211.126 8     -1145.368          51.000  
C24  23875503.477 5 124326008.479 5     -2212.227          33.000                                                                  
C25  21870219.391 7 113883955.827 7       274.410          45.000                                                                  
C23  24545022.211 5 127812424.951 5      2332.738          31.000                                                                  
> 2020 05 10 06 29 30.0000000  0 18      -0.000000000000
G15  20625469.906 8 108387569.157 8     -1403.879          51.000    20625470.531 8  84457852.633 8     -1093.932          51.000  
G17  22419140.398 6 117813382.010 6       439.164          36.000    22419140.984 6  91802581.824 6       342.209          36.000  
G13  21507233.688 8 113021271.322 8     -2611.129          51.000    21507232.883 7  88068499.127 7     -2034.646          44.000  
G28  23226759.633 5 122057469.905 5     -2948.969          33.000                                                                  
G19  22422164.266 7 117829249.251 7      2369.266          46.000    22422162.547 6  91814997.685 6      1846.178          38.000  
G12  23142645.695 6 121615510.094 6      3528.988          39.000    23142648.008 6  94765287.679 6      2749.865          39.000  
R15  19917846.617 5 106434592.845 5      1172.457          35.000    19917849.492 4  82782421.368 4       911.911          28.000  
R04  20950684.562 8 112189591.471 8     -3618.949          48.000    20950687.625 7  87258557.205 7     -2814.739          42.000  
R14  20231428.391 6 107844511.814 6     -2031.117          41.000    20231431.703 6  83879084.147 6     -1579.758          38.000  
R05  19840342.945 5 106057640.590 5       262.195          34.000                                                                  
R23  22478499.180 6 120244345.608 6       385.645          38.000                                                                  
E31  23651761.188 8 124290843.645 8      -908.168          51.000    23651763.992 8  95235852.736 8      -695.815          51.000  
E04                                                                  27333297.242 6 110059856.711 6     -2376.095          38.000  
E24  22665984.312 8 119110588.427 8      1542.680          50.000    22665996.461 8  91266546.778 8      1182.027          50.000  
E01                                                                  27221534.883 5 109609833.578 5     -1950.270          33.000  
E09  22089134.062 8 116079184.478 8     -1508.555          51.000    22089136.148 8  88943780.356 8     -1155.924          51.000  
C24  23888281.109 5 124392544.305 5     -2218.109          31.000                                                                  
C25  21868679.555 7 113875938.115 7       264.504          46.000                                                                  
> 2020 05 10 06 30  0.0000000  0 16      -0.000000000000
G15  20633521.984 8 108429881.633 8     -1430.125          51.000    20633522.406 8  84490823.369 8     -1114.383          51.000  
G17  22416674.516 5 117800418.600 5       412.273          32.000    22416674.133 5  91792486.003 5       321.258          32.000  
G13  21522164.070 8 113099728.365 8     -2632.574          51.000    21522162.922 7  88129634.427 7     -2051.360          44.000  
G19  22408671.547 7 117758340.212 7      2344.984          43.000    22408668.734 6  91759743.848 6      1827.261          38.000  
G12  23122506.539 6 121509689.837 6      3512.445          39.000    23122509.461 6  94682830.400 6      2736.971          39.000  
R15  19911291.695 5 106399549.158 5      1150.355          34.000    19911292.648 5  82755165.148 5       894.718          30.000  
R04  20970991.812 8 112298334.816 8     -3644.090          50.000    20970994.336 6  87343135.314 6     -2834.293          41.000  
R14  20242873.773 7 107905517.936 7     -2049.012          43.000    20242876.547 6  83926533.305 6     -1593.676          39.000  
R23  22476395.375 6 120233099.949 6       350.664          37.000                                                                  
E31  23656955.023 8 124318137.019 8      -924.492          51.000    23656957.820 8  95256765.841 8      -708.348          51.000  
E04  27350985.328 5 143730397.441 5     -3112.477          33.000    27350996.492 6 110131125.635 6     -2384.895          37.000  
E24  22657188.609 8 119064364.083 8      1525.949          51.000    22657201.242 8  91231128.127 8      1169.279          50.000  
E01                                                                  27236056.867 5 109668316.160 5     -1957.761          32.000  
E09  22097768.609 8 116124560.600 8     -1529.566          51.000    22097771.039 8  88978549.073 8     -1172.027          51.000  
C24  23901061.250 5 124459088.496 5     -2231.098          33.000                                                                  
C25  21867168.156 7 113868066.506 7       247.434          46.000                                                                  
> 2020 05 10 06 30 30.0000000  0 16      -0.000000000000
G15  20641696.805 8 108472838.697 8     -1437.359          51.000    20641696.883 8  84524296.384 8     -1120.021          51.000  
G17  22414337.039 6 117788135.177 6       403.781          37.000    22414338.078 6  91782914.466 6       314.635          38.000  
G13  21537188.992 8 113178682.777 8     -2634.781          51.000    21537187.570 7  88191157.283 7     -2053.077          44.000  
G19  22395288.500 7 117688011.561 7      2339.934          43.000    22395285.266 6  91704942.376 6      1823.325          36.000  
G12  23102433.789 6 121404216.564 6      3515.254          40.000    23102437.438 6  94600643.512 6      2739.160          38.000  
R04  20991412.016 8 112407679.365 8     -3649.418          50.000    20991413.797 6  87428181.029 6     -2838.437          41.000  
R14  20254391.367 7 107966908.570 7     -2047.426          44.000    20254393.992 6  83974281.571 6     -1592.443          40.000  
R05  19837715.391 5 106043569.619 5       207.762          34.000                                                                  
R23  22474462.891 6 120222764.960 6       334.816          39.000                                                                  
E31  23662214.109 8 124345773.671 8      -921.633          51.000    23662217.062 8  95277941.983 8      -706.211          51.000  
E04  27368722.828 5 143823608.227 5     -3105.137          35.000    27368733.648 6 110202546.922 6     -2379.010          36.000  
E24  22648460.375 8 119018494.990 8      1528.344          51.000    22648473.320 8  91195981.679 8      1171.060          50.000  
E01                                                                  27250604.609 4 109726892.560 4     -1949.662          29.000  
E09  22106495.266 8 116170419.984 8     -1531.414          51.000    22106498.086 8  89013688.070 8     -1173.434          51.000  
C24  23913885.141 5 124525862.140 5     -2223.953          30.000                                                                  
C25  21865727.258 7 113860562.386 7       249.352          46.000                                                                  
> 2020 05 10 06 31  0.0000000  0 15      -0.000000000000
G15  20649954.094 8 108516229.373 8     -1454.488          51.000    20649953.680 8  84558107.295 8     -1133.368          51.000  
G13  21552268.195 8 113257922.964 8     -2647.012          51.000    21552266.852 7  88252902.852 7     -2062.607          45.000  
G19  22381976.602 6 117618056.411 6      2324.605          41.000    22381972.023 5  91650431.898 5      1811.385          34.000  
G12  23082388.156 5 121298882.329 5      3508.176          35.000    23082392.734 5  94518564.990 5      2733.650          34.000  
R04  21011903.758 8 112517407.444 8     -3664.867          50.000    21011904.938 7  87513525.089 7     -2850.453          42.000  
R14  20265940.375 7 108028469.341 7     -2055.641          42.000    20265942.336 6  84022162.143 6     -1598.832          40.000  
R05  19836630.328 5 106037757.681 5       180.059          34.000                                                                  
R23  22472661.688 6 120213127.596 6       308.824          41.000                                                                  
E31  23667498.359 8 124373542.862 8      -928.805          51.000    23667501.312 8  95299219.668 8      -711.706          51.000  
E04  27386457.492 5 143916804.482 5     -3106.844          32.000    27386468.344 6 110273958.666 6     -2381.088          37.000  
E24  22639759.750 8 118972771.329 8      1520.719          51.000    22639772.547 8  91160946.680 8      1165.251          50.000  
E09  22115274.250 8 116216552.136 8     -1543.223          51.000    22115277.172 8  89049036.067 8     -1182.494          51.000  
C24  23926711.336 5 124592668.034 5     -2228.152          35.000                                                                  
C25  21864316.500 7 113853217.609 7       241.211          47.000                                                                  
C23  24491487.352 5 127533614.996 5      2314.500          30.000                                                                  
> 2020 05 10 06 31 30.0000000  0 14      -0.000000000000
G15  20658286.336 8 108560013.716 8     -1468.352          51.000    20658285.500 8  84592224.976 8     -1144.170          51.000  
G13  21567393.977 8 113337408.770 8     -2655.891          51.000    21567393.172 7  88314839.791 7     -2069.526          46.000  
G19  22368728.156 6 117548438.440 6      2312.832          39.000    22368722.875 6  91596184.176 6      1802.213          36.000  
R15  19892056.281 5 106296749.081 5      1125.711          31.000    19892055.516 4  82675247.641 4       875.559          25.000  
R04  21032458.312 8 112627475.199 8     -3676.891          49.000    21032459.641 7  87599133.349 7     -2859.804          42.000  
R14  20277512.656 6 108090159.150 6     -2060.859          39.000    20277515.125 6  84070143.137 6     -1602.888          39.000  
R05  19835674.500 5 106032651.067 5       155.895          34.000    19835667.086 4  82469839.525 4       121.257          26.000  
R23  22470983.531 6 120204149.163 6       286.047          41.000                                                                  
E31  23672800.188 8 124401404.549 8      -932.512          51.000    23672803.062 8  95320568.228 8      -714.525          51.000  
E04  27404181.750 5 144009946.907 5     -3105.871          32.000    27404192.289 6 110345329.845 6     -2380.073          36.000  
E24  22631079.617 8 118927154.019 8      1516.539          51.000    22631092.109 8  91125993.170 8      1162.039          50.000  
E09  22124097.773 8 116262917.288 8     -1551.578          51.000    22124100.227 8  89084562.593 8     -1188.911          51.000  
C24  23939536.422 5 124659444.406 5     -2228.012          32.000                                                                  
C25  21862928.812 7 113845993.246 7       236.605          46.000                                                                  
> 2020 05 10 06 32  0.0000000  0 14      -0.000000000000
G15  20666745.781 8 108604466.653 8     -1491.016          51.000    20666744.648 8  84626863.655 8     -1161.828          51.000  
G17  22407885.938 5 117754250.239 5       346.941          34.000    22407887.445 5  91756547.389 5       270.341          32.000  
G13  21582618.742 8 113417414.658 8     -2673.645          51.000    21582618.391 7  88377181.998 7     -2083.360          46.000  
G19  22355596.812 6 117479436.920 6      2291.688          39.000    22355592.141 6  91542416.706 6      1785.728          37.000  
R04  21053127.727 7 112738159.974 7     -3697.719          47.000    21053129.477 7  87685221.505 7     -2876.004          43.000  
R14  20289161.953 6 108152256.348 6     -2075.176          40.000    20289164.688 6  84118440.972 6     -1614.023          39.000  
R05  19834902.758 5 106028530.682 5       122.945          35.000    19834902.430 5  82466634.761 5        95.624          32.000  
R23  22469479.898 6 120196111.323 6       254.277          36.000                                                                  
E31  23678172.000 8 124429633.732 8      -945.203          51.000    23678174.906 8  95342198.384 8      -724.262          51.000  
E04                                                                  27421958.320 5 110416870.900 5     -2385.940          34.000  
E24  22622472.023 8 118881918.994 8      1503.297          51.000    22622484.766 8  91091332.569 8      1151.913          50.000  
E09  22133018.039 8 116309790.681 8     -1568.992          51.000    22133019.547 8  89120478.555 8     -1202.254          51.000  
C25  21861617.250 8 113839162.587 8       222.949          48.000                                                                  
C23  24464871.367 5 127394957.281 5      2304.770          35.000                                                                  
> 2020 05 10 06 32 30.0000000  0 15      -0.000000000000
G15  20675306.297 8 108649452.921 8     -1508.703          50.000    20675304.906 8  84661917.911 8     -1175.613          50.000  
G17  22405957.086 6 117744125.941 6       327.766          36.000    22405960.125 6  91748658.290 6       255.402          36.000  
G13  21597916.648 8 113497804.951 8     -2686.328          51.000    21597916.125 7  88439823.785 7     -2093.243          46.000  
G19  22342556.750 6 117410920.277 6      2275.512          38.000    22342554.852 6  91489027.084 6      1773.124          37.000  
G12  23022524.414 5 120984208.86525      3482.820          35.000                                                                  
R04  21073885.141 7 112849320.872 7     -3713.598          46.000    21073887.922 7  87771679.976 7     -2888.354          43.000  
R14  20300862.289 6 108214622.643 6     -2083.527          41.000    20300864.664 6  84166948.063 6     -1620.522          38.000  
R05  19834288.617 5 106025260.744 5        94.418          31.000    19834291.750 4  82464091.545 4        73.445          28.000  
R23  22468127.508 6 120188878.734 6       227.352          37.000                                                                  
E31  23683588.000 8 124458095.194 8      -952.895          51.000    23683591.102 8  95364006.507 8      -730.134          51.000  
E04  27439732.016 5 144196764.198 5     -3116.648          34.000    27439741.258 5 110488477.883 5     -2388.044          34.000  
E24  22613911.031 8 118836931.959 8      1495.184          49.000    22613924.719 8  91056861.974 8      1145.631          51.000  
E09  22142009.336 8 116357037.293 8     -1581.375          51.000    22142009.969 8  89156680.489 8     -1211.716          51.000  
C25  21860355.727 8 113832592.308 8       214.336          48.000                                                                  
C23  24451606.086 6 127325886.947 6      2299.676          36.000                                                                  
> 2020 05 10 06 33  0.0000000  0 17      -0.000000000000
G15  20683965.109 8 108694957.643 8     -1523.184          50.000    20683963.812 8  84697376.130 8     -1186.897          50.000  
G17  22404135.195 6 117734556.442 6       312.836          36.000    22404137.461 6  91741201.491 6       243.765          37.000  
G13  21613284.367 8 113578564.275 8     -2695.832          50.000    21613284.094 7  88502753.122 7     -2100.649          46.000  
G19  22329607.609 6 117342877.739 6      2262.305          38.000    22329608.008 6  91436006.876 6      1762.838          37.000  
G12  23002658.344 6 120879782.807 6      3477.402          38.000    23002641.453 6  94191980.409 6      2709.668          38.000  
R15  19873521.430 5 106197687.07925      1084.508          31.000                                                                  
R04  21094728.094 7 112960940.171 7     -3725.949          46.000    21094731.867 7  87858494.988 7     -2897.961          42.000  
R14  20312609.562 6 108277242.448 6     -2089.320          39.000    20312612.016 6  84215652.339 6     -1625.027          36.000  
R05  19833830.797 5 106022827.725 5        69.656          31.000    19833838.312 5  82462199.244 5        54.177          32.000  
R23  22466923.906 6 120182438.133 6       204.004          39.000                                                                  
E31  23689045.344 8 124486774.109 8      -957.184          51.000    23689048.578 8  95385981.244 8      -733.400          51.000  
E04  27457529.688 5 144290290.158 5     -3116.570          34.000    27457538.602 5 110560138.994 5     -2387.137          33.000  
E24  22605394.266 8 118792179.038 8      1490.238          50.000    22605408.922 8  91022570.745 8      1141.860          50.000  
E09  22151068.719 8 116404642.536 8     -1590.434          51.000    22151068.875 8  89193157.220 8     -1218.576          51.000  
C24  23978222.523 5 124860886.145 5     -2241.508          31.000                                                                  
C25  21859141.156 8 113826268.414 8       208.945          48.000                                                                  
C23  24438364.797 5 127256949.935 5      2297.363          32.000                                                                  
> 2020 05 10 06 33 30.0000000  0 17      -0.000000000000
G15  20692721.961 8 108740976.525 8     -1542.191          51.000    20692720.930 8  84733234.987 8     -1201.708          51.000  
G17  22402419.258 5 117725539.627 5       292.320          35.000    22402420.078 5  91734175.412 5       227.785          35.000  
G13  21628720.664 7 113659688.343 7     -2709.992          46.000    21628721.531 7  88565966.666 7     -2111.683          46.000  
G19  22316749.578 6 117275309.096 6      2244.656          39.000    22316750.594 6  91383355.941 6      1749.080          39.000  
G12  22982843.125 6 120775646.366 6      3467.598          38.000    22982826.438 6  94110835.173 6      2702.028          38.000  
R15  19867465.750 5 106165400.217 5      1069.504          32.000    19867462.992 4  82573024.080 4       831.830          28.000  
R04  21115656.367 7 113073010.854 7     -3742.773          47.000    21115659.367 7  87945660.997 7     -2911.050          42.000  
R14  20324402.852 6 108340111.216 6     -2099.188          38.000    20324406.352 5  84264550.262 5     -1632.702          34.000  
R05  19833529.320 5 106021229.386 5        39.105          34.000    19833538.078 4  82460956.036 4        30.418          24.000  
R23  22465867.023 5 120176787.176 5       175.379          34.000                                                                  
E31  23694543.375 8 124515666.692 8      -966.254          51.000    23694546.594 8  95408119.707 8      -740.389          51.000  
E04  27475339.680 5 144383883.681 5     -3120.180          34.000    27475348.836 5 110631842.245 5     -2390.579          32.000  
E24  22596921.875 8 118747657.341 8      1480.520          49.000    22596936.414 8  90988456.724 8      1134.458          49.000  
E09  22160195.367 8 116452602.833 8     -1604.258          51.000    22160195.500 8  89229906.021 8     -1229.222          51.000  
C24  23991153.742 4 124928247.874 4     -2246.281          29.000                                                                  
C25  21857973.461 8 113820187.948 8       198.957          49.000                                                                  
C23  24425148.719 4 127188143.598 4      2291.438          28.000                                                                  
> 2020 05 10 06 34  0.0000000  0 16      -0.000000000000
G15  20701573.883 8 108787494.181 8     -1559.324          51.000    20701573.172 8  84769482.505 8     -1215.058          51.000  
G17  22400805.734 6 117717061.857 6       273.266          36.000    22400808.656 6  91727569.307 6       212.934          36.000  
G13  21644223.023 7 113741161.202 7     -2722.090          45.000    21644225.406 7  88629452.016 7     -2121.107          45.000  
G19  22303980.133 6 117208202.616 6      2228.828          41.000    22303980.008 6  91331065.108 6      1736.747          37.000  
G12  22963069.047 6 120671730.770 6      3459.863          38.000    22963054.164 6  94029862.069 6      2695.998          39.000  
R15  19861492.750 4 106133408.40024      1057.562          28.000    19861494.547 5  82548204.921 5       822.552          32.000  
R04  21136665.797 7 113185513.859 7     -3757.703          46.000    21136667.664 7  88033163.261 7     -2922.662          42.000  
R14  20336240.289 6 108403212.445 6     -2107.762          38.000    20336243.789 5  84313628.898 5     -1639.374          34.000  
R05  19833382.742 5 106020451.038 5        11.988          34.000    19833388.539 4  82460341.637 4         9.321          28.000  
R23  22464954.812 5 120171911.754 5       148.805          32.000    22464962.898 4  93467124.12124       115.737          25.000  
E31  23700079.086 8 124544757.262 8      -973.379          51.000    23700082.398 8  95430409.874 8      -745.863          51.000  
E04  27493159.453 5 144477524.667 5     -3122.652          35.000    27493167.664 5 110703594.107 5     -2392.354          32.000  
E24  22588490.766 8 118703352.081 8      1472.832          48.000    22588504.680 8  90954508.570 8      1128.510          49.000  
E09  22169386.398 8 116500902.706 8     -1616.051          51.000    22169386.742 8  89266915.006 8     -1238.276          51.000  
C24  24004106.750 5 124995697.620 5     -2250.539          34.000                                                                  
C25  21856849.953 8 113814336.076 8       190.883          49.000                                                                  
> 2020 05 10 06 34 30.0000000  0 15      -0.000000000000
G15  20710522.516 8 108834521.080 8     -1574.977          51.000    20710522.266 8  84806126.809 8     -1227.255          51.000  
G17  22399297.453 5 117709134.941 5       256.172          31.000    22399300.148 5  91721392.515 5       199.630          31.000  
G13  21659794.836 7 113822993.138 7     -2732.770          47.000    21659797.891 7  88693217.167 7     -2129.431          46.000  
G19  22291301.773 7 117141573.016 7      2213.891          42.000    22291301.289 6  91279146.007 6      1725.113          37.000  
G12  22943339.273 6 120568049.910 6      3452.957          38.000    22943325.445 6  93949071.839 6      2690.620          37.000  
R15  19855590.227 5 106101876.933 5      1045.844          33.000    19855596.078 5  82523692.098 5       813.437          31.000  
R04  21157756.727 7 113298457.390 7     -3771.027          45.000    21157759.211 7  88121008.227 7     -2933.022          44.000  
R14  20348123.602 6 108466556.534 6     -2114.391          38.000    20348126.805 5  84362896.466 5     -1644.529          35.000  
R05  19833392.617 6 106020504.938 6       -14.586          36.000    19833398.461 4  82460383.496 4       -11.345          27.000  
R23  22464189.289 5 120167824.332 5       124.395          32.000    22464200.367 4  93463947.672 4        96.751          24.000  
E31  23705654.555 8 124574056.753 8      -979.184          51.000    23705658.000 8  95452860.118 8      -750.221          51.000  
E04  27510990.484 5 144571226.550 5     -3123.332          33.000    27510998.516 4 110775390.637 4     -2393.422          29.000  
E24  22580102.797 8 118659275.114 8      1466.371          48.000    22580116.516 8  90920735.346 8      1123.578          49.000  
E09  22178643.992 8 116549553.260 8     -1626.539          51.000    22178644.672 8  89304192.699 8     -1246.280          51.000  
C25  21855772.094 8 113808724.373 8       184.121          48.000                                                                  
> 2020 05 10 06 35  0.0000000  0 18      -0.000000000000
G24  20927004.594 5 109972170.217 5      1726.324          35.000    20926997.523 6  85692547.768 6      1345.191          36.000  
G15  20719564.281 8 108882037.286 8     -1592.641          51.000    20719564.094 8  84843152.377 8     -1241.019          51.000  
G17  22397891.016 5 117701708.586 5       236.586          35.000    22397887.023 5  91715613.849 5       184.362          34.000  
G13  21675431.906 8 113905163.649 8     -2745.305          49.000    21675434.273 7  88757246.126 7     -2139.199          45.000  
G28  23413436.938 5 123038443.213 5     -2995.500          33.000                                                                  
G19  22278710.695 7 117075404.100 7      2197.355          43.000    22278709.750 5  91227585.957 5      1712.229          35.000  
G12  22923659.023 5 120464641.05525      3444.484          33.000    22923647.938 5  93868505.61925      2684.015          30.000  
R15  19849754.859 5 106070703.382 5      1032.977          33.000    19849760.023 4  82499446.053 4       803.426          29.000  
R04  21178926.039 8 113411817.961 8     -3786.238          48.000    21178929.008 7  88209177.542 7     -2944.856          45.000  
R14  20360048.984 6 108530122.323 6     -2123.262          38.000    20360050.484 5  84412336.516 5     -1651.423          35.000  
R05  19833553.695 5 106021372.142 5       -43.039          35.000    19833557.820 4  82461048.01724       -33.469          26.000  
R23  22463568.867 5 120164506.582 5        97.344          34.000                                                                  
E31  23711266.016 8 124603545.105 8      -986.719          51.000    23711269.328 8  95475455.081 8      -756.082          51.000  
E24  22571755.047 8 118615407.363 8      1458.148          49.000    22571768.758 8  90887122.382 8      1117.238          50.000  
E09  22187964.336 8 116598534.624 8     -1638.879          51.000    22187965.484 8  89341723.875 8     -1255.762          51.000  
C24  24030104.250 5 125131070.74325     -2257.156          30.000                                                                  
C25  21854736.164 7 113803333.703 7       175.273          47.000                                                                  
C23  24385644.344 5 126982422.885 5      2279.480          32.000                                                                  
> 2020 05 10 06 35 30.0000000  0 16      -0.000000000000
G15  20728705.656 8 108930075.217 8     -1608.730          51.000    20728705.344 8  84880584.490 8     -1253.560          51.000  
G17  22396593.953 6 117694881.058 6       219.422          36.000    22396590.953 5  91710293.757 5       170.984          35.000  
G13  21691139.648 8 113987704.658 8     -2756.355          50.000    21691140.734 7  88821563.754 7     -2147.810          45.000  
G28  23430547.055 5 123128355.772 5     -2997.906          33.000                                                                  
G19  22266214.461 7 117009732.358 7      2181.914          43.000    22266212.664 6  91176413.205 6      1700.193          36.000  
G12  22904014.430 5 120361412.055 5      3437.156          33.000    22903995.727 5  93788039.834 5      2678.307          34.000  
R15  19843993.266 6 106039921.909 6      1020.746          36.000    19843999.094 5  82475504.918 5       793.914          31.000  
R04  21200180.078 8 113525625.851 8     -3799.754          50.000    21200182.508 7  88297694.739 7     -2955.365          46.000  
R14  20372021.375 6 108593942.399 6     -2130.410          38.000    20372023.891 5  84461974.325 5     -1656.986          35.000  
R05  19833873.703 6 106023087.236 6       -70.043          39.000    19833880.328 4  82462381.944 4       -54.475          29.000  
R23  22463099.531 5 120161992.929 5        71.332          32.000                                                                  
E31  23716919.641 8 124633254.918 8      -992.820          51.000    23716922.727 8  95498219.733 8      -760.727          51.000  
E24  22563454.070 8 118571782.299 8      1451.367          50.000    22563467.711 8  90853695.357 8      1112.051          50.000  
E09  22197353.680 8 116647879.566 8     -1649.723          51.000    22197355.352 8  89379533.637 8     -1264.071          51.000  
C24  24043113.711 5 125198811.572 5     -2258.398          32.000                                                                  
C25  21853749.391 8 113798197.104 8       168.090          48.000                                                                  
> 2020 05 10 06 36  0.0000000  0 17      -0.000000000000
G24  20907406.523 4 109869172.73624      1703.234          28.000                                                                  
G15  20737944.352 8 108978623.098 8     -1630.277          51.000    20737943.359 8  84918413.971 8     -1270.346          51.000  
G17  22395401.016 6 117688610.392 6       196.180          36.000    22395396.648 6  91705407.514 6       152.867          36.000  
G13  21706915.625 8 114070604.602 8     -2772.797          51.000    21706914.836 7  88886161.059 7     -2160.625          43.000  
G28  23447680.164 5 123218387.492 5     -3006.566          33.000                                                                  
G19  22253810.273 5 116944550.158 5      2160.469          33.000    22253808.742 5  91125621.944 5      1683.492          33.000  
G12  22884419.164 5 120258445.436 5      3424.027          35.000    22884401.125 5  93707806.242 5      2668.083          34.000  
R15  19838303.922 5 106009522.147 5      1002.848          31.000    19838312.195 4  82451860.610 4       779.999          26.000  
R04  21221515.273 8 113639866.457 8     -3818.785          50.000    21221516.836 7  88386548.502 7     -2970.170          46.000  
R14  20384038.703 6 108658004.626 6     -2143.215          40.000    20384043.195 5  84511800.505 5     -1666.942          33.000  
R05  19834352.180 6 106025639.726 6      -102.582          41.000    19834356.945 4  82464371.20924       -79.786          28.000  
R23  22462777.242 5 120160274.004 5        40.121          32.000    22462787.875 4  93458069.309 4        31.205          26.000  
E31  23722613.297 8 124663174.978 8     -1004.312          51.000    23722616.391 8  95521145.493 8      -769.542          51.000  
E24  22555197.250 8 118528389.575 8      1439.008          50.000    22555210.977 8  90820446.377 8      1102.689          49.000  
E01  27410601.906 5 144043679.280 5     -2553.035          33.000                                                                  
E09  22206810.125 8 116697577.030 8     -1665.957          51.000    22206812.336 8  89417613.516 8     -1276.522          51.000  
C25  21852809.953 8 113793304.162 8       155.559          49.000                                                                  
> 2020 05 10 06 36 30.0000000  0 15      -0.000000000000
G15  20747300.602 8 109027788.219 8     -1649.453          51.000    20747298.742 8  84956724.443 8     -1285.289          51.000  
G17  22394335.023 6 117683005.547 6       175.066          36.000    22394331.922 6  91701040.105 6       136.415          36.000  
G13  21722780.250 8 114153970.323 8     -2787.062          51.000    21722778.344 7  88951121.313 7     -2171.738          45.000  
G12  22864892.086 6 120155833.068 6      3414.062          39.000    22864874.023 6  93627848.630 6      2660.309          39.000  
R15  19832706.320 5 105979613.247 5       988.676          31.000    19832724.805 4  82428631.915 4       768.973          26.000  
R04  21242950.281 8 113754646.170 8     -3835.336          49.000    21242951.539 7  88475821.599 7     -2983.040          46.000  
R14  20396122.477 7 108722417.238 7     -2153.461          42.000    20396127.953 5  84561899.226 5     -1674.917          31.000  
R05  19835008.898 6 106029140.179 6      -133.098          41.000    19835008.305 4  82467071.755 4      -103.520          29.000  
R23  22462620.148 5 120159506.673 5        11.168          31.000    22462638.406 4  93457418.689 4         8.686          26.000  
E31  23728367.445 8 124693412.701 8     -1013.598          51.000    23728370.609 8  95544314.656 8      -776.656          51.000  
E04  27582443.148 5 144946719.603 5     -3137.625          31.000                                                                  
E24  22547004.680 7 118485337.507 7      1428.980          47.000    22547018.758 8  90787458.447 8      1094.898          48.000  
E09  22216354.578 8 116747734.560 8     -1680.016          51.000    22216357.023 8  89456045.909 8     -1287.267          51.000  
C25  21851937.758 8 113788762.048 8       145.230          48.000                                                                  
C23  24346389.727 5 126778013.311 5      2260.289          35.000                                                                  
> 2020 05 10 06 37  0.0000000  0 16      -0.000000000000
G15  20756739.336 8 109077387.961 8     -1659.707          51.000    20756737.266 8  84995373.565 8     -1293.282          51.000  
G17  22393360.375 5 117677885.211 5       163.879          35.000    22393358.633 5  91697050.250 5       127.695          35.000  
G13  21738698.695 8 114237618.792 8     -2792.152          51.000    21738696.234 7  89016301.913 7     -2175.704          46.000  
G19  22229313.180 6 116815813.044 6      2132.449          39.000    22229307.406 5  91025306.794 5      1661.658          34.000  
G12  22845398.047 6 120053395.366 6      3412.652          37.000    22845379.742 6  93548027.062 6      2659.213          37.000  
R15  19827167.398 5 105950010.560 5       982.414          30.000    19827176.969 4  82405584.73624       764.106          25.000  
R04  21264449.320 7 113869776.360 7     -3842.527          47.000    21264451.289 7  88565367.284 7     -2988.633          45.000  
R14  20408237.484 6 108786994.673 6     -2154.438          41.000    20408242.688 4  84612126.120 4     -1675.674          29.000  
R05  19835808.281 6 106033404.176 6      -153.965          41.000    19835807.367 5  82470388.108 5      -119.753          32.000  
R23  22462610.000 6 120159399.243 6        -8.078          36.000    22462616.812 4  93457376.673 4        -6.283          25.000  
E31  23734147.336 8 124723785.685 8     -1013.734          51.000    23734150.391 8  95567587.453 8      -776.797          51.000  
E24  22538842.086 7 118442444.581 7      1428.000          47.000    22538855.805 7  90754592.474 7      1094.185          47.000  
E09  22225952.367 8 116798169.906 8     -1684.965          51.000    22225954.602 8  89494691.173 8     -1291.093          51.000  
C24  24082253.906 6 125402625.872 6     -2269.273          37.000                                                                  
C25  21851098.164 8 113784390.760 8       143.691          48.000                                                                  
C23  24333360.438 5 126710140.778 5      2262.152          33.000                                                                  
> 2020 05 10 06 37 30.0000000  0 15      -0.000000000000
G15  20766277.516 8 109127511.023 8     -1679.242          51.000    20766275.539 8  85034430.460 8     -1308.501          51.000  
G17  22392495.297 6 117673340.098 6       142.324          38.000    22392493.398 6  91693508.575 6       110.899          36.000  
G13  21754687.609 8 114321638.193 8     -2806.598          51.000    21754684.906 7  89081771.564 7     -2186.957          46.000  
G19  22217201.609 6 116752168.416 6      2113.141          41.000    22217197.453 5  90975713.645 5      1646.607          34.000  
G12  22825938.000 6 119951162.682 6      3401.434          36.000    22825937.531 6  93468406.841 6      2650.472          36.000  
R04  21286029.984 8 113985344.156 8     -3859.254          48.000    21286032.086 7  88655253.346 7     -3001.643          45.000  
R14  20420400.398 7 108851826.494 7     -2165.117          42.000    20420405.266 4  84662550.900 4     -1683.980          28.000  
R05  19836767.383 6 106038522.986 6      -184.648          41.000    19836765.031 5  82474369.372 5      -143.612          32.000  
R23  22462753.258 5 120160119.999 5       -37.391          34.000    22462749.094 4  93457918.118 4       -29.085          26.000  
E31  23739969.766 8 124754382.751 8     -1023.367          51.000    23739972.695 8  95591031.943 8      -784.109          51.000  
E24  22530727.148 8 118399800.525 8      1417.609          49.000    22530739.914 8  90721917.168 8      1086.272          48.000  
E09  22235620.117 8 116848972.012 8     -1699.238          51.000    22235622.109 8  89533617.436 8     -1301.988          51.000  
C24  24095360.336 6 125470822.035 6     -2274.730          36.000                                                                  
C25  21850308.711 8 113780279.069 8       132.867          48.000                                                                  
C23  24320355.133 4 126642418.964 4      2254.898          29.000                                                                  
> 2020 05 10 06 38  0.0000000  0 14      -0.000000000000
G15  20775934.539 8 109178258.983 8     -1693.688          51.000    20775932.781 8  85073974.305 8     -1319.757          51.000  
G17  22391758.688 5 117669472.971 5       126.117          35.000    22391758.000 6  91690495.164 6        98.273          36.000  
G13  21770766.070 8 114406130.211 8     -2815.926          51.000    21770763.555 7  89147609.474 7     -2194.229          46.000  
G19  22205208.469 7 116689144.547 7      2098.586          42.000    22205202.523 5  90926604.133 5      1635.259          35.000  
G12  22806568.312 6 119849361.966 6      3395.031          37.000    22806565.242 6  93389081.631 6      2645.477          38.000  
R04  21307712.414 8 114101450.632 8     -3870.609          50.000    21307713.953 7  88745558.344 7     -3010.475          46.000  
R14  20432629.977 6 108917015.531 6     -2170.758          38.000    20432637.672 4  84713253.521 4     -1688.365          26.000  
R05  19837904.531 6 106044601.996 6      -210.344          40.000    19837904.750 5  82479097.458 5      -163.601          35.000  
R23  22463061.094 5 120161758.726 5       -61.320          31.000                                                                  
E31  23745854.289 8 124785305.938 8     -1027.867          51.000    23745857.078 8  95614726.328 8      -787.584          51.000  
E24  22522679.602 8 118357508.230 8      1412.195          50.000    22522691.438 8  90689511.388 8      1082.033          48.000  
E09  22245377.195 8 116900243.033 8     -1708.520          51.000    22245378.891 8  89572902.996 8     -1309.090          51.000  
C24  24108497.805 5 125539236.564 5     -2276.449          30.000                                                                  
C25  21849588.695 8 113776528.767 8       127.281          48.000                                                                  
> 2020 05 10 06 38 30.0000000  0 16      -0.000000000000
G24  20859399.508 5 109616883.58725      1653.055          32.000                                                                  
G15  20785625.055 8 109229183.797 8     -1718.184          51.000    20785623.727 8  85113655.960 8     -1338.845          51.000  
G17  22391065.688 5 117665837.416 5        99.504          35.000    22391066.898 5  91687662.348 5        77.539          35.000  
G13  21786848.852 8 114490646.210 8     -2835.293          51.000    21786846.961 7  89213466.082 7     -2209.320          46.000  
G19  22193248.281 6 116626296.612 6      2074.105          39.000    22193243.492 6  90877631.806 6      1616.187          37.000  
G12  22787183.164 6 119747486.858 6      3379.824          37.000    22787179.695 6  93309698.470 6      2633.630          38.000  
R15  19810980.078 5 105863468.779 5       936.156          30.000    19810986.258 4  82338289.98724       728.125          28.000  
R04  21329410.359 8 114217636.321 8     -3892.195          51.000    21329411.328 7  88835924.956 7     -3027.264          46.000  
R14  20444839.969 6 108982106.806 6     -2186.078          39.000    20444853.234 4  84763880.270 4     -1700.277          28.000  
R05  19839134.969 5 106051185.993 5      -245.652          33.000    19839138.195 5  82484218.355 5      -191.060          35.000  
R23  22463449.906 5 120163861.072 5       -96.137          34.000                                                                  
E31  23751715.680 8 124816107.346 8     -1042.375          51.000    23751718.328 8  95638327.390 8      -798.703          51.000  
E24  22514613.688 8 118315120.632 8      1396.676          48.000    22514625.430 8  90657032.586 8      1070.226          48.000  
E09  22255138.211 8 116951535.137 8     -1727.758          51.000    22255139.602 8  89612204.713 8     -1323.897          51.000  
C25  21848852.844 8 113772696.759 8       111.621          48.000                                                                  
C23  24294406.750 5 126507386.900 5      2240.707          32.000                                                                  
> 2020 05 10 06 39  0.0000000  0 13      -0.000000000000
G15  20795483.422 8 109280991.408 8     -1728.406          51.000    20795482.656 8  85154025.512 8     -1346.810          50.000  
G17  22390552.156 6 117663141.488 6        87.535          38.000    22390552.070 6  91685561.540 6        68.206          38.000  
G13  21803070.062 8 114575891.856 8     -2840.453          51.000    21803069.016 7  89279891.273 7     -2213.341          45.000  
G19  22181456.555 6 116564335.284 6      2063.566          37.000    22181454.156 6  90829350.222 6      1607.974          36.000  
G12  22767917.133 6 119646246.536 6      3377.348          41.000    22767915.203 6  93230810.006 6      2631.703          41.000  
R04  21351256.562 8 114334617.973 8     -3899.008          51.000    21351257.117 7  88926910.631 7     -3032.565          46.000  
R14  20457167.016 6 109047816.012 6     -2186.836          39.000                                                                  
R05  19840590.438 5 106058983.843 5      -266.957          33.000    19840596.750 5  82490321.875 5      -207.621          33.000  
R23  22464063.203 6 120167147.830 6      -115.906          36.000                                                                  
E31  23757688.141 8 124847493.448 8     -1042.695          51.000    23757690.945 8  95662376.468 8      -798.970          51.000  
E24  22506663.750 7 118273345.137 7      1395.570          47.000    22506675.891 8  90625022.782 8      1069.304          48.000  
E09  22265037.422 8 117003554.882 8     -1732.875          51.000    22265038.719 8  89652063.966 8     -1327.827          51.000  
C25  21848235.914 8 113769483.827 8       109.938          49.000                                                                  
> 2020 05 10 06 39 30.0000000  0 15      -0.000000000000
G15  20805396.469 8 109333086.954 8     -1742.844          50.000    20805396.219 8  85194619.445 8     -1358.060          49.000  
G17  22390104.867 5 117660791.622 5        71.434          34.000    22390105.602 5  91683730.454 5        55.666          34.000  
G13  21819316.773 8 114661272.352 8     -2849.715          51.000    21819316.430 7  89346421.527 7     -2220.558          44.000  
G19  22169721.234 5 116502669.439 5      2048.984          34.000    22169720.109 5  90781298.866 5      1596.606          33.000  
G12  22748659.742 6 119545048.912 6      3371.133          40.000    22748659.156 6  93151954.760 6      2626.861          41.000  
R04  21373137.250 8 114451786.733 8     -3910.113          51.000    21373137.602 7  89018041.838 7     -3041.200          46.000  
R14  20469497.055 6 109113540.083 6     -2192.523          41.000                                                                  
R05  19842167.758 5 106067413.446 5      -292.809          34.000    19842174.266 5  82496878.186 5      -227.734          32.000  
R23  22464785.883 5 120171014.664 5      -140.164          34.000                                                                  
E31  23763658.633 8 124878869.761 8     -1046.996          51.000    23763661.758 8  95686418.053 8      -802.160          51.000  
E24  22498717.094 7 118231588.104 7      1390.219          47.000    22498729.711 8  90593027.124 8      1065.320          48.000  
E09  22274961.555 8 117055707.879 8     -1741.902          51.000    22274963.219 8  89692025.322 8     -1334.693          51.000  
C24  24147931.211 5 125744624.759 5     -2284.129          31.000                                                                  
C25  21847625.164 8 113766301.653 8       104.121          49.000                                                                  
C23  24268604.086 5 126372999.989 5      2240.965          34.000                                                                  
> 2020 05 10 06 40  0.0000000  0 15      -0.000000000000
G15  20815410.992 8 109385714.871 8     -1769.262          51.000    20815411.094 8  85235628.240 8     -1378.643          51.000  
G17  22389770.633 5 117659034.118 5        43.258          34.000    22389774.156 5  91682361.129 5        33.707          34.000  
G13  21835635.945 8 114747031.903 8     -2871.160          50.000    21835635.188 7  89413247.120 7     -2237.271          43.000  
G19  22158090.000 6 116441547.496 6      2022.340          41.000    22158088.664 5  90733671.366 5      1575.853          34.000  
G12  22729457.117 6 119444141.639 6      3352.684          36.000    22729457.922 6  93073325.762 6      2612.485          36.000  
R04  21395098.438 8 114569388.776 8     -3933.457          51.000    21395099.367 7  89109510.061 7     -3059.359          46.000  
R14  20481875.953 7 109179526.263 7     -2210.195          42.000                                                                  
R05  19843905.914 6 106076713.717 6      -330.902          37.000    19843912.922 5  82504111.692 5      -257.369          31.000  
R23  22465664.227 5 120175712.098 5      -176.926          34.000                                                                  
E31  23769673.922 8 124910481.017 8     -1063.734          51.000    23769677.211 8  95710639.664 8      -815.037          51.000  
E24  22490821.125 8 118190095.104 8      1372.590          48.000    22490833.734 8  90561233.780 8      1051.785          48.000  
E09  22284957.133 8 117108238.917 8     -1763.430          51.000    22284959.742 8  89732276.363 8     -1351.236          51.000  
C24  24161121.062 4 125813297.88924     -2298.336          29.000                                                                  
C25  21847067.008 8 113763393.423 8        86.422          50.000                                                                  
C23  24255717.438 5 126305924.876 5      2226.422          33.000                                                                  
> 2020 05 10 06 40 30.0000000  0 16      -0.000000000000
G15  20825524.992 8 109438864.357 8     -1779.141          50.000    20825525.109 8  85277043.453 8     -1386.344          50.000  
G17  22389547.141 5 117657859.879 5        30.633          34.000    22389550.109 5  91681446.096 5        23.858          35.000  
G13  21852025.344 8 114833159.148 8     -2875.910          51.000    21852023.922 7  89480359.169 7     -2240.973          42.000  
G19  22146562.047 7 116380962.769 7      2011.609          42.000    22146558.570 4  90686462.506 4      1567.488          29.000  
G12  22710308.156 6 119343517.006 6      3350.352          36.000    22710309.328 6  92994916.947 6      2610.661          37.000  
R04  21417137.781 8 114687410.485 8     -3939.863          49.000    21417139.727 7  89201304.677 7     -3064.342          46.000  
R14  20494301.734 6 109245763.231 6     -2210.898          39.000    20494322.656 4  84968950.452 4     -1719.585          29.000  
R05  19845808.820 7 106086874.994 7      -351.867          44.000    19845815.039 5  82512014.901 5      -273.672          34.000  
R23  22466697.367 6 120181230.693 6      -196.430          37.000                                                                  
E31  23775732.117 8 124942316.707 8     -1063.797          51.000    23775735.195 8  95735033.231 8      -815.127          51.000  
E04  27725908.836 5 145700629.505 5     -3147.227          33.000    27725912.344 5 111640758.045 5     -2411.641          35.000  
E24  22482973.719 8 118148856.462 8      1371.492          49.000    22482986.508 8  90529635.340 8      1050.866          48.000  
E09  22295022.617 8 117161137.526 8     -1768.254          50.000    22295026.086 8  89772809.052 8     -1354.927          51.000  
C24  24174329.734 5 125882082.409 5     -2294.008          31.000                                                                  
C25  21846559.570 8 113760749.486 8        84.844          51.000                                                                  
C23  24242863.852 5 126239026.835 5      2228.168          35.000                                                                  
> 2020 05 10 06 41  0.0000000  0 16      -0.000000000000
G15  20835725.445 8 109492466.752 8     -1796.406          51.000    20835725.398 8  85318811.562 8     -1399.794          51.000  
G13  21868471.938 8 114919585.193 8     -2887.992          51.000    21868469.539 7  89547704.095 7     -2250.384          43.000  
G19  22135123.594 6 116320850.267 6      1993.719          41.000    22135118.781 5  90639621.789 5      1553.551          32.000  
G12  22691200.945 6 119243108.931 6      3341.371          39.000    22691201.461 6  92916676.855 6      2603.667          39.000  
R15  19785437.539 5 105726969.782 5       878.434          34.000    19785435.984 4  82232100.113 4       683.220          25.000  
R04  21439241.898 7 114805778.917 7     -3953.426          46.000    21439244.844 7  89293368.976 7     -3074.890          46.000  
R14  20506762.094 6 109312181.585 6     -2219.207          37.000    20506788.672 4  85020609.129 4     -1726.053          29.000  
R05  19847859.625 7 106097828.277 7      -380.418          43.000    19847864.391 5  82520534.107 5      -295.878          35.000  
R23  22467869.742 6 120187501.774 6      -223.824          36.000                                                                  
E31  23781820.031 8 124974308.513 8     -1071.086          51.000    23781822.719 8  95759546.437 8      -820.703          51.000  
E04  27743878.648 5 145795059.193 5     -3149.996          34.000    27743882.609 6 111713113.129 6     -2413.452          36.000  
E24  22475161.625 7 118107804.738 7      1363.137          47.000    22475174.562 8  90498180.137 8      1044.560          48.000  
E09  22305145.227 8 117214335.448 8     -1780.398          50.000    22305149.266 8  89813571.110 8     -1364.196          51.000  
C24  24187554.492 5 125950930.08625     -2298.504          31.000                                                                  
C25  21846089.859 8 113758302.894 8        76.191          51.000                                                                  
C23  24230032.688 6 126172220.491 6      2223.043          36.000                                                                  
> 2020 05 10 06 41 30.0000000  0 15      -0.000000000000
G15  20846028.086 8 109546605.457 8     -1813.793          51.000    20846027.883 8  85360997.565 8     -1413.346          51.000  
G17  22389411.391 6 117657173.72326        -7.996          36.000                                                                  
G13  21884991.391 8 115006393.306 8     -2900.188          51.000    21884989.047 7  89615346.756 7     -2259.887          44.000  
G19  22123791.305 6 116261297.726 6      1975.445          41.000    22123784.586 5  90593217.224 5      1539.312          31.000  
G12  22672151.305 6 119143004.282 6      3331.426          40.000    22672152.219 6  92838673.270 6      2595.920          40.000  
R15  19780542.445 5 105700798.573 5       865.598          32.000                                                                  
R04  21461425.031 7 114924576.563 7     -3967.336          42.000    21461429.703 7  89385767.154 7     -3085.706          44.000  
R05  19850074.383 7 106109659.878 7      -409.266          42.000    19850077.070 6  82529736.500 6      -318.315          36.000  
R23  22469199.578 6 120194612.007 6      -251.145          38.000                                                                  
E31  23787953.555 8 125006540.450 8     -1078.672          51.000    23787956.016 8  95784243.636 8      -826.479          51.000  
E04  27761864.219 5 145889580.620 5     -3151.996          35.000    27761868.828 6 111785533.990 6     -2415.386          37.000  
E24  22467401.359 7 118067024.757 7      1354.473          47.000    22467414.164 8  90466933.171 8      1037.852          48.000  
E09  22315341.133 8 117267916.724 8     -1792.645          51.000    22315345.336 8  89854626.898 8     -1373.619          51.000  
C25  21845673.820 8 113756137.550 8        67.324          50.000                                                                  
C23  24217235.984 5 126105590.283 5      2217.871          32.000                                                                  
> 2020 05 10 06 42  0.0000000  0 14      -0.000000000000
G15  20856428.477 8 109601257.841 8     -1826.656          51.000    20856427.898 8  85403583.833 8     -1423.369          51.000  
G13  21901578.938 8 115093560.517 8     -2907.883          51.000    21901577.219 7  89683269.244 7     -2265.883          46.000  
G19  22112561.555 6 116202285.941 6      1961.832          40.000    22112556.969 5  90547234.077 5      1528.701          32.000  
G12  22653155.820 6 119043183.513 6      3326.078          41.000    22653157.273 6  92760890.891 6      2591.750          41.000  
R04  21483681.547 7 115043777.528 7     -3976.477          42.000    21483689.758 7  89478479.070 7     -3092.813          43.000  
R05  19852448.539 6 106122347.588 6      -433.500          41.000    19852450.234 6  82539604.753 6      -337.164          36.000  
R23  22470680.477 4 120202539.922 4      -274.035          29.000    22470682.328 4  93490920.90924      -213.139          25.000  
E31  23794128.500 8 125038990.092 8     -1081.621          51.000    23794130.961 8  95809107.637 8      -828.787          51.000  
E04  27779862.312 5 145984157.993 5     -3150.418          33.000    27779867.031 6 111858003.035 6     -2413.626          37.000  
E24  22459689.211 8 118026494.957 8      1350.457          48.000    22459701.406 8  90435877.890 8      1034.820          48.000  
E09  22325606.039 8 117321859.008 8     -1800.500          51.000    22325610.133 8  89895959.294 8     -1379.584          51.000  
C24  24214101.844 5 126089163.069 5     -2301.625          32.000                                                                  
C25  21845307.461 8 113754232.030 8        62.844          50.000                                                                  
C23  24204464.844 4 126039008.288 4      2217.582          29.000                                                                  
> 2020 05 10 06 42 30.0000000  0 13      -0.000000000000
G15  20866929.703 8 109656441.269 8     -1846.062          51.000    20866928.695 8  85446583.898 8     -1438.491          51.000  
G13  21918237.984 8 115181104.181 8     -2922.152          51.000    21918237.086 7  89751485.076 7     -2277.002          47.000  
G19  22101438.883 6 116143836.871 6      1941.211          40.000    22101436.055 6  90501689.339 6      1512.632          38.000  
G12  22634218.742 7 118943667.067 7      3314.305          43.000    22634219.086 7  92683345.576 7      2582.576          43.000  
R04  21506018.461 7 115163397.056 7     -3991.848          45.000    21506028.172 7  89571516.444 7     -3104.774          42.000  
R05  19854986.547 6 106135910.205 6      -464.227          38.000    19854988.008 6  82550153.470 6      -361.068          37.000  
E31  23800348.352 8 125071675.424 8     -1091.246          51.000    23800350.914 8  95834152.236 8      -836.129          51.000  
E04  27797876.180 5 146078822.794 5     -3154.562          32.000    27797880.242 6 111930533.686 6     -2417.161          36.000  
E24  22452028.195 8 117986234.122 8      1339.723          48.000    22452040.023 8  90405028.694 8      1026.464          48.000  
E09  22335943.367 8 117376180.223 8     -1814.816          51.000    22335947.016 8  89937582.035 8     -1390.571          51.000  
C24  24227394.008 6 126158396.513 6     -2307.863          36.000                                                                  
C25  21844994.836 8 113752604.844 8        51.797          51.000                                                                  
C23  24191728.852 5 125972707.170 5      2209.988          31.000                                                                  
> 2020 05 10 06 43  0.0000000  0 14      -0.000000000000
G15  20877510.742 8 109712046.801 8     -1864.746          51.000    20877509.656 8  85489912.854 8     -1453.049          51.000  
G13  21934947.617 8 115268914.669 8     -2935.621          50.000    21934947.695 7  89819908.831 7     -2287.498          46.000  
G19  22090403.445 6 116085845.132 6      1921.531          38.000    22090402.047 6  90456500.939 6      1497.301          37.000  
G12  22615319.773 7 118844348.754 7      3303.176          47.000    22615318.000 7  92605954.709 7      2573.907          47.000  
R04  21528414.336 7 115283321.232 7     -4006.809          46.000    21528422.688 6  89664790.740 6     -3116.410          40.000  
R14  20557062.359 6 109580319.574 6     -2251.418          37.000    20557067.312 5  85229150.942 5     -1751.103          33.000  
R05  19857666.969 6 106150237.787 6      -494.738          40.000    19857667.500 5  82561297.140 5      -384.797          34.000  
E31  23806592.344 8 125104487.779 8     -1099.941          51.000    23806594.938 8  95859294.160 8      -842.765          51.000  
E04                                                                  27815887.992 6 112003042.293 6     -2419.660          36.000  
E24  22444397.398 7 117946134.462 7      1329.820          46.000    22444409.617 8  90374302.946 8      1019.008          48.000  
E09  22346332.523 8 117430771.707 8     -1828.312          51.000    22346335.375 8  89979411.864 8     -1400.901          51.000  
C24  24240693.531 4 126227654.939 4     -2313.836          27.000                                                                  
C25  21844715.297 8 113751149.031 8        41.488          51.000                                                                  
C23  24179006.016 5 125906441.641 5      2202.410          31.000                                                                  
> 2020 05 10 06 43 30.0000000  0 15      -0.000000000000
G15  20888189.078 8 109768163.577 8     -1877.477          51.000    20888187.773 8  85533640.200 8     -1462.969          51.000  
G13  21951724.461 7 115357081.304 7     -2943.281          47.000    21951725.656 7  89888610.157 7     -2293.464          46.000  
G19  22079472.492 6 116028403.987 6      1907.121          40.000    22079471.812 6  90411741.633 6      1486.066          36.000  
G12  22596476.086 8 118745321.051 8      3297.742          49.000    22596472.461 8  92528790.327 8      2569.670          49.000  
R04  21550884.617 7 115403638.434 7     -4015.473          46.000    21550889.984 6  89758370.706 6     -3123.149          40.000  
R14  20569741.000 6 109647895.331 6     -2254.820          39.000    20569742.734 5  85281709.806 5     -1753.750          34.000  
R05  19860507.766 6 106165422.289 6      -518.867          40.000    19860507.523 5  82573107.370 5      -403.563          35.000  
R23  22475983.742 5 120230977.05225      -355.699          31.000                                                                  
E31  23812877.688 8 125137517.003 8     -1102.926          51.000    23812879.961 8  95884602.267 8      -845.141          51.000  
E04  27833904.422 5 146268153.486 5     -3155.566          33.000    27833907.711 6 112075597.425 6     -2418.208          37.000  
E24  22436813.953 7 117906286.665 7      1325.656          46.000    22436827.664 8  90343770.169 8      1015.754          50.000  
E09  22356790.164 8 117485723.328 8     -1836.094          51.000    22356792.359 8  90021517.648 8     -1406.887          51.000  
C24  24253993.133 4 126296891.084 4     -2312.938          28.000                                                                  
C25  21844485.875 8 113749954.378 8        37.066          51.000                                                                  
C23  24166316.273 5 125840365.628 5      2201.652          35.000                                                                  
> 2020 05 10 06 44  0.0000000  0 14      -0.000000000000
G15  20898961.023 8 109824771.881 8     -1894.934          50.000    20898959.602 8  85577750.561 8     -1476.572          50.000  
G17  22390995.734 6 117665462.001 6      -101.328          38.000    22390977.820 6  91687344.850 6       -78.966          38.000  
G13  21968565.180 8 115445583.824 8     -2955.426          49.000    21968567.273 7  89957573.192 7     -2302.930          47.000  
G19  22068643.297 6 115971497.895 6      1888.348          40.000    22068642.430 6  90367399.220 6      1471.443          37.000  
G12  22577684.289 8 118646567.145 8      3287.484          50.000    22577679.961 8  92451839.259 8      2561.680          49.000  
R04  21573424.031 7 115524325.568 7     -4028.930          44.000    21573426.445 6  89852238.407 6     -3133.613          40.000  
R14  20582460.000 6 109715690.656 6     -2263.320          39.000    20582460.352 5  85334439.489 5     -1760.361          35.000  
R05  19863504.672 6 106181444.504 6      -547.672          39.000    19863504.797 5  82585569.076 5      -425.967          34.000  
E31  23819200.648 8 125170743.661 8     -1110.633          51.000    23819202.500 8  95910061.649 8      -851.035          51.000  
E04                                                                  27851934.609 6 112148183.672 6     -2419.896          38.000  
E24  22429275.531 7 117866671.975 7      1316.934          47.000    22429289.984 8  90313416.046 8      1008.951          49.000  
E09  22367312.438 8 117541015.598 8     -1848.508          51.000    22367314.336 8  90063884.434 8     -1416.414          51.000  
C25  21844302.852 8 113749002.260 8        27.934          50.000                                                                  
C23  24153654.297 5 125774429.146 5      2195.840          34.000                                                                  
> 2020 05 10 06 44 30.0000000  0 15      -0.000000000000
G15  20909822.086 8 109881849.223 8     -1910.535          49.000    20909820.828 8  85622226.364 8     -1488.729          49.000  
G17  22391628.328 5 117668763.955 5      -118.676          35.000    22391604.047 5  91689917.505 5       -92.487          35.000  
G13  21985466.648 8 115534400.249 8     -2965.918          51.000    21985468.406 7  90026780.784 7     -2311.106          45.000  
G19  22057912.188 6 115915108.665 6      1870.863          40.000    22057912.156 6  90323459.660 6      1457.819          38.000  
G12  22558940.367 8 118548067.999 8      3278.828          49.000    22558937.297 8  92375086.714 8      2554.932          49.000  
R04  21596027.305 7 115645357.601 7     -4040.344          42.000    21596027.852 6  89946374.434 6     -3142.487          41.000  
R14  20595216.219 6 109783683.308 6     -2269.836          38.000    20595216.883 5  85387322.651 5     -1765.431          35.000  
R05  19866653.117 6 106198282.851 6      -575.043          38.000    19866654.906 5  82598665.493 5      -447.256          34.000  
E31  23825557.023 8 125204146.134 8     -1116.469          51.000    23825558.852 8  95935655.744 8      -855.453          51.000  
E04                                                                  27869964.586 6 112220784.184 6     -2420.351          38.000  
E24  22421778.281 8 117827269.648 8      1309.773          48.000    22421792.375 8  90283224.660 8      1003.545          48.000  
E09  22377895.195 8 117596626.905 8     -1859.152          51.000    22377897.062 8  90106495.668 8     -1424.522          51.000  
C24  24280683.828 5 126435890.228 5     -2319.340          32.000                                                                  
C25  21844162.633 8 113748272.084 8        20.543          50.000                                                                  
C23  24141018.242 4 125708612.070 4      2191.652          28.000                                                                  
> 2020 05 10 06 45  0.0000000  0 14      -0.000000000000
G15  20920768.969 8 109939376.838 8     -1922.293          50.000    20920767.672 8  85667053.033 8     -1497.894          50.000  
G13  22002424.539 8 115623511.440 8     -2972.578          51.000    22002425.133 7  90096218.022 7     -2316.298          43.000  
G19  22047277.117 6 115859220.696 6      1857.594          38.000    22047277.023 6  90279910.647 6      1447.479          37.000  
G12  22540241.766 8 118449807.706 8      3274.047          50.000    22540240.727 8  92298520.262 8      2551.206          50.000  
R04  21618689.945 7 115766712.385 7     -4047.758          42.000    21618690.641 7  90040761.533 7     -3148.257          42.000  
R14  20608005.578 6 109851853.720 6     -2272.445          37.000    20608004.992 5  85440343.989 5     -1767.464          35.000  
R05  19869952.430 6 106215918.739 6      -598.367          41.000    19869953.883 5  82612382.321 5      -465.397          34.000  
R23  22482683.336 5 120266756.730 5      -431.242          34.000    22482687.859 5  93540826.975 5      -335.411          30.000  
E31  23831943.242 8 125237705.843 8     -1118.562          51.000    23831945.359 8  95961370.320 8      -857.078          51.000  
E04  27887988.383 5 146552370.254 5     -3155.129          34.000    27887994.406 6 112293384.339 6     -2417.891          38.000  
E24  22414317.977 8 117788061.923 8      1306.418          48.000    22414331.109 7  90253182.379 7      1001.058          47.000  
E09  22388535.023 8 117652538.597 8     -1865.996          51.000    22388536.688 8  90149337.066 8     -1429.781          51.000  
C24  24294057.094 5 126505490.010 5     -2318.184          33.000                                                                  
C25  21844061.977 8 113747746.125 8        16.738          51.000                                                                  
> 2020 05 10 06 45 30.0000000  0 15      -0.000000000000
G15  20931799.102 8 109997339.382 8     -1948.793          51.000    20931797.461 8  85712218.619 8     -1518.540          51.000  
G13  22019435.484 8 115712901.759 8     -2993.785          51.000    22019434.922 7  90165872.764 7     -2332.820          43.000  
G19  22036734.617 5 115803823.290 5      1828.906          34.000    22036734.570 5  90236743.835 5      1425.122          34.000  
G12  22521586.461 8 118351774.003 8      3254.500          50.000    22521586.594 8  92222130.364 8      2535.975          50.000  
R04  21641409.188 7 115888371.990 7     -4069.945          43.000    21641410.734 6  90135385.705 6     -3165.514          40.000  
R14  20620825.289 6 109920186.836 6     -2290.398          37.000    20620825.195 6  85493491.895 6     -1781.424          36.000  
R05  19873397.484 6 106234337.833 6      -636.445          36.000    19873399.117 5  82626708.289 5      -495.013          34.000  
R23  22485188.859 6 120280155.577 6      -468.910          38.000    22485192.398 4  93551248.300 4      -364.711          29.000  
E31  23838356.719 8 125271408.417 8     -1135.301          51.000    23838358.969 8  95987194.357 8      -869.882          51.000  
E04                                                                  27906021.539 6 112365972.750 6     -2426.700          37.000  
E24  22406891.461 7 117749035.212 7      1288.352          47.000    22406903.328 7  90223278.809 7       987.191          47.000  
E09  22399229.219 8 117708736.218 8     -1887.539          51.000    22399230.484 8  90192397.544 8     -1446.288          51.000  
C24  24307435.938 5 126575132.781 5     -2331.398          34.000                                                                  
C25  21843997.836 8 113747410.870 8        -1.391          50.000                                                                  
C23  24115815.672 5 125577381.721 5      2176.773          30.000                                                                  
> 2020 05 10 06 46  0.0000000  0 14      -0.000000000000
G15  20942958.500 8 110055980.923 8     -1965.090          51.000    20942956.898 8  85757913.303 8     -1531.239          51.000  
G13  22036545.414 8 115802814.264 8     -3004.957          51.000    22036544.156 6  90235934.390 6     -2341.529          41.000  
G19  22026333.273 6 115749163.685 6      1810.234          36.000    22026333.602 6  90194151.967 6      1410.576          37.000  
G12  22503021.344 8 118254213.623 8      3244.879          51.000    22503021.195 8  92146109.305 8      2528.478          51.000  
R04  21664231.758 7 116010581.990 7     -4081.988          44.000    21664232.805 6  90230437.897 6     -3174.884          37.000  
R14  20633721.031 5 109988929.161 5     -2297.137          31.000    20633721.086 6  85546958.188 6     -1786.662          36.000  
R05  19877035.375 6 106253788.645 6      -664.508          37.000    19877038.789 6  82641836.670 6      -516.840          37.000  
E31  23844843.766 8 125305497.619 8     -1141.957          51.000    23844845.945 8  96013314.646 8      -875.018          51.000  
E04  27924088.883 5 146742070.428 5     -3168.449          33.000    27924092.539 5 112438735.834 5     -2427.367          35.000  
E24  22399545.789 7 117710434.077 7      1280.441          47.000    22399556.383 7  90193701.350 7       981.109          47.000  
E09  22410024.094 8 117765463.487 8     -1898.910          51.000    22410024.844 8  90235863.859 8     -1455.010          51.000  
C25  21844016.453 8 113747508.613 8        -9.652          49.000                                                                  
C11  25830508.234 6 134506235.252 6      3166.938          37.000    25830513.359 6 104008772.079 6      2449.189          39.000  
C23  24103267.719 5 125512087.720 5      2171.859          30.000                                                                  
> 2020 05 10 06 46 30.0000000  0 14      -0.000000000000
G15  20954196.414 8 110115034.638 8     -1973.020          51.000    20954195.055 8  85803929.173 8     -1537.418          51.000  
G17  22395190.117 5 117687515.484 5      -192.566          35.000    22395185.820 5  91704535.742 5      -150.052          34.000  
G13  22053703.617 8 115892982.870 8     -3007.621          50.000    22053702.438 7  90306195.601 7     -2343.604          42.000  
G19  22016022.367 5 115694979.869 5      1800.203          32.000    22016023.148 5  90151930.822 5      1402.759          33.000  
G12  22484496.438 8 118156863.889 8      3243.773          51.000    22484495.531 8  92070252.400 8      2527.616          51.000  
R15  19735448.227 5 105459808.32325       744.500          30.000    19735429.938 4  82024265.14824       579.056          27.000  
R04  21687106.023 7 116133068.395 7     -4085.070          45.000    21687104.578 5  90325705.031 5     -3177.284          33.000  
R05  19880816.562 6 106274001.260 6      -684.441          38.000    19880821.203 6  82657557.491 6      -532.346          36.000  
E31  23851353.852 8 125339708.093 8     -1140.180          51.000    23851356.000 8  96039527.864 8      -873.648          51.000  
E04  27942154.547 5 146837012.656 5     -3161.293          30.000    27942157.469 5 112511469.955 5     -2422.120          31.000  
E24  22392230.852 7 117671993.926 7      1280.895          47.000    22392241.102 7  90164247.246 7       981.423          47.000  
E09  22420869.133 8 117822454.963 8     -1901.953          51.000    22420869.273 8  90279532.631 8     -1457.312          51.000  
C25  21844067.812 8 113747777.061 8        -9.562          49.000                                                                  
C11  25812236.555 6 134411091.895 6      3174.410          39.000    25812242.117 6 103935201.181 6      2454.508          40.000  
> 2020 05 10 06 47  0.0000000  0 14      -0.000000000000
G15  20965493.312 8 110174398.788 8     -1987.973          51.000    20965492.461 8  85850186.942 8     -1549.070          51.000  
G17  22396329.750 4 117693497.431 4      -210.422          29.000    22396331.133 3  91709196.912 3      -163.959          23.000  
G13  22070890.867 8 115983305.719 8     -3017.242          49.000    22070890.352 7  90376577.026 7     -2351.099          42.000  
G12  22465992.742 8 118059625.864 8      3235.301          50.000    22465991.766 8  91994482.545 8      2521.014          50.000  
R04  21710011.945 7 116255725.105 7     -4095.465          46.000    21710009.281 5  90421104.591 5     -3185.365          35.000  
R05  19884722.141 6 106294872.776 6      -710.824          40.000    19884725.773 5  82673790.962 5      -552.863          35.000  
R23  22493653.820 5 120325473.899 5      -539.348          31.000    22493658.039 4  93586495.602 4      -419.493          27.000  
E31  23857867.680 8 125373938.588 8     -1145.359          51.000    23857870.000 8  96065756.432 8      -877.608          51.000  
E04                                                                  27960196.133 5 112584118.161 5     -2422.309          34.000  
E24  22384927.047 7 117633614.308 7      1274.363          46.000    22384938.109 7  90134839.500 7       976.458          47.000  
E09  22431744.891 8 117879609.316 8     -1911.898          51.000    22431744.461 8  90323326.208 8     -1464.953          51.000  
C25  21844133.047 8 113748116.680 8       -16.430          50.000                                                                  
C11  25793939.891 6 134315817.974 6      3174.102          39.000    25793945.555 7 103861529.349 7      2454.266          43.000  
C23  24078220.836 5 125381604.324 5      2171.625          32.000                                                                  
> 2020 05 10 06 47 30.0000000  0 16      -0.000000000000
G15  20976931.195 8 110234504.970 8     -2007.949          51.000    20976930.992 8  85897022.922 8     -1564.636          51.000  
G17  22397625.219 5 117700309.191 5      -232.801          34.000    22397629.695 4  91714547.145 4      -181.400          27.000  
G13  22088189.852 8 116074214.089 8     -3031.992          49.000    22088189.625 7  90447414.663 7     -2362.595          42.000  
G19  21995698.953 5 115588172.330 5      1760.582          34.000    21995699.961 5  90068718.056 5      1371.886          32.000  
G12  22447592.922 8 117962934.282 8      3221.965          50.000    22447592.430 8  91919138.457 8      2510.623          50.000  
R04  21733031.266 7 116378989.118 7     -4110.707          45.000    21733028.688 6  90516976.540 6     -3197.220          36.000  
R14  20672587.820 6 110196143.358 6     -2313.070          36.000    20672586.023 5  85708103.195 5     -1799.058          34.000  
R05  19888832.805 6 106316842.995 6      -742.719          39.000    19888835.992 5  82690878.922 5      -577.670          35.000  
R23  22496794.852 5 120342283.583 5      -569.867          34.000    22496799.320 4  93599569.929 4      -443.227          24.000  
E31  23864467.531 8 125408621.194 8     -1155.594          51.000    23864469.969 8  96092331.411 8      -885.449          51.000  
E04                                                                  27978288.484 5 112656968.959 5     -2426.158          35.000  
E24  22377717.023 7 117595728.130 7      1262.613          46.000    22377728.930 7  90105809.833 7       967.466          47.000  
E09  22442733.781 8 117937358.530 8     -1926.824          51.000    22442732.938 8  90367575.595 8     -1476.414          51.000  
C25  21844294.289 8 113748956.349 8       -28.402          50.000                                                                  
C11  25775701.578 6 134220844.965 6      3168.723          40.000    25775706.555 7 103788090.221 7      2450.258          45.000  
C23  24065760.695 5 125316751.240 5      2162.645          32.000                                                                  
> 2020 05 10 06 48  0.0000000  0 15      -0.000000000000
G15  20988439.695 8 110294982.343 8     -2023.738          51.000    20988439.930 8  85944148.144 8     -1576.939          51.000  
G17  22399006.102 6 117707571.943 6      -250.902          38.000    22399019.648 5  91720206.597 5      -195.499          34.000  
G13  22105529.977 8 116165336.773 8     -3042.582          50.000    22105529.547 6  90518419.304 6     -2370.847          41.000  
G19  21985701.484 5 115535625.863 5      1742.414          35.000    21985702.945 5  90027772.703 5      1357.723          31.000  
G12  22429227.078 8 117866421.332 8      3212.461          50.000    22429227.297 8  91843933.557 8      2503.217          50.000  
R04  21756092.438 7 116502479.715 7     -4121.824          43.000    21756090.273 6  90613024.734 6     -3205.864          38.000  
R14  20685622.531 5 110265634.637 5     -2319.648          33.000    20685623.438 5  85762151.857 5     -1804.171          35.000  
R05  19893078.516 6 106339535.224 6      -770.098          41.000    19893081.094 5  82708528.413 5      -598.965          32.000  
R23  22500066.117 5 120359781.261 5      -596.562          35.000                                                                  
E31  23871082.922 8 125443385.516 8     -1161.746          51.000    23871085.289 8  96118969.009 8      -890.170          51.000  
E24  22370530.820 7 117557965.697 7      1254.938          47.000    22370542.945 7  90076874.966 7       961.651          46.000  
E09  22453765.750 8 117995332.107 8     -1937.723          51.000    22453764.797 8  90411996.903 8     -1484.764          51.000  
C25  21844480.891 8 113749929.700 8       -36.297          49.000                                                                  
C11  25757450.922 6 134125809.435 6      3167.172          39.000    25757455.414 7 103714602.777 7      2449.107          47.000  
C23  24053308.594 5 125251932.425 5      2158.305          35.000                                                                  
> 2020 05 10 06 48 30.0000000  0 15      -0.000000000000
G15  21000040.523 8 110355944.226 8     -2039.895          51.000    21000040.695 8  85991650.908 8     -1589.529          51.000  
G17  22400496.039 5 117715405.748 5      -270.312          31.000    22400522.836 5  91726311.223 5      -210.621          30.000  
G13  22122932.297 8 116256787.202 8     -3053.715          48.000    22122931.461 6  90589679.344 6     -2379.519          41.000  
G19  21975810.398 5 115483643.116 5      1723.527          35.000    21975808.953 5  89987266.689 5      1343.015          33.000  
G12  22410917.430 8 117770203.524 8      3202.465          51.000    22410917.570 8  91768958.653 8      2495.428          51.000  
R04  21779215.664 6 116626310.138 6     -4133.195          37.000    21779215.422 6  90709337.260 6     -3214.708          37.000  
R14  20698698.805 5 110335328.273 5     -2327.648          30.000    20698697.586 5  85816374.559 5     -1810.397          33.000  
R05  19897480.461 6 106363065.852 6      -798.070          37.000    19897484.242 5  82726829.916 5      -620.731          33.000  
R23  22503484.797 5 120378083.541 5      -623.305          33.000    22503492.805 4  93627438.109 4      -484.796          27.000  
E31  23877735.555 8 125478345.710 8     -1168.340          51.000    23877737.883 8  96145756.696 8      -895.195          51.000  
E24  22363390.008 7 117520441.949 7      1247.062          45.000    22363402.148 7  90048123.015 7       955.551          46.000  
E09  22464862.406 8 118053644.092 8     -1949.152          51.000    22464861.570 8  90456677.505 8     -1493.393          51.000  
C25  21844715.086 8 113751150.607 8       -44.637          50.000                                                                  
C11  25739210.336 6 134030827.959 6      3165.469          37.000    25739214.641 7 103641157.167 7      2447.739          46.000  
C23  24040887.391 5 125187262.367 5      2153.477          32.000                                                                  
> 2020 05 10 06 49  0.0000000  0 15      -0.000000000000
G15  21011730.492 8 110417374.603 8     -2055.590          51.000    21011730.305 8  86039518.714 8     -1601.762          51.000  
G17  22402092.133 5 117723795.269 5      -288.766          31.000    22402123.609 5  91732848.880 5      -225.015          32.000  
G13  22140393.805 7 116348549.176 7     -3064.082          47.000    22140392.773 6  90661182.182 6     -2387.597          41.000  
G19  21966023.883 6 115432212.030 6      1705.223          37.000    21966021.789 5  89947190.578 5      1328.748          32.000  
G12  22392661.711 8 117674268.250 8      3193.031          51.000    22392660.602 8  91694203.893 8      2488.077          51.000  
R04  21802396.062 5 116750461.406 5     -4143.398          34.000    21802400.164 6  90805899.434 6     -3222.644          36.000  
R14  20711810.867 5 110405230.355 5     -2333.211          32.000    20711813.078 5  85870742.823 5     -1814.720          34.000  
R05  19902035.750 6 106387418.877 6      -825.613          37.000    19902039.906 5  82745771.226 5      -642.144          33.000  
R23  22507051.945 5 120397175.132 5      -649.867          34.000    22507058.469 4  93642287.168 4      -505.452          28.000  
E31  23884422.562 8 125513486.568 8     -1174.520          51.000    23884424.992 8  96172682.824 8      -900.014          51.000  
E24  22356292.008 7 117483142.398 7      1239.434          47.000    22356304.156 7  90019542.871 7       949.675          45.000  
E09  22476020.406 8 118112279.111 8     -1960.082          51.000    22476020.047 8  90501605.646 8     -1501.894          51.000  
C25  21844994.328 8 113752604.715 8       -52.555          50.000                                                                  
C11  25720977.797 6 133935889.014 6      3163.949          36.000    25720981.539 7 103567744.446 7      2446.286          44.000  
C23  24028490.969 4 125122727.089 4      2147.523          29.000                                                                  
> 2020 05 10 06 49 30.0000000  0 14      -0.000000000000
G15  21023503.695 8 110479242.733 8     -2063.352          51.000    21023502.992 8  86087727.617 8     -1607.807          51.000  
G13  22157909.055 8 116440591.590 8     -3066.074          48.000    22157908.117 7  90732903.525 7     -2389.149          43.000  
G19  21956336.961 6 115381305.252 6      1694.547          38.000    21956334.156 5  89907523.002 5      1320.430          34.000  
G12  22374454.078 8 117578587.762 8      3191.344          49.000    22374452.312 8  91619647.700 8      2486.765          49.000  
R04  21825631.883 5 116874899.678 5     -4146.707          30.000    21825639.117 6  90902684.750 6     -3225.217          36.000  
R14  20724955.727 5 110475298.928 5     -2332.379          33.000    20724957.992 5  85925240.604 5     -1814.070          33.000  
R05  19906738.484 6 106412564.032 6      -844.945          37.000    19906743.891 5  82765328.553 5      -657.180          34.000  
R23  22510761.594 5 120417025.741 5      -668.145          34.000    22510769.898 4  93657726.394 4      -519.671          28.000  
E31  23891138.203 8 125548777.721 8     -1172.574          51.000    23891140.648 8  96199724.099 8      -898.493          51.000  
E24  22349231.617 8 117446037.521 8      1239.773          49.000    22349243.180 7  89991111.842 7       950.068          44.000  
E09  22487233.523 8 118171206.669 8     -1962.812          51.000    22487234.320 8  90546757.923 8     -1503.953          51.000  
C24  24415239.133 6 127136511.829 6     -2342.105          36.000                                                                  
C25  21845312.789 8 113754262.628 8       -52.449          50.000                                                                  
C11  25702748.203 5 133840965.868 5      3169.953          34.000    25702750.844 7 103494343.955 7      2451.360          42.000  
> 2020 05 10 06 50  0.0000000  0 13      -0.000000000000
G15  21035369.219 8 110541595.938 8     -2087.680          51.000    21035368.078 8  86136314.510 8     -1626.764          51.000  
G13  22175487.344 8 116532962.253 8     -3085.719          51.000    22175486.172 7  90804880.607 7     -2404.457          45.000  
G19  21946760.047 6 115330974.939 6      1666.984          40.000    21946756.078 5  89868304.613 5      1298.952          34.000  
G12  22356304.211 8 117483212.727 8      3172.707          48.000    22356302.891 8  91545329.491 8      2472.237          48.000  
R04  21848933.172 5 116999670.811 5     -4165.633          32.000    21848940.125 5  90999728.996 5     -3239.934          35.000  
R14  20738168.508 5 110545657.247 5     -2347.531          33.000    20738147.945 5  85979929.445 5     -1825.858          33.000  
R05  19911598.914 6 106438549.983 6      -881.430          38.000    19911604.578 5  82785539.829 5      -685.557          33.000  
E31  23897891.609 8 125584267.536 8     -1187.504          51.000    23897894.047 8  96226917.603 8      -909.876          51.000  
E24  22342217.516 7 117409176.398 7      1223.375          47.000    22342228.547 7  89962867.607 7       937.431          45.000  
E09  22498511.391 8 118230475.002 8     -1982.410          51.000    22498513.594 8  90592171.303 8     -1519.026          51.000  
C24  24428790.992 5 127207057.099 5     -2354.543          34.000                                                                  
C25  21845679.883 8 113756173.042 8       -69.180          51.000                                                                  
C11  25684532.898 5 133746110.035 5      3159.461          35.000    25684533.211 7 103420995.565 7      2443.238          42.000  
> 2020 05 10 06 50 30.0000000  0 13      -0.000000000000
G15  21047347.305 8 110604541.415 8     -2104.676          51.000    21047345.914 8  86185362.931 8     -1640.008          51.000  
G17  22407531.039 5 117752361.10525      -347.602          33.000    22407533.852 5  91755097.27225      -270.858          33.000  
G13  22193148.531 8 116625767.683 8     -3097.270          51.000    22193146.688 7  90877196.514 7     -2413.458          45.000  
G19  21937313.586 7 115281331.802 7      1646.586          42.000    21937309.602 6  89829621.761 6      1283.054          36.000  
G12  22338233.742 8 117388253.590 8      3161.805          48.000    22338233.023 8  91471335.372 8      2463.745          48.000  
R15  19704399.164 5 105293907.30925       640.434          33.000                                                                  
R14  20751414.203 6 110616264.425 6     -2355.574          37.000    20751391.578 5  86034846.063 5     -1832.114          32.000  
R05  19916638.352 6 106465470.412 6      -910.176          41.000    19916643.023 5  82806486.89425      -707.915          35.000  
E31  23904703.422 8 125620063.840 8     -1194.883          51.000    23904705.820 8  96254345.936 8      -915.557          51.000  
E24  22335269.812 7 117372667.552 7      1214.457          45.000    22335281.594 7  89934893.310 7       930.621          45.000  
E09  22509874.961 8 118290191.698 8     -1994.629          51.000    22509878.188 8  90637928.238 8     -1528.329          51.000  
C25  21846116.422 8 113758443.437 8       -78.289          51.000                                                                  
C11  25666351.609 5 133651431.742 5      3155.859          34.000    25666350.773 7 103347784.366 7      2440.616          45.000  
> 2020 05 10 06 51  0.0000000  0 15      -0.000000000000
G15  21059363.680 8 110667689.929 8     -2116.004          50.000    21059362.734 8  86234569.608 8     -1648.835          50.000  
G17  22409522.891 5 117762833.249 5      -361.527          32.000    22409525.016 5  91763257.265 5      -281.716          32.000  
G13  22210817.984 8 116718618.445 8     -3103.609          51.000    22210816.188 7  90949547.752 7     -2418.398          45.000  
G28  23970468.570 5 125965648.74325     -3090.105          34.000                                                                  
G19  21927924.531 7 115231989.829 7      1631.941          42.000    21927919.117 5  89791173.478 5      1271.646          33.000  
G12  22320169.211 8 117293323.734 8      3156.047          50.000    22320168.594 8  91397364.103 8      2459.261          50.000  
R04  21895722.117 5 117250210.694 5     -4183.852          31.000    21895712.719 5  91194586.86525     -3254.107          30.000  
R14  20764648.516 6 110686800.381 6     -2357.961          36.000    20764621.336 5  86089707.305 5     -1833.973          33.000  
R05  19921783.539 7 106492961.400 7      -933.664          42.000    19921785.039 5  82827868.211 5      -726.183          35.000  
E31  23911499.641 8 125655777.638 8     -1196.773          51.000    23911502.008 8  96281711.048 8      -917.015          51.000  
E24  22328315.281 7 117336122.799 7      1211.000          46.000    22328327.797 7  89906891.464 7       927.904          46.000  
E09  22521249.906 8 118349967.626 8     -2001.289          51.000    22521253.852 8  90683730.559 8     -1533.435          51.000  
C24  24455928.398 5 127348432.858 5     -2357.754          33.000                                                                  
C25  21846548.203 8 113760689.127 8       -82.191          51.000                                                                  
C11  25648131.039 5 133556548.991 5      3158.277          34.000    25648129.703 7 103274415.043 7      2442.266          46.000  
> 2020 05 10 06 51 30.0000000  0 14      -0.000000000000
G15  21071513.461 8 110731539.629 8     -2145.250          50.000    21071513.367 8  86284322.626 8     -1671.624          49.000  
G17  22411668.133 5 117774109.88825      -395.414          31.000    22411665.305 5  91772038.05025      -308.112          31.000  
G13  22228590.062 8 116812013.106 8     -3127.324          49.000    22228588.844 7  91022322.800 7     -2436.877          44.000  
G28  23988140.016 5 126058509.007 5     -3105.688          35.000                                                                  
G19  21918687.961 6 115183452.130 6      1599.383          41.000    21918681.602 5  89753351.898 5      1246.282          30.000  
G12  22302205.977 8 117198925.082 8      3132.484          50.000    22302204.992 8  91323806.743 8      2440.898          50.000  
R04  21919210.117 6 117376007.520 6     -4208.043          36.000    21919202.625 4  91292428.261 4     -3272.929          29.000  
R05  19927125.508 6 106521514.930 6      -974.746          41.000    19927124.344 5  82850076.471 5      -758.142          35.000  
E31  23918375.250 8 125691908.632 8     -1216.688          51.000    23918377.633 8  96309395.828 8      -932.256          51.000  
E24  22321449.633 7 117300042.523 7      1189.594          47.000    22321462.250 7  89879245.500 7       911.522          47.000  
E09  22532731.102 8 118410302.292 8     -2025.723          51.000    22532735.484 8  90729960.998 8     -1552.238          51.000  
C24  24469538.438 5 127419332.121 5     -2373.234          32.000                                                                  
C25  21847069.984 8 113763405.983 8      -103.602          51.000                                                                  
C11  25629966.062 5 133461960.437 5      3142.926          33.000    25629965.258 7 103201273.204 7      2430.056          47.000  
> 2020 05 10 06 52  0.0000000  0 16      -0.000000000000
G15  21083750.141 8 110795843.384 8     -2149.914          51.000    21083750.547 8  86334429.434 8     -1675.258          51.000  
G17  22413917.469 5 117785928.709 5      -402.066          32.000    22413916.555 5  91781247.433 5      -313.299          32.000  
G13  22246417.766 7 116905704.020 7     -3126.988          47.000    22246417.320 7  91095328.711 7     -2436.615          43.000  
G28  24005820.352 5 126151417.626 5     -3096.914          35.000                                                                  
G19  21909557.492 6 115135475.157 6      1591.055          39.000    21909553.156 5  89715967.330 5      1239.789          35.000  
G12  22284297.336 8 117104813.575 8      3133.406          49.000    22284296.305 8  91250473.112 8      2441.616          49.000  
R04  21942751.953 6 117502095.488 6     -4206.703          40.000    21942749.625 4  91390496.529 4     -3271.884          29.000  
R14  20791281.727 6 110828845.057 6     -2373.605          38.000    20791287.016 5  86200231.166 5     -1846.135          34.000  
R05  19932618.961 7 106550879.979 7      -991.250          44.000    19932617.547 6  82872915.908 6      -770.972          36.000  
R17  23498249.859 6 125743496.706 6      4049.129          37.000    23498255.281 6  97800511.023 6      3149.326          36.000  
E31  23925283.188 8 125728210.063 8     -1211.777          51.000    23925285.648 8  96337211.198 8      -928.532          51.000  
E24  22314625.781 7 117264180.653 7      1192.832          46.000    22314638.211 7  89851766.923 7       913.932          47.000  
E09  22544271.539 8 118470948.737 8     -2025.609          51.000    22544276.086 8  90776430.321 8     -1552.112          51.000  
C24  24483164.070 4 127490261.762 4     -2366.070          27.000                                                                  
C25  21847634.938 8 113766350.192 8      -100.875          51.000                                                                  
C11  25611810.344 5 133367425.064 5      3151.598          32.000    25611810.961 8 103128172.479 8      2436.877          48.000  
> 2020 05 10 06 52 30.0000000  0 15      -0.000000000000
G15  21096062.031 8 110860541.615 8     -2169.316          51.000    21096062.688 8  86384843.608 8     -1690.377          51.000  
G17  22416260.305 5 117798239.433 5      -424.910          33.000    22416260.305 5  91790840.302 5      -331.096          33.000  
G13  22264290.906 8 116999632.124 8     -3141.145          48.000    22264291.023 6  91168519.427 6     -2447.646          41.000  
G28  24023497.977 5 126244315.648 5     -3102.316          35.000                                                                  
G19  21900523.227 6 115088003.353 6      1567.762          40.000    21900518.984 5  89678976.408 5      1221.642          30.000  
G12  22266432.242 7 117010932.916 7      3119.301          46.000    22266431.898 7  91177319.351 7      2430.625          46.000  
R04  21966339.047 7 117628411.679 7     -4220.422          42.000    21966341.484 5  91488742.385 5     -3282.554          30.000  
R14  20804656.891 6 110900125.123 6     -2384.219          36.000    20804656.109 5  86255671.309 5     -1854.387          33.000  
R05  19938252.555 7 106580996.622 7     -1022.668          43.000    19938252.086 6  82896339.923 6      -795.412          38.000  
R17  23475552.828 6 125622040.856 6      4041.707          37.000    23475556.219 5  97706045.415 5      3143.551          34.000  
E31  23932212.305 8 125764623.235 8     -1221.805          51.000    23932214.867 8  96365112.184 8      -936.227          51.000  
E24  22307831.969 7 117228479.248 7      1181.227          46.000    22307844.312 7  89824411.341 7       905.063          47.000  
E09  22555860.180 8 118531848.084 8     -2040.320          51.000    22555864.453 8  90823093.432 8     -1563.426          51.000  
C25  21848232.500 8 113769464.328 8      -112.723          51.000                                                                  
C11  25593654.656 5 133272888.252 5      3145.137          33.000    25593656.203 7 103055070.629 7      2431.965          47.000  
> 2020 05 10 06 53  0.0000000  0 15      -0.000000000000
G15  21108468.133 8 110925735.015 8     -2180.273          51.000    21108468.695 8  86435643.625 8     -1698.915          51.000  
G17  22418716.781 5 117811144.869 5      -438.844          32.000    22418716.383 5  91800896.436 5      -341.956          30.000  
G13  22282228.984 8 117093897.607 8     -3146.680          49.000    22282229.164 7  91241972.994 7     -2451.959          42.000  
G28  24041192.648 5 126337303.637 5     -3100.227          32.000                                                                  
G19  21891604.664 6 115041141.050 6      1553.039          38.000    21891600.602 4  89642445.352 4      1210.167          29.000  
G12  22248631.031 8 116917387.329 8      3113.590          48.000    22248630.852 8  91104426.684 8      2426.175          48.000  
R04  21989988.164 7 117755056.156 7     -4225.988          43.000    21989992.867 5  91587243.561 5     -3286.880          32.000  
R14  20818071.961 4 110971632.305 4     -2386.082          29.000    20818070.891 5  86311287.925 5     -1855.839          34.000  
R05  19944046.102 7 106611967.333 7     -1045.547          44.000    19944045.445 6  82920428.219 6      -813.203          39.000  
R17  23452884.195 6 125500724.105 6      4042.449          40.000    23452886.359 6  97611688.003 6      3144.131          36.000  
E31  23939182.016 8 125801249.703 8     -1223.352          51.000    23939184.656 8  96393176.609 8      -937.365          51.000  
E24  22301088.109 7 117193040.607 7      1177.973          47.000    22301100.633 7  89797257.078 7       902.597          47.000  
E09  22567516.539 8 118593101.629 8     -2046.598          51.000    22567519.875 8  90870027.949 8     -1568.113          51.000  
C25  21848882.430 8 113772849.707 8      -116.332          51.000                                                                  
C11  25575519.234 6 133178453.943 6      3146.918          36.000    25575520.883 7 102982048.049 7      2433.654          46.000  
> 2020 05 10 06 53 30.0000000  0 17      -0.000000000000
G15  21120905.531 8 110991093.257 8     -2190.863          51.000    21120905.500 8  86486572.096 8     -1707.167          51.000  
G17  22421222.812 6 117824315.488 6      -452.832          36.000    22421222.625 6  91811159.291 6      -352.865          36.000  
G13  22300168.789 8 117188169.903 8     -3152.012          49.000    22300168.547 7  91315431.896 7     -2456.114          43.000  
G28  24058841.016 5 126430051.069 5     -3097.172          32.000                                                                  
G19  21882739.727 6 114994561.637 6      1538.055          37.000    21882737.078 5  89606149.744 5      1198.481          33.000  
G12  22230831.578 8 116823849.458 8      3108.203          49.000    22230831.383 8  91031540.049 8      2421.980          49.000  
R04  22013635.773 7 117881689.991 7     -4230.816          42.000    22013640.609 5  91685736.481 5     -3290.636          32.000  
R14  20831464.281 5 111043031.929 5     -2387.895          33.000    20831468.188 5  86366820.879 5     -1857.249          34.000  
R05  19949936.711 7 106643456.619 7     -1068.043          44.000    19949937.000 6  82944919.886 6      -830.700          39.000  
R23  22545804.125 5 120604419.448 5      -883.105          35.000                                                                  
R17  23430178.656 6 125379216.013 6      4043.613          41.000    23430180.891 6  97517181.823 6      3145.033          36.000  
E31  23946129.602 8 125837759.783 8     -1224.656          51.000    23946132.297 8  96421151.856 8      -938.356          51.000  
E24  22294331.578 7 117157535.761 7      1175.102          46.000    22294344.602 7  89770052.063 7       900.367          47.000  
E09  22579177.719 8 118654379.461 8     -2052.508          51.000    22579179.656 8  90916981.099 8     -1572.702          51.000  
C24  24524079.320 5 127703300.189 5     -2369.953          31.000                                                                  
C25  21849521.922 8 113776180.392 8      -119.609          51.000                                                                  
C11  25557341.758 6 133083798.946 6      3149.539          36.000    25557342.992 7 102908854.842 7      2435.258          45.000  
> 2020 05 10 06 54  0.0000000  0 17      -0.000000000000
G15  21133514.250 8 111057352.416 8     -2211.406          51.000    21133513.484 8  86538202.570 8     -1723.174          51.000  
G13  22318250.055 8 117283185.054 8     -3167.379          51.000    22318249.938 7  91389469.657 7     -2468.088          45.000  
G28  24076583.578 5 126523300.21125     -3104.965          31.000                                                                  
G19  21874070.305 6 114949005.194 6      1513.465          38.000    21874068.195 5  89570651.184 5      1179.327          34.000  
G12  22213174.266 8 116731058.405 8      3092.703          48.000    22213174.203 8  90959235.348 8      2409.899          48.000  
R04  22037422.406 6 118009060.423 6     -4245.551          39.000    22037427.539 5  91784802.312 5     -3302.096          34.000  
R14  20844978.383 5 111115070.663 5     -2399.387          35.000    20844982.898 5  86422850.898 5     -1866.199          32.000  
R05  19956064.383 7 106676213.482 7     -1100.531          43.000    19956064.727 6  82970397.470 6      -855.969          39.000  
R23  22550885.172 5 120631604.345 5      -914.234          35.000                                                                  
R17  23407578.305 7 125258272.065 7      4034.473          43.000    23407579.172 5  97423114.367 5      3137.927          33.000  
E31  23953195.211 8 125874890.145 8     -1235.727          51.000    23953197.969 8  96449602.375 8      -946.799          51.000  
E24  22287702.352 7 117122702.045 7      1162.207          44.000    22287716.500 8  89743361.300 8       890.631          48.000  
E09  22590983.664 8 118716418.039 8     -2068.367          51.000    22590984.508 8  90964517.143 8     -1584.839          51.000  
C24  24537787.570 5 127774697.679 5     -2376.938          32.000                                                                  
C25  21850291.242 8 113780187.030 8      -132.762          51.000                                                                  
C11  25539262.875 6 132989656.790 6      3141.410          36.000    25539264.039 7 102836058.187 7      2429.356          45.000  
C23  23906044.289 5 124485049.98925      2100.520          30.000                                                                  
> 2020 05 10 06 54 30.0000000  0 15      -0.000000000000
G15  21146179.266 8 111123907.845 8     -2224.238          51.000    21146177.695 8  86590063.904 8     -1733.173          50.000  
G13  22336357.594 8 117378338.320 8     -3174.891          51.000    22336357.555 7  91463615.049 7     -2473.945          46.000  
G19  21865481.852 6 114903870.666 6      1496.461          38.000    21865480.711 6  89535481.401 6      1166.074          38.000  
G12  22195544.570 8 116638413.081 8      3084.914          48.000    22195543.914 8  90887044.193 8      2403.830          48.000  
R04  22061232.336 6 118136549.326 6     -4252.539          37.000    22061236.977 5  91883960.266 5     -3307.534          32.000  
R14  20858497.852 6 111187135.532 6     -2403.375          40.000    20858500.766 5  86478901.325 5     -1869.292          30.000  
R05  19962314.555 7 106709623.269 7     -1125.352          44.000    19962314.398 6  82996382.860 6      -875.271          40.000  
R23  22556083.953 6 120659413.188 6      -938.270          36.000                                                                  
R17  23384969.414 7 125137283.577 7      4032.770          44.000    23384968.867 5  97329012.275 5      3136.599          31.000  
E31  23960264.031 8 125912037.275 8     -1239.309          51.000    23960266.883 8  96478065.756 8      -949.604          51.000  
E24  22281086.109 7 117087936.621 7      1156.734          44.000    22281100.844 8  89716722.894 8       886.353          48.000  
E09  22602819.391 8 118778613.557 8     -2076.547          51.000    22602819.672 8  91012173.443 8     -1591.172          51.000  
C24  24551494.977 5 127846059.111 5     -2378.770          32.000                                                                  
C25  21851075.688 8 113784272.290 8      -138.266          51.000                                                                  
C11  25521168.430 5 132895432.861 5      3141.559          30.000    25521169.812 7 102763198.321 7      2429.053          46.000  
> 2020 05 10 06 55  0.0000000  0 13      -0.000000000000
G15  21158932.469 8 111190927.940 8     -2241.059          50.000    21158930.461 8  86642287.322 8     -1746.280          50.000  
G13  22354523.523 8 117473798.464 8     -3186.371          51.000    22354523.430 7  91537999.557 7     -2482.887          46.000  
G19  21857006.109 6 114859330.897 6      1474.957          38.000    21857006.023 6  89500775.139 6      1149.318          36.000  
G12  22177975.172 8 116546084.987 8      3072.941          48.000    22177973.391 8  90815100.248 8      2394.500          48.000  
R14  20872054.102 6 111259398.598 6     -2411.609          36.000    20872055.680 5  86535105.908 5     -1875.700          30.000  
R05  19968718.570 7 106743858.076 7     -1154.195          44.000    19968718.281 6  83023009.924 6      -897.708          40.000  
R23  22561431.102 6 120688018.739 6      -965.875          37.000                                                                  
R17  23362384.789 7 125016428.310 7      4026.938          44.000    23362381.750 4  97235013.799 4      3132.063          29.000  
E31  23967368.320 8 125949370.768 8     -1246.883          51.000    23967371.367 8  96506671.924 8      -955.416          51.000  
E24  22274515.828 7 117053409.832 7      1147.582          45.000    22274529.766 7  89690267.312 7       879.412          47.000  
E09  22614717.195 8 118841135.359 8     -2088.801          51.000    22614717.422 8  91060079.743 8     -1600.541          51.000  
C25  21851907.820 8 113788604.933 8      -147.801          51.000                                                                  
C11  25503087.711 5 132801298.926 5      3136.965          35.000    25503092.805 7 102690407.849 7      2425.607          46.000  
> 2020 05 10 06 55 30.0000000  0 16      -0.000000000000
G15  21171754.789 8 111258311.530 8     -2246.059          49.000    21171753.125 8  86694794.008 8     -1750.173          49.000  
G13  22372728.391 8 117569464.096 8     -3186.059          51.000    22372728.164 7  91612544.181 7     -2482.644          45.000  
G28  24129772.508 5 126802799.900 5     -3098.082          33.000                                                                  
G19  21848625.305 6 114815288.253 6      1466.246          38.000    21848623.562 6  89466456.123 6      1142.527          37.000  
G12  22160447.414 8 116453976.511 8      3072.691          50.000    22160444.734 8  90743327.447 8      2394.309          50.000  
R15  19671719.766 5 105119293.395 5       530.559          31.000    19671714.547 4  81759456.141 4       412.651          28.000  
R14  20885628.312 6 111331757.314 6     -2407.441          38.000    20885630.656 5  86591384.881 5     -1872.452          30.000  
R05  19975257.461 7 106778814.940 7     -1171.047          46.000    19975257.664 6  83050198.577 6      -910.814          40.000  
R23  22566908.430 5 120717318.463 5      -981.773          31.000                                                                  
R17  23339806.117 7 124895609.556 7      4032.918          42.000    23339803.219 5  97141043.690 5      3136.718          32.000  
E31  23974488.961 8 125986790.000 8     -1242.684          51.000    23974492.195 8  96535343.791 8      -952.262          51.000  
E24  22267972.312 7 117019021.763 7      1150.090          46.000    22267984.828 7  89663917.996 7       881.238          47.000  
E09  22626657.820 8 118903882.546 8     -2089.281          51.000    22626658.367 8  91108158.748 8     -1600.876          51.000  
C24  24578936.797 5 127988934.076 5     -2375.309          32.000                                                                  
C25  21852768.570 8 113793085.998 8      -145.852          51.000                                                                  
C11  25485009.484 6 132707158.369 6      3144.266          41.000    25485014.445 7 102617612.398 7      2431.201          46.000  
> 2020 05 10 06 56  0.0000000  0 14      -0.000000000000
G15  21184656.180 8 111326110.007 8     -2271.008          50.000    21184655.062 8  86747623.990 8     -1769.617          50.000  
G13  22390981.750 8 117665386.625 8     -3205.734          51.000    22390981.508 7  91687288.956 7     -2497.979          44.000  
G28  24147501.250 5 126895964.117 5     -3110.203          35.000                                                                  
G19  21840349.289 6 114771798.277 6      1436.105          37.000    21840349.391 6  89432567.845 6      1119.047          36.000  
G12  22142971.875 8 116362142.334 8      3052.422          50.000    22142969.000 8  90671768.356 8      2378.511          50.000  
R14  20899230.680 6 111404264.466 6     -2423.598          41.000    20899235.047 5  86647779.278 5     -1885.024          33.000  
R05  19981941.422 7 106814546.611 7     -1208.113          45.000    19981942.359 6  83077989.859 6      -939.644          41.000  
R23  22572525.633 5 120747365.200 5     -1018.148          33.000                                                                  
R17  23317244.562 6 124774885.901 6      4018.012          41.000    23317243.992 5  97047147.523 5      3125.121          35.000  
E31  23981635.898 8 126024347.390 8     -1258.270          51.000    23981639.156 8  96564121.519 8      -964.111          51.000  
E24  22261465.523 8 116984825.441 8      1132.598          48.000    22261476.742 7  89637715.620 7       867.823          47.000  
E09  22638651.023 8 118966907.238 8     -2109.562          51.000    22638652.242 8  91156450.392 8     -1616.377          51.000  
C25  21853668.031 8 113797768.103 8      -163.473          51.000                                                                  
C11  25466941.500 7 132613066.684 7      3131.570          43.000    25466945.391 7 102544854.797 7      2421.463          47.000  
> 2020 05 10 06 56 30.0000000  0 15      -0.000000000000
G15  21197667.320 8 111394484.051 8     -2283.062          50.000    21197666.750 8  86800902.483 8     -1779.010          50.000  
G13  22409314.352 8 117761726.684 8     -3212.609          50.000    22409313.734 7  91762359.077 7     -2503.336          43.000  
G28  24165263.305 5 126989299.457 5     -3108.160          35.000    24165258.852 5  98952687.555 5     -2421.953          34.000  
G19  21832210.094 7 114729025.278 7      1419.559          42.000    21832209.398 5  89399238.219 5      1106.144          30.000  
G12  22125579.531 8 116270746.257 8      3044.887          50.000    22125577.367 8  90600550.654 8      2372.640          50.000  
R14  20912891.445 6 111477083.730 6     -2426.738          40.000    20912896.539 5  86704416.458 5     -1887.464          30.000  
R05  19988800.742 7 106851216.637 7     -1232.012          43.000    19988802.430 7  83106510.974 7      -958.232          42.000  
R23  22578313.414 6 120778323.469 6     -1041.402          36.000    22578316.492 4  93938740.95324      -809.980          25.000  
R17  23294732.414 6 124654427.342 6      4016.586          41.000    23294734.461 6  96953457.568 6      3124.012          37.000  
E31  23988839.852 8 126062204.506 8     -1261.230          51.000    23988842.984 8  96593128.908 8      -966.428          51.000  
E24  22255026.188 8 116950983.125 8      1127.805          49.000    22255036.859 8  89611784.493 8       864.210          48.000  
E09  22650727.438 8 119030370.695 8     -2117.164          51.000    22650729.453 8  91205078.238 8     -1622.238          51.000  
C25  21854637.078 8 113802812.051 8      -168.602          51.000                                                                  
C11  25448914.195 7 132519187.508 7      3131.445          44.000    25448916.844 8 102472261.510 8      2421.342          48.000  
C23  23845841.664 4 124171554.35824      2080.625          28.000                                                                  
> 2020 05 10 06 57  0.0000000  0 16      -0.000000000000
G15  21210764.281 8 111463309.579 8     -2298.820          50.000    21210764.289 8  86854532.759 8     -1791.292          50.000  
G13  22427703.047 8 117858360.025 8     -3223.059          51.000    22427702.352 7  91837657.734 7     -2511.475          44.000  
G28  24183034.055 5 127082682.533 5     -3110.492          34.000    24183029.031 5  99025453.636 5     -2423.749          34.000  
G19  21824184.500 6 114686848.545 6      1398.969          41.000    21824182.852 5  89366373.170 5      1090.109          31.000  
G12  22108247.617 8 116179667.422 8      3033.691          51.000    22108245.398 8  90529580.121 8      2363.916          51.000  
R04  22180995.422 5 118777819.89125     -4296.430          30.000    22181003.273 4  92382795.28624     -3341.668          26.000  
R14  20926586.914 5 111550089.519 5     -2433.359          35.000    20926591.070 5  86761198.716 5     -1892.613          31.000  
R05  19995811.844 7 106888698.924 7     -1259.918          43.000    19995814.352 7  83135663.846 7      -979.936          43.000  
R23  22584248.344 4 120810111.307 4     -1067.918          28.000                                                                  
R17  23272247.711 6 124534113.853 6      4010.973          40.000    23272251.750 6  96859880.483 6      3119.649          37.000  
E31  23996077.406 8 126100238.051 8     -1267.719          51.000    23996080.438 8  96622271.493 8      -971.429          51.000  
E24  22248630.461 7 116917372.188 7      1119.438          47.000    22248641.445 8  89586030.673 8       857.727          48.000  
E09  22662864.078 8 119094149.347 8     -2128.203          51.000    22662866.258 8  91253947.580 8     -1630.705          51.000  
C25  21855652.219 8 113808096.362 8      -177.207          51.000                                                                  
C11  25430904.375 7 132425402.154 7      3127.480          44.000    25430906.117 8 102399740.778 8      2418.364          49.000  
C23  23833895.562 5 124109345.706 5      2074.781          30.000                                                                  
> 2020 05 10 06 57 30.0000000  0 17      -0.000000000000
G15  21223954.758 8 111532626.129 8     -2324.906          50.000    21223955.180 8  86908545.651 8     -1811.616          51.000  
G17  22445569.945 5 117952248.739 5      -615.066          32.000    22445571.656 5  91910860.351 5      -479.273          32.000  
G13  22446155.273 8 117955326.196 8     -3243.930          50.000    22446154.758 7  91913215.771 7     -2527.738          44.000  
G28  24200821.039 5 127176153.151 5     -3122.988          32.000    24200816.398 5  99098287.902 5     -2433.489          31.000  
G19  21816280.461 6 114645311.875 6      1367.727          40.000    21816280.156 5  89334007.092 5      1065.767          34.000  
G12  22090984.305 8 116088948.544 8      3011.805          51.000    22090981.977 8  90458890.104 8      2346.862          51.000  
R04  22205113.883 6 118906972.775 6     -4316.363          36.000                                                                  
R14  20940325.125 6 111623322.772 6     -2451.016          37.000    20940328.484 5  86818157.993 5     -1906.343          31.000  
R05  20002983.016 7 106927034.114 7     -1298.215          44.000    20002986.164 7  83165480.127 7     -1009.720          44.000  
R23  22590330.023 5 120842646.84125     -1105.246          32.000                                                                  
R17  23249799.492 6 124413992.331 6      3994.250          38.000    23249803.758 6  96766452.728 6      3106.639          36.000  
E31  24003356.336 8 126138488.703 8     -1284.793          51.000    24003359.445 8  96651580.425 8      -984.407          51.000  
E24  22242285.922 7 116884033.981 7      1100.551          47.000    22242297.531 8  89560485.810 8       843.292          48.000  
E09  22675068.641 8 119158283.498 8     -2149.820          51.000    22675070.266 8  91303089.321 8     -1647.320          51.000  
C24  24634027.664 4 128275846.00224     -2405.633          28.000                                                                  
C25  21856721.156 8 113813662.069 8      -196.328          51.000                                                                  
C11  25412920.273 7 132331754.444 7      3113.184          44.000    25412921.633 8 102327326.458 8      2407.417          50.000  
> 2020 05 10 06 58  0.0000000  0 15      -0.000000000000
G15  21237194.219 8 111602198.870 8     -2324.379          51.000    21237194.703 8  86962758.175 8     -1811.205          51.000  
G13  22464625.656 8 118052390.212 8     -3238.141          48.000    22464625.539 7  91988850.069 7     -2523.227          43.000  
G19  21808454.070 6 114604184.110 6      1362.871          38.000    21808452.961 6  89301959.505 6      1061.978          36.000  
G12  22073745.672 8 115998358.155 8      3016.465          51.000    22073742.750 8  90388300.210 8      2350.493          51.000  
R04  22229246.547 6 119036186.815 6     -4309.156          37.000    22229246.227 4  92583725.21324     -3351.567          26.000  
R14  20954062.148 5 111696545.831 5     -2441.699          33.000    20954063.734 5  86875109.279 5     -1899.103          31.000  
R05  20010269.500 7 106965983.456 7     -1309.633          47.000    20010273.086 7  83195774.057 7     -1018.604          45.000  
R23  22596531.617 5 120875805.456 5     -1116.281          33.000                                                                  
R17  23227344.555 6 124293829.862 6      4005.109          38.000    23227348.562 5  96672993.129 5      3115.089          35.000  
E31  24010632.094 8 126176722.419 8     -1275.297          51.000    24010635.227 8  96680876.380 8      -977.191          51.000  
E24  22235948.977 8 116850735.151 8      1108.191          48.000    22235960.469 7  89534971.102 7       849.140          47.000  
E09  22687296.188 8 119222538.810 8     -2144.891          51.000    22687297.164 8  91352323.911 8     -1643.536          51.000  
C25  21857799.477 8 113819277.943 8      -189.090          51.000                                                                  
C11  25394918.250 7 132238015.894 7      3125.117          43.000    25394919.648 8 102254841.893 8      2416.428          50.000  
C23  23810072.305 4 123985288.760 4      2069.129          29.000                                                                  
> 2020 05 10 06 58 30.0000000  0 16      -0.000000000000
G15  21250578.016 8 111672529.792 8     -2344.539          51.000    21250578.195 8  87017561.440 8     -1826.914          51.000  
G17  22452695.430 5 117989703.794 5      -642.523          32.000    22452703.344 5  91940065.740 5      -500.643          30.000  
G13  22483209.656 7 118150054.371 7     -3253.047          46.000    22483210.094 7  92064952.069 7     -2534.839          43.000  
G19  21800801.328 6 114563971.241 6      1337.773          38.000    21800799.773 5  89270624.750 5      1042.418          35.000  
G12  22056627.781 8 115908401.826 8      3000.402          51.000    22056625.289 8  90318204.384 8      2337.977          51.000  
R04  22253485.727 6 119165971.672 6     -4322.926          39.000    22253485.039 5  92684668.963 5     -3362.276          31.000  
R14  20967892.797 6 111770268.417 6     -2452.859          36.000    20967894.172 5  86932449.068 5     -1907.777          30.000  
R05  20017766.773 8 107006057.685 8     -1341.895          48.000    20017770.398 7  83226942.911 7     -1043.696          45.000  
R23  22602937.461 6 120910064.095 6     -1147.668          37.000                                                                  
R17  23204978.984 6 124174144.387 6      3994.156          38.000    23204982.703 6  96579904.455 6      3106.567          36.000  
E31  24018000.430 8 126215442.398 8     -1286.227          51.000    24018003.367 8  96710544.927 8      -985.563          51.000  
E24  22229715.961 8 116817979.478 8      1095.324          49.000    22229726.930 7  89509872.608 7       839.299          47.000  
E09  22699642.219 8 119287418.148 8     -2160.547          51.000    22699643.227 8  91402036.638 8     -1655.476          51.000  
C24  24661686.961 4 128419894.419 4     -2400.191          29.000                                                                  
C25  21858983.172 8 113825443.327 8      -202.211          51.000                                                                  
C11  25376994.852 7 132144688.635 7      3116.289          44.000    25376996.672 8 102182675.310 8      2409.819          50.000  
> 2020 05 10 06 59  0.0000000  0 17      -0.000000000000
G15  21264009.508 8 111743110.471 8     -2359.641          51.000    21264008.805 8  87072559.312 8     -1838.685          51.000  
G17  22456421.094 6 118009291.775 6      -661.996          37.000    22456446.695 6  91955329.311 6      -515.835          37.000  
G13  22501811.609 7 118247809.942 7     -3262.922          47.000    22501811.547 6  92141125.209 6     -2542.540          41.000  
G19  21793226.750 6 114524168.315 6      1317.066          37.000    21793226.297 6  89239609.450 6      1026.289          37.000  
G12  22039534.430 8 115818574.282 8      2989.277          51.000    22039532.734 8  90248208.911 8      2329.308          51.000  
R04  22277733.070 6 119295806.631 6     -4331.547          39.000    22277731.664 5  92785651.668 5     -3368.985          33.000  
R14  20981750.875 5 111844069.558 5     -2459.426          35.000    20981718.539 4  86989762.892 4     -1912.887          28.000  
R05  20025377.945 8 107046739.618 8     -1368.977          48.000    20025381.016 7  83258584.394 7     -1064.760          44.000  
R23  22609452.391 5 120944905.173 5     -1173.883          35.000                                                                  
R17  23182606.375 6 124054424.557 6      3988.211          39.000    23182611.102 6  96486789.058 6      3101.942          36.000  
E31  24025364.688 8 126254141.041 8     -1292.461          51.000    24025367.367 8  96740197.119 8      -990.337          51.000  
E24  22223490.086 8 116785260.044 8      1087.246          49.000    22223500.961 8  89484801.882 8       832.989          48.000  
E09  22712010.273 8 119352413.533 8     -2171.312          51.000    22712011.617 8  91451838.295 8     -1663.728          51.000  
C24  24675531.812 4 128491967.41824     -2404.000          29.000                                                                  
C25  21860176.016 8 113831655.906 8      -210.691          51.000                                                                  
C11  25359054.461 7 132051273.057 7      3112.535          44.000    25359056.867 8 102110440.471 8      2406.680          50.000  
C23  23786402.797 4 123862036.543 4      2052.594          29.000                                                                  
> 2020 05 10 06 59 30.0000000  0 16      -0.000000000000
G15  21277500.609 8 111814005.038 8     -2380.402          51.000    21277499.352 8  87127801.780 8     -1854.863          51.000  
G17  22460234.000 5 118029331.955 5      -686.629          32.000    22460224.070 4  91970898.614 4      -535.036          29.000  
G13  22520443.711 8 118345721.060 8     -3278.293          48.000    22520442.508 6  92217419.503 6     -2554.521          41.000  
G19  21785742.945 6 114484842.847 6      1290.695          38.000    21785742.781 5  89208966.211 5      1005.737          35.000  
G12  22022478.273 8 115728942.904 8      2972.355          51.000    22022477.141 8  90178366.319 8      2316.122          51.000  
R04  22302000.320 6 119425754.741 6     -4345.559          37.000    22301997.414 5  92886722.371 5     -3379.880          32.000  
R14  20995555.766 5 111917781.800 5     -2471.617          35.000    20995562.164 4  87047141.519 4     -1922.366          29.000  
R05  20033114.305 7 107088094.616 7     -1401.883          45.000    20033117.211 7  83290749.388 7     -1090.354          44.000  
R23  22616091.969 5 120980409.55625     -1205.957          31.000                                                                  
R17  23160240.055 6 123934741.860 6      3976.461          40.000    23160246.656 6  96393702.538 6      3092.801          36.000  
E31  24032737.156 8 126292883.320 8     -1304.105          51.000    24032739.797 8  96769882.738 8      -999.184          51.000  
E24  22217283.375 8 116752642.465 8      1073.578          49.000    22217294.984 8  89459809.202 8       822.642          48.000  
E09  22724412.930 8 119417589.605 8     -2187.426          51.000    22724414.242 8  91501778.386 8     -1676.143          51.000  
C25  21861390.562 8 113837980.805 8      -224.645          51.000                                                                  
C11  25341110.453 7 131957837.208 7      3102.973          46.000    25341113.094 8 102038189.947 8      2399.440          49.000  
C23  23774561.766 5 123800404.776 5      2041.949          34.000                                                                  
