     3.02           OBSERVATION DATA    M (MIXED)           RINEX VERSION / TYPE
SAVERINEX           SC600               20200519 005932 LCL PGM / RUN BY / DATE
       G = GPS       R = GLONASS       C = COMPASS          COMMENT
       S = SBAS      J = QZSS          E = GALILEO          COMMENT
BEAN                                                        MARKER NAME
1                                                           MARKER NUMBER
GEODETIC                                                    MARKER TYPE
Unige DICCA         GTER                                    OBSERVER / AGENCY
SC60291900056       SC600               2.12(191202)        REC # / TYPE / VERS
                    HEMA45          NONE                    ANT # / TYPE
  4509407.8091   693652.4678  4442337.6214                  APPROX POSITION XYZ
        0.0000        0.0000        0.0000                  ANTENNA: DELTA H/E/N
G    8 C1C L1C D1C S1C C2Y L2Y D2Y S2Y                      SYS / # / OBS TYPES
R    8 C1C L1C D1C S1C C2P L2P D2P S2P                      SYS / # / OBS TYPES
C    4 C1I L1I D1I S1I                                      SYS / # / OBS TYPES
E    8 C1C L1C D1C S1C C7Q L7Q D7Q S7Q                      SYS / # / OBS TYPES
DBHZ                                                        COMMENT
     30.000                                                 INTERVAL
  2020    05    18    22    00    0.0000000     GPS         TIME OF FIRST OBS
  2020    05    18    22    59   30.0000000     GPS         TIME OF LAST OBS
     0                                                      RCV CLOCK OFFS APPL
G L1C  0.00000                                              SYS / PHASE SHIFT
G L2Y  0.00000                                              SYS / PHASE SHIFT
R L1C  0.00000                                              SYS / PHASE SHIFT
R L2P  0.25000                                              SYS / PHASE SHIFT
C L1I  0.00000                                              SYS / PHASE SHIFT
E L1C  0.50000                                              SYS / PHASE SHIFT
E L7Q -0.25000                                              SYS / PHASE SHIFT
 11 R01  1 R02 -4 R03  5 R08  6 R09 -2 R10 -7 R11  0 R12 -1 GLONASS SLOT / FRQ #
    R17  4 R22 -3 R23  3                                    GLONASS SLOT / FRQ #
 C1C   71.950 C2C   71.950 C2P   71.950                     GLONASS COD/PHS/BIS
    18                                                      LEAP SECONDS
*** Above antenna height is from mark to ANTENNA BOTTOM.    COMMENT
    17     4        0.0000        ANT MEASURE TYPE/HEIGT    COMMENT
    0.0000    0.0000    0.0458    0.0405    0.0000          COMMENT
                    BASE STATION                            COMMENT
                                                            END OF HEADER
> 2020 05 18 22 00  0.0000000  0 17        .000000000000
G01  23783472.930 7 124982972.873 7     -3612.668          45.000    23783475.070 7  97389340.840 7     -2815.066          45.000
G03  21221399.945 6 111519202.531 6     -1734.766          37.000    21221400.383 6  86898084.885 6     -1351.762          38.000
G04  20252238.016 8 106426282.882 8        10.758          50.000    20252239.047 8  82929586.717 8         8.383          51.000
G09  21320072.594 8 112037806.953 8      2254.996          50.000    21320074.484 8  87302196.363 8      1757.140          50.000
G17  22794962.953 8 119788339.365 8     -2068.711          50.000    22794962.586 8  93341546.264 8     -1611.983          50.000
G31  24254357.438 5 127457510.957 5     -2434.906          32.000    24254357.305 5  99317541.469 5     -1897.323          32.000
R03  23443834.766 5 125496686.186 5      3132.551          34.000    23443815.641 4  97608491.758 4      2436.428          27.000
R17  19691324.305 6 105372280.606 6      -154.859          40.000    19691323.086 4  81956178.911 4      -120.446          27.000
R24  21216496.578 8 113454109.111 8     -3832.648          49.000    21216497.766 8  88242108.009 8     -2980.949          48.000
C20  22232988.375 8 115773090.113 8      -979.754          51.000
C23  25822586.102 5 134464956.553 5      -651.586          30.000
C29  23636051.969 8 123079113.004 8     -2672.582          50.000
E04                                                                  25264177.266 5 101728468.452 5     -1567.451          35.000
E05  26077765.414 8 137039607.146 8      2234.430          50.000    26077767.898 8 105004405.933 8      1712.092          49.000
E09  21476620.664 8 112860487.323 8       230.316          51.000    21476622.664 8  86477516.726 8       176.467          51.000
E11  24620072.672 7 129379363.048 7     -2808.348          47.000    24620072.070 7  99134821.437 7     -2151.797          47.000
E36  23503375.570 8 123511077.898 8      -414.383          51.000    23503378.773 8  94638369.651 8      -317.484          51.000
> 2020 05 18 22 00 30.0000000  0 17        .000000000000
G01  23804112.047 7 125091434.842 7     -3620.895          44.000    23804116.125 7  97473856.671 7     -2821.476          44.000
G03  21231327.539 6 111571376.804 6     -1745.977          37.000    21231328.633 6  86938740.203 6     -1360.501          36.000
G04  20252223.227 8 106426204.788 8        -8.492          51.000    20252224.086 8  82929525.854 8        -6.617          51.000
G09  21307234.523 8 111970345.520 8      2239.543          49.000    21307236.688 8  87249629.025 8      1745.098          50.000
G17  22806809.945 8 119850596.016 8     -2084.555          49.000    22806809.617 8  93390057.917 8     -1624.331          49.000
G22  23202500.828 4 121929965.165 4     -2520.840          27.000
G31  24268300.578 5 127530777.942 5     -2452.152          33.000    24268299.133 4  99374632.542 4     -1910.774          28.000
R03  23426308.953 4 125402786.687 4      3124.664          29.000
R17  19692269.742 6 105377345.532 6      -185.887          38.000    19692267.375 5  81960118.369 5      -144.579          31.000
R24  21238037.797 7 113569301.915 7     -3849.672          47.000    21238039.516 8  88331702.427 8     -2994.189          48.000
C20  22238652.641 8 115802585.723 8      -989.445          51.000
C29  23651477.047 8 123159433.475 8     -2684.852          50.000
E04                                                                  25275868.453 6 101775536.350 6     -1572.536          36.000
E05  26065023.992 8 136972650.101 8      2226.574          50.000    26065026.258 8 104953101.210 8      1706.037          49.000
E09  21475330.133 8 112853705.127 8       219.062          51.000    21475331.875 8  86472319.993 8       167.880          51.000
E11  24636123.367 7 129463713.185 7     -2817.715          45.000    24636124.180 8  99199453.368 8     -2159.061          48.000
E36  23505781.602 8 123523721.360 8      -431.395          51.000    23505784.602 8  94648057.481 8      -330.513          51.000
> 2020 05 18 22 01  0.0000000  0 16        .000000000000
G01  23824774.141 7 125200017.529 7     -3619.016          44.000    23824779.383 7  97558466.604 7     -2820.009          44.000
G03  21241297.281 7 111623763.773 7     -1747.422          42.000    21241296.648 7  86979561.213 7     -1361.624          42.000
G04  20252294.781 8 106426580.012 8       -17.539          51.000    20252295.586 8  82929818.253 8       -13.664          51.000
G09  21294462.328 8 111903228.589 8      2233.867          50.000    21294464.609 8  87197330.142 8      1740.679          50.000
G17  22818724.156 8 119913205.474 8     -2090.328          49.000    22818723.695 8  93438844.477 8     -1628.827          49.000
G31  24282319.266 5 127604447.106 5     -2459.414          34.000    24282316.008 5  99432035.429 5     -1916.427          34.000
R17  19693366.000 5 105383218.544 5      -206.578          35.000    19693367.258 5  81964686.227 5      -160.672          33.000
R24  21259649.680 7 113684877.349 7     -3856.305          46.000    21259652.820 7  88421594.462 7     -2999.345          47.000
C19  22510270.812 5 117216848.397 5      1520.434          34.000
C20  22244349.328 8 115832249.959 8      -989.152          51.000
C29  23666949.172 8 123240001.183 8     -2687.227          50.000
E04                                                                  25287573.328 6 101822655.114 6     -1569.441          37.000
E05  26052304.047 8 136905807.964 8      2228.633          48.000    26052306.734 8 104901884.543 8      1707.687          50.000
E09  21474080.016 8 112847135.286 8       217.902          51.000    21474081.453 8  86467285.974 8       166.988          51.000
E11  24652205.297 7 129548230.351 7     -2817.707          43.000    24652207.844 8  99264213.292 8     -2158.971          48.000
E36  23508260.938 8 123536749.298 8      -438.246          51.000    23508263.805 8  94658039.913 8      -335.751          51.000
> 2020 05 18 22 01 30.0000000  0 19        .000000000000
G01  23845433.977 7 125308586.169 7     -3618.094          44.000    23845439.391 7  97643065.582 7     -2819.291          44.000
G03  21251281.609 6 111676230.168 6     -1749.391          41.000    21251280.047 7  87020444.122 7     -1363.162          42.000
G04  20252427.180 8 106427275.019 8       -27.891          51.000    20252427.781 8  82930359.818 8       -21.733          51.000
G09  21281730.914 8 111836324.359 8      2227.246          50.000    21281733.148 8  87145197.012 8      1735.519          50.000
G17  22830679.586 8 119976032.340 8     -2097.113          49.000    22830678.875 8  93487800.495 8     -1634.114          49.000
G19  22410467.961 5 117767806.173 5     -1347.613          35.000
G22  23231259.930 5 122081088.973 5     -2516.801          30.000
G31  24296388.367 5 127678379.315 5     -2468.152          32.000    24296386.711 5  99489644.980 5     -1923.220          31.000
R02  19810061.109 5 105710298.205 5      1063.207          33.000    19810063.836 4  82219113.052 4       826.939          29.000
R17  19694589.438 5 105389764.447 5      -228.703          34.000    19694590.086 5  81969777.388 5      -177.886          32.000
R24  21281307.570 8 113800696.263 8     -3863.914          49.000    21281311.414 7  88511675.845 7     -3005.266          46.000
C19  22501515.781 5 117171249.834 5      1520.305          30.000
C20  22250053.141 8 115861950.745 8      -989.973          51.000
C29  23682442.250 8 123320682.158 8     -2690.590          49.000
E04                                                                  25299264.516 6 101869722.324 6     -1567.592          36.000
E05  26039580.820 8 136838948.176 8      2229.680          49.000    26039583.938 8 104850654.340 8      1708.432          49.000
E09  21472844.906 8 112840644.448 8       215.684          51.000    21472846.273 8  86462312.485 8       165.276          51.000
E11  24668294.258 7 129632780.313 7     -2818.180          45.000    24668297.477 7  99328998.328 7     -2159.322          47.000
E36  23510788.227 8 123550029.045 8      -446.199          51.000    23510790.969 8  94668215.302 8      -341.884          51.000
> 2020 05 18 22 02  0.0000000  0 17        .000000000000
G01  23866164.648 7 125417525.853 7     -3634.883          45.000    23866170.000 7  97727953.666 7     -2832.376          44.000
G03  21261354.406 7 111729162.578 7     -1769.555          42.000    21261353.648 6  87061690.186 6     -1378.871          41.000
G04  20252693.914 8 106428675.989 8       -55.840          51.000    20252694.078 8  82931451.481 8       -43.512          51.000
G09  21269113.906 8 111770020.773 8      2202.617          51.000    21269115.953 8  87093531.922 8      1716.325          51.000
G17  22842749.602 8 120039461.185 8     -2121.656          50.000    22842749.016 8  93537225.573 8     -1653.239          50.000
G19  22418277.633 5 117808843.707 5     -1378.355          33.000    22418274.297 5  91799085.202 5     -1074.043          30.000
R02  19804182.438 5 105678919.707 5      1038.586          33.000    19804184.273 5  82194707.611 5       807.795          30.000
R17  19696012.172 5 105397377.177 5      -268.867          35.000    19696010.906 4  81975698.478 4      -209.122          29.000
R24  21303085.133 8 113917148.532 8     -3889.602          51.000    21303088.148 7  88602249.812 7     -3025.246          45.000
C19  22492833.695 4 117126059.586 4      1501.824          29.000
C20  22255837.469 8 115892071.061 8     -1008.453          51.000
C29  23698030.195 8 123401857.615 8     -2711.434          49.000
E04                                                                  25311014.055 5 101917033.789 5     -1579.115          35.000
E05  26026928.086 8 136772458.083 8      2212.684          49.000    26026931.617 8 104799707.413 8      1695.466          49.000
E09  21471698.312 8 112834619.093 8       195.648          51.000    21471699.844 8  86457695.656 8       149.927          51.000
E11  24684463.617 7 129717748.676 7     -2836.719          46.000    24684466.484 7  99394103.965 7     -2173.620          46.000
E36  23513436.859 8 123563947.696 8      -472.055          51.000    23513439.508 8  94678880.250 8      -361.683          51.000
> 2020 05 18 22 02 30.0000000  0 18        .000000000000
G01  23886910.359 7 125526544.212 7     -3636.902          44.000    23886915.758 7  97812903.047 7     -2833.947          44.000
G03  21271460.336 6 111782270.166 6     -1774.816          40.000    21271460.469 6  87103072.696 6     -1382.974          39.000
G04  20253039.477 8 106430491.665 8       -69.105          51.000    20253039.492 8  82932866.314 8       -53.845          50.000
G09  21256556.188 8 111704028.318 8      2192.809          51.000    21256557.891 8  87042109.269 8      1708.682          51.000
G17  22854878.430 8 120103199.003 8     -2131.410          50.000    22854878.289 8  93586891.382 8     -1660.842          50.000
G19  22426181.461 5 117850377.950 5     -1394.164          30.000
G22  23260162.156 4 122232976.671 4     -2535.707          28.000
R02  19798358.398 5 105647832.485 5      1029.773          33.000    19798363.008 5  82170528.697 5       800.935          31.000
R17  19697578.758 6 105405761.157 6      -293.852          38.000    19697576.070 5  81982220.374 5      -228.551          30.000
R24  21324925.617 8 114033934.579 8     -3900.055          51.000    21324926.523 7  88693083.347 7     -3033.379          44.000
C19  22484177.398 4 117081013.679 4      1499.758          29.000
C20  22261646.953 8 115922322.555 8     -1012.262          51.000
C29  23713658.008 8 123483237.412 8     -2717.652          49.000
E04                                                                  25322767.195 5 101964366.153 5     -1579.474          33.000
E05  26014290.703 8 136706047.331 8      2210.656          50.000    26014294.375 8 104748821.287 8      1693.808          48.000
E09  21470585.062 8 112828768.165 8       190.477          51.000    21470586.594 8  86453212.470 8       145.914          51.000
E11  24700657.445 7 129802843.448 7     -2840.133          46.000    24700659.117 7  99459306.444 7     -2176.397          45.000
E36  23516151.633 8 123578214.853 8      -483.055          51.000    23516154.320 8  94689812.226 8      -370.157          51.000
> 2020 05 18 22 03  0.0000000  0 17        .000000000000
G01  23907689.258 7 125635737.191 7     -3643.707          43.000    23907694.633 7  97897988.470 7     -2839.252          44.000
G03  21281618.336 7 111835650.321 7     -1784.973          42.000    21281618.484 6  87144667.605 6     -1390.888          41.000
G04  20253482.359 8 106432819.020 8       -87.141          51.000    20253482.172 8  82934679.843 8       -67.902          50.000
G09  21244076.594 8 111638445.706 8      2178.086          51.000    21244078.078 8  86991005.945 8      1697.210          51.000
G17  22867084.297 8 120167340.934 8     -2145.883          50.000    22867084.445 8  93636872.078 8     -1672.120          50.000
G31  24339181.867 5 127903253.496 5     -2521.992          30.000
R01  21011804.375 5 112320072.160 5     -2595.348          34.000
R02  19792605.266 4 105617136.147 4      1016.609          28.000    19792613.648 5  82146653.723 5       790.693          31.000
R17  19699307.633 6 105415015.734 6      -324.266          38.000    19699306.633 5  81989418.405 5      -252.207          34.000
R24  21346846.172 8 114151149.654 8     -3915.434          50.000    21346845.516 7  88784250.557 7     -3045.340          44.000
C20  22267500.078 8 115952801.608 8     -1020.812          51.000
C29  23729343.664 8 123564916.158 8     -2728.664          48.000
E04                                                                  25334543.461 5 102011793.660 5     -1583.626          33.000
E05  26001687.336 8 136639814.077 8      2203.645          49.000    26001690.633 8 104698071.170 8      1688.555          48.000
E09  21469523.469 8 112823188.949 8       180.355          51.000    21469524.992 8  86448937.484 8       138.182          51.000
E11  24716893.828 7 129888161.012 7     -2848.660          47.000    24716893.375 7  99524679.615 7     -2182.710          44.000
E36  23518951.586 8 123592928.360 8      -499.074          51.000    23518954.391 8  94701086.215 8      -382.396          51.000
> 2020 05 18 22 03 30.0000000  0 17        .000000000000
G01  23928503.203 7 125745113.651 7     -3645.773          43.000    23928508.227 7  97983216.865 7     -2840.862          43.000
G03  21291830.203 6 111889313.401 6     -1790.398          39.000    21291830.375 6  87186483.010 6     -1395.116          38.000
G04  20254024.547 8 106435668.063 8      -100.586          51.000    20254024.070 8  82936899.866 8       -78.379          50.000
G09  21231677.125 8 111573284.677 8      2168.137          51.000    21231678.727 8  86940231.128 8      1689.457          51.000
G17  22879368.602 8 120231895.306 8     -2155.562          50.000    22879368.797 8  93687174.168 8     -1679.659          50.000
R01  21026354.133 4 112397911.707 4     -2597.301          29.000
R02  19786925.727 5 105586830.508 5      1006.219          35.000    19786937.469 4  82123090.411 4       782.612          28.000
R03  23321558.438 4 124842111.327 4      3099.516          28.000
R17  19701201.422 6 105425151.956 6      -349.398          39.000    19701202.266 5  81997302.074 5      -271.757          34.000
R24  21368847.672 8 114268801.011 8     -3925.859          50.000    21368847.320 7  88875757.154 7     -3053.446          45.000
C20  22273398.859 8 115983518.466 8     -1024.816          51.000
C29  23745088.375 7 123646902.198 7     -2734.891          47.000
E04                                                                  25346345.672 5 102059232.817 5     -1583.374          31.000
E05  25989119.805 8 136573769.449 8      2201.410          50.000    25989122.734 8 104647465.626 8      1686.798          48.000
E09  21468515.430 8 112817891.658 8       174.961          51.000    21468517.055 8  86444878.531 8       134.076          51.000
E11  24733174.078 7 129973710.808 7     -2852.504          46.000    24733171.266 7  99590230.712 7     -2185.742          43.000
E36  23521838.766 8 123608099.075 8      -510.250          51.000    23521841.648 8  94712710.528 8      -390.947          51.000
> 2020 05 18 22 04  0.0000000  0 15        .000000000000
G01  23949337.453 7 125854596.752 7     -3653.215          43.000    23949342.148 7  98068528.387 7     -2846.661          43.000
G03  21302081.133 5 111943191.291 5     -1800.793          31.000    21302081.625 5  87228460.227 5     -1403.218          31.000
G04  20254651.500 8 106438963.008 8      -119.262          51.000    20254650.977 8  82939467.364 8       -92.931          51.000
G09  21219343.516 8 111508471.292 8      2152.551          51.000    21219345.492 8  86889727.183 8      1677.312          51.000
G17  22891716.484 8 120296784.743 8     -2170.641          48.000    22891716.664 8  93737737.360 8     -1691.408          48.000
R02  19781309.461 5 105556859.728 5       992.008          31.000    19781319.297 4  82099779.833 4       771.559          28.000
R10  22998713.469 5 122596089.132 5     -1065.754          34.000
R17  19703246.742 7 105436093.400 7      -380.312          42.000    19703248.219 5  82005812.145 5      -295.799          34.000
R24  21390914.961 8 114386808.238 8     -3941.602          48.000    21390916.508 7  88967540.568 7     -3065.687          46.000
C20  22279329.031 8 116014398.422 8     -1034.129          51.000
C29  23760877.938 8 123729119.004 8     -2746.492          48.000
E05  25976573.492 8 136507838.793 8      2193.734          48.000    25976576.172 8 104596947.373 8      1680.862          48.000
E09  21467546.773 8 112812800.909 8       164.039          51.000    21467548.305 8  86440977.831 8       125.716          51.000
E11  24749483.688 7 130059416.375 7     -2861.426          47.000    24749479.203 7  99655901.186 7     -2192.584          44.000
E36  23524798.555 8 123623652.181 8      -526.891          51.000    23524801.469 8  94724627.837 8      -403.709          51.000
> 2020 05 18 22 04 30.0000000  0 16        .000000000000
G01  23970191.312 6 125964183.330 6     -3656.945          41.000    23970195.648 6  98153920.533 6     -2849.568          41.000
G04  20255362.930 8 106442701.725 8      -134.570          51.000    20255362.383 8  82942380.654 8      -104.860          51.000
G09  21207075.828 8 111444005.073 8      2140.629          51.000    21207077.938 8  86839493.771 8      1668.023          51.000
G17  22904127.391 8 120362004.724 8     -2181.895          50.000    22904127.344 8  93788558.117 8     -1700.178          50.000
G22  23318269.609 5 122538338.769 5     -2554.312          31.000
R03  23286877.781 5 124656441.602 5      3088.539          33.000
R10  23004762.281 5 122628350.642 5     -1089.770          34.000
R17  19705441.188 7 105447838.238 7      -407.289          42.000    19705442.734 5  82014946.988 5      -316.786          33.000
R24  21413047.656 8 114505166.153 8     -3953.516          48.000    21413051.109 7  89059596.767 7     -3074.954          47.000
C20  22285290.172 8 116045439.696 8     -1039.852          51.000
C29  23776711.609 8 123811563.021 8     -2754.461          49.000
E04  25369989.367 5 133320210.846 5     -2074.699          33.000
E05  25964048.227 8 136442021.009 8      2189.625          48.000    25964051.258 8 104546515.577 8      1677.720          48.000
E09  21466617.062 8 112807914.768 8       156.988          51.000    21466618.352 8  86437233.903 8       120.368          51.000
E11  24765822.266 7 130145275.071 7     -2867.066          47.000    24765817.430 7  99721688.999 7     -2196.741          44.000
E36  23527830.672 8 123639586.350 8      -539.898          51.000    23527833.531 8  94736837.131 8      -413.638          51.000
> 2020 05 18 22 05  0.0000000  0 19        .000000000000
G01  23991077.938 6 126073943.372 6     -3662.090          40.000    23991082.344 6  98239447.831 6     -2853.577          40.000
G04  20256172.289 8 106446955.230 8      -150.715          51.000    20256171.695 8  82945695.095 8      -117.440          51.000
G09  21194888.180 8 111379958.843 8      2127.449          51.000    21194889.945 8  86789587.644 8      1657.753          51.000
G17  22916614.789 8 120427625.573 8     -2194.441          51.000    22916614.148 8  93839691.260 8     -1709.954          51.000
G19  22467328.844 5 118066624.933 5     -1487.773          30.000
G22  23332864.844 5 122615039.132 5     -2560.305          35.000
R02  19770277.188 5 105497938.579 5       968.391          34.000
R03  23269575.672 5 124563839.258 5      3082.754          33.000
R10  23010958.719 5 122661357.866 5     -1114.863          30.000
R17  19707799.789 7 105460459.592 7      -435.680          43.000    19707801.664 5  82024763.597 5      -338.859          35.000
R24  21435259.391 8 114623943.816 8     -3966.566          49.000    21435263.961 7  89151979.475 7     -3085.104          47.000
C19  22441475.062 5 116858624.786 5      1465.984          31.000
C20  22291295.797 8 116076712.981 8     -1046.652          51.000
C29  23792601.789 8 123894303.124 8     -2763.312          50.000
E04  25381841.375 5 133382483.142 5     -2077.914          34.000
E05  25951558.430 8 136376388.315 8      2184.305          48.000    25951561.758 8 104496225.595 8      1673.649          48.000
E09  21465739.680 8 112803304.608 8       148.688          51.000    21465741.008 8  86433701.447 8       113.938          51.000
E11  24782203.375 7 130231357.250 7     -2873.355          47.000    24782198.906 7  99787648.067 7     -2201.737          45.000
E36  23530948.766 8 123655973.523 8      -554.152          51.000    23530951.859 8  94749393.539 8      -424.616          51.000
> 2020 05 18 22 05 30.0000000  0 17        .000000000000
G01  24011994.406 6 126183860.137 6     -3666.852          39.000    24011999.023 6  98325097.282 6     -2857.284          38.000
G04  20257076.625 8 106451707.945 8      -167.039          51.000    20257075.984 8  82949398.510 8      -130.160          50.000
G09  21182777.875 8 111316318.780 8      2114.258          51.000    21182778.992 8  86739997.999 8      1647.474          51.000
G17  22929175.094 8 120493628.965 8     -2206.738          51.000    22929173.930 8  93891122.458 8     -1719.536          51.000
G22  23347489.648 5 122691898.295 5     -2564.711          35.000
R03  23252309.664 4 124471433.286 4      3078.801          29.000
R10  23017299.148 5 122695153.147 5     -1139.348          31.000
R17  19710318.922 7 105473942.431 7      -464.062          42.000    19710321.234 5  82035250.148 5      -360.944          34.000
R24  21457546.766 8 114743122.097 8     -3979.562          51.000    21457550.953 7  89244673.722 7     -3095.212          46.000
C19  22433051.016 4 116814742.405 4      1459.234          28.000
C20  22297343.055 8 116108203.255 8     -1053.594          51.000
C23  25869212.992 4 134707745.903 4      -822.438          29.000
C29  23808544.648 8 123977322.394 8     -2772.176          50.000
E05  25939101.570 8 136310926.169 8      2179.055          49.000    25939104.688 8 104446066.294 8      1669.674          48.000
E09  21464911.930 8 112798955.161 8       140.430          51.000    21464913.508 8  86430368.765 8       107.605          51.000
E11  24798623.906 8 130317646.824 8     -2879.980          48.000    24798619.938 7  99853766.040 7     -2206.915          45.000
E36  23534150.070 8 123672798.987 8      -568.406          51.000    23534153.664 8  94762285.771 8      -435.508          51.000
> 2020 05 18 22 06  0.0000000  0 16        .000000000000
G01  24032954.789 6 126294008.275 6     -3673.312          37.000    24032959.875 6  98410927.037 6     -2862.321          36.000
G03  21343566.984 5 112161201.262 5     -1835.180          30.000
G04  20258090.320 8 106457035.317 8      -185.148          51.000    20258090.070 8  82953549.718 8      -144.272          51.000
G09  21170759.633 8 111253162.132 8      2099.262          51.000    21170760.078 8  86690785.045 8      1635.788          51.000
G17  22941822.172 8 120560089.042 8     -2220.809          50.000    22941820.719 8  93942909.497 8     -1730.500          50.000
G22  23362160.719 5 122768992.085 5     -2571.586          30.000
R03  23235077.000 5 124379205.142 5      3070.871          33.000
R17  19713013.586 7 105488363.800 7      -494.137          42.000    19713015.000 5  82046466.799 5      -384.329          34.000
R24  21479923.414 8 114862774.886 8     -3994.098          51.000    21479926.203 7  89337737.002 7     -3106.520          44.000
C19  22424677.820 4 116771181.636 4      1450.484          27.000
C20  22303446.398 8 116139985.717 8     -1062.176          51.000
C29  23824554.312 8 124060694.156 8     -2782.805          49.000
E05  25926691.633 7 136245711.261 7      2171.797          46.000    25926695.016 8 104396096.443 8      1664.128          49.000
E09  21464148.422 8 112794942.282 8       130.277          51.000    21464150.117 8  86427293.965 8        99.775          51.000
E11  24815098.016 7 130404218.722 7     -2888.340          47.000    24815094.609 7  99920100.318 7     -2213.072          45.000
E36  23537449.383 8 123690139.067 8      -584.523          51.000    23537453.328 8  94775572.342 8      -447.897          51.000
> 2020 05 18 22 06 30.0000000  0 14        .000000000000
G01  24053926.992 6 126404217.594 6     -3675.332          36.000    24053932.289 6  98496804.437 6     -2863.892          36.000
G03  21354057.008 5 112216307.819 5     -1840.879          33.000    21354057.234 5  87441292.262 5     -1434.457          30.000
G04  20259181.141 8 106462768.291 8      -198.641          51.000    20259181.273 8  82958016.991 8      -154.785          50.000
G09  21158801.531 8 111190321.576 8      2088.637          51.000    21158801.555 8  86641818.430 8      1627.512          51.000
G17  22954523.430 8 120626834.908 8     -2230.430          48.000    22954522.086 8  93994919.237 8     -1737.997          49.000
R03  23217876.383 5 124287093.968 5      3068.246          35.000
R17  19715851.180 6 105503552.215 6      -519.871          39.000    19715852.945 6  82058280.006 6      -404.344          36.000
R24  21502356.023 8 114982726.785 8     -4004.148          51.000    21502356.586 7  89431032.891 7     -3114.338          42.000
C20  22309573.836 8 116171893.282 8     -1066.469          51.000
C29  23840599.219 8 124144249.452 8     -2789.020          49.000
E05  25914296.297 7 136180575.697 7      2169.113          46.000    25914300.219 8 104346187.420 8      1662.030          49.000
E09  21463416.859 8 112791097.199 8       124.617          51.000    21463418.430 8  86424347.730 8        95.486          51.000
E11  24831592.656 7 130490903.185 7     -2891.953          43.000    24831590.430 7  99986520.873 7     -2215.936          45.000
E36  23540814.688 8 123707825.623 8      -596.070          51.000    23540819.055 8  94789124.378 8      -456.714          51.000
> 2020 05 18 22 07  0.0000000  0 14        .000000000000
G01  24074928.438 6 126514578.014 6     -3680.680          37.000    24074933.336 6  98582799.536 6     -2868.062          37.000
G03  21364595.812 6 112271694.048 6     -1849.750          39.000    21364597.023 6  87484450.363 6     -1441.364          38.000
G04  20260366.406 8 106468997.694 8      -215.207          51.000    20260366.336 8  82962871.075 8      -167.694          50.000
G09  21146921.172 8 111127889.761 8      2074.902          51.000    21146921.008 8  86593170.284 8      1616.807          51.000
G17  22967295.578 7 120693955.728 7     -2242.855          46.000    22967294.930 7  94047221.179 7     -1747.680          46.000
R03  23200706.727 5 124195152.480 5      3062.344          33.000
R17  19718849.844 6 105519600.637 6      -548.656          41.000    19718852.688 6  82070762.157 6      -426.730          36.000
R24  21524860.727 8 115103067.178 8     -4017.141          48.000    21524859.125 6  89524630.926 6     -3124.446          40.000
C20  22315742.766 8 116204016.355 8     -1073.695          51.000
C29  23856697.148 8 124228076.849 8     -2798.078          49.000
E05  25901933.500 7 136115611.460 7      2163.180          46.000    25901937.859 8 104296409.634 8      1657.474          49.000
E09  21462734.352 8 112787511.084 8       115.855          51.000    21462735.789 8  86421599.941 8        88.790          51.000
E11  24848123.922 6 130577790.504 6     -2899.188          41.000    24848124.570 7 100053096.906 7     -2221.404          45.000
E36  23544263.422 8 123725950.394 8      -610.758          51.000    23544268.250 8  94803012.180 8      -467.986          51.000
> 2020 05 18 22 07 30.0000000  0 16        .000000000000
G01  24095955.953 6 126625074.929 6     -3684.922          38.000    24095960.312 6  98668901.024 6     -2871.368          39.000
G03  21375182.336 6 112327328.444 6     -1858.148          40.000    21375184.352 6  87527801.906 6     -1447.905          40.000
G04  20261643.664 8 106475710.037 8      -231.332          51.000    20261643.641 8  82968101.481 8      -180.256          50.000
G09  21135116.141 8 111065854.924 8      2061.633          51.000    21135116.500 8  86544831.448 8      1606.467          51.000
G17  22980136.172 7 120761436.016 7     -2254.863          46.000    22980136.125 7  94099803.229 7     -1757.036          46.000
G22  23406300.352 4 123000955.222 4     -2584.156          29.000
R03  23183563.148 5 124103368.584 5      3057.195          31.000
R17  19722006.469 7 105536495.926 7      -576.801          42.000    19722009.406 5  82083902.978 5      -448.620          34.000
R24  21547434.219 7 115223779.435 7     -4029.406          45.000    21547432.633 6  89618518.193 6     -3133.983          40.000
C19  22399746.766 5 116641352.011 5      1432.422          30.000
C20  22321950.547 8 116236341.997 8     -1080.371          51.000
C29  23872844.672 8 124312161.513 8     -2806.586          48.000
E05  25889601.539 8 136050806.239 8      2157.906          48.000    25889606.000 8 104246753.717 8      1653.482          49.000
E09  21462098.711 8 112784170.816 8       107.758          51.000    21462099.930 8  86419040.525 8        82.550          51.000
E11  24864693.062 7 130664866.682 7     -2905.047          45.000    24864694.727 7 100119817.654 7     -2225.891          46.000
E36  23547793.664 8 123744500.713 8      -624.934          51.000    23547798.273 8  94817226.049 8      -478.833          51.000
> 2020 05 18 22 08  0.0000000  0 15        .000000000000
G01  24117017.734 6 126735753.104 6     -3689.945          36.000    24117021.672 5  98755143.780 5     -2875.279          35.000
G03  21385824.852 6 112383257.397 6     -1866.953          41.000    21385826.773 6  87571382.922 6     -1454.769          40.000
G04  20263021.578 8 106482950.983 8      -247.953          51.000    20263021.750 8  82973743.802 8      -193.210          50.000
G09  21123395.688 8 111004264.533 8      2047.801          51.000    21123396.945 8  86496838.972 8      1595.692          51.000
G17  22993054.047 8 120829320.374 8     -2267.242          48.000    22993054.289 8  94152700.116 8     -1766.682          48.000
R02  19738879.914 5 105330485.243 5       894.426          33.000    19738882.250 4  81923692.168 4       695.664          24.000
R17  19725331.656 7 105554284.921 7      -605.504          42.000    19725334.055 5  82097738.814 5      -470.947          34.000
R24  21570083.531 7 115344906.613 7     -4042.254          42.000    21570084.922 7  89712728.273 7     -3143.972          42.000
C19  22391525.383 5 116598526.336 5      1425.746          32.000
C20  22328205.945 8 116268915.974 8     -1087.754          51.000
C29  23889049.906 7 124396547.332 7     -2815.750          46.000
E05  25877309.328 8 135986206.899 8      2152.117          48.000    25877313.594 8 104197255.551 8      1648.995          49.000
E09  21461518.719 8 112781122.508 8        98.926          51.000    21461519.781 8  86416704.804 8        75.848          51.000
E11  24881308.719 8 130752177.062 8     -2912.293          48.000    24881309.766 7 100186717.795 7     -2231.428          46.000
E36  23551413.961 8 123763523.164 8      -639.766          51.000    23551418.086 8  94831801.685 8      -490.180          51.000
> 2020 05 18 22 08 30.0000000  0 16        .000000000000
G01  24138078.414 5 126846431.469 5     -3698.754          32.000    24138083.281 5  98841386.700 5     -2882.143          33.000
G03  21396489.367 6 112439301.288 6     -1880.238          40.000    21396491.922 6  87615053.518 6     -1465.121          40.000
G04  20264465.781 8 106490540.442 8      -268.969          51.000    20264465.570 8  82979657.691 8      -209.586          49.000
G09  21111726.109 8 110942940.248 8      2029.398          51.000    21111727.828 8  86449053.868 8      1581.352          51.000
G17  23006014.461 8 120897426.186 8     -2284.164          50.000    23006014.648 8  94205769.577 8     -1779.865          50.000
R02  19733871.398 4 105303742.997 4       876.977          27.000
R17  19728789.898 7 105572784.708 7      -638.793          42.000    19728790.250 5  82112127.476 5      -496.842          33.000
R24  21592776.195 7 115466262.293 7     -4059.273          43.000    21592779.859 6  89807116.085 6     -3157.210          41.000
C19  22383311.695 5 116555768.083 5      1413.402          30.000
C20  22334474.852 8 116301560.315 8     -1099.441          51.000
C29  23905278.625 7 124481054.402 7     -2829.207          46.000
E04  25465375.109 5 133821449.395 5     -2106.422          34.000
E05  25865022.219 8 135921634.501 8      2141.637          48.000    25865026.781 8 104147778.060 8      1640.920          50.000
E09  21460959.812 8 112778186.409 8        85.625          51.000    21460961.117 8  86414455.069 8        65.576          51.000
E11  24897934.992 8 130839540.905 8     -2923.219          50.000    24897935.148 7 100253658.894 7     -2239.875          47.000
E36  23555089.844 8 123782838.532 8      -659.113          51.000    23555093.641 8  94846601.782 8      -505.083          51.000
> 2020 05 18 22 09  0.0000000  0 16        .000000000000
G01  24159186.016 6 126957354.076 6     -3698.934          36.000    24159191.141 5  98927819.963 5     -2882.283          35.000
G03  21407222.297 6 112495705.751 6     -1883.844          39.000    21407224.727 6  87659005.047 6     -1467.930          38.000
G04  20266022.930 8 106498723.418 8      -280.145          51.000    20266022.430 8  82986034.039 8      -218.294          50.000
G09  21100154.148 8 110882128.846 8      2020.859          51.000    21100155.883 8  86401668.383 8      1574.696          51.000
G17  23019063.250 8 120965997.134 8     -2291.188          50.000    23019063.266 8  94259201.449 8     -1785.341          49.000
G22  23450686.117 5 123234200.659 5     -2599.547          34.000
R17  19732427.656 7 105592244.890 7      -661.988          42.000    19732426.594 5  82127263.165 5      -514.880          34.000
R24  21615559.453 7 115588093.134 7     -4066.293          44.000    21615562.516 6  89901873.381 6     -3162.672          39.000
C19  22375157.336 4 116513303.323 4      1412.898          28.000
C20  22340803.883 8 116334518.273 8     -1101.402          51.000
C29  23921578.078 7 124565924.091 7     -2832.660          46.000
E04  25477381.758 5 133884544.902 5     -2104.484          33.000
E05  25852786.836 8 135857335.232 8      2141.070          48.000    25852791.602 8 104098509.815 8      1640.542          49.000
E09  21460468.914 8 112775607.882 8        82.410          51.000    21460470.570 8  86412479.321 8        63.110          51.000
E11  24914617.750 8 130927202.638 8     -2924.656          50.000    24914617.203 8 100320828.250 8     -2241.024          48.000
E36  23558868.094 8 123802692.669 8      -668.379          51.000    23558871.625 8  94861814.684 8      -512.158          51.000
> 2020 05 18 22 09 30.0000000  0 17        .000000000000
G01  24180325.219 6 127068438.946 6     -3708.938          38.000    24180329.750 6  99014379.631 6     -2890.081          38.000
G03  21418008.859 6 112552390.279 6     -1897.773          40.000    21418011.055 6  87703174.833 6     -1478.784          39.000
G04  20267677.539 8 106507418.849 8      -301.789          51.000    20267677.492 8  82992809.718 8      -235.160          51.000
G09  21088664.633 8 110821751.057 8      2002.016          51.000    21088666.156 8  86354620.763 8      1560.012          51.000
G17  23032184.648 8 121034950.184 8     -2308.277          49.000    23032184.438 8  94312931.076 8     -1798.658          49.000
R01  21203647.227 5 113345617.340 5     -2670.402          33.000
R03  23115252.930 4 123737757.312 4      3030.238          28.000    23115266.086 4  96240533.052 4      2356.852          27.000
R17  19736228.414 6 105612583.478 6      -696.070          41.000    19736227.469 5  82143082.112 5      -541.388          33.000
R24  21638416.055 7 115710313.304 7     -4083.961          43.000    21638417.250 6  89996933.438 6     -3176.417          38.000
C19  22367059.961 5 116471087.307 5      1399.797          32.000
C20  22347177.930 8 116367710.023 8     -1113.746          51.000
C29  23937931.578 7 124651074.701 7     -2846.402          45.000
E04  25489413.695 5 133947772.483 5     -2112.719          31.000
E05  25840587.789 7 135793229.300 7      2130.137          47.000    25840592.398 8 104049389.701 8      1632.123          49.000
E09  21460030.891 8 112773306.351 8        68.594          51.000    21460032.672 8  86410715.814 8        52.556          51.000
E11  24931341.227 8 131015080.703 8     -2936.340          50.000    24931340.367 8 100388163.383 8     -2249.974          49.000
E36  23562733.617 8 123823005.439 8      -688.156          51.000    23562736.977 8  94877378.995 8      -527.327          51.000
> 2020 05 18 22 10  0.0000000  0 14        .000000000000
G01  24201483.906 6 127179627.140 6     -3709.176          38.000    24201488.445 6  99101019.755 6     -2890.270          38.000
G03  21428837.969 6 112609297.472 6     -1901.984          40.000    21428840.234 6  87747518.114 6     -1482.066          40.000
G04  20269418.836 8 106516568.720 8      -313.785          51.000    20269418.875 8  82999939.484 8      -244.508          51.000
G09  21077247.016 8 110761750.612 8      1992.551          51.000    21077248.180 8  86307867.177 8      1552.637          51.000
G17  23045367.352 8 121104226.067 8     -2315.855          49.000    23045367.055 8  94366912.292 8     -1804.566          49.000
R01  21218624.930 5 113425659.221 5     -2671.480          35.000
R17  19740182.383 7 105633741.616 7      -719.898          42.000    19740180.883 5  82159538.476 5      -559.921          34.000
R24  21661332.750 6 115832860.622 6     -4091.453          40.000    21661333.586 6  90092248.017 6     -3182.241          39.000
C20  22353586.133 8 116401078.613 8     -1116.402          51.000
C29  23954326.531 7 124736447.331 7     -2850.652          44.000
E05  25828414.305 7 135729259.905 7      2128.762          46.000    25828418.523 7 104000374.206 7      1631.171          47.000
E09  21459634.523 8 112771224.169 8        64.586          51.000    21459636.414 8  86409120.382 8        49.461          51.000
E11  24948094.203 8 131103116.575 8     -2938.227          48.000    24948093.539 8 100455619.433 8     -2251.347          49.000
E36  23566675.805 8 123843719.647 8      -698.328          51.000    23566678.648 8  94893250.919 8      -535.107          51.000
> 2020 05 18 22 10 30.0000000  0 16        .000000000000
G01  24222651.219 6 127290862.189 6     -3713.016          38.000    24222656.352 6  99187696.414 6     -2893.259          37.000
G03  21439698.875 6 112666372.458 6     -1909.672          37.000    21439700.781 6  87791992.173 6     -1488.050          36.000
G04  20271236.086 8 106526117.561 8      -329.453          51.000    20271235.969 8  83007380.153 8      -256.717          51.000
G09  21065890.984 8 110702073.870 8      1979.301          51.000    21065891.992 8  86261365.830 8      1542.312          51.000
G17  23058600.703 8 121173767.160 8     -2327.035          49.000    23058600.172 8  94421100.140 8     -1813.271          50.000
G19  22567231.414 6 118591591.878 6     -1692.551          37.000
R01  21233613.914 5 113505773.085 5     -2676.215          32.000
R17  19744278.945 7 105655663.131 7      -747.973          42.000    19744278.656 6  82176588.560 6      -581.753          37.000
R24  21684299.211 6 115955675.665 6     -4102.820          41.000    21684302.023 7  90187770.852 7     -3191.082          42.000
C19  22350966.562 4 116387305.170 4      1391.117          28.000
C20  22360017.812 8 116434569.678 8     -1122.852          51.000
C29  23970751.812 7 124821985.667 7     -2858.547          44.000
E05  25816256.555 7 135665372.848 7      2123.660          45.000    25816260.062 7 103951421.803 7      1627.214          47.000
E09  21459269.445 8 112769306.371 8        56.617          51.000    21459271.352 8  86407650.910 8        43.376          51.000
E11  24964865.906 7 131191254.422 7     -2944.324          46.000    24964865.953 8 100523153.647 8     -2256.044          48.000
E36  23570684.211 8 123864780.805 8      -712.379          51.000    23570686.320 8  94909388.695 8      -545.867          51.000
> 2020 05 18 22 11  0.0000000  0 18        .000000000000
G01  24243862.195 6 127402326.565 6     -3716.055          39.000    24243867.836 6  99274551.791 6     -2895.627          39.000
G03  21450626.180 5 112723799.193 5     -1916.977          34.000    21450628.219 5  87836740.372 5     -1493.739          33.000
G04  20273164.094 8 106536248.646 8      -344.367          51.000    20273164.141 8  83015274.517 8      -268.338          51.000
G09  21054631.594 8 110642905.855 8      1966.848          51.000    21054632.617 8  86215260.913 8      1532.609          51.000
G17  23071919.141 8 121243755.244 8     -2337.312          50.000    23071918.023 8  94475636.318 8     -1821.282          50.000
G19  22576939.953 6 118642639.832 6     -1709.430          37.000
G22  23510273.516 5 123547320.859 5     -2618.945          30.000
R01  21248641.461 5 113586194.824 5     -2680.031          34.000    21248652.766 4  88344837.397 4     -2084.469          25.000
R17  19748552.961 6 105678534.919 6      -774.996          41.000    19748553.820 6  82194377.734 6      -602.775          36.000
R24  21707351.805 7 116078941.977 7     -4113.223          44.000    21707355.164 7  90283644.654 7     -3199.173          43.000
C19  22342970.844 4 116345731.612 4      1386.176          28.000
C20  22366508.008 8 116468365.322 8     -1128.547          51.000
C29  23987244.859 7 124907869.944 7     -2865.523          46.000
E04  25525567.797 5 134137763.810 5     -2116.484          33.000
E05  25804149.836 7 135601752.594 7      2119.340          45.000    25804153.125 7 103902673.854 7      1623.880          47.000
E09  21458970.617 8 112767736.609 8        49.637          51.000    21458972.516 8  86406448.111 8        38.066          51.000
E11  24981691.047 7 131279676.817 7     -2948.812          44.000    24981692.445 7 100590905.915 7     -2259.510          47.000
E36  23574793.344 8 123886372.999 8      -725.523          51.000    23574795.375 8  94925933.377 8      -555.959          51.000
> 2020 05 18 22 11 30.0000000  0 15        .000000000000
G01  24265076.938 6 127513809.063 6     -3716.887          41.000    24265082.781 6  99361421.272 6     -2896.275          40.000
G04  20275162.859 8 106546751.712 8      -356.945          51.000    20275162.828 8  83023458.744 8      -278.139          51.000
G09  21043428.953 8 110584038.132 8      1956.629          50.000    21043430.234 8  86169390.000 8      1524.646          50.000
G17  23085282.289 8 121313978.245 8     -2345.156          50.000    23085280.414 8  94530355.533 8     -1827.394          50.000
G19  22586741.156 5 118694135.159 5     -1723.285          34.000
R17  19752965.008 7 105702143.003 7      -799.684          43.000    19752966.719 6  82212739.553 6      -621.976          39.000
R24  21730448.125 7 116202442.639 7     -4121.199          42.000    21730451.875 7  90379700.705 7     -3205.377          44.000
C19  22334968.703 5 116304036.040 5      1381.422          31.000
C20  22373016.781 8 116502257.779 8     -1131.922          51.000
C29  24003765.344 8 124993890.527 8     -2870.289          48.000
E04  25537666.930 5 134201333.345 5     -2116.422          34.000
E05  25792054.289 7 135538190.151 7      2117.234          44.000    25792057.648 8 103853970.201 8      1622.165          48.000
E09  21458698.062 8 112766305.130 8        44.793          51.000    21458699.969 8  86405351.288 8        34.331          51.000
E11  24998530.297 7 131368173.279 7     -2951.762          44.000    24998532.922 7 100658714.944 7     -2261.787          46.000
E36  23578963.438 8 123908286.890 8      -736.422          51.000    23578965.828 8  94942724.554 8      -564.262          51.000
> 2020 05 18 22 12  0.0000000  0 14        .000000000000
G01  24286336.070 6 127625523.393 6     -3725.836          41.000    24286341.625 6  99448471.322 6     -2903.255          39.000
G04  20277273.227 8 106557841.456 8      -377.727          51.000    20277273.102 8  83032100.105 8      -294.332          51.000
G09  21032324.703 8 110525687.127 8      1938.184          50.000    21032326.156 8  86123921.692 8      1510.273          50.000
G17  23098730.625 8 121384649.393 8     -2361.473          49.000    23098728.656 8  94585423.951 8     -1840.109          49.000
G22  23540220.891 5 123704713.364 5     -2629.625          34.000
R17  19757556.039 7 105726706.086 7      -832.828          42.000    19757558.422 6  82231844.143 6      -647.755          39.000
R24  21753627.945 6 116326392.843 6     -4137.418          37.000    21753632.484 7  90476106.398 7     -3217.995          43.000
C20  22379585.195 8 116536460.411 8     -1143.531          51.000
C29  24020352.656 8 125080258.744 8     -2882.996          49.000
E04  25549792.531 5 134265064.083 5     -2124.508          31.000
E05  25780010.914 7 135474901.468 7      2106.680          44.000    25780014.688 8 103805476.297 8      1614.374          49.000
E09  21458492.812 8 112765227.042 8        31.836          51.000    21458494.688 8  86404525.238 8        24.355          51.000
E11  25015425.000 7 131456957.889 7     -2962.426          44.000    25015427.891 7 100726744.739 7     -2269.869          44.000
E36  23583235.672 8 123930737.990 8      -755.527          51.000    23583238.438 8  94959927.354 8      -578.932          51.000
> 2020 05 18 22 12 30.0000000  0 13        .000000000000
G01  24307608.820 6 127737309.190 6     -3727.387          39.000    24307614.516 6  99535576.978 6     -2904.457          39.000
G04  20279464.820 8 106569358.233 8      -391.406          51.000    20279464.844 8  83041074.233 8      -304.992          51.000
G09  21021289.016 8 110467695.049 8      1926.660          51.000    21021290.516 8  86078733.062 8      1501.294          50.000
G17  23112233.344 8 121455607.391 8     -2370.461          48.000    23112231.938 8  94640715.882 8     -1847.112          48.000
R01  21293891.352 5 113828051.776 5     -2694.594          30.000
R17  19762294.852 6 105752061.926 6      -858.758          41.000    19762296.727 6  82251565.374 6      -667.920          38.000
R24  21776861.984 5 116450627.463 5     -4146.734          33.000    21776865.781 6  90572733.293 6     -3225.238          41.000
C20  22386183.008 8 116570815.627 8     -1148.145          51.000
C29  24036975.383 8 125166815.075 8     -2888.660          48.000
E05  25767989.516 7 135411728.190 7      2103.699          45.000    25767993.656 8 103757070.825 8      1611.836          49.000
E09  21458324.555 8 112764343.249 8        25.910          51.000    21458326.523 8  86403848.040 8        19.895          51.000
E11  25032344.531 7 131545870.646 7     -2966.219          45.000    25032346.422 6 100794872.676 6     -2272.778          41.000
E36  23587580.047 8 123953567.606 8      -767.559          51.000    23587582.930 8  94977420.189 8      -588.159          51.000
> 2020 05 18 22 13  0.0000000  0 12        .000000000000
G01  24328911.445 6 127849252.113 6     -3732.031          39.000    24328918.352 6  99622805.197 6     -2908.079          40.000
G04  20281754.188 8 106581388.533 8      -407.488          51.000    20281754.422 8  83050448.493 8      -317.523          51.000
G09  21010338.680 8 110410150.135 8      1912.793          51.000    21010340.055 8  86033892.865 8      1490.488          51.000
G17  23125806.781 8 121526936.476 8     -2381.660          48.000    23125805.820 8  94696297.006 8     -1855.839          48.000
R01  21309038.742 5 113909042.609 5     -2699.855          31.000
R17  19767197.586 7 105778298.585 7      -886.949          43.000    19767200.234 6  82271971.650 6      -689.846          39.000
C20  22392826.578 8 116605409.775 8     -1155.027          51.000
C29  24053649.781 7 125253643.865 7     -2896.766          47.000
E05  25756006.875 7 135348758.080 7      2097.707          46.000    25756011.023 8 103708821.013 8      1607.400          50.000
E09  21458209.820 8 112763740.673 8        17.551          51.000    21458211.977 8  86403386.326 8        13.424          51.000
E11  25049305.109 7 131634997.544 7     -2972.445          46.000    25049303.656 6 100863164.646 6     -2277.489          39.000
E36  23592013.039 8 123976863.083 8      -782.207          51.000    23592015.758 8  94995269.968 8      -599.335          51.000
> 2020 05 18 22 13 30.0000000  0 12        .000000000000
G01  24350222.773 6 127961239.484 6     -3729.402          39.000    24350228.641 6  99710068.076 6     -2906.028          39.000
G03  21505946.961 5 113014483.102 5     -1952.004          31.000
G04  20284119.945 8 106593820.726 8      -416.750          51.000    20284120.367 8  83060135.926 8      -324.740          51.000
G09  20999452.852 8 110352942.577 8      1905.730          51.000    20999454.117 8  85989315.545 8      1484.985          51.000
G17  23139429.500 8 121598523.717 8     -2386.125          50.000    23139428.664 8  94752079.280 8     -1859.315          50.000
R17  19772243.555 7 105805302.623 7      -908.426          44.000    19772247.188 6  82292974.781 6      -706.553          40.000
C20  22399494.789 8 116640132.846 8     -1155.262          51.000
C29  24070354.461 7 125340633.218 7     -2897.906          44.000
E05  25744041.891 7 135285880.772 7      2098.715          46.000    25744045.680 8 103660642.326 8      1608.088          50.000
E09  21458127.531 8 112763308.200 8        15.914          51.000    21458129.867 8  86403054.960 8        12.239          51.000
E11  25066285.227 7 131724226.517 7     -2971.383          45.000    25066280.211 6 100931534.870 6     -2277.121          39.000
E36  23596513.195 8 124000513.681 8      -789.945          51.000    23596515.797 8  95013391.833 8      -605.277          51.000
> 2020 05 18 22 14  0.0000000  0 15        .000000000000
G01  24371561.242 6 128073368.729 6     -3741.277          38.000    24371565.289 6  99797441.479 6     -2915.281          37.000
G04  20286580.891 8 106606753.058 8      -440.836          51.000    20286581.164 8  83070213.061 8      -343.509          51.000
G09  20988650.281 8 110296172.306 8      1883.852          51.000    20988651.414 8  85945078.990 8      1467.936          51.000
G17  23153120.062 8 121670466.005 8     -2405.344          51.000    23153118.680 8  94808138.203 8     -1874.294          51.000
G19  22637291.203 5 118959757.046 5     -1816.633          32.000
G22  23600454.414 5 124021222.683 5     -2648.688          32.000
R17  19777451.648 7 105833173.873 7      -944.812          43.000    19777456.070 6  82314652.399 6      -734.857          41.000
R24  21846941.250 5 116825412.993 5     -4180.379          31.000
C19  22295750.648 5 116099829.453 5      1343.703          30.000
C20  22406206.492 8 116675082.786 8     -1170.180          51.000
C29  24087107.891 6 125427879.120 6     -2913.590          39.000
E05  25732113.453 7 135223195.833 7      2084.902          46.000    25732116.922 8 103612611.038 8      1597.538          50.000
E09  21458096.477 8 112763144.567 8         -.434          51.000    21458098.977 8  86402929.587 8         -.305          51.000
E11  25083303.445 7 131813655.386 7     -2985.766          46.000    25083297.492 6 101000058.244 6     -2287.908          40.000
E36  23601099.719 8 124024618.452 8      -812.438          51.000    23601102.227 8  95031861.701 8      -622.559          51.000
> 2020 05 18 22 14 30.0000000  0 15        .000000000000
G01  24392911.664 6 128185562.882 6     -3741.117          39.000    24392914.219 6  99884865.455 6     -2915.156          38.000
G04  20289122.391 8 106620109.269 8      -452.359          51.000    20289122.875 8  83080620.503 8      -352.485          51.000
G09  20977916.508 8 110239764.986 8      1874.168          51.000    20977917.617 8  85901125.245 8      1460.391          51.000
G17  23166863.203 8 121742684.690 8     -2412.078          50.000    23166861.055 8  94864412.483 8     -1879.544          50.000
G19  22647693.977 6 119014409.815 6     -1830.309          36.000
R02  19679287.414 5 105012482.218 5       738.707          33.000    19679286.164 4  81676353.654 4       574.556          28.000
R17  19782807.266 7 105861834.806 7      -968.504          45.000    19782812.156 6  82336944.197 6      -753.281          41.000
R24  21870400.359 5 116950887.812 5     -4187.023          31.000    21870387.781 5  90961827.718 5     -3256.574          34.000
C20  22412947.344 8 116710184.799 8     -1172.715          51.000
C29  24103897.469 4 125515304.855 4     -2917.266          29.000
E04  25610588.305 5 134584465.647 5     -2135.164          35.000    25610571.984 5 103123182.753 5     -1635.616          33.000
E05  25720206.820 7 135160628.326 7      2083.613          44.000    25720210.648 8 103564669.721 8      1596.517          50.000
E09  21458102.141 8 112763174.076 8        -4.223          51.000    21458104.688 8  86402952.205 8        -3.262          51.000
E11  25100345.062 7 131903207.510 7     -2987.055          44.000    25100340.008 6 101068676.068 6     -2288.683          41.000
E36  23605758.445 8 124049102.088 8      -822.445          51.000    23605761.180 8  95050621.884 8      -630.227          51.000
> 2020 05 18 22 15  0.0000000  0 16        .000000000000
G01  24414303.648 6 128297977.721 6     -3749.047          38.000    24414305.242 6  99972461.493 6     -2921.335          37.000
G03  21539677.180 5 113191787.059 5     -1984.430          33.000    21539675.484 5  88201371.006 5     -1546.303          30.000
G04  20291774.359 8 106634046.083 8      -472.453          51.000    20291775.102 8  83091480.357 8      -368.148          51.000
G09  20967281.695 8 110183879.064 8      1855.828          51.000    20967282.773 8  85857577.767 8      1446.100          51.000
G17  23180688.258 8 121815334.870 8     -2427.090          48.000    23180685.719 8  94921023.005 8     -1891.236          48.000
G19  22658212.820 6 119069691.711 6     -1851.371          40.000
R02  19675194.992 5 104990603.900 5       722.207          33.000
R17  19788340.914 7 105891444.993 7     -1000.949          45.000    19788344.797 6  82359974.334 6      -778.516          40.000
R24  21893941.578 5 117076787.871 5     -4202.141          33.000    21893935.078 6  91059749.963 6     -3268.329          37.000
C20  22419747.289 8 116745594.832 8     -1183.711          51.000
C29  24120760.727 5 125603083.398 5     -2929.332          34.000
E04  25622806.461 6 134648685.100 6     -2141.953          36.000    25622775.586 5 103172389.820 5     -1641.303          32.000
E05  25708352.352 7 135098336.241 7      2073.609          44.000    25708356.898 8 103516939.443 8      1588.819          49.000
E09  21458174.539 8 112763553.950 8       -16.852          51.000    21458176.844 8  86403243.289 8       -12.921          51.000
E11  25117439.766 7 131993039.234 7     -2997.438          43.000    25117436.000 6 101137508.186 6     -2296.798          41.000
E36  23610518.930 8 124074122.182 8      -841.176          51.000    23610522.625 8  95069793.105 8      -644.585          51.000
> 2020 05 18 22 15 30.0000000  0 15        .000000000000
G01  24435708.805 6 128410467.336 6     -3751.391          36.000    24435711.281 6 100060115.774 6     -2923.162          37.000
G03  21551021.078 5 113251391.499 5     -1991.199          33.000    21551020.938 5  88247831.461 5     -1551.587          33.000
G04  20294509.305 8 106648418.428 8      -487.195          51.000    20294509.859 8  83102679.581 8      -379.633          51.000
G09  20956718.766 8 110128371.241 8      1843.168          51.000    20956719.727 8  85814324.918 8      1436.235          51.000
G17  23194567.234 7 121888270.044 7     -2436.715          46.000    23194564.758 7  94977855.616 7     -1898.739          46.000
G19  22668823.477 7 119125456.420 7     -1867.707          42.000    22668824.250 5  92825052.607 5     -1455.359          32.000
R03  22913347.492 4 122656941.964 4      2967.590          29.000
R17  19794023.867 7 105921856.548 7     -1027.980          43.000    19794027.039 6  82383627.754 6      -799.543          40.000
R24  21917533.766 5 117202962.971 5     -4211.383          34.000    21917530.688 6  91157886.150 6     -3275.514          36.000
C20  22426578.945 8 116781169.771 8     -1189.359          51.000
C29  24137653.266 6 125691031.406 6     -2935.527          39.000
E05  25696523.062 7 135036175.869 7      2069.031          44.000    25696527.633 8 103469310.058 8      1585.353          48.000
E09  21458286.195 8 112764139.642 8       -23.770          51.000    21458288.148 8  86403692.067 8       -18.234          51.000
E11  25134559.898 6 132083005.008 6     -3001.914          41.000    25134556.914 6 101206443.010 6     -2300.282          41.000
E36  23615354.320 8 124099534.497 8      -854.453          51.000    23615358.773 8  95089264.867 8      -654.696          51.000
> 2020 05 18 22 16  0.0000000  0 15        .000000000000
G01  24457129.211 6 128523038.725 6     -3754.398          36.000    24457132.461 6 100147833.724 6     -2925.505          36.000
G03  21562408.539 6 113311235.696 6     -1999.262          38.000    21562409.188 6  88294463.263 6     -1557.866          38.000
G04  20297328.586 8 106663233.966 8      -502.008          51.000    20297329.125 8  83114224.165 8      -391.175          51.000
G09  20946229.250 8 110073250.976 8      1830.117          50.000    20946230.320 8  85771374.118 8      1426.068          50.000
G17  23208501.508 7 121961496.487 7     -2446.523          46.000    23208499.203 7  95034915.184 7     -1906.382          46.000
G19  22679527.055 6 119181710.061 6     -1883.953          41.000    22679529.039 5  92868886.606 5     -1468.009          30.000
R17  19799857.914 7 105953077.292 7     -1054.961          44.000    19799860.969 6  82407910.518 6      -820.525          39.000
R24  21941178.672 5 117329417.650 5     -4220.566          35.000    21941178.078 6  91256239.836 6     -3282.663          36.000
C19  22265071.109 5 115940070.520 5      1317.109          30.000
C20  22433443.961 8 116816917.950 8     -1195.289          51.000
C29  24154579.594 6 125779174.327 6     -2942.039          40.000
E05  25684720.820 7 134974156.168 7      2064.141          44.000    25684724.562 7 103421788.515 7      1581.608          47.000
E09  21458438.586 8 112764939.380 8       -30.902          51.000    21458440.312 8  86404304.867 8       -23.732          51.000
E11  25151706.648 6 132173112.064 6     -3006.488          39.000    25151703.984 6 101275486.107 6     -2303.885          40.000
E36  23620266.453 8 124125347.564 8      -867.938          51.000    23620271.125 8  95109043.721 8      -665.025          51.000
> 2020 05 18 22 16 30.0000000  0 16        .000000000000
G01  24478570.891 5 128635718.766 5     -3756.973          35.000    24478574.297 5 100235636.295 5     -2927.511          35.000
G03  21573843.992 5 113371328.117 5     -2007.094          34.000    21573846.203 5  88341288.515 5     -1563.972          34.000
G04  20300237.469 8 106678520.474 8      -516.703          51.000    20300238.039 8  83126135.723 8      -402.626          51.000
G09  20935819.195 8 110018547.802 8      1817.102          51.000    20935820.562 8  85728748.310 8      1415.923          51.000
G17  23222496.234 7 122035040.051 7     -2456.016          47.000    23222494.352 7  95092221.832 7     -1913.778          46.000
G19  22690328.664 6 119238479.083 6     -1900.277          40.000    22690332.703 4  92913122.140 4     -1480.736          28.000
R02  19663283.430 4 104927046.995 4       688.203          28.000
R17  19805847.969 7 105985135.342 7     -1081.887          43.000    19805850.242 6  82432844.537 6      -841.470          39.000
R24  21964881.109 6 117456177.544 6     -4229.480          37.000    21964883.414 6  91354830.761 6     -3289.599          37.000
C19  22257498.391 4 115900640.427 4      1312.297          28.000
C20  22440347.805 8 116852867.609 8     -1201.016          51.000
C29  24171546.453 6 125867538.448 6     -2948.445          40.000
E05  25672950.875 6 134912306.269 6      2059.508          41.000    25672953.695 7 103374397.073 7      1578.029          46.000
E09  21458637.094 8 112765981.530 8       -38.129          51.000    21458638.602 8  86405103.401 8       -29.219          51.000
E11  25168884.758 6 132263387.919 6     -3011.355          36.000    25168882.758 6 101344658.516 6     -2307.456          40.000
E36  23625260.234 8 124151590.039 8      -881.320          51.000    23625265.195 8  95129151.573 8      -675.246          51.000
> 2020 05 18 22 17  0.0000000  0 18        .000000000000
G01  24500029.773 6 128748485.386 6     -3760.168          36.000    24500033.094 6 100323506.349 6     -2930.001          37.000
G03  21585322.484 6 113431648.283 6     -2014.645          38.000    21585325.445 6  88388291.117 6     -1569.853          39.000
G04  20303231.961 8 106694256.591 8      -532.113          51.000    20303232.391 8  83138397.630 8      -414.634          51.000
G09  20925485.227 8 109964242.250 8      1803.355          51.000    20925486.742 8  85686432.305 8      1405.212          51.000
G17  23236546.828 7 122108877.420 7     -2466.254          46.000    23236545.867 7  95149757.422 7     -1921.756          46.000
G19  22701224.211 6 119295740.407 6     -1916.957          36.000    22701229.812 4  92957741.336 4     -1493.733          25.000
R01  21431113.023 5 114561580.116 5     -2737.480          30.000
R03  22863573.938 4 122390494.402 4      2952.516          28.000    22863584.984 4  95192637.756 4      2296.401          26.000
R17  19811991.250 7 106018008.808 7     -1109.301          43.000    19811993.328 6  82458412.744 6      -862.793          40.000
R24  21988637.031 6 117583217.774 6     -4238.895          36.000    21988642.203 6  91453639.736 6     -3296.924          37.000
C19  22249957.195 4 115861365.304 4      1304.328          29.000
C20  22447286.453 8 116888998.341 8     -1207.434          51.000
C29  24188550.070 6 125956101.350 6     -2955.477          39.000
E04  25671804.820 6 134906207.513 6     -2150.441          38.000
E05  25661209.578 6 134850606.135 6      2053.957          40.000    25661212.492 7 103327120.353 7      1573.961          46.000
E09  21458877.648 8 112767245.258 8       -45.895          51.000    21458879.039 8  86406071.712 8       -35.142          51.000
E11  25186090.344 6 132353810.729 6     -3016.430          37.000    25186089.789 6 101413943.531 6     -2311.395          41.000
E36  23630331.906 8 124178241.426 8      -895.254          51.000    23630336.984 8  95149572.740 8      -685.953          51.000
> 2020 05 18 22 17 30.0000000  0 17        .000000000000
G01  24521507.031 6 128861346.887 6     -3763.770          38.000    24521510.242 6 100411450.398 6     -2932.807          39.000
G03  21596846.461 6 113492206.039 6     -2022.805          41.000    21596849.391 6  88435478.941 6     -1576.208          41.000
G04  20306313.602 8 106710451.484 8      -547.883          51.000    20306314.133 8  83151017.037 8      -426.922          51.000
G09  20915229.172 8 109910345.192 8      1789.238          51.000    20915230.398 8  85644434.614 8      1394.215          51.000
G17  23250654.602 7 122183016.097 7     -2476.656          44.000    23250655.000 7  95207527.842 7     -1929.862          44.000
G19  22712214.523 5 119353501.989 5     -1934.992          32.000
R03  22847041.523 5 122301991.044 5      2946.984          31.000    22847055.359 4  95123834.805 4      2292.096          26.000
R17  19818288.352 7 106051706.830 7     -1137.371          43.000    19818290.695 6  82484622.312 6      -884.622          41.000
R24  22012446.922 6 117710544.785 6     -4248.988          36.000    22012454.227 6  91552671.867 6     -3304.766          36.000
C19  22242462.484 5 115822328.759 5      1297.980          31.000
C20  22454261.648 8 116925319.993 8     -1214.406          50.000
C29  24205593.508 6 126044870.832 6     -2962.910          38.000
E04  25684091.320 5 134970765.844 5     -2153.848          35.000
E05  25649498.828 7 134789066.275 7      2048.121          42.000    25649503.258 8 103279966.468 8      1569.399          48.000
E09  21459162.125 8 112768740.351 8       -54.191          51.000    21459163.609 8  86407217.299 8       -41.508          51.000
E11  25203326.836 6 132444389.322 6     -3022.734          38.000    25203326.734 7 101483347.943 7     -2315.933          42.000
E36  23635483.773 8 124205311.756 8      -909.770          51.000    23635488.203 8  95170314.937 8      -697.114          51.000
> 2020 05 18 22 18  0.0000000  0 17        .000000000000
G01  24543004.766 6 128974315.411 6     -3767.512          39.000    24543007.875 6 100499477.849 6     -2935.723          39.000
G03  21608418.516 6 113553015.139 6     -2031.430          39.000    21608421.508 6  88482862.635 6     -1582.932          39.000
G04  20309485.055 8 106727118.041 8      -563.719          51.000    20309485.633 8  83164003.966 8      -439.264          51.000
G09  20905053.688 8 109856871.326 8      1775.148          51.000    20905054.281 8  85602766.679 8      1383.233          51.000
G17  23264822.133 7 122257467.782 7     -2486.992          45.000    23264823.609 7  95265542.200 7     -1937.916          45.000
G19  22723303.047 5 119411775.329 5     -1951.430          33.000    22723319.109 5  93048189.365 5     -1520.595          32.000
R02  19651987.219 5 104866768.465 5       652.465          33.000
R03  22830538.602 5 122213645.432 5      2940.586          31.000    22830557.867 4  95055099.571 4      2287.113          27.000
R12  23540505.391 7 125749157.431 7      4005.852          42.000    23540508.141 6  97804907.535 6      3115.662          40.000
R17  19824742.297 7 106086242.173 7     -1165.395          44.000    19824744.414 7  82511483.167 7      -906.418          42.000
R24  22036312.547 5 117838168.722 5     -4259.430          33.000    22036321.617 5  91651934.954 5     -3312.890          35.000
C20  22461276.062 8 116961846.028 8     -1221.152          49.000
C29  24222680.906 6 126133858.383 6     -2970.055          38.000
E05  25637821.750 7 134727701.012 7      2042.312          45.000    25637827.586 8 103232946.307 8      1564.967          49.000
E09  21459493.141 8 112770480.230 8       -62.273          51.000    21459494.797 8  86408550.451 8       -47.713          51.000
E11  25220596.820 6 132535136.200 6     -3027.844          40.000    25220596.203 7 101552881.306 7     -2320.015          42.000
E36  23640717.750 8 124232814.731 8      -924.168          51.000    23640721.492 8  95191388.649 8      -708.147          51.000
> 2020 05 18 22 18 30.0000000  0 16        .000000000000
G01  24564521.562 6 129087385.059 6     -3770.176          38.000    24564524.922 6 100587584.056 6     -2937.799          38.000
G03  21620037.133 6 113614071.259 6     -2038.535          40.000    21620039.516 6  88530438.778 6     -1588.472          40.000
G04  20312745.375 8 106744251.066 8      -578.285          50.000    20312745.844 8  83177354.378 8      -450.612          51.000
G09  20894958.070 8 109803817.245 8      1762.102          51.000    20894958.250 8  85561425.827 8      1373.066          51.000
G17  23279048.078 8 122332225.303 8     -2496.297          48.000    23279050.000 8  95323794.814 8     -1945.163          48.000
G19  22734488.648 6 119470553.522 6     -1966.809          38.000
R03  22814071.656 5 122125493.719 5      2936.035          34.000    22814089.555 4  94986536.990 4      2283.577          26.000
R12  23518013.789 6 125629019.288 6      4003.723          38.000    23518017.023 6  97711466.768 6      3114.007          38.000
R17  19831351.648 7 106121609.440 7     -1192.219          43.000    19831354.258 7  82538991.021 7      -927.284          43.000
R24  22060233.258 5 117966081.631 5     -4268.016          35.000    22060242.000 4  91751422.764 4     -3319.568          29.000
C20  22468328.844 8 116998572.133 8     -1226.953          49.000
C29  24239810.719 6 126223057.700 6     -2976.184          37.000
E05  25626177.508 7 134666506.473 7      2037.469          46.000    25626183.898 8 103186057.003 8      1561.258          49.000
E09  21459869.859 8 112772460.344 8       -69.391          51.000    21459871.578 8  86410067.684 8       -53.154          51.000
E11  25237898.258 6 132626045.945 6     -3032.430          40.000    25237896.875 7 101622539.424 7     -2323.607          42.000
E36  23646033.055 8 124260746.114 8      -937.590          51.000    23646036.461 8  95212790.604 8      -718.386          51.000
> 2020 05 18 22 19  0.0000000  0 18        .000000000000
G01  24586054.695 6 129200540.673 6     -3772.750          37.000    24586058.383 6 100675757.259 6     -2939.802          37.000
G03  21631700.477 6 113675360.678 6     -2045.820          41.000    21631704.297 7  88578196.748 7     -1594.146          42.000
G04  20316091.727 8 106761836.149 8      -592.789          51.000    20316092.148 8  83191057.043 8      -461.914          51.000
G09  20884939.984 8 109751170.309 8      1748.898          51.000    20884940.133 8  85520402.240 8      1362.778          51.000
G17  23293329.227 8 122407272.719 8     -2505.641          48.000    23293330.789 8  95382273.333 8     -1952.447          49.000
G19  22745767.844 6 119529820.764 6     -1982.996          39.000    22745782.234 5  93140163.945 5     -1545.195          30.000
R02  19644779.898 4 104828309.073 4       630.016          29.000    19644771.336 4  81533093.814 4       490.012          26.000
R03  22797630.789 5 122037503.057 5      2931.980          30.000
R12  23495535.367 6 125508970.565 6      4000.426          37.000    23495542.727 6  97618095.427 6      3111.436          38.000
R17  19838113.828 7 106157793.607 7     -1218.621          42.000    19838116.031 7  82567134.274 7      -947.816          42.000
R24  22084205.914 6 118094265.855 6     -4276.652          38.000
C20  22475417.398 8 117035484.801 8     -1232.676          48.000
C29  24256978.891 5 126312453.286 5     -2982.254          34.000
E04  25721016.547 6 135164864.400 6     -2160.160          36.000    25721017.641 5 103567875.760 5     -1655.310          34.000
E05  25614563.008 7 134605469.616 7      2032.832          45.000    25614568.984 8 103139288.494 8      1557.562          48.000
E09  21460289.812 8 112774666.856 8       -76.461          51.000    21460291.406 8  86411758.403 8       -58.599          51.000
E11  25255227.375 6 132717103.765 6     -3036.898          40.000    25255225.719 6 101692310.979 6     -2327.082          41.000
E36  23651427.602 8 124289092.278 8      -950.984          51.000    23651430.719 8  95234510.385 8      -728.655          51.000
> 2020 05 18 22 19 30.0000000  0 17        .000000000000
G01  24607606.148 6 129313793.836 6     -3772.902          37.000    24607610.367 6 100764006.457 6     -2939.924          37.000
G03  21643410.602 7 113736896.712 7     -2051.770          42.000    21643415.047 7  88626146.890 7     -1598.775          42.000
G04  20319526.523 8 106779885.739 8      -605.922          51.000    20319526.906 8  83205121.668 8      -472.147          51.000
G09  20875002.078 8 109698944.689 8      1737.172          51.000    20875002.438 8  85479706.973 8      1353.640          51.000
G17  23307667.484 7 122482620.829 7     -2513.121          47.000    23307667.586 7  95440986.122 7     -1958.276          47.000
G19  22757141.773 6 119589587.978 6     -1996.387          40.000    22757155.414 5  93186735.819 5     -1555.620          31.000
R12  23473081.391 6 125389029.204 6      3999.621          38.000    23473090.008 6  97524807.665 6      3110.816          39.000
R17  19845029.922 7 106194807.017 7     -1244.180          42.000    19845031.984 6  82595922.502 6      -967.695          41.000
R24  22108231.836 6 118222731.149 6     -4283.211          41.000
C19  22212865.867 4 115668231.300 4      1274.699          29.000
C20  22482544.109 8 117072597.162 8     -1237.020          48.000
C29  24274185.250 5 126402056.196 5     -2986.684          32.000
E04  25733370.547 6 135229786.091 6     -2160.633          38.000    25733380.828 5 103617644.520 5     -1655.577          35.000
E05  25602980.992 7 134544604.268 7      2029.570          44.000    25602985.758 8 103092651.404 8      1555.119          48.000
E09  21460755.383 8 112777112.819 8       -81.961          51.000    21460756.883 8  86413632.586 8       -62.789          51.000
E11  25272585.953 6 132808321.597 6     -3039.762          36.000    25272585.039 6 101762205.158 6     -2328.965          41.000
E36  23656903.570 8 124317866.502 8      -962.750          51.000    23656906.453 8  95256558.163 8      -737.668          51.000
> 2020 05 18 22 20  0.0000000  0 18        .000000000000
G01  24629173.555 6 129427133.099 6     -3780.426          36.000    24629178.875 6 100852322.778 6     -2945.786          36.000
G03  21655165.688 7 113798669.426 7     -2063.934          42.000    21655171.406 7  88674281.592 7     -1608.257          42.000
G04  20323047.609 8 106798389.083 8      -625.496          51.000    20323047.945 8  83219539.850 8      -487.400          51.000
G09  20865142.336 8 109647131.430 8      1719.027          51.000    20865143.141 8  85439333.023 8      1339.502          51.000
G17  23322060.617 7 122558257.296 7     -2527.066          47.000    23322058.141 7  95499923.603 7     -1969.143          47.000
G19  22768608.258 6 119649843.226 6     -2017.680          41.000
R03  22764859.500 5 121862074.066 5      2918.441          32.000    22764856.242 4  94781593.642 4      2269.899          26.000
R12  23450648.062 6 125269190.140 6      3991.797          41.000    23450656.484 6  97431599.519 6      3104.731          40.000
R17  19852098.383 7 106232638.325 7     -1275.676          42.000    19852100.922 6  82625346.840 6      -992.195          41.000
R24  22132307.492 6 118351463.536 6     -4296.828          40.000    22132306.781 4  92051056.919 4     -3341.980          28.000
C19  22205572.219 5 115630209.008 5      1263.434          33.000
C20  22489707.305 8 117109899.340 8     -1247.672          48.000
C29  24291429.250 5 126491854.470 5     -2997.703          32.000
E04                                                                  25745746.453 5 103667423.004 5     -1660.893          35.000
E05  25591430.070 7 134483900.988 7      2019.535          44.000    25591433.281 8 103046138.542 8      1547.451          48.000
E09  21461264.500 8 112779788.142 8       -94.125          51.000    21461266.070 8  86415682.517 8       -72.119          51.000
E11                                                                  25289972.336 6 101832213.521 6     -2336.606          38.000
E36  23662458.680 8 124347058.904 8      -981.125          51.000    23662461.664 8  95278926.367 8      -751.804          51.000
> 2020 05 18 22 20 30.0000000  0 18        .000000000000
G01  24650757.195 5 129540559.804 5     -3781.887          34.000
G03  21666966.430 6 113860681.718 6     -2070.578          41.000    21666974.969 6  88722602.861 6     -1613.437          41.000
G04  20326655.312 8 106817348.117 8      -639.004          50.000    20326655.664 8  83234313.131 8      -497.925          50.000
G09  20855361.602 8 109595734.332 8      1706.695          51.000    20855362.734 8  85399283.353 8      1329.892          51.000
G17  23336508.664 7 122634182.349 7     -2535.160          47.000    23336504.609 7  95559085.984 7     -1975.449          47.000
G19  22780167.211 6 119710586.663 6     -2032.824          38.000
R03  22748521.891 5 121774594.113 5      2913.664          34.000    22748513.891 4  94713553.314 4      2266.186          26.000
R12  23428235.867 6 125149461.162 6      3989.570          39.000    23428243.875 6  97338477.003 6      3102.999          41.000
R17  19859321.203 7 106271289.291 7     -1301.371          45.000    19859324.078 7  82655408.687 7     -1012.174          42.000
R24  22156432.828 6 118480462.429 6     -4303.805          40.000    22156432.945 5  92151389.375 5     -3347.404          31.000
C19  22198311.273 5 115592389.511 5      1258.145          32.000
C20  22496907.773 8 117147394.162 8     -1252.664          48.000
C29  24308712.188 6 126581849.031 6     -3002.270          37.000
E04                                                                  25758120.906 5 103717253.182 5     -1661.650          33.000
E05  25579911.125 7 134423363.256 7      2015.504          45.000    25579912.812 8 102999752.531 8      1544.356          48.000
E09  21461817.734 8 112782695.424 8      -100.324          51.000    21461819.383 8  86417910.175 8       -76.857          51.000
E11                                                                  25307387.562 5 101902337.266 5     -2338.530          33.000
E36  23668093.797 8 124376672.302 8      -993.602          51.000    23668096.750 8  95301617.172 8      -761.331          51.000
> 2020 05 18 22 21  0.0000000  0 17        .000000000000
G01  24672358.477 5 129654081.438 5     -3786.539          34.000
G03  21678814.453 6 113922942.694 6     -2080.633          40.000    21678819.000 6  88771118.015 6     -1621.275          41.000
G04  20330351.336 8 106836771.141 8      -655.875          51.000    20330351.750 8  83249447.967 8      -511.071          51.000
G09  20845661.867 8 109544763.382 8      1691.070          51.000    20845663.273 8  85359565.764 8      1317.717          51.000
G17  23351012.820 8 122710402.361 8     -2546.301          48.000    23351008.891 8  95618478.141 8     -1984.137          48.000
G19  22791819.883 5 119771824.823 5     -2049.516          35.000    22791820.273 5  93328700.006 5     -1597.028          32.000
R12  23405846.648 6 125029856.302 6      3984.062          39.000    23405854.250 6  97245450.986 6      3098.715          41.000
R17  19866698.539 7 106310767.760 7     -1330.469          43.000    19866702.164 7  82686114.130 7     -1034.812          43.000
R24  22180608.750 6 118609733.076 6     -4314.523          38.000    22180609.156 5  92251933.239 5     -3355.740          32.000
C19  22191089.070 5 115554782.293 5      1249.039          30.000
C20  22504147.336 8 117185090.661 8     -1260.703          48.000
C29  24326034.953 6 126672046.861 6     -3010.598          38.000
E04                                                                  25770511.000 5 103767168.757 5     -1665.077          30.000
E05  25568425.250 7 134363000.673 7      2008.309          45.000    25568425.445 7 102953500.699 7      1538.897          47.000
E09  21462416.766 8 112785843.562 8      -109.730          51.000    21462418.492 8  86420322.391 8       -84.070          51.000
E11  25324835.766 5 133082899.738 5     -3059.266          35.000    25324828.977 5 101972593.460 5     -2344.193          30.000
E36  23673810.648 8 124406715.817 8     -1009.316          51.000    23673813.484 8  95324637.545 8      -773.441          51.000
> 2020 05 18 22 21 30.0000000  0 16        .000000000000
G01  24693978.500 5 129767698.789 5     -3787.559          32.000    24693987.312 5 101117749.087 5     -2951.344          31.000
G03  21690710.422 6 113985454.609 6     -2086.207          39.000    21690713.242 6  88819828.602 6     -1625.613          39.000
G04  20334135.922 8 106856659.623 8      -668.938          50.000    20334136.312 8  83264945.476 8      -521.250          50.000
G09  20836043.930 8 109494221.875 8      1679.352          51.000    20836045.562 8  85320182.805 8      1308.589          51.000
G17  23365573.188 8 122786917.299 8     -2553.605          48.000    23365570.312 8  95678100.079 8     -1989.825          48.000
G19  22803566.711 5 119833558.342 5     -2064.621          33.000    22803565.688 5  93376789.185 5     -1608.790          30.000
R03  22715924.695 5 121600144.231 5      2902.293          31.000    22715937.633 4  94577918.579 4      2257.339          29.000
R12  23383482.117 7 124910383.090 7      3982.055          43.000    23383488.242 6  97152527.371 6      3097.154          38.000
R17  19874230.734 7 106351074.827 7     -1355.570          45.000    19874234.727 7  82717464.087 7     -1054.332          43.000
R24  22204834.477 6 118739274.348 6     -4320.379          36.000    22204835.797 5  92352687.607 5     -3360.292          31.000
C20  22511426.039 8 117222991.118 8     -1264.945          49.000
C29  24343396.617 6 126762448.151 6     -3014.844          38.000
E05  25556972.438 7 134302816.158 7      2004.977          42.000    25556971.531 7 102907385.317 7      1536.242          45.000
E09  21463062.039 8 112789234.669 8      -115.328          51.000    21463063.773 8  86422920.767 8       -88.368          51.000
E11  25342310.328 6 133174735.691 6     -3061.844          38.000    25342300.117 5 102042944.142 5     -2345.986          32.000
E36  23679609.484 8 124437191.766 8     -1021.344          51.000    23679612.477 8  95347989.233 8      -782.600          51.000
> 2020 05 18 22 22  0.0000000  0 16        .000000000000
G03  21702647.086 5 114048177.532 5     -2095.004          35.000    21702648.055 5  88868703.545 5     -1632.474          34.000
G04  20338001.266 8 106876972.624 8      -684.414          50.000    20338001.797 8  83280773.804 8      -533.307          50.000
G09  20826500.359 8 109444070.696 8      1664.980          51.000    20826502.352 8  85281103.986 8      1297.387          51.000
G17  23380181.703 8 122863684.963 8     -2563.234          48.000    23380179.852 8  95737919.006 8     -1997.325          48.000
G19  22815400.242 5 119895744.320 5     -2080.645          34.000    22815399.844 4  93425244.657 4     -1621.294          29.000
R02  19624751.125 4 104721463.936 4       559.195          29.000    19624750.055 5  81450003.011 5       434.930          30.000
R03  22699686.023 5 121513200.087 5      2896.855          34.000    22699693.477 4  94510282.789 4      2253.107          29.000
R12  23361135.633 7 124791005.436 7      3977.578          46.000    23361139.438 5  97059678.076 5      3093.675          35.000
R17  19881909.906 7 106392168.434 7     -1383.031          45.000    19881913.891 7  82749425.776 7     -1075.694          44.000
R24  22229101.422 5 118869041.832 5     -4329.348          33.000    22229104.391 4  92453617.976 4     -3367.267          29.000
C20  22518736.133 8 117261055.899 8     -1271.691          49.000
C29  24360789.164 6 126853011.193 6     -3021.371          39.000
E05  25545545.898 7 134242770.270 7      1999.035          42.000    25545543.148 7 102861376.122 7      1531.701          44.000
E09  21463745.805 8 112792828.521 8      -123.410          51.000    21463747.555 8  86425674.505 8       -94.537          51.000
E11  25359808.570 6 133266690.244 6     -3067.250          39.000    25359797.977 5 102113398.811 5     -2350.464          33.000
E36  23685483.117 8 124468060.075 8     -1035.695          51.000    23685485.781 8  95371641.556 8      -793.570          51.000
> 2020 05 18 22 22 30.0000000  0 18        .000000000000
G03  21714629.188 6 114111141.995 6     -2099.109          37.000    21714629.180 6  88917766.641 6     -1635.676          36.000
G04  20341953.211 8 106897739.870 8      -696.199          51.000    20341953.758 8  83296956.066 8      -542.493          51.000
G09  20817037.117 8 109394341.264 8      1654.168          51.000    20817039.000 8  85242353.791 8      1288.962          51.000
G17  23394843.531 8 122940733.188 8     -2569.379          48.000    23394842.531 7  95797956.583 7     -2002.113          47.000
G19  22827325.320 5 119958403.967 5     -2092.785          31.000    22827324.711 5  93474075.905 5     -1630.742          32.000
R02  19621651.992 4 104704892.023 4       550.008          29.000    19621642.656 4  81437113.188 4       427.781          28.000
R03  22683468.945 5 121426399.698 5      2894.289          32.000    22683478.062 4  94442771.283 4      2251.111          29.000
R12  23338813.516 7 124671759.343 7      3976.355          47.000    23338813.148 5  96966931.227 5      3092.724          31.000
R17  19889742.320 7 106434078.076 7     -1406.848          47.000    19889745.547 7  82782022.144 7     -1094.215          44.000
R24  22253416.133 5 118999062.730 5     -4334.125          35.000    22253421.086 4  92554745.396 4     -3370.986          29.000
C19  22169659.125 5 115443252.162 5      1234.254          30.000
C20  22526083.320 8 117299315.265 8     -1275.012          49.000
C29  24378218.297 6 126943764.247 6     -3024.520          40.000
E04  25807761.703 6 135620698.778 6     -2175.152          36.000
E05  25534152.094 7 134182894.024 7      1996.762          43.000    25534147.859 7 102815496.936 7      1529.962          43.000
E09  21464474.062 8 112796655.485 8      -127.828          51.000    21464475.703 8  86428606.862 8       -97.961          51.000
E11  25377335.008 6 133358792.669 6     -3069.125          39.000    25377325.539 5 102183970.773 5     -2351.524          35.000
E36  23691437.320 8 124499351.197 8     -1046.457          51.000    23691439.570 8  95395617.862 8      -801.840          51.000
> 2020 05 18 22 23  0.0000000  0 17        .000000000000
G03  21726658.711 6 114174354.177 6     -2111.414          38.000    21726657.703 6  88967022.903 6     -1645.258          39.000
G04  20345992.594 8 106918966.762 8      -715.410          50.000    20345993.008 8  83313496.505 8      -557.462          50.000
G09  20807655.711 8 109345040.784 8      1635.949          51.000    20807656.266 8  85203937.855 8      1274.766          51.000
G17  23409559.328 7 123018065.638 7     -2582.766          45.000    23409559.258 7  95858215.617 7     -2012.545          45.000
R01  21617219.109 4 115556423.714 4     -2790.039          28.000
R03  22667283.844 5 121339781.190 5      2884.434          31.000    22667298.398 4  94375401.168 4      2243.448          29.000
R12  23316517.656 7 124552656.087 7      3967.438          46.000    23316515.555 5  96874295.377 5      3085.785          35.000
R17  19897728.547 8 106476808.799 8     -1438.199          48.000    19897730.469 7  82815257.179 7     -1118.599          44.000
R24  22277778.266 5 119129340.052 5     -4346.988          34.000    22277784.141 4  92656072.176 4     -3380.994          28.000
C19  22162579.180 5 115406456.550 5      1222.625          31.000
C20  22533469.102 8 117337775.487 8     -1285.574          49.000
C29  24395684.922 7 127034711.491 7     -3034.926          42.000
E04  25820210.047 6 135686113.298 6     -2181.629          38.000
E05  25522792.258 6 134123194.278 6      1986.992          40.000    25522787.453 7 102769753.036 7      1522.327          44.000
E09  21465247.969 8 112800721.643 8      -139.629          51.000    21465249.406 8  86431722.494 8      -107.003          51.000
E11  25394890.586 6 133451048.148 6     -3077.633          37.000    25394882.672 5 102254660.036 5     -2358.393          35.000
E36  23697472.977 8 124531071.458 8     -1064.539          50.000    23697475.656 8  95419922.978 8      -815.725          51.000
> 2020 05 18 22 23 30.0000000  0 16        .000000000000
G03  21738731.883 6 114237802.524 6     -2115.613          37.000    21738730.852 6  89016463.065 6     -1648.533          38.000
G04  20350117.031 8 106940640.630 8      -726.723          51.000    20350117.492 8  83330385.253 8      -566.277          51.000
G09  20798353.742 8 109296158.321 8      1625.523          51.000    20798353.164 8  85165847.638 8      1266.642          51.000
G17  23424326.422 7 123095668.368 7     -2588.129          42.000    23424327.492 7  95918685.250 7     -2016.724          42.000
R03  22651132.867 5 121253333.223 5      2881.613          30.000
R12  23294246.695 7 124433688.783 7      3966.406          44.000    23294246.258 6  96781765.246 6      3084.983          38.000
R17  19905865.422 8 106520347.236 8     -1461.500          48.000    19905866.500 7  82849120.408 7     -1136.722          43.000
R24  22302185.758 5 119259857.897 5     -4350.770          34.000    22302189.859 4  92757646.592 4     -3383.929          28.000
C19  22155549.953 5 115369863.528 5      1219.566          32.000
C20  22540891.453 8 117376424.910 8     -1288.344          49.000
C29  24413186.477 7 127125839.196 7     -3037.539          42.000
E04  25832665.242 5 135751573.489 5     -2180.141          31.000
E05  25511463.344 6 134063659.819 6      1984.777          41.000    25511459.547 7 102724135.759 7      1520.753          44.000
E09  21466064.984 8 112805015.025 8      -143.801          51.000    21466066.312 8  86435012.232 8      -110.194          51.000
E11  25412472.898 6 133543443.818 6     -3079.309          36.000    25412465.773 5 102325456.707 5     -2359.611          35.000
E36  23703588.039 8 124563209.015 8     -1075.133          50.000    23703591.672 8  95444547.831 8      -823.779          51.000
> 2020 05 18 22 24  0.0000000  0 15        .000000000000
G03  21750849.633 6 114301486.164 6     -2120.801          41.000    21750848.938 6  89066086.656 6     -1652.572          40.000
G04  20354326.258 8 106962759.980 8      -739.012          50.000    20354326.773 8  83347621.109 8      -575.853          50.000
G09  20789131.016 8 109247694.113 8      1614.184          51.000    20789130.984 8  85128083.342 8      1257.805          51.000
G17  23439144.273 6 123173537.938 6     -2594.277          41.000    23439146.391 6  95979362.862 6     -2021.515          41.000
G19  22863645.594 5 120149261.087 5     -2139.191          34.000    22863640.609 5  93622785.505 5     -1666.902          35.000
R12  23272002.086 7 124314861.472 7      3964.051          42.000    23272003.008 6  96689343.980 6      3083.154          40.000
R17  19914153.008 8 106564691.082 8     -1485.734          51.000    19914153.617 7  82883610.062 7     -1155.571          44.000
R24  22326637.977 6 119390611.916 6     -4356.547          37.000    22326640.938 5  92859343.762 5     -3388.419          30.000
C20  22548350.156 8 117415262.929 8     -1292.062          50.000
C29  24430722.219 7 127217144.688 7     -3040.609          43.000
E04  25845135.336 5 135817092.447 5     -2180.754          31.000
E05  25500165.609 6 134004290.456 6      1981.914          40.000    25500163.156 7 102678645.029 7      1518.648          45.000
E09  21466925.109 8 112809534.753 8      -148.668          51.000    21466926.258 8  86438475.404 8      -113.941          51.000
E11  25430081.586 5 133635979.733 5     -3081.039          33.000    25430073.508 5 102396359.278 5     -2360.778          32.000
E36  23709782.984 8 124595763.095 8     -1086.367          51.000    23709787.125 8  95469491.869 8      -832.405          51.000
> 2020 05 18 22 24 30.0000000  0 16        .000000000000
G03  21763012.680 6 114365405.641 6     -2134.332          40.000    21763012.516 6  89115894.008 6     -1663.116          40.000
G04  20358619.930 8 106985324.243 8      -759.426          49.000    20358620.656 8  83365203.651 8      -591.760          49.000
G09  20779988.297 8 109199649.389 8      1594.695          51.000    20779989.039 8  85090645.897 8      1242.620          51.000
G17  23454012.719 7 123251672.407 7     -2608.574          44.000    23454015.234 7  96040246.852 7     -2032.655          43.000
G19  22875931.680 5 120213815.559 5     -2159.477          35.000    22875923.883 5  93673082.759 5     -1682.709          35.000
R03  22618935.773 5 121080919.929 5      2867.094          34.000    22618946.500 4  94174107.696 4      2229.965          26.000
R12  23249784.438 7 124196179.573 7      3953.898          42.000    23249786.516 6  96597035.870 6      3075.257          40.000
R17  19922590.602 8 106609839.166 8     -1518.199          50.000    19922590.977 7  82918725.219 7     -1180.822          44.000
R24  22351134.031 6 119521599.012 6     -4370.035          40.000    22351136.469 5  92961222.607 5     -3398.916          31.000
C19  22141623.141 4 115297249.614 4      1203.551          27.000
C20  22555845.250 8 117454289.977 8     -1303.922          50.000
C29  24448291.750 7 127308626.316 7     -3052.285          42.000
E05  25488899.570 6 133945087.324 6      1970.969          38.000    25488897.938 7 102633281.592 7      1510.130          45.000
E09  21467828.430 8 112814281.058 8      -161.828          51.000    21467829.414 8  86442112.176 8      -124.013          51.000
E11  25447716.594 5 133728652.147 5     -3091.523          34.000
E36  23716057.688 8 124628734.037 8     -1105.797          51.000    23716061.992 8  95494755.320 8      -847.335          51.000
> 2020 05 18 22 25  0.0000000  0 18        .000000000000
G01  24845710.891 5 130565099.362 5     -3804.992          30.000    24845716.148 5 101739046.006 5     -2964.932          30.000
G03  21775220.805 7 114429563.507 7     -2142.145          42.000    21775221.367 7  89165887.058 7     -1669.207          42.000
G04  20362998.641 8 107008334.950 8      -774.195          49.000    20362999.672 8  83383134.068 8      -603.269          49.000
G09  20770926.086 8 109152027.519 8      1580.660          51.000    20770927.203 8  85053537.950 8      1231.683          51.000
G17  23468931.742 7 123330071.814 7     -2617.461          46.000    23468933.797 7  96101337.287 7     -2039.580          46.000
G19  22888305.352 6 120278835.323 6     -2175.125          36.000
R03  22602888.000 5 120994989.647 5      2861.906          32.000
R10  23370896.156 4 124580008.139 4     -2065.730          28.000
R11  21999408.320 6 117558167.310 6      1666.285          38.000
R12  23227595.859 7 124077650.562 7      3948.730          43.000    23227598.086 6  96504846.655 6      3071.235          39.000
R17  19931177.883 8 106655792.634 8     -1544.906          48.000    19931179.078 7  82954466.771 7     -1201.597          45.000
R24  22375674.312 7 119652817.786 7     -4377.609          42.000    22375673.984 5  93063281.663 5     -3404.807          30.000
C20  22563377.062 8 117493508.515 8     -1310.238          50.000
C29  24465895.328 6 127400284.537 6     -3057.828          41.000
E05  25477664.844 6 133886053.361 6      1964.902          37.000    25477664.875 7 102588047.769 7      1505.802          45.000
E09  21468775.102 8 112819256.215 8      -169.461          51.000    21468776.219 8  86445924.303 8      -129.811          51.000
E11  25465378.367 5 133821463.392 5     -3095.520          35.000    25465368.547 5 102538485.482 5     -2371.829          32.000
E36  23722412.242 8 124662124.217 8     -1119.777          51.000    23722416.500 8  95520339.999 8      -858.008          51.000
> 2020 05 18 22 25 30.0000000  0 16        .000000000000
G01  24867443.281 5 130679295.935 5     -3807.762          32.000    24867448.266 5 101828040.023 5     -2967.099          33.000
G03  21787474.375 6 114493959.264 6     -2150.898          40.000    21787475.602 6  89216065.537 6     -1676.028          40.000
G04  20367462.094 8 107031790.788 8      -789.516          49.000    20367463.328 8  83401411.347 8      -615.207          49.000
G09  20761944.336 8 109104828.882 8      1565.926          51.000    20761945.578 8  85016759.827 8      1220.202          51.000
G17  23483900.570 7 123408732.914 7     -2626.570          46.000    23483901.539 7  96162631.672 7     -2046.678          46.000
G19  22900766.828 6 120344317.524 6     -2190.484          36.000    22900764.148 5  93774800.568 5     -1706.865          35.000
R12  23205436.648 7 123959279.033 7      3942.887          43.000    23205438.930 6  96412779.919 6      3066.690          39.000
R17  19939915.250 8 106702548.968 8     -1572.191          49.000    19939917.039 7  82990832.802 7     -1222.816          45.000
R24  22400256.398 6 119784264.254 6     -4385.594          41.000    22400255.469 5  93165517.833 5     -3411.017          30.000
C19  22127837.031 5 115225468.168 5      1189.168          32.000
C20  22570945.305 8 117532918.216 8     -1317.043          49.000
C29  24483532.305 6 127492116.893 6     -3063.965          40.000
E05  25466460.289 6 133827153.695 6      1958.891          37.000    25466464.133 7 102542943.659 7      1501.100          45.000
E09  21469765.250 8 112824459.590 8      -177.469          51.000    21469766.461 8  86449911.311 8      -135.980          51.000
E11  25483066.398 5 133914414.829 5     -3100.395          35.000    25483059.281 5 102609711.875 5     -2375.750          34.000
E36  23728846.531 8 124695933.109 8     -1134.133          51.000    23728850.219 8  95546245.511 8      -869.023          51.000
> 2020 05 18 22 26  0.0000000  0 17        .000000000000
G01  24889187.938 5 130793562.955 5     -3808.098          33.000    24889191.133 4 101917079.208 4     -2967.352          27.000
G03  21799772.562 6 114558588.748 6     -2157.262          40.000    21799774.188 6  89266426.099 6     -1680.986          40.000
G04  20372009.312 8 107055686.650 8      -802.762          50.000    20372010.492 8  83420031.493 8      -625.529          50.000
G09  20753042.859 8 109058050.136 8      1553.359          51.000    20753044.164 8  84980308.871 8      1210.410          51.000
G17  23498917.680 7 123487648.951 7     -2633.605          44.000    23498917.719 7  96224124.663 7     -2052.163          44.000
G19  22913315.359 6 120410255.662 6     -2204.242          37.000    22913309.219 5  93826180.889 5     -1717.591          32.000
R12  23183306.633 7 123841065.578 7      3938.867          43.000    23183309.523 6  96320836.129 6      3063.563          37.000
R17  19948801.852 8 106750102.401 8     -1597.262          50.000    19948803.617 7  83027818.777 7     -1242.318          44.000
R24  22424878.617 6 119915930.308 6     -4391.328          41.000    22424880.586 5  93267924.715 5     -3415.480          30.000
C19  22121005.781 5 115189896.979 5      1183.730          34.000
C20  22578549.281 8 117572514.924 8     -1321.934          50.000
C29  24501200.711 6 127584117.198 6     -3068.570          39.000
E04  25895136.844 5 136079886.025 5     -2193.621          32.000
E05  25455289.094 6 133768454.576 6      1954.574          39.000    25455295.070 7 102497966.413 7      1497.861          46.000
E09  21470798.227 8 112829886.800 8      -183.668          51.000    21470799.219 8  86454069.820 8      -140.745          51.000
E11  25500779.781 5 134007494.126 5     -3103.898          35.000    25500775.055 6 102681032.348 6     -2378.237          36.000
E36  23735359.531 8 124730156.355 8     -1146.738          51.000    23735362.469 8  95572468.522 8      -878.676          51.000
> 2020 05 18 22 26 30.0000000  0 17        .000000000000
G01  24910941.984 5 130907880.491 5     -3811.953          32.000
G03  21812113.094 6 114623439.655 6     -2165.914          36.000    21812114.336 6  89316959.277 6     -1687.728          36.000
G04  20376637.805 8 107080009.282 8      -818.547          50.000    20376638.898 8  83438984.177 8      -637.829          50.000
G09  20744219.133 8 109011679.801 8      1538.090          51.000    20744220.852 8  84944176.144 8      1198.512          51.000
G17  23513980.289 7 123566805.186 7     -2643.285          42.000    23513980.172 7  96285804.808 7     -2059.706          42.000
G19  22925947.570 6 120476634.594 6     -2220.684          39.000    22925937.898 5  93877904.666 5     -1730.412          35.000
R12  23161204.383 6 123723002.740 6      3932.176          40.000    23161207.492 6  96229009.471 6      3058.359          37.000
R17  19957834.742 8 106798438.706 8     -1624.969          50.000    19957836.250 7  83065413.685 7     -1263.865          44.000
R24  22449538.430 6 120047799.809 6     -4399.672          40.000
C19  22114212.250 5 115154517.206 5      1175.969          34.000
C20  22586186.898 8 117612286.468 8     -1329.328          49.000
C29  24518897.625 6 127676271.116 6     -3075.219          40.000
E04  25907672.750 5 136145737.252 5     -2197.410          32.000
E05  25444147.766 6 133709909.206 6      1948.535          40.000    25444155.648 7 102453107.030 7      1492.956          46.000
E09  21471871.266 8 112835525.309 8      -192.203          51.000    21471872.102 8  86458390.236 8      -147.192          51.000
E11  25518515.633 5 134100703.786 5     -3108.617          34.000    25518512.203 6 102752443.555 6     -2382.200          37.000
E36  23741948.562 8 124764781.548 8     -1161.559          51.000    23741951.070 8  95598999.500 8      -890.031          51.000
> 2020 05 18 22 27  0.0000000  0 16        .000000000000
G01  24932711.258 5 131022279.493 5     -3813.801          34.000
G03  21824501.719 6 114688541.583 6     -2173.422          36.000    21824503.953 6  89367687.982 6     -1693.575          37.000
G04  20381352.891 8 107104787.218 8      -832.852          49.000    20381354.047 8  83458291.658 8      -648.975          49.000
G09  20735478.734 8 108965748.145 8      1524.473          51.000    20735480.992 8  84908385.263 8      1187.901          51.000
G17  23529093.969 6 123646228.743 6     -2651.188          41.000    23529094.289 6  96347693.294 6     -2065.860          41.000
G19  22938668.258 6 120543481.444 6     -2235.250          39.000    22938657.289 5  93929993.207 5     -1741.747          34.000
R02  19596660.320 4 104571533.208 4       441.496          28.000
R12  23139135.500 6 123605125.434 6      3926.953          37.000    23139140.047 6  96137327.121 6      3054.297          38.000
R17  19967019.227 8 106847586.159 8     -1650.980          50.000    19967021.039 7  83103639.477 7     -1284.096          45.000
R24  22474239.820 6 120179899.084 6     -4406.629          36.000
C20  22593863.766 8 117652262.187 8     -1335.324          49.000
C29  24536628.984 6 127768605.916 6     -3080.129          40.000
E05  25433042.273 6 133651547.858 6      1942.836          40.000    25433050.867 7 102408388.581 7      1488.720          46.000
E09  21472989.969 8 112841404.465 8      -199.492          51.000    21472990.672 8  86462895.061 8      -152.855          51.000
E11  25536279.922 5 134194052.232 5     -3114.234          33.000    25536275.758 6 102823967.133 6     -2385.576          37.000
E36  23748619.508 8 124799838.074 8     -1175.184          51.000    23748622.055 8  95625860.983 8      -900.447          51.000
> 2020 05 18 22 27 30.0000000  0 15        .000000000000
G01  24954493.648 5 131136743.514 5     -3817.625          34.000
G04  20386152.617 8 107130010.698 8      -849.047          49.000    20386153.820 8  83477946.317 8      -661.595          49.000
G09  20726820.305 8 108920247.159 8      1508.656          51.000    20726822.578 8  84872929.951 8      1175.576          51.000
G17  23544256.602 7 123725907.972 7     -2661.117          43.000    23544257.641 7  96409781.024 7     -2073.595          43.000
G19  22951474.219 6 120610785.331 6     -2251.848          36.000    22951465.602 5  93982437.804 5     -1754.677          35.000
R12  23117101.008 6 123487429.684 6      3919.340          41.000    23117106.273 6  96045785.906 6      3048.372          40.000
R17  19976352.898 8 106897534.023 8     -1679.055          50.000    19976355.047 7  83142487.780 7     -1305.931          45.000
R24  22498982.586 5 120312215.641 5     -4414.707          32.000
C19  22100743.695 5 115084376.218 5      1160.035          32.000
C20  22601578.242 8 117692433.323 8     -1343.117          50.000
C29  24554392.461 6 127861110.815 6     -3087.113          40.000
E05  25421970.711 6 133593362.029 6      1935.754          39.000    25421979.148 7 102363804.644 7      1483.312          45.000
E09  21474152.898 8 112847515.214 8      -208.316          51.000    21474153.281 8  86467577.332 8      -159.649          51.000
E11                                                                  25554064.891 6 102895595.453 6     -2389.662          38.000
E36  23755370.898 8 124835316.902 8     -1190.410          51.000    23755373.625 8  95653046.049 8      -912.138          51.000
> 2020 05 18 22 28  0.0000000  0 14        .000000000000
G04  20391032.406 8 107155654.612 8      -862.406          49.000    20391033.703 8  83497928.572 8      -672.005          49.000
G09  20718239.266 8 108875153.407 8      1495.773          51.000    20718240.859 8  84837791.963 8      1165.538          51.000
G17  23559462.984 7 123805816.328 7     -2667.840          45.000    23559464.648 7  96472047.276 7     -2078.839          45.000
G19  22964361.570 5 120678518.885 5     -2266.281          31.000    22964355.773 4  94035217.230 4     -1765.943          28.000
R03  22507252.023 5 120483082.277 5      2825.984          31.000
R12  23095097.070 6 123369895.858 6      3914.465          41.000    23095103.867 6  95954370.757 6      3044.584          41.000
R17  19985831.016 8 106948255.686 8     -1704.227          50.000    19985832.062 7  83181937.934 7     -1325.510          42.000
C19  22094072.836 5 115049620.294 5      1154.539          35.000
C20  22609325.648 8 117732776.032 8     -1348.246          48.000
C29  24572184.031 6 127953759.768 6     -3090.926          40.000
E05  25410927.500 6 133535328.099 6      1931.258          37.000    25410935.781 7 102319337.120 7      1479.765          44.000
E09  21475355.219 8 112853833.245 8      -214.676          51.000    21475355.453 8  86472418.420 8      -164.480          51.000
E11                                                                  25571875.383 6 102967309.025 6     -2392.311          38.000
E36  23762197.906 8 124871193.691 8     -1203.117          51.000    23762200.742 8  95680536.052 8      -921.878          51.000
> 2020 05 18 22 28 30.0000000  0 13        .000000000000
G04  20395998.539 8 107181751.564 8      -876.848          49.000    20395999.875 8  83518263.864 8      -683.258          49.000
G09  20709742.086 8 108830501.284 8      1481.645          51.000    20709742.984 8  84802998.128 8      1154.528          51.000
G17  23574718.883 7 123885984.815 7     -2675.883          47.000    23574720.859 7  96534516.225 7     -2085.103          46.000
G19  22977337.250 5 120746713.305 5     -2280.070          35.000    22977334.211 5  94088355.710 5     -1776.669          33.000
R12  23073132.016 6 123252563.102 6      3908.238          41.000    23073139.422 6  95863111.936 6      3039.741          41.000
R17  19995459.742 8 106999783.599 8     -1730.375          50.000    19995460.133 7  83222015.167 7     -1345.847          43.000
C19  22087444.188 5 115015087.916 5      1148.199          35.000
C20  22617112.250 8 117773323.642 8     -1354.477          48.000
C29  24590009.242 6 128046584.169 6     -3096.477          40.000
E05  25399918.984 5 133477474.305 5      1926.000          31.000    25399926.906 7 102275012.118 7      1475.566          44.000
E09  21476603.117 8 112860391.885 8      -221.996          51.000    21476603.570 8  86477443.880 8      -170.092          51.000
E11                                                                  25589713.680 6 103039132.743 6     -2395.567          38.000
E36  23769106.922 8 124907501.889 8     -1216.828          51.000    23769109.617 8  95708356.619 8      -932.405          51.000
> 2020 05 18 22 29  0.0000000  0 14        .000000000000
G04  20401041.781 8 107208253.483 8      -890.996          49.000    20401042.828 8  83538914.719 8      -694.280          49.000
G09  20701320.031 8 108786244.483 8      1467.801          51.000    20701320.961 8  84768512.334 8      1143.741          51.000
G17  23590014.773 8 123966363.936 8     -2683.668          48.000    23590016.609 8  96597149.310 8     -2091.170          48.000
G19  22990392.266 6 120815319.238 6     -2294.379          36.000    22990390.312 5  94141814.832 5     -1787.828          34.000
R12  23051197.508 7 123135388.801 7      3902.141          44.000    23051204.695 7  95771976.379 7      3034.995          42.000
R17  20005230.078 8 107052067.852 8     -1756.320          49.000    20005231.164 7  83262680.678 7     -1366.027          45.000
R24  22573438.672 5 120710326.458 5     -4432.906          31.000    22573435.336 4  93885792.197 4     -3447.813          28.000
C19  22080845.805 5 114980733.084 5      1140.789          31.000
C20  22624929.367 8 117814029.532 8     -1360.309          48.000
C29  24607859.266 6 128139535.148 6     -3101.234          39.000
E05  25388937.273 5 133419764.968 5      1920.168          35.000    25388944.172 7 102230793.979 7      1471.558          43.000
E09  21477887.961 8 112867143.880 8      -229.160          51.000    21477888.641 8  86482617.484 8      -175.608          51.000
E11                                                                  25607570.195 6 103111029.523 6     -2398.470          38.000
E36  23776089.141 8 124944194.165 8     -1230.414          51.000    23776091.953 8  95736471.484 8      -942.773          51.000
> 2020 05 18 22 29 30.0000000  0 16        .000000000000
G03  21887103.633 5 115017504.576 5     -2212.203          30.000
G04  20406166.812 8 107235185.234 8      -905.086          50.000    20406167.555 8  83559900.506 8      -705.262          50.000
G09  20692978.281 8 108742409.585 8      1453.918          51.000    20692979.234 8  84734355.292 8      1132.926          51.000
G17  23605355.141 8 124046977.191 8     -2691.121          48.000    23605356.367 8  96659964.838 8     -2096.977          48.000
G19  23003530.289 6 120884359.812 6     -2308.566          36.000    23003529.664 4  94195612.688 4     -1798.886          26.000
R03  22459870.086 5 120229464.781 5      2809.820          32.000    22459890.227 4  93511852.470 4      2185.422          27.000
R12  23029298.891 7 123018403.842 7      3896.094          47.000    23029305.141 7  95680988.061 7      3030.295          42.000
R17  20015146.281 8 107105132.472 8     -1782.070          50.000    20015148.516 7  83303953.194 7     -1386.052          47.000
R24  22598326.484 6 120843409.794 6     -4439.539          36.000    22598323.898 4  93989301.463 4     -3452.978          28.000
C19  22074284.156 5 114946581.825 5      1135.219          30.000
C20  22632781.906 7 117854919.433 7     -1366.258          47.000
C29  24625737.922 6 128232636.373 6     -3105.988          37.000
E05  25377987.859 6 133362222.317 6      1915.230          36.000    25377992.555 7 102186702.961 7      1467.433          43.000
E09  21479214.664 8 112874114.869 8      -236.211          51.000    21479215.383 8  86487958.882 8      -180.948          51.000
E11                                                                  25625449.773 6 103183018.397 6     -2401.469          36.000
E36  23783149.414 8 124981296.178 8     -1243.754          51.000    23783152.531 8  95764900.284 8      -952.982          51.000
> 2020 05 18 22 30  0.0000000  0 16        .000000000000
G03  21899759.445 5 115084002.523 5     -2220.562          32.000    21899763.578 5  89675855.214 5     -1730.308          33.000
G04  20411377.125 8 107262564.952 8      -919.262          50.000    20411377.852 8  83581235.359 8      -716.308          50.000
G09  20684720.578 8 108699016.460 8      1439.891          51.000    20684721.445 8  84700542.480 8      1121.993          51.000
G17  23620743.180 8 124127840.771 8     -2698.684          48.000    23620743.289 8  96722975.401 8     -2102.870          49.000
G19  23016754.500 6 120953851.577 6     -2322.961          39.000    23016755.398 5  94249762.110 5     -1810.096          35.000
R01  21838502.688 4 116739311.686 4     -2841.223          28.000
R12  23007440.281 8 122901632.749 8      3889.551          48.000    23007444.477 6  95590166.128 6      3025.206          41.000
R17  20025211.789 8 107158995.613 8     -1807.844          50.000    20025214.555 7  83345846.744 7     -1406.104          46.000
R24  22623250.695 5 120976699.360 5     -4445.703          35.000
C19  22067766.602 5 114912654.738 5      1127.520          30.000
C20  22640673.500 8 117896012.333 8     -1372.246          48.000
C29  24643649.695 5 128325904.687 5     -3111.258          30.000
E05  25367073.844 6 133304865.218 6      1909.469          39.000    25367075.742 7 102142754.073 7      1463.321          42.000
E09  21480586.500 8 112881323.780 8      -243.379          51.000    21480587.273 8  86493482.593 8      -186.455          51.000
E11                                                                  25643355.664 5 103255112.968 5     -2403.996          34.000
E36  23790291.422 8 125018826.836 8     -1257.238          51.000    23790294.336 8  95793657.535 8      -963.344          51.000
> 2020 05 18 22 30 30.0000000  0 13        .000000000000
G04  20416664.523 8 107290349.846 8      -933.750          50.000    20416665.195 8  83602885.937 8      -727.597          50.000
G09  20676539.133 8 108656024.032 8      1425.555          51.000    20676540.203 8  84667041.881 8      1110.822          51.000
G17  23636170.570 8 124208910.372 8     -2706.551          48.000    23636169.242 8  96786146.491 8     -2109.004          48.000
G19  23030055.992 6 121023750.074 6     -2337.633          40.000    23030057.945 5  94304228.441 5     -1821.532          32.000
R02  19580883.367 4 104487364.082 4       361.480          28.000    19580886.852 4  81267946.037 4       281.158          29.000
R12  22985614.461 8 122785038.320 8      3882.633          48.000    22985617.047 6  95499481.609 6      3019.829          41.000
R17  20035418.617 8 107213612.023 8     -1833.922          50.000    20035420.422 7  83388326.140 7     -1426.384          45.000
R24  22648206.375 6 121110148.970 6     -4451.910          37.000
C19  22061285.789 5 114878908.907 5      1120.594          30.000
C20  22648596.109 7 117937266.852 7     -1378.781          47.000
E05  25356187.359 6 133247652.357 6      1903.668          38.000    25356187.086 6 102098915.697 6      1458.610          41.000
E09  21481995.555 8 112888728.658 8      -251.055          51.000    21481996.398 8  86499156.470 8      -192.373          51.000
E36  23797507.086 8 125056744.123 8     -1271.234          51.000    23797509.430 8  95822711.043 8      -974.096          51.000
> 2020 05 18 22 31  0.0000000  0 15        .000000000000
G04  20422037.031 8 107318582.442 8      -948.262          49.000    20422037.648 8  83624885.367 8      -738.902          49.000
G09  20668442.766 8 108613476.568 8      1411.133          51.000    20668443.836 8  84633888.025 8      1099.584          51.000
G17  23651644.734 7 124290227.176 7     -2714.367          46.000    23651642.516 7  96849510.203 7     -2115.091          47.000
G19  23043442.883 7 121094096.358 7     -2352.137          42.000    23043445.859 5  94359043.749 5     -1832.831          35.000
G22  24129303.234 4 126800343.956 4     -2799.559          29.000
R12  22963830.875 8 122668669.642 8      3875.422          49.000    22963832.914 7  95408972.696 7      3014.220          42.000
R17  20045773.594 8 107269024.371 8     -1860.078          48.000    20045775.516 7  83431424.624 7     -1446.727          45.000
R24  22673198.586 5 121243799.285 5     -4457.742          34.000
C19  22054849.562 5 114845389.199 5      1113.547          33.000
C20  22656557.828 7 117978726.290 7     -1385.133          46.000
C29  24679552.492 6 128512894.928 6     -3121.129          37.000
E05  25345335.797 5 133190627.763 5      1898.145          35.000    25345336.195 7 102055221.571 7      1454.297          42.000
E09  21483450.203 8 112896372.836 8      -258.535          51.000    21483450.992 8  86505013.705 8      -198.086          51.000
E11  25679227.172 5 134945263.067 5     -3145.898          31.000    25679237.242 4 103399646.144 4     -2410.832          29.000
E36  23804804.508 8 125095091.318 8     -1285.113          51.000    23804806.445 8  95852093.974 8      -984.733          51.000
> 2020 05 18 22 31 30.0000000  0 15        .000000000000
G04  20427491.977 8 107347248.832 8      -962.895          49.000    20427492.828 8  83647222.826 8      -750.307          49.000
G09  20660429.023 8 108571361.875 8      1396.402          51.000    20660429.930 8  84601071.398 8      1088.106          51.000
G17  23667162.375 7 124371775.435 7     -2722.277          45.000    23667160.438 7  96913054.310 7     -2121.255          44.000
G19  23056912.031 7 121164874.709 7     -2366.590          42.000    23056915.953 6  94414195.682 6     -1844.096          38.000
R01  21886459.305 5 116995667.145 5     -2853.785          31.000
R02  19576957.750 5 104466374.263 5       337.051          31.000    19576958.312 4  81251642.745 4       262.138          28.000
R12  22942087.875 8 122552518.706 8      3867.715          50.000    22942089.844 7  95318633.096 7      3008.223          43.000
R17  20056273.812 8 107325217.283 8     -1886.340          48.000    20056277.352 7  83475130.233 7     -1467.153          46.000
R24  22698224.094 5 121377633.653 5     -4464.449          30.000
C19  22048454.883 5 114812083.434 5      1106.254          31.000
C20  22664556.539 7 118020377.877 7     -1391.816          46.000
C29  24697549.844 6 128606601.725 6     -3126.449          41.000
E05                                                                  25334520.156 7 102011662.237 7      1449.619          43.000
E09  21484947.828 8 112904243.206 8      -266.316          51.000    21484948.508 8  86511044.255 8      -204.037          51.000
E36  23812181.086 8 125133855.311 8     -1299.289          51.000    23812183.234 8  95881796.254 8      -995.514          51.000
> 2020 05 18 22 32  0.0000000  0 15        .000000000000
G04  20433026.078 8 107376330.137 8      -977.984          51.000    20433026.922 8  83669883.581 8      -762.066          51.000
G09  20652494.180 8 108529662.717 8      1381.281          51.000    20652495.141 8  84568578.580 8      1076.326          51.000
G17  23682720.148 7 124453535.139 7     -2730.777          44.000    23682719.203 7  96976763.167 7     -2127.878          44.000
G19  23070459.648 7 121236065.059 7     -2381.406          42.000    23070463.227 5  94469668.677 5     -1855.641          34.000
R01  21902466.898 5 117081236.670 5     -2857.730          30.000
R12  22920382.828 8 122436572.119 8      3859.578          50.000    22920385.070 7  95228452.428 7      3001.894          45.000
R17  20066917.047 8 107382170.452 8     -1912.828          50.000    20066920.773 7  83519427.154 7     -1487.755          46.000
R24  22723281.844 5 121511630.186 5     -4471.297          34.000
C20  22672588.633 7 118062203.992 7     -1398.949          45.000
C29  24715570.914 6 128700438.712 6     -3131.773          39.000
E04  26046384.625 5 136874674.088 5     -2221.324          34.000
E05                                                                  25323733.820 7 101968224.326 7      1444.524          43.000
E09  21486485.016 8 112912321.684 8      -274.539          51.000    21486485.648 8  86517234.259 8      -210.343          51.000
E11  25715192.281 5 135134253.618 5     -3155.531          31.000
E36  23819633.414 8 125173017.885 8     -1313.824          51.000    23819636.094 8  95911803.943 8     -1006.762          51.000
> 2020 05 18 22 32 30.0000000  0 14        .000000000000
G04  20438634.016 8 107405798.893 8      -991.008          51.000    20438634.531 8  83692846.252 8      -772.214          51.000
G09  20644633.406 8 108488353.422 8      1368.156          51.000    20644634.414 8  84536389.539 8      1066.096          51.000
G17  23698312.820 7 124535476.979 7     -2736.801          46.000    23698313.008 7  97040613.914 7     -2132.575          45.000
G19  23084079.836 7 121307637.919 7     -2394.523          42.000    23084081.742 5  94525439.744 5     -1865.859          35.000
R02  19573282.984 5 104446759.012 5       314.426          35.000    19573292.750 4  81236383.277 4       244.553          27.000
R12  22898711.398 8 122320808.407 8      3853.441          49.000    22898714.461 7  95138414.013 7      2997.121          47.000
R17  20077697.062 8 107439854.667 8     -1937.371          49.000    20077700.023 7  83564292.624 7     -1506.844          45.000
R24  22748364.062 5 121645758.280 5     -4474.988          33.000
C20  22680649.414 7 118104178.580 7     -1403.973          44.000
C29  24733610.539 6 128794377.698 6     -3135.031          37.000
E04  26059054.812 6 136941262.590 6     -2222.266          37.000
E05  25312967.930 5 133020543.431 5      1881.188          32.000    25312972.141 7 101924888.065 7      1441.238          43.000
E09  21488056.836 8 112920581.707 8      -280.605          51.000    21488057.625 8  86523563.364 8      -214.976          51.000
E36  23827156.336 8 125212552.392 8     -1326.281          51.000    23827159.438 8  95942096.601 8     -1016.194          51.000
> 2020 05 18 22 33  0.0000000  0 13        .000000000000
G03  21976594.336 5 115487793.614 5     -2265.922          34.000
G04  20444329.500 8 107435728.337 8     -1004.234          51.000    20444329.719 8  83716167.912 8      -782.520          51.000
G09  20636861.203 8 108447508.913 8      1354.805          51.000    20636861.828 8  84504562.641 8      1055.692          51.000
G17  23713954.164 7 124617672.749 7     -2743.012          47.000    23713955.172 7  97104662.533 7     -2137.412          47.000
G19  23097786.297 6 121379665.002 6     -2407.301          41.000    23097785.875 6  94581564.779 6     -1875.816          38.000
R12  22877088.812 8 122205307.982 8      3846.691          48.000    22877093.078 7  95048580.373 7      2991.871          47.000
R17  20088626.594 8 107498343.480 8     -1961.836          49.000    20088628.664 7  83609783.889 7     -1525.872          44.000
C20  22688752.891 6 118146375.308 6     -1409.004          41.000
C29  24751683.422 5 128888490.238 5     -3138.555          31.000
E04  26071745.914 6 137007947.499 6     -2223.457          37.000
E05                                                                  25302249.172 7 101881710.724 7      1437.595          43.000
E09  21489677.305 8 112929097.328 8      -286.984          51.000    21489678.383 8  86530088.324 8      -219.876          51.000
E36  23834764.008 8 125252532.804 8     -1338.973          51.000    23834767.086 8  95972730.914 8     -1025.942          51.000
> 2020 05 18 22 33 30.0000000  0 14        .000000000000
G04  20450094.938 8 107466025.102 8     -1015.398          51.000    20450094.977 8  83739775.773 8      -791.220          51.000
G09  20629159.820 8 108407037.491 8      1343.449          51.000    20629160.383 8  84473026.494 8      1046.844          51.000
G17  23729625.977 8 124700027.210 8     -2747.254          48.000    23729627.234 8  97168834.826 8     -2140.717          48.000
G19  23111560.930 6 121452051.651 6     -2418.113          41.000    23111558.836 6  94637969.863 6     -1884.250          37.000
R01  21950662.195 5 117338838.938 5     -2863.547          34.000
R12  22855498.773 8 122089981.942 8      3841.887          49.000    22855503.945 7  94958882.350 7      2988.134          46.000
R17  20099688.703 8 107557540.449 8     -1984.371          51.000    20099690.820 7  83655825.970 7     -1543.400          46.000
R24  22798627.469 5 121914515.996 5     -4482.629          32.000    22798632.930 4  94822405.211 4     -3486.486          27.000
C20  22696880.938 6 118188702.752 6     -1412.863          36.000
E04  26084447.289 5 137074636.260 5     -2222.461          33.000
E05  25291562.555 5 132908062.589 5      1873.246          33.000    25291548.180 7 101838621.899 7      1435.338          43.000
E09  21491328.820 8 112937776.011 8      -291.410          51.000    21491329.914 8  86536738.230 8      -223.267          51.000
E11  25769283.656 5 135418497.953 5     -3161.289          32.000
E36  23842439.008 8 125292866.464 8     -1349.695          51.000    23842442.023 8  96003635.894 8     -1034.170          51.000
> 2020 05 18 22 34  0.0000000  0 13        .000000000000
G04  20455962.383 8 107496858.620 8     -1037.516          51.000    20455962.484 8  83763801.911 8      -808.454          51.000
G09  20621561.625 8 108367110.319 8      1321.062          51.000    20621562.664 8  84441914.440 8      1029.402          51.000
G17  23745360.078 8 124782708.457 8     -2762.242          48.000    23745360.836 8  97233261.754 8     -2152.397          48.000
G19  23125436.266 7 121524965.235 7     -2440.055          44.000    23125433.562 6  94694785.649 6     -1901.338          36.000
R02  19568259.867 5 104419983.404 5       275.973          31.000
R12  22833975.211 8 121975008.821 8      3825.832          50.000    22833980.352 7  94869458.807 7      2975.650          45.000
R17  20110915.875 8 107617616.805 8     -2017.965          51.000    20110918.391 7  83702552.039 7     -1569.528          47.000
C19  22017063.492 5 114648611.609 5      1067.410          34.000
C20  22705064.906 5 118231330.104 5     -1426.770          33.000
E05                                                                  25280901.336 7 101795752.607 7      1424.901          42.000
E09  21493043.773 8 112946788.048 8      -306.629          51.000    21493044.656 8  86543643.553 8      -234.896          51.000
E11  25787370.945 5 135513549.013 5     -3173.301          34.000
E36  23850213.836 8 125333723.533 8     -1371.309          51.000    23850216.836 8  96034941.943 8     -1050.710          51.000
> 2020 05 18 22 34 30.0000000  0 15        .000000000000
G04  20461894.711 8 107528033.633 8     -1044.578          51.000    20461894.898 8  83788094.133 8      -813.957          51.000
G09  20614029.969 8 108327533.810 8      1313.691          50.000    20614031.508 8  84411075.606 8      1023.656          50.000
G17  23761118.820 7 124865519.867 7     -2762.246          46.000    23761118.453 7  97297790.109 7     -2152.400          46.000
G19  23139374.648 7 121598209.177 7     -2446.617          45.000    23139371.180 6  94751858.813 6     -1906.455          38.000
R02  19566712.844 6 104411738.138 6       271.469          36.000
R12  22812481.922 8 121860195.946 8      3824.750          49.000    22812486.055 7  94780159.935 7      2974.809          43.000
R17  20122269.680 8 107678372.751 8     -2036.211          51.000    20122272.398 7  83749806.659 7     -1583.723          47.000
R24  22849028.781 5 122184042.389 5     -4494.629          31.000    22849035.859 4  95032042.296 4     -3495.826          26.000
C19  22010904.258 4 114616529.937 4      1067.902          29.000
C20  22713270.227 5 118274064.604 5     -1425.730          31.000
C29  24806046.141 5 129171593.832 5     -3150.133          33.000
E05                                                                  25270271.992 7 101752954.469 7      1425.548          42.000
E09  21494785.078 8 112955939.040 8      -307.105          51.000    21494786.023 8  86550655.350 8      -235.276          51.000
E11  25805464.703 5 135608635.962 5     -3169.742          33.000
E36  23858051.258 8 125374909.481 8     -1378.121          51.000    23858054.531 8  96066499.989 8     -1055.975          51.000
> 2020 05 18 22 35  0.0000000  0 15        .000000000000
G04  20467889.789 8 107559538.322 8     -1061.797          51.000    20467889.977 8  83812643.225 8      -827.374          51.000
G09  20606563.102 8 108288297.791 8      1295.945          50.000    20606565.078 8  84380502.076 8      1009.828          50.000
G17  23776899.320 7 124948448.252 7     -2772.352          44.000    23776898.250 7  97362409.619 7     -2160.274          44.000
G19  23153373.258 7 121671770.183 7     -2463.293          45.000    23153368.648 6  94809179.073 6     -1919.449          39.000
R01  21999010.680 5 117597280.134 5     -2878.246          33.000
R02  19565206.422 5 104403723.207 5       257.035          31.000
R12  22791017.656 8 121745537.639 8      3813.031          49.000    22791020.203 6  94690981.335 6      2965.694          41.000
R17  20133747.461 8 107739794.710 8     -2064.766          51.000    20133749.805 7  83797579.251 7     -1605.929          46.000
C19  22004765.656 5 114584583.298 5      1056.746          30.000
C20  22721494.367 5 118316896.043 5     -1435.129          32.000
C29  24824200.773 5 129266125.495 5     -3158.148          33.000
E04  26122608.242 5 137275230.199 5     -2232.867          34.000
E05  25259667.594 5 132740457.212 5      1851.516          35.000    25259658.172 7 101710219.586 7      1418.628          42.000
E09  21496550.781 8 112965218.019 8      -317.648          51.000    21496552.070 8  86557765.229 8      -243.447          51.000
E36  23865949.094 8 125416413.179 8     -1394.957          51.000    23865952.773 8  96098301.520 8     -1068.929          51.000
> 2020 05 18 22 35 30.0000000  0 14        .000000000000
G04  20474003.688 8 107591667.522 8     -1075.406          51.000    20474003.961 8  83837678.965 8      -837.979          51.000
G09  20599217.750 8 108249698.850 8      1281.906          50.000    20599219.938 8  84350424.995 8       998.888          50.000
G17  23792757.375 7 125031786.598 7     -2778.789          42.000    23792756.984 7  97427348.585 7     -2165.290          42.000
G19  23167487.469 7 121745941.021 7     -2476.531          44.000    23167481.945 6  94866974.499 6     -1929.768          39.000
R02  19563807.344 5 104396260.619 5       245.105          31.000    19563811.992 4  81197082.469 4       190.638          26.000
R12  22769639.523 8 121631339.705 8      3804.930          48.000    22769641.453 6  94602160.782 6      2959.390          41.000
R17  20145405.883 8 107802181.777 8     -2089.570          51.000    20145408.062 7  83846102.497 7     -1625.221          47.000
C19  21998710.906 5 114553039.749 5      1050.516          32.000
C20  22729795.375 5 118360117.570 5     -1440.293          32.000
C29  24842416.547 5 129360988.112 5     -3161.637          32.000
E05  25249125.742 5 132685063.421 5      1846.648          33.000    25249116.352 6 101667775.102 6      1414.713          41.000
E09  21498397.141 8 112974920.726 8      -324.426          51.000    21498398.695 8  86565199.777 8      -248.583          51.000
E11  25841715.172 5 135799134.623 5     -3180.074          34.000    25841714.344 5 104053874.291 5     -2436.492          33.000
E36  23873963.719 8 125458530.197 8     -1408.070          51.000    23873967.578 8  96130573.003 8     -1078.878          51.000
> 2020 05 18 22 36  0.0000000  0 13        .000000000000
G04  20480164.531 8 107624043.156 8     -1083.902          51.000    20480164.750 8  83862906.733 8      -844.599          51.000
G09  20591922.398 8 108211360.592 8      1272.992          51.000    20591924.203 8  84320551.036 8       991.942          51.000
G17  23808621.359 7 125115155.341 7     -2780.027          44.000    23808622.359 7  97492311.254 7     -2166.252          43.000
G19  23181645.367 7 121820342.113 7     -2484.496          44.000    23181639.336 6  94924949.322 6     -1935.971          40.000
R01  22031347.523 5 117770125.531 5     -2879.648          35.000    22031345.945 4  91599021.166 4     -2239.727          24.000
R12  22748276.539 7 121517223.995 7      3801.828          47.000    22748279.492 7  94513404.158 7      2956.977          43.000
R17  20157172.805 8 107865147.489 8     -2109.102          51.000    20157175.695 8  83895075.809 8     -1640.412          48.000
C20  22738099.883 5 118403355.936 5     -1442.121          31.000
C29  24860623.023 5 129455806.014 5     -3160.254          31.000
E05                                                                  25238575.672 7 101625332.532 7      1414.189          42.000
E09  21500252.258 8 112984669.980 8      -326.402          51.000    21500253.820 8  86572669.990 8      -250.103          51.000
E11  25859858.945 5 135894476.650 5     -3177.164          33.000    25859858.070 5 104126936.229 5     -2434.726          33.000
E36  23882023.250 8 125500883.230 8     -1416.305          51.000    23882027.188 8  96163025.333 8     -1085.220          51.000
> 2020 05 18 22 36 30.0000000  0 12        .000000000000
G04  20486406.664 8 107656845.149 8     -1107.680          51.000    20486406.602 8  83888466.725 8      -863.127          50.000
G09  20584711.445 8 108173464.558 8      1248.594          51.000    20584712.656 8  84291021.665 8       972.930          51.000
G17  23824525.906 7 125198733.309 7     -2796.586          45.000    23824527.797 7  97557436.955 7     -2179.158          46.000
G19  23195880.867 7 121895151.751 7     -2507.582          43.000    23195875.258 6  94983242.515 6     -1953.960          39.000
R02  19561146.172 6 104382013.980 6       218.152          37.000    19561143.180 4  81185991.666 4       169.674          29.000
R12  22726964.281 7 121403379.466 7      3782.992          47.000    22726968.477 7  94424858.427 7      2942.327          44.000
R17  20169081.211 8 107928873.747 8     -2144.152          51.000    20169084.945 8  83944640.688 8     -1667.677          48.000
C19  21986659.078 5 114490322.268 5      1031.133          30.000
E05  25228070.750 5 132574399.800 5      1829.773          34.000    25228071.453 7 101583030.839 7      1402.295          43.000
E09  21502150.633 8 112994646.544 8      -343.441          51.000    21502151.977 8  86580314.370 8      -263.144          51.000
E11  25878024.734 5 135989937.092 5     -3191.527          32.000    25878022.828 5 104200085.771 5     -2445.193          32.000
E36  23890162.008 8 125543652.796 8     -1439.715          51.000    23890165.898 8  96195796.815 8     -1103.137          51.000
> 2020 05 18 22 37  0.0000000  0 14        .000000000000
G04  20492736.867 8 107690110.350 8     -1109.379          51.000    20492736.633 8  83914387.663 8      -864.451          51.000
G09  20577591.984 8 108136049.250 8      1246.277          51.000    20577592.523 8  84261866.875 8       971.125          51.000
G17  23840477.094 8 125282555.458 8     -2790.938          48.000    23840479.453 8  97622752.904 8     -2174.756          48.000
G19  23210200.609 7 121970405.301 7     -2508.699          42.000    23210196.312 6  95041881.623 6     -1954.831          41.000
R01  22063757.812 5 117943397.982 5     -2883.773          34.000
R12  22705711.125 7 121289849.974 7      3786.254          47.000    22705716.086 7  94336557.709 7      2944.864          43.000
R17  20181138.906 8 107993396.594 8     -2156.773          51.000    20181142.578 7  83994825.102 7     -1677.493          47.000
R24  22975458.648 5 122860083.154 5     -4512.387          31.000
C19  21980692.359 5 114459252.760 5      1036.160          32.000
C20  22754827.609 5 118490359.868 5     -1452.129          33.000
E05  25217608.430 6 132519414.827 6      1836.336          39.000    25217609.969 7 101540899.555 7      1406.895          43.000
E09  21504099.523 8 113004888.200 8      -338.723          51.000    21504100.688 8  86588161.873 8      -259.523          51.000
E11                                                                  25896217.633 5 104273338.012 5     -2438.494          31.000
E36  23898387.219 8 125586876.466 8     -1441.234          51.000    23898390.805 8  96228916.242 8     -1104.358          51.000
> 2020 05 18 22 37 30.0000000  0 14        .000000000000
G04  20499145.508 8 107723787.976 8     -1131.484          51.000    20499145.297 8  83940629.985 8      -881.676          50.000
G09  20570554.398 8 108099065.580 8      1223.566          51.000    20570554.484 8  84233048.430 8       953.428          51.000
G17  23856464.891 8 125366569.645 8     -2805.723          49.000    23856467.359 8  97688218.504 8     -2186.277          49.000
G19  23224594.523 7 122046050.092 7     -2529.930          42.000    23224591.719 6  95100825.633 6     -1971.374          41.000
R02  19558762.477 5 104369278.518 5       199.695          35.000    19558752.922 5  81176090.823 5       155.316          30.000
R12  22684508.656 7 121176589.821 7      3768.715          47.000    22684513.930 7  94248466.489 7      2931.223          43.000
R17  20193336.070 8 108058662.728 8     -2189.988          51.000    20193339.148 8  84045587.612 8     -1703.324          48.000
R24  23000826.273 5 122995728.448 5     -4525.734          32.000
C19  21974774.945 5 114428449.016 5      1021.359          34.000
C20  22763248.156 5 118534213.032 5     -1466.742          33.000
E05  25207178.617 6 132464603.047 6      1822.211          39.000    25207180.641 7 101498900.895 7      1396.252          43.000
E09  21506089.281 8 113015345.035 8      -354.121          51.000    21506090.555 8  86596174.251 8      -271.313          51.000
E11                                                                  25914432.453 5 104346678.887 5     -2447.659          32.000
E36  23906689.414 8 125630504.163 8     -1463.008          51.000    23906692.602 8  96262345.233 8     -1120.970          51.000
> 2020 05 18 22 38  0.0000000  0 16        .000000000000
G04  20505621.750 8 107757820.815 8     -1143.734          51.000    20505621.469 8  83967149.086 8      -891.222          50.000
G09  20563588.461 8 108062458.008 8      1210.562          51.000    20563588.242 8  84204523.056 8       943.295          51.000
G17  23872478.078 8 125450717.391 8     -2810.406          48.000    23872480.422 8  97753788.132 8     -2189.927          48.000
G19  23239052.023 7 122122027.433 7     -2541.504          43.000    23239049.852 7  95160028.759 7     -1980.396          42.000
R01  22096218.023 5 118116918.090 5     -2897.973          30.000
R02  19557651.961 6 104363355.382 6       189.496          36.000    19557644.773 5  81171483.830 5       147.383          31.000
R12  22663346.742 7 121063547.120 7      3761.055          47.000    22663352.070 7  94160544.411 7      2925.265          42.000
R17  20205660.664 8 108124612.747 8     -2213.211          51.000    20205663.883 8  84096882.061 8     -1721.386          49.000
R24  23026207.422 5 123131444.824 5     -4528.172          32.000    23026207.992 4  95768951.378 4     -3521.911          28.000
C19  21968886.242 4 114397802.693 4      1015.828          27.000
C20  22771695.789 5 118578195.332 5     -1471.910          30.000
C29  24933714.844 5 129836398.422 5     -3180.586          30.000
E05  25196769.375 6 132409908.823 6      1817.582          36.000    25196773.188 7 101456992.276 7      1392.848          42.000
E09  21508109.234 8 113025960.741 8      -359.883          51.000    21508110.820 8  86604308.361 8      -275.766          51.000
E11                                                                  25932655.539 5 104420056.535 5     -2449.248          34.000
E36  23915057.812 8 125674479.339 8     -1475.004          51.000    23915060.750 8  96296040.480 8     -1130.138          51.000
> 2020 05 18 22 38 30.0000000  0 13        .000000000000
G03  22121533.547 4 116249438.787 4     -2349.285          28.000
G04  20512181.898 8 107792294.702 8     -1154.773          51.000    20512181.430 8  83994011.855 8      -899.823          50.000
G09  20556710.484 8 108026313.997 8      1198.758          51.000    20556710.391 8  84176358.930 8       934.100          51.000
G17  23888532.445 8 125535082.500 8     -2814.102          48.000    23888534.727 8  97819527.199 8     -2192.803          49.000
G19  23253589.500 7 122198421.914 7     -2551.738          43.000    23253586.547 7  95219556.901 7     -1988.367          42.000
R12  22642242.781 7 120950815.474 7      3754.125          46.000    22642248.578 7  94072864.242 7      2919.875          43.000
R17  20218128.891 8 108191332.583 8     -2235.078          51.000    20218132.781 8  84148775.279 8     -1738.394          49.000
C20  22780183.883 5 118622393.244 5     -1475.086          31.000
C29  24952040.445 4 129931821.920 4     -3181.914          28.000
E05  25186396.531 5 132355410.523 5      1814.895          34.000    25186402.578 6 101415240.756 6      1390.433          39.000
E09  21510175.992 8 113036822.137 8      -364.496          51.000    21510177.844 8  86612630.710 8      -279.250          51.000
E11                                                                  25950902.797 5 104493529.544 5     -2449.488          34.000
E36  23923508.742 8 125718888.556 8     -1485.855          51.000    23923511.719 8  96330068.314 8     -1138.537          51.000
> 2020 05 18 22 39  0.0000000  0 13        .000000000000
G04  20518815.281 8 107827153.841 8     -1168.527          51.000    20518815.000 8  84021174.829 8      -910.541          50.000
G09  20549909.922 8 107990579.412 8      1184.109          51.000    20549910.500 8  84148513.827 8       922.683          51.000
G17  23904617.266 8 125619608.009 8     -2820.426          48.000    23904619.477 7  97885391.223 7     -2197.734          47.000
G19  23268195.227 7 122275175.412 7     -2564.727          44.000    23268191.258 7  95279364.792 7     -1998.488          42.000
R02  19555627.445 5 104352581.157 5       168.895          35.000    19555618.594 4  81163079.466 4       131.365          28.000
R03  22166740.234 5 118660295.204 5      2696.020          30.000
R12  22621187.406 7 120838344.155 7      3744.562          47.000    22621193.734 7  93985386.555 7      2912.438          43.000
R17  20230729.984 8 108258763.898 8     -2259.746          51.000    20230733.953 8  84201221.863 8     -1757.580          48.000
C20  22788703.438 5 118666752.448 5     -1481.109          35.000
E05  25176054.219 5 132301072.052 5      1808.605          35.000    25176058.367 6 101373604.809 6      1385.812          37.000
E09  21512279.109 8 113047874.316 8      -371.738          51.000    21512281.016 8  86621099.262 8      -284.823          51.000
E11                                                                  25969163.430 5 104567060.177 5     -2452.238          33.000
E36  23932031.602 8 125763676.682 8     -1499.359          51.000    23932034.945 8  96364386.482 8     -1148.857          51.000
> 2020 05 18 22 39 30.0000000  0 12        .000000000000
G04  20525526.211 8 107862420.725 8     -1181.484          51.000    20525526.250 8  84048655.518 8      -920.637          51.000
G09  20543192.172 8 107955278.321 8      1170.336          51.000    20543193.328 8  84121006.465 8       911.947          51.000
G17  23920736.484 8 125704314.857 8     -2825.695          48.000    23920738.531 8  97951396.533 8     -2201.841          48.000
G19  23282873.422 7 122352309.223 7     -2576.695          44.000    23282869.086 6  95339469.032 6     -2007.815          41.000
R12  22600187.289 8 120726162.320 8      3735.340          49.000    22600192.672 7  93898134.007 7      2905.264          42.000
R17  20243467.969 8 108326927.822 8     -2283.371          50.000    20243471.289 7  84254238.210 7     -1775.958          47.000
C19  21951495.320 4 114307185.818 4       997.109          29.000
C20  22797258.938 6 118711296.636 6     -1487.461          36.000
E05  25165747.539 6 132246908.266 6      1803.367          38.000    25165750.867 6 101332102.759 6      1381.738          37.000
E09  21514422.992 8 113059140.609 8      -378.266          51.000    21514424.820 8  86629731.881 8      -289.825          51.000
E11                                                                  25987441.375 4 104640657.505 4     -2454.205          29.000
E36  23940630.727 8 125808866.762 8     -1512.195          51.000    23940634.547 8  96399012.653 8     -1158.674          51.000
> 2020 05 18 22 40  0.0000000  0 16        .000000000000
G04  20532309.578 8 107898068.713 8     -1195.875          51.000    20532309.844 8  84076433.158 8      -931.851          50.000
G09  20536552.281 8 107920385.802 8      1154.992          51.000    20536554.133 8  84093817.503 8       899.994          51.000
G17  23936884.922 7 125789175.069 7     -2832.496          47.000    23936886.336 7  98017521.329 7     -2207.140          47.000
G19  23297618.375 7 122429794.654 7     -2589.980          44.000    23297613.805 6  95399847.276 6     -2018.167          41.000
R02  19553848.711 5 104343085.806 5       146.113          33.000    19553849.500 4  81155741.973 4       113.650          28.000
R12  22579237.945 8 120614249.180 8      3724.547          49.000    22579241.430 6  93811090.510 6      2896.873          41.000
R17  20256337.398 8 108395795.738 8     -2308.633          50.000    20256340.531 8  84307802.127 8     -1795.603          48.000
R24  23127950.945 4 123675538.327 4     -4541.984          27.000    23127952.312 4  96192087.986 4     -3532.651          28.000
C19  21945773.875 5 114277379.697 5       989.027          34.000
C20  22805844.922 6 118756000.659 6     -1494.016          38.000
C29  25007148.359 4 130218791.810 4     -3193.109          28.000
E04  26250459.039 5 137947091.574 5     -2248.223          34.000
E05  25155469.984 6 132192894.286 6      1796.762          41.000    25155475.008 6 101290715.436 6      1376.737          38.000
E09  21516602.719 8 113070595.419 8      -386.270          51.000    21516604.594 8  86638508.947 8      -295.934          51.000
E11  26005741.234 5 136661095.316 5     -3206.613          33.000
E36  23949301.305 8 125854432.925 8     -1526.453          51.000    23949305.461 8  96433926.979 8     -1169.605          51.000
> 2020 05 18 22 40 30.0000000  0 14        .000000000000
G04  20539173.281 8 107934138.199 8     -1209.395          51.000    20539173.523 8  84104539.245 8      -942.385          51.000
G09  20529998.086 8 107885943.786 8      1140.473          51.000    20530000.102 8  84066979.595 8       888.680          51.000
G17  23953069.914 7 125874227.656 7     -2838.457          46.000    23953070.539 7  98083796.033 7     -2211.788          46.000
G19  23312437.594 7 122507670.539 7     -2602.359          43.000    23312433.406 7  95460529.783 7     -2027.812          42.000
R02  19553053.031 5 104338846.235 5       134.918          31.000    19553051.727 4  81152423.860 4       104.945          25.000
R03  22121569.062 5 118418471.981 5      2676.695          31.000
R12  22558347.273 8 120502651.833 8      3714.441          49.000    22558349.062 7  93724292.614 7      2889.010          42.000
R17  20269345.539 8 108465407.189 8     -2332.918          50.000    20269349.305 8  84361944.352 8     -1814.495          49.000
C20  22814469.734 6 118800905.697 6     -1500.406          41.000
C29  25025547.516 5 130314608.714 5     -3196.453          31.000
E05  25145229.102 6 132139072.056 6      1790.875          40.000    25145236.055 6 101249475.010 6      1372.136          38.000
E09  21518826.172 8 113082280.021 8      -393.520          51.000    21518828.242 8  86647462.087 8      -301.477          51.000
E11  26024055.062 5 136757326.945 5     -3209.883          35.000
E36  23958051.320 8 125900416.143 8     -1539.797          51.000    23958055.695 8  96469160.857 8     -1179.889          51.000
> 2020 05 18 22 41  0.0000000  0 13        .000000000000
G04  20546110.375 8 107970592.983 8     -1221.461          51.000    20546110.695 8  84132945.568 8      -951.788          51.000
G09  20523523.305 8 107851917.747 8      1127.289          51.000    20523524.359 8  84040465.812 8       878.407          51.000
G17  23969284.094 7 125959434.885 7     -2842.617          42.000    23969284.289 7  98150191.244 7     -2215.026          43.000
G19  23327323.898 7 122585899.470 7     -2613.328          43.000    23327320.109 7  95521487.422 7     -2036.357          43.000
R02  19552322.305 5 104334931.563 5       124.586          34.000    19552323.445 4  81149399.218 4        96.897          28.000
R12  22537509.945 8 120391339.710 8      3705.770          49.000    22537511.047 7  93637716.513 7      2882.265          43.000
R17  20282486.227 8 108535723.705 8     -2355.371          51.000    20282489.938 8  84416634.935 8     -1831.958          49.000
C20  22823126.547 6 118845977.124 6     -1504.934          40.000
C29  25043963.602 5 130410528.120 5     -3198.188          32.000
E05  25135017.406 6 132085406.924 6      1786.586          40.000    25135024.695 5 101208354.960 5      1368.868          35.000
E09  21521086.664 8 113094159.118 8      -399.082          51.000    21521088.906 8  86656564.257 8      -305.781          51.000
E11  26042380.555 5 136853632.793 5     -3211.418          35.000
E36  23966874.359 8 125946780.877 8     -1551.680          51.000    23966878.305 8  96504687.054 8     -1188.922          51.000
> 2020 05 18 22 41 30.0000000  0 15        .000000000000
G04  20553119.609 8 108007426.912 8     -1233.191          51.000    20553120.094 8  84161647.341 8      -960.925          51.000
G09  20517126.914 8 107818303.150 8      1114.484          51.000    20517127.008 8  84014272.622 8       868.429          51.000
G17  23985526.031 7 126044788.459 7     -2846.473          42.000    23985526.359 7  98216700.509 7     -2218.028          42.000
G19  23342276.195 7 122664473.132 7     -2624.035          44.000    23342272.398 7  95582713.695 7     -2044.703          44.000
R02  19551652.812 5 104331345.538 5       115.301          33.000    19551655.375 5  81146610.092 5        89.681          30.000
R12  22516726.211 8 120280312.918 8      3696.992          51.000    22516727.227 7  93551362.355 7      2875.438          43.000
R17  20295757.984 8 108606737.526 8     -2377.863          50.000    20295760.734 8  84471867.848 8     -1849.452          48.000
C19  21928865.453 5 114189366.678 5       970.156          32.000
C20  22831812.523 6 118891210.169 6     -1509.676          40.000
C29  25062396.969 5 130506524.290 5     -3200.660          33.000
E04  26289000.344 5 138149633.558 5     -2250.680          34.000
E05  25124834.117 6 132031894.348 6      1782.160          39.000    25124839.867 5 101167351.796 5      1365.731          35.000
E09  21523383.172 8 113106227.595 8      -404.570          51.000    21523385.477 8  86665811.535 8      -310.019          51.000
E11  26060719.367 6 136950003.523 6     -3212.930          36.000
E36  23975769.352 8 125993521.634 8     -1563.410          51.000    23975772.562 8  96540501.387 8     -1197.950          51.000
> 2020 05 18 22 42  0.0000000  0 16        .000000000000
G03  22216434.742 5 116748154.133 5     -2402.250          33.000    22216444.391 5  90972605.751 5     -1871.883          32.000
G04  20560209.773 8 108044686.093 8     -1249.148          51.000    20560210.297 8  84190680.476 8      -973.362          51.000
G07  24114017.812 6 126720026.000 6      3410.289          36.000    24114016.461 5  98742865.196 5      2657.368          35.000
G09  20510817.594 8 107785147.728 8      1097.406          51.000    20510817.961 8  83988437.250 8       855.122          51.000
G17  24001804.539 7 126130333.908 7     -2854.945          43.000    24001805.367 7  98283359.319 7     -2224.633          43.000
G19  23357302.625 7 122743436.417 7     -2638.684          46.000    23357299.172 7  95644243.467 7     -2056.120          43.000
R12  22496005.852 8 120169624.351 8      3683.820          51.000    22496006.492 7  93465271.284 7      2865.197          44.000
R17  20309167.734 8 108678493.730 8     -2404.363          49.000    20309170.148 8  84527678.235 8     -1870.060          48.000
R24  23230005.836 5 124221280.817 5     -4555.148          32.000    23230012.516 4  96616566.825 4     -3542.890          26.000
C20  22840538.297 6 118936651.792 6     -1517.953          41.000
C29  25080855.148 5 130602641.902 5     -3206.090          34.000
E04  26301860.633 6 138217242.520 6     -2255.355          36.000
E05  25114688.375 6 131978582.047 6      1773.629          38.000    25114693.633 5 101126502.152 5      1358.721          34.000
E09  21525724.734 8 113118532.486 8      -414.293          51.000    21525726.938 8  86675239.954 8      -317.472          51.000
E11  26079078.930 6 137046486.239 6     -3217.992          36.000
E36  23984744.875 8 126040685.161 8     -1579.406          51.000    23984747.578 8  96576639.660 8     -1210.218          51.000
> 2020 05 18 22 42 30.0000000  0 15        .000000000000
G03  22230165.688 5 116820304.359 5     -2408.102          35.000    22230180.133 5  91028826.488 5     -1876.446          35.000
G04  20567374.422 8 108082336.806 8     -1261.270          51.000    20567374.875 8  84220018.691 8      -982.807          50.000
G07  24094551.891 5 126617744.909 5      3408.445          34.000    24094552.414 5  98663165.675 5      2655.931          35.000
G09  20504589.305 8 107752419.326 8      1084.023          51.000    20504590.125 8  83962934.599 8       844.694          51.000
G17  24018113.188 7 126216035.926 7     -2858.938          43.000    24018114.133 7  98350140.120 7     -2227.744          44.000
G19  23372396.430 7 122822753.579 7     -2649.535          46.000    23372393.125 7  95706049.008 7     -2064.576          42.000
R12  22475343.227 8 120059246.215 8      3674.246          49.000    22475343.938 7  93379421.683 7      2857.747          43.000
R17  20322708.797 8 108750956.339 8     -2426.973          50.000    20322711.453 7  84584038.091 7     -1887.642          47.000
R24  23255562.727 4 124357956.858 4     -4557.102          28.000    23255574.281 4  96722870.393 4     -3544.415          27.000
C20  22849298.195 6 118982269.814 6     -1523.211          41.000
C29  25099330.906 5 130698846.538 5     -3208.207          33.000
E05  25104574.625 6 131925437.906 6      1768.742          37.000    25104580.141 5 101085781.281 5      1355.126          34.000
E09  21528105.125 8 113131041.002 8      -420.191          51.000    21528107.266 8  86684824.406 8      -321.977          51.000
E11  26097452.797 6 137143047.018 6     -3219.547          36.000
E36  23993794.406 8 126088238.288 8     -1591.445          51.000    23993796.711 8  96613076.463 8     -1219.425          51.000
> 2020 05 18 22 43  0.0000000  0 19        .000000000000
G03  22243919.609 5 116892583.403 5     -2415.734          33.000    22243941.273 5  91085218.587 5     -1882.403          31.000
G04  20574595.820 8 108120286.301 8     -1274.457          49.000    20574596.375 8  84249589.741 8      -993.080          49.000
G07  24075085.086 5 126515457.627 5      3405.059          35.000    24075088.219 5  98583461.341 5      2653.292          35.000
G09  20498425.406 8 107720026.779 8      1069.676          51.000    20498425.562 8  83937693.606 8       833.511          51.000
G17  24034433.742 7 126301800.066 7     -2864.445          42.000    24034434.625 7  98416969.295 7     -2232.038          42.000
G19  23387539.523 7 122902330.043 7     -2661.371          47.000    23387536.438 7  95768056.610 7     -2073.796          43.000
G22  24519543.875 5 128851085.412 5     -2895.219          32.000
R02  19550006.914 5 104322581.250 5        80.176          32.000
R12  22454721.703 7 119949090.417 7      3663.598          47.000    22454722.672 7  93293745.008 7      2849.468          42.000
R17  20336364.562 8 108824029.166 8     -2450.414          51.000    20336366.188 7  84640872.526 7     -1905.878          46.000
R24  23281119.086 5 124494606.609 5     -4559.344          32.000
C19  21912271.195 5 114102939.984 5       947.457          32.000
C20  22858074.906 7 119027973.567 7     -1529.340          43.000
C29  25117806.484 5 130795045.621 5     -3211.195          31.000
E04  26327622.906 5 138352589.453 5     -2257.148          31.000    26327622.156 5 106010406.753 5     -1729.605          34.000
E05  25094476.570 6 131872370.772 6      1763.082          39.000    25094481.336 5 101045119.434 5      1351.065          31.000
E09  21530506.742 8 113143661.357 8      -427.020          51.000    21530509.023 8  86694494.556 8      -327.212          51.000
E11  26115823.875 5 137239580.215 5     -3222.293          35.000
E36  24002900.203 8 126136088.904 8     -1604.469          51.000    24002902.273 8  96649741.229 8     -1229.431          51.000
> 2020 05 18 22 43 30.0000000  0 17        .000000000000
G03  22257752.883 5 116965275.867 5     -2422.980          35.000    22257768.305 5  91141799.451 5     -1888.040          32.000
G04  20581928.141 8 108158818.582 8     -1287.133          50.000    20581929.070 8  84279614.894 8     -1002.961          50.000
G07  24055672.867 5 126413452.064 5      3402.312          32.000    24055677.141 5  98503976.497 5      2651.153          33.000
G09  20492380.016 8 107688255.697 8      1055.672          51.000    20492379.750 8  83912936.914 8       822.601          51.000
G17  24050819.984 6 126387909.195 6     -2869.039          41.000    24050820.438 6  98484067.252 6     -2235.618          41.000
G19  23402785.734 7 122982448.832 7     -2672.711          47.000    23402783.195 7  95830486.807 7     -2082.635          43.000
R02  19549608.578 5 104320434.079 5        69.168          32.000
R12  22434196.305 7 119839451.963 7      3653.051          45.000    22434197.398 6  93208470.647 6      2841.262          40.000
R17  20350187.711 8 108897999.845 8     -2473.539          50.000    20350188.328 7  84698405.242 7     -1923.867          45.000
R24  23306729.023 5 124631548.994 5     -4562.531          35.000    23306743.445 4  96935694.702 4     -3548.635          26.000
C19  21906862.789 6 114074728.638 6       941.004          37.000
C20  22866922.484 7 119074045.841 7     -1535.031          42.000
C29  25136335.508 5 130891519.527 5     -3213.551          31.000
E05  25084448.484 6 131819666.259 6      1757.750          40.000
E09  21532983.828 8 113156678.570 8      -433.520          51.000    21532986.258 8  86704468.788 8      -332.195          51.000
E11  26134246.500 5 137336395.602 5     -3224.441          34.000
E36  24012116.508 8 126184521.681 8     -1617.098          51.000    24012118.961 8  96686852.051 8     -1239.084          51.000
> 2020 05 18 22 44  0.0000000  0 18        .000000000000
G04  20589311.117 8 108197616.863 8     -1299.992          50.000    20589312.125 8  84309847.297 8     -1012.981          50.000
G07  24036255.500 4 126311346.307 4      3400.012          29.000    24036260.023 4  98424451.419 4      2649.372          28.000
G09  20486392.586 8 107656790.816 8      1041.383          51.000    20486392.391 8  83888418.859 8       811.467          51.000
G17  24067211.469 6 126474044.728 6     -2873.949          39.000    24067210.875 6  98551185.795 6     -2239.444          39.000
G19  23418074.258 7 123062790.788 7     -2684.023          47.000    23418072.117 7  95893090.909 7     -2091.450          42.000
R02  19549259.609 6 104318512.688 6        58.035          36.000
R03  22017350.750 4 117860566.416 4      2635.215          29.000
R12  22413708.516 7 119730014.827 7      3642.387          47.000    22413709.844 6  93123352.869 6      2832.967          39.000
R17  20364118.117 8 108972543.793 8     -2496.621          50.000    20364118.219 7  84756383.819 7     -1941.816          47.000
R24  23332329.297 5 124768442.856 5     -4564.703          34.000    23332346.945 4  97042167.760 4     -3550.322          26.000
C19  21901462.961 5 114046607.356 5       933.695          32.000
C20  22875781.070 7 119120173.882 7     -1540.523          44.000
C29  25154856.141 5 130987953.557 5     -3215.766          33.000
E04  26353426.438 6 138488199.082 6     -2259.879          38.000
E05  25074429.492 6 131767009.120 6      1751.965          39.000    25074438.211 6 100964334.033 6      1342.717          36.000
E09  21535476.328 8 113169776.756 8      -440.184          51.000    21535478.633 8  86714505.054 8      -337.281          51.000
E11  26152659.703 5 137433155.277 5     -3227.000          31.000    26152658.203 5 105305918.308 5     -2472.804          30.000
E36  24021383.258 8 126233220.344 8     -1629.891          51.000    24021386.578 8  96724166.595 8     -1248.850          51.000
> 2020 05 18 22 44 30.0000000  0 15        .000000000000
G04  20596766.266 8 108236794.002 8     -1312.348          50.000    20596767.133 8  84340374.928 8     -1022.609          50.000
G09  20480484.992 8 107625746.660 8      1027.738          51.000    20480484.867 8  83864228.596 8       800.835          51.000
G17  24083629.031 6 126560318.182 6     -2878.344          38.000    24083626.984 6  98618411.813 6     -2242.868          39.000
G19  23433426.727 7 123143467.529 7     -2694.949          47.000    23433424.516 7  95955955.898 7     -2099.960          44.000
R12  22393281.445 7 119620900.086 7      3631.715          45.000    22393283.391 6  93038485.895 6      2824.667          38.000
R17  20378176.219 8 109047774.259 8     -2519.215          49.000    20378177.867 8  84814896.416 8     -1959.386          48.000
R24  23357942.516 5 124905400.965 5     -4566.352          33.000    23357959.141 4  97148690.716 4     -3551.607          26.000
C19  21896098.359 5 114018689.562 5       927.613          33.000
C20  22884671.883 7 119166470.892 7     -1546.035          45.000
C29  25173390.445 5 131084458.628 5     -3218.148          34.000
E04  26366325.875 6 138556001.635 6     -2261.078          37.000
E05  25064441.023 6 131714513.892 6      1747.086          39.000    25064455.789 6 100924110.489 6      1338.649          39.000
E09  21538005.875 8 113183069.795 8      -446.473          51.000    21538007.867 8  86724690.631 8      -342.084          51.000
E11                                                                  26171082.188 5 105380109.949 5     -2474.229          31.000
E36  24030722.078 8 126282298.365 8     -1642.340          51.000    24030726.156 8  96761771.831 8     -1258.425          51.000
> 2020 05 18 22 45  0.0000000  0 16        .000000000000
G04  20604295.805 8 108276361.335 8     -1325.398          51.000    20604296.719 8  84371206.620 8     -1032.778          51.000
G09  20474659.594 8 107595136.099 8      1012.957          51.000    20474660.148 8  83840376.195 8       789.317          50.000
G17  24100074.305 6 126646739.744 6     -2883.031          39.000    24100071.766 6  98685753.289 6     -2246.515          39.000
G19  23448844.703 7 123224488.496 7     -2706.355          46.000    23448842.438 7  96019089.089 7     -2108.851          43.000
R02  19548712.633 5 104315648.943 5        37.020          32.000
R12  22372918.086 7 119512125.683 7      3620.363          43.000    22372920.562 6  92953883.589 6      2815.838          39.000
R17  20392363.625 7 109123700.894 7     -2542.520          47.000    20392368.016 7  84873950.471 7     -1977.515          47.000
R24  23383569.602 5 125042432.491 5     -4568.758          34.000    23383585.508 4  97255270.719 4     -3553.481          25.000
C19  21890777.781 5 113990989.069 5       919.254          33.000
C20  22893597.141 7 119212949.485 7     -1552.359          45.000
C29  25191938.984 5 131181045.245 5     -3220.629          34.000
E04                                                                  26379247.312 6 106218293.954 6     -1733.505          36.000
E05  25054485.367 6 131662193.638 6      1741.023          38.000    25054501.875 6 100884020.851 6      1334.208          41.000
E09  21540574.898 8 113196570.019 8      -453.449          51.000    21540576.539 8  86735034.959 8      -347.421          51.000
E11                                                                  26189522.984 5 105454357.113 5     -2476.054          32.000
E36  24040135.312 8 126331767.716 8     -1655.520          51.000    24040140.219 8  96799676.919 8     -1268.479          51.000
> 2020 05 18 22 45 30.0000000  0 16        .000000000000
G04  20611899.547 8 108316318.289 8     -1338.320          51.000    20611900.414 8  84402341.901 8     -1042.847          51.000
G09  20468916.977 8 107564960.125 8       998.625          51.000    20468918.055 8  83816862.469 8       778.149          51.000
G17  24116547.062 6 126733307.291 6     -2887.840          40.000    24116545.016 6  98753208.499 6     -2250.265          40.000
G19  23464327.641 7 123305851.569 7     -2717.621          47.000    23464325.320 7  96082488.884 7     -2117.627          43.000
G22  24602492.469 4 129286970.438 4     -2915.645          29.000
R02  19548538.961 5 104314719.400 5        25.879          32.000    19548545.094 4  81133717.869 4        20.128          26.000
R12  22352619.133 7 119403697.131 7      3608.613          42.000    22352623.281 7  92869550.271 7      2806.702          42.000
R17  20406681.453 7 109200321.364 7     -2565.543          47.000    20406686.820 7  84933544.189 7     -1995.422          44.000
R24  23409209.922 5 125179534.606 5     -4570.809          31.000    23409213.266 4  97361897.240 4     -3555.073          24.000
C20  22902557.484 7 119259610.395 7     -1558.457          44.000
C29  25210502.891 5 131277711.969 5     -3223.480          34.000
E04                                                                  26392168.359 6 106270321.154 6     -1734.975          37.000
E05  25044561.992 6 131610049.314 6      1735.453          36.000    25044579.938 6 100844066.068 6      1329.712          39.000
E09  21543183.531 8 113210277.856 8      -460.465          51.000    21543184.953 8  86745538.370 8      -352.797          51.000
E11                                                                  26207978.539 5 105528669.422 5     -2478.575          32.000
E36  24049623.305 8 126381628.386 8     -1668.543          51.000    24049628.477 8  96837881.857 8     -1278.503          51.000
> 2020 05 18 22 46  0.0000000  0 15        .000000000000
G04  20619560.430 8 108356575.825 8     -1343.953          51.000    20619561.258 8  84433711.426 8     -1047.236          51.000
G09  20463240.555 8 107535131.238 8       991.387          51.000    20463241.523 8  83793619.194 8       772.509          51.000
G17  24133030.164 6 126819930.243 6     -2885.312          39.000    24133028.945 6  98820706.886 6     -2248.295          39.000
G19  23479858.344 7 123387465.959 7     -2721.473          46.000    23479856.203 7  96146084.479 7     -2120.628          44.000
R02  19548407.758 5 104314035.472 5        21.848          33.000
R12  22332369.516 6 119295530.206 6      3604.035          41.000    22332375.039 7  92785420.445 7      2803.138          44.000
R17  20421112.398 8 109277542.937 8     -2580.961          48.000    20421115.922 6  84993605.426 6     -2007.414          41.000
C19  21880256.273 5 113936251.969 5       912.793          31.000
C20  22911536.352 7 119306366.672 7     -1557.227          45.000
C29  25229064.641 5 131374369.604 5     -3218.469          34.000
E04  26405052.133 5 138759486.000 5     -2258.406          32.000    26405081.250 6 106322318.440 6     -1730.482          36.000
E05  25034656.445 5 131557993.587 5      1736.836          34.000    25034672.016 6 100804179.051 6      1330.954          36.000
E09  21545814.875 8 113224105.240 8      -459.941          51.000    21545816.266 8  86756133.381 8      -352.402          51.000
E11                                                                  26226432.180 5 105602973.437 5     -2474.073          31.000
E36  24059169.281 8 126431791.851 8     -1674.125          51.000    24059174.234 8  96876318.802 8     -1282.780          51.000
> 2020 05 18 22 46 30.0000000  0 17        .000000000000
G03  22341487.094 5 117405302.462 5     -2465.676          35.000
G04  20627325.117 8 108397378.859 8     -1362.809          51.000    20627325.844 8  84465505.991 8     -1061.929          51.000
G07  23939448.703 5 125802651.992 5      3383.168          31.000
G09  20457676.961 8 107505895.898 8       970.973          51.000    20457678.219 8  83770838.431 8       756.602          51.000
G17  24149570.227 6 126906852.010 6     -2896.160          36.000    24149569.383 6  98888438.112 6     -2256.751          37.000
G19  23495482.891 7 123469574.806 7     -2738.617          45.000    23495481.219 7  96210065.374 7     -2133.987          44.000
R02  19548373.344 5 104313847.006 5         4.613          34.000    19548384.695 4  81133045.781 4         3.588          26.000
R12  22312216.953 6 119187880.178 6      3586.301          41.000    22312223.469 7  92701692.620 7      2789.345          45.000
R17  20435701.992 8 109355613.293 8     -2610.000          49.000    20435702.172 6  85054326.737 6     -2030.003          41.000
C19  21875061.672 6 113909277.079 6       899.465          36.000
C20  22920580.445 7 119353462.297 7     -1569.309          47.000
C29  25247671.172 5 131471260.048 5     -3227.137          35.000
E04                                                                  26418033.812 5 106374474.271 5     -1736.420          33.000
E05  25024814.117 5 131506285.819 5      1725.078          33.000    25024824.805 5 100764548.770 5      1321.337          35.000
E09  21548515.734 8 113238298.067 8      -472.867          51.000    21548517.188 8  86767008.412 8      -362.354          51.000
E11                                                                  26244929.898 5 105677456.884 5     -2481.104          30.000
E36  24068819.859 8 126482503.633 8     -1693.191          51.000    24068824.281 8  96915175.857 8     -1297.428          51.000
> 2020 05 18 22 47  0.0000000  0 16        .000000000000
G04  20635143.844 8 108438465.679 8     -1376.219          51.000    20635144.297 8  84497521.694 8     -1072.378          51.000
G07  23920146.445 5 125701221.288 5      3379.523          33.000    23920141.414 5  97948977.865 5      2633.395          32.000
G09  20452177.039 8 107476993.918 8       955.844          51.000    20452178.648 8  83748317.418 8       744.813          51.000
G17  24166117.195 6 126993809.501 6     -2901.488          36.000    24166116.305 5  98956197.191 5     -2260.903          35.000
G19  23511151.398 7 123551915.015 7     -2750.539          45.000    23511150.281 7  96274226.588 7     -2143.277          42.000
R02  19548381.570 5 104313889.834 5        -7.340          35.000
R12  22292112.734 6 119080487.149 6      3573.219          40.000    22292119.906 7  92618164.715 7      2779.170          45.000
R17  20450400.641 8 109434264.021 8     -2633.328          50.000    20450399.344 7  85115499.469 7     -2048.144          43.000
C19  21869901.484 6 113882421.065 6       891.316          38.000
C20  22929640.367 7 119400639.278 7     -1575.844          46.000
C29  25266272.836 5 131568123.176 5     -3230.090          33.000
E04  26430970.703 6 138895690.541 6     -2268.348          36.000    26430975.570 5 106426585.799 5     -1738.007          31.000
E05  25014984.727 5 131454631.938 5      1718.160          32.000    25014993.898 5 100725014.917 5      1317.087          30.000
E09  21551236.625 8 113252595.638 8      -480.316          51.000    21551238.039 8  86777963.696 8      -368.017          51.000
E11                                                                  26263421.008 5 105751913.184 5     -2482.998          31.000
E36  24078525.234 8 126533502.536 8     -1706.754          51.000    24078528.531 8  96954252.905 8     -1307.707          51.000
> 2020 05 18 22 47 30.0000000  0 16        .000000000000
G03  22369730.430 5 117553726.120 5     -2480.711          34.000
G04  20643036.953 8 108479943.549 8     -1388.395          51.000    20643037.336 8  84529842.107 8     -1081.866          51.000
G07  23900866.727 5 125599899.881 5      3376.164          34.000    23900864.266 5  97870026.157 5      2630.774          34.000
G09  20446761.492 8 107448534.135 8       941.984          51.000    20446763.039 8  83726140.967 8       734.017          51.000
G17  24182692.047 6 127080908.607 6     -2905.180          36.000    24182690.422 5  99024066.648 5     -2263.779          35.000
G19  23526883.922 7 123634591.785 7     -2760.707          44.000    23526883.383 7  96338650.041 7     -2151.200          44.000
R02  19548453.602 5 104314273.857 5       -17.906          35.000
R12  22272078.469 6 118973466.417 6      3561.758          41.000    22272085.766 7  92534926.379 7      2770.256          44.000
R17  20465227.797 8 109513602.379 8     -2655.340          51.000    20465226.766 7  85177207.054 7     -2065.264          45.000
C19  21864786.305 5 113855791.789 5       884.230          34.000
C20  22938736.492 7 119448005.313 7     -1581.367          46.000
C29  25284889.141 5 131665064.541 5     -3232.559          34.000
E04  26443923.727 6 138963759.467 6     -2269.332          37.000    26443928.383 5 106478742.408 5     -1739.012          33.000
E05  25005191.852 6 131403163.869 6      1712.902          36.000
E09  21553998.070 8 113267106.238 8      -486.484          51.000    21553999.344 8  86789082.204 8      -372.770          51.000
E36  24088305.641 8 126584896.375 8     -1719.027          51.000    24088307.875 8  96993632.578 8     -1317.123          51.000
> 2020 05 18 22 48  0.0000000  0 14        .000000000000
G04  20650999.547 8 108521787.043 8     -1401.668          51.000    20651000.117 8  84562447.418 8     -1092.209          51.000
G07  23881606.047 5 125498679.705 5      3371.727          33.000    23881604.805 5  97791153.352 5      2627.316          33.000
G09  20441425.516 8 107420492.644 8       926.965          51.000    20441426.695 8  83704290.462 8       722.310          51.000
G17  24199289.070 6 127168123.038 6     -2909.840          38.000    24199286.930 6  99092025.933 6     -2267.408          37.000
G19  23542675.648 7 123717578.107 7     -2772.039          45.000    23542675.227 7  96403314.690 7     -2160.030          45.000
R02  19548585.094 5 104314974.430 5       -29.109          31.000    19548603.938 4  81133957.967 4       -22.635          26.000
R12  22252110.000 7 118866798.619 7      3548.680          42.000    22252117.227 7  92451962.554 7      2760.084          43.000
R17  20480177.633 8 109593600.296 8     -2678.359          50.000    20480177.758 7  85239427.642 7     -2083.168          45.000
C20  22947864.328 7 119495536.436 7     -1587.832          46.000
C29  25303516.297 5 131762057.906 5     -3234.699          34.000
E04                                                                  26456887.047 5 106530922.289 5     -1740.446          33.000
E05  24995431.445 6 131351869.860 6      1706.457          37.000    24995436.750 5 100646260.921 5      1307.656          32.000
E09  21556795.258 8 113281805.455 8      -493.914          51.000    21556796.477 8  86800345.232 8      -378.418          51.000
E36  24098156.305 8 126636660.286 8     -1732.410          51.000    24098157.945 8  97033295.834 8     -1327.383          51.000
> 2020 05 18 22 48 30.0000000  0 15        .000000000000
G03  22398134.008 5 117702983.658 5     -2493.766          33.000
G04  20659029.828 8 108563986.510 8     -1412.004          51.000    20659030.531 8  84595330.117 8     -1100.263          51.000
G09  20436167.617 8 107392861.414 8       914.883          51.000    20436168.281 8  83682759.653 8       712.896          51.000
G17  24215905.945 6 127255441.036 6     -2911.574          39.000    24215903.398 6  99160065.943 6     -2268.759          39.000
G19  23558524.242 7 123800862.878 7     -2780.449          43.000    23558523.477 7  96468211.892 7     -2166.587          43.000
R02  19548773.383 5 104315982.603 5       -38.277          31.000    19548781.688 5  81134742.251 5       -29.768          30.000
R12  22232206.414 7 118760480.133 7      3538.887          42.000    22232213.430 6  92369270.345 6      2752.464          41.000
R17  20495247.703 8 109674246.153 8     -2698.359          51.000    20495249.469 7  85302152.216 7     -2098.721          45.000
C19  21854676.930 4 113803023.746 4       871.945          29.000
C20  22957022.297 7 119543224.500 7     -1591.625          45.000
C29  25322150.539 5 131859093.116 5     -3234.453          33.000
E04                                                                  26469851.797 5 106583118.808 5     -1739.476          33.000
E05  24985696.664 5 131300723.773 5      1702.824          33.000    24985700.883 5 100607065.029 5      1304.905          33.000
E09  21559626.547 8 113296684.654 8      -498.320          51.000    21559627.828 8  86811746.173 8      -381.836          51.000
E36  24108075.422 8 126688785.137 8     -1742.812          51.000    24108076.820 8  97073235.665 8     -1335.429          51.000
> 2020 05 18 22 49  0.0000000  0 15        .000000000000
G03  22412378.375 6 117777850.560 6     -2496.777          38.000
G04  20667113.914 8 108606468.922 8     -1420.332          51.000    20667114.648 8  84628433.289 8     -1106.752          51.000
G09  20430974.297 8 107365568.720 8       904.504          51.000    20430974.547 8  83661492.636 8       704.808          51.000
G17  24232528.047 6 127342788.475 6     -2911.465          38.000    24232525.758 6  99228128.827 6     -2268.674          38.000
G19  23574415.516 7 123884371.372 7     -2786.867          44.000    23574413.969 7  96533283.410 7     -2171.588          44.000
R01  22457695.211 5 120049216.556 5     -2952.328          34.000
R02  19549005.453 5 104317225.628 5       -44.656          34.000    19549014.289 5  81135709.059 5       -34.739          32.000
R12  22212356.062 7 118654443.001 7      3530.383          42.000    22212361.945 6  92286796.994 6      2745.853          39.000
R17  20510425.133 8 109755463.488 8     -2716.270          51.000    20510427.258 7  85365321.236 7     -2112.654          44.000
C20  22966196.445 7 119590998.470 7     -1593.543          45.000
C29  25340779.070 5 131956096.815 5     -3232.637          34.000
E04  26482799.258 5 139168053.092 5     -2267.910          34.000
E05                                                                  24975980.836 5 100567933.904 5      1303.792          32.000
E09  21562478.383 8 113311671.826 8      -500.867          51.000    21562479.703 8  86823229.854 8      -383.805          51.000
E36  24118049.055 8 126741198.399 8     -1751.438          51.000    24118050.734 8  97113396.488 8     -1341.969          51.000
> 2020 05 18 22 49 30.0000000  0 15        .000000000000
G03  22426686.992 5 117853049.961 5     -2512.086          34.000
G04  20675294.188 8 108649456.972 8     -1441.117          51.000    20675294.844 8  84661930.477 8     -1122.948          51.000
G09  20425887.898 8 107338838.864 8       881.844          51.000    20425888.289 8  83640664.181 8       687.151          51.000
G17  24249197.406 6 127430386.694 6     -2923.414          36.000    24249195.844 6  99296387.199 6     -2277.985          36.000
G19  23590391.461 7 123968324.349 7     -2805.578          44.000    23590388.773 7  96598701.284 7     -2186.168          44.000
R02  19549325.062 5 104318941.951 5       -64.684          33.000    19549330.836 5  81137035.350 5       -50.306          34.000
R12  22192602.164 7 118548919.643 7      3509.191          43.000    22192606.586 6  92204723.354 6      2729.374          37.000
R17  20525751.633 8 109837477.243 8     -2746.797          50.000    20525753.570 7  85429109.679 7     -2136.398          44.000
C19  21844719.695 4 113751189.656 4       853.336          28.000
C20  22975429.875 7 119639080.384 7     -1607.562          46.000
C29  25359443.391 5 132053289.003 5     -3242.688          30.000
E04                                                                  26495780.891 6 106687549.902 6     -1744.945          36.000
E05                                                                  24966318.383 5 100529036.385 5      1293.433          33.000
E09  21565393.430 8 113326990.724 8      -515.816          51.000    21565394.633 8  86834967.705 8      -395.224          51.000
E36  24128119.844 8 126794123.329 8     -1772.336          51.000    24128122.109 8  97153949.366 8     -1358.060          51.000
> 2020 05 18 22 50  0.0000000  0 14        .000000000000
G04  20683553.586 8 108692860.933 8     -1449.375          51.000    20683554.000 8  84695751.743 8     -1129.383          51.000
G07  23804778.281 5 125094943.733 5      3356.867          32.000
G09  20420891.508 8 107312583.637 8       871.594          51.000    20420892.297 8  83620205.539 8       679.164          51.000
G19  23606434.484 7 124052630.590 7     -2811.684          44.000    23606431.133 7  96664394.421 7     -2190.922          44.000
R02  19549708.500 4 104320989.626 4       -71.398          29.000    19549718.820 5  81138590.738 5       -55.532          35.000
R12  22172929.523 7 118443825.376 7      3500.301          44.000    22172931.188 6  92122983.397 6      2722.456          37.000
R17  20541208.695 8 109920193.767 8     -2764.605          50.000    20541210.922 7  85493444.747 7     -2150.249          44.000
C19  21839819.227 5 113725683.959 5       849.230          30.000
C20  22984706.055 7 119687382.716 7     -1609.465          45.000
C29  25378125.719 5 132150579.907 5     -3240.352          31.000
E04                                                                  26508787.453 6 106739906.325 6     -1743.059          38.000
E05                                                                  24956698.547 5 100490305.106 5      1291.649          35.000
E09  21568354.812 8 113342552.639 8      -518.531          51.000    21568355.836 8  86846891.767 8      -397.319          51.000
E36  24138271.234 8 126847470.725 8     -1781.035          51.000    24138273.828 8  97194825.942 8     -1364.722          51.000
> 2020 05 18 22 50 30.0000000  0 13        .000000000000
G03  22455437.352 5 118004105.239 5     -2523.152          33.000
G04  20691864.312 8 108736534.155 8     -1461.816          51.000    20691864.703 8  84729782.817 8     -1139.078          51.000
G07  23785623.961 5 124994293.854 5      3352.520          35.000    23785620.961 5  97398145.975 5      2612.356          35.000
G09  20415957.898 8 107286657.791 8       857.086          51.000    20415958.750 8  83600003.571 8       667.859          51.000
G19  23622516.359 7 124137141.619 7     -2821.918          46.000    23622512.852 7  96730247.177 7     -2198.897          44.000
R12  22153309.516 7 118339017.170 7      3487.117          42.000    22153311.773 6  92041465.930 6      2712.202          39.000
R17  20556769.242 8 110003462.018 8     -2786.352          51.000    20556771.000 7  85558208.927 7     -2167.162          44.000
C19  21834946.258 5 113700287.405 5       842.285          34.000
C20  22993997.094 7 119735761.428 7     -1615.520          46.000
E04                                                                  26521783.109 6 106792216.414 6     -1744.478          36.000
E05  24947105.641 5 131097919.396 5      1679.555          35.000    24947093.180 6 100451628.756 6      1286.917          36.000
E09  21571334.609 8 113358211.870 8      -525.285          51.000    21571335.641 8  86858890.393 8      -402.461          51.000
E36  24148475.414 8 126901094.361 8     -1793.668          51.000    24148478.219 8  97235914.169 8     -1374.441          51.000
> 2020 05 18 22 51  0.0000000  0 14        .000000000000
G03  22469855.492 5 118079876.903 5     -2529.156          34.000
G04  20700243.852 8 108780568.776 8     -1473.531          51.000    20700244.328 8  84764095.527 8     -1148.206          51.000
G07  23766493.250 6 124893766.057 6      3349.156          36.000    23766491.281 6  97319812.700 6      2609.735          36.000
G09  20411104.812 8 107261155.127 8       843.406          51.000    20411105.414 8  83580131.373 8       657.200          51.000
G19  23638654.242 7 124221947.943 7     -2831.523          44.000    23638651.000 7  96796330.011 7     -2206.382          44.000
G22  24786798.930 5 130255500.541 5     -2954.734          34.000
R12  22133761.781 7 118234595.354 7      3474.621          44.000    22133764.883 6  91960248.901 6      2702.483          41.000
R17  20572450.328 8 110087373.287 8     -2807.301          51.000    20572451.492 7  85623473.228 7     -2183.456          45.000
C19  21830115.023 5 113675118.430 5       836.129          35.000
C20  23003320.312 7 119784309.435 7     -1620.738          46.000
E04                                                                  26534785.367 4 106844583.714 4     -1744.595          27.000
E05  24937536.461 5 131047637.013 5      1674.516          32.000    24937519.766 6 100413079.360 6      1282.903          36.000
E09  21574350.594 8 113374061.785 8      -531.207          51.000    21574351.766 8  86871035.137 8      -407.068          51.000
E36  24158749.891 8 126955087.041 8     -1805.609          51.000    24158753.055 8  97277285.160 8     -1383.486          51.000
> 2020 05 18 22 51 30.0000000  0 13        .000000000000
G03  22484328.219 6 118155930.396 6     -2536.707          36.000
G04  20708698.852 8 108824999.831 8     -1485.895          51.000    20708699.109 8  84798717.145 8     -1157.840          51.000
G07  23747394.438 6 124793399.008 6      3344.383          37.000    23747392.164 6  97241604.630 6      2606.013          36.000
G09  20406339.195 8 107236111.907 8       828.867          51.000    20406339.445 8  83560617.177 8       645.871          51.000
G19  23654854.688 7 124307083.002 7     -2841.445          44.000    23654851.641 7  96862668.980 7     -2214.116          44.000
R02  19551197.172 5 104328928.566 5      -103.051          31.000    19551189.977 4  81144693.690 4       -80.145          27.000
R12  22114294.570 7 118130601.027 7      3461.172          45.000    22114297.953 6  91879364.471 6      2692.026          41.000
R17  20588257.727 8 110171961.268 8     -2829.113          51.000    20588258.594 7  85689263.872 7     -2200.421          45.000
C19  21825329.016 5 113650196.350 5       828.254          34.000
C20  23012682.664 7 119833062.419 7     -1626.871          44.000
E05                                                                  24927985.508 6 100374684.796 6      1278.488          38.000
E09  21577409.812 8 113390138.229 8      -537.898          51.000    21577410.977 8  86883353.454 8      -412.150          51.000
E36  24169101.344 8 127009483.984 8     -1818.203          51.000    24169104.602 8  97318965.928 8     -1393.190          51.000
> 2020 05 18 22 52  0.0000000  0 14        .000000000000
G03  22498821.820 5 118232105.707 5     -2546.316          34.000
G04  20717209.188 8 108869721.594 8     -1499.988          51.000    20717209.227 8  84833565.282 8     -1168.822          51.000
G07  23728307.219 6 124693091.312 6      3338.082          36.000    23728305.055 6  97163442.831 6      2601.106          37.000
G09  20401641.219 8 107211423.953 8       812.602          51.000    20401641.469 8  83541379.831 8       633.196          51.000
G19  23671097.508 7 124392439.186 7     -2853.328          45.000    23671094.383 7  96929180.284 7     -2223.373          43.000
R01  22557554.391 5 120583079.529 5     -2974.605          31.000
R02  19551801.375 5 104332155.675 5      -116.207          35.000    19551798.344 5  81147203.625 5       -90.380          30.000
R12  22094888.492 7 118026933.511 7      3445.602          45.000    22094891.484 6  91798734.254 6      2679.918          39.000
R17  20604171.164 8 110257116.173 8     -2852.469          51.000    20604171.891 7  85755495.455 7     -2218.587          45.000
C19  21820570.148 5 113625418.090 5       818.617          34.000
C20  23022064.031 7 119881917.294 7     -1634.609          44.000
E05                                                                  24918470.148 6 100336365.409 6      1272.460          39.000
E09  21580492.375 8 113406336.648 8      -546.457          51.000    21580493.359 8  86895765.229 8      -418.705          51.000
E36  24179509.469 8 127064180.069 8     -1832.742          51.000    24179512.812 8  97360875.913 8     -1404.228          51.000
> 2020 05 18 22 52 30.0000000  0 14        .000000000000
G03  22513391.766 5 118308672.000 5     -2552.285          31.000
G04  20725808.789 8 108914912.931 8     -1511.148          51.000    20725808.953 8  84868779.326 8     -1177.515          51.000
G07  23709265.789 6 124593025.891 6      3334.469          38.000    23709264.711 6  97085469.790 6      2598.287          38.000
G09  20397045.000 8 107187271.671 8       799.164          51.000    20397045.500 8  83522559.877 8       622.725          51.000
G19  23687415.984 7 124478193.536 7     -2862.211          43.000    23687413.219 7  96996001.847 7     -2230.294          43.000
R02  19552485.359 6 104335814.984 6      -126.375          36.000    19552488.211 5  81150049.807 5       -98.295          33.000
R12  22075578.469 7 117923780.703 7      3432.816          43.000    22075580.305 5  91718504.355 5      2669.968          34.000
R17  20620224.375 8 110343018.115 8     -2872.773          49.000    20620224.938 7  85822308.056 7     -2234.379          46.000
C19  21815876.398 5 113600963.070 5       813.391          31.000
C20  23031499.719 7 119931052.549 7     -1639.320          43.000
E04  26573824.523 5 139646394.083 5     -2282.027          35.000    26573807.797 5 107001729.371 5     -1748.498          34.000
E05                                                                  24909008.578 6 100298259.480 6      1268.886          41.000
E09  21583632.266 8 113422836.915 8      -552.016          51.000    21583633.305 8  86908408.283 8      -422.925          51.000
E36  24190008.289 8 127119354.613 8     -1844.086          51.000    24190011.617 8  97403152.514 8     -1412.983          51.000
> 2020 05 18 22 53  0.0000000  0 13        .000000000000
G04  20734451.070 8 108960328.413 8     -1521.688          51.000    20734451.117 8  84904168.023 8     -1185.731          51.000
G07  23690224.359 6 124492961.364 6      3331.543          39.000    23690223.781 6  97007497.445 6      2596.011          39.000
G09  20392504.273 8 107163411.034 8       786.449          51.000    20392504.812 8  83503967.175 8       612.818          51.000
G19  23703763.164 6 124564099.313 6     -2869.980          41.000    23703760.852 7  97062941.365 7     -2236.351          42.000
R02  19553206.922 6 104339658.957 6      -135.488          40.000    19553210.492 5  81153039.556 5      -105.380          33.000
R11  21689343.062 5 115901271.852 5       273.508          35.000    21689336.367 4  90145414.081 4       212.731          28.000
R12  22056319.242 6 117820899.565 6      3420.535          41.000    22056318.500 5  91638485.755 5      2660.419          32.000
R17  20636369.062 7 110429414.538 7     -2892.281          47.000    20636370.289 7  85889505.270 7     -2249.552          46.000
C20  23040942.977 7 119980226.510 7     -1643.789          43.000
E04  26586836.023 5 139714774.270 5     -2282.367          33.000    26586825.875 5 107054110.592 5     -1748.414          35.000
E05                                                                  24899553.789 7 100260180.248 7      1265.642          42.000
E09  21586782.906 8 113439394.690 8      -557.070          51.000    21586784.391 8  86921095.408 8      -426.870          51.000
E36  24200551.938 8 127174762.670 8     -1854.980          51.000    24200554.812 8  97445608.025 8     -1421.415          51.000
> 2020 05 18 22 53 30.0000000  0 14        .000000000000
G04  20743150.891 8 109006046.400 8     -1523.035          51.000    20743150.750 8  84939792.417 8     -1186.781          51.000
G07  23671198.492 6 124392980.214 6      3337.191          40.000    23671198.359 6  96929590.007 6      2600.406          40.000
G09  20388034.430 8 107139921.803 8       782.762          51.000    20388034.992 8  83485663.880 8       609.944          51.000
G19  23720153.523 7 124650232.813 7     -2868.633          42.000    23720151.922 7  97130058.381 7     -2235.298          42.000
R02  19553977.141 5 104343768.578 5      -135.414          34.000    19553980.414 5  81156235.842 5      -105.331          31.000
R11  21687856.125 6 115893355.304 6       257.793          38.000    21687857.664 4  90139254.728 4       200.512          26.000
R12  22037127.078 6 117718375.897 6      3417.578          41.000    22037124.992 5  91558745.106 5      2658.116          33.000
R17  20652620.539 8 110516383.436 8     -2902.480          48.000    20652622.734 7  85957147.760 7     -2257.488          46.000
C19  21806553.453 5 113552434.560 5       810.340          34.000
C20  23050409.164 7 120029518.113 7     -1639.066          45.000
E04  26599845.133 5 139783129.026 5     -2272.309          34.000    26599839.109 5 107106490.256 5     -1741.242          32.000
E05                                                                  24890119.531 6 100222188.969 6      1269.604          41.000
E09  21589959.617 8 113456089.345 8      -552.645          51.000    21589961.500 8  86933887.404 8      -423.473          51.000
E36  24211155.672 8 127230483.061 8     -1856.469          51.000    24211158.039 8  97488302.825 8     -1422.456          51.000
> 2020 05 18 22 54  0.0000000  0 13        .000000000000
G04  20751949.836 8 109052285.632 8     -1554.945          51.000    20751949.852 8  84975822.981 8     -1211.646          51.000
G07  23652230.602 6 124293305.790 6      3312.516          41.000    23652231.023 6  96851921.619 6      2581.181          41.000
G09  20383677.211 8 107117024.220 8       748.324          51.000    20383677.844 8  83467821.611 8       583.110          51.000
G19  23736628.781 7 124736811.339 7     -2898.312          44.000    23736627.859 7  97197522.179 7     -2258.422          42.000
R02  19554837.898 5 104348366.496 5      -166.488          34.000    19554838.664 4  81159812.080 4      -129.488          28.000
R11  21686551.977 5 115886344.773 5       210.555          32.000    21686553.633 5  90133834.817 5       163.759          32.000
R12  22018045.297 6 117616438.234 6      3382.895          40.000    22018043.203 5  91479460.233 5      2631.137          35.000
R17  20669021.008 8 110604145.320 8     -2943.629          50.000    20669023.031 7  86025406.995 7     -2289.489          45.000
C20  23059940.422 7 120079145.510 7     -1664.781          46.000
E04  26612891.336 6 139851688.566 6     -2293.602          36.000    26612890.570 4 107159081.957 4     -1757.914          29.000
E05                                                                  24880747.945 6 100184454.579 6      1249.646          38.000
E09  21593204.406 8 113473140.737 8      -579.543          51.000    21593206.305 8  86946952.750 8      -444.101          51.000
E36  24221860.867 8 127286734.985 8     -1888.926          51.000    24221863.125 8  97531404.913 8     -1447.526          51.000
> 2020 05 18 22 54 30.0000000  0 14        .000000000000
G04  20760811.039 8 109098852.331 8     -1569.219          51.000    20760811.266 8  85012108.709 8     -1222.768          51.000
G07  23633285.023 6 124193748.376 6      3305.254          41.000    23633285.609 7  96774344.365 7      2575.516          42.000
G09  20379395.984 8 107094525.909 8       731.746          51.000    20379396.719 8  83450290.462 8       570.192          51.000
G19  23753151.758 7 124823639.472 7     -2909.895          44.000    23753150.703 6  97265180.466 6     -2267.450          40.000
R02  19555754.133 5 104353257.926 5      -179.715          34.000    19555754.344 4  81163641.527 4      -139.775          28.000
R11  21685391.914 6 115880144.581 6       181.953          36.000    21685400.156 4  90129028.486 4       141.516          28.000
R17  20685532.789 8 110692500.662 8     -2966.801          51.000    20685534.414 7  86094127.793 7     -2307.515          45.000
C19  21797432.812 5 113504952.501 5       773.023          34.000
C20  23069499.031 7 120128918.137 7     -1672.852          44.000
C29  25546470.562 5 133027183.432 5     -3264.555          30.000
E04  26625937.656 6 139920247.237 6     -2297.062          36.000
E05  24871393.656 5 130700060.843 5      1623.043          34.000    24871401.492 5 100146829.848 5      1243.355          34.000
E09  21596480.500 8 113490356.138 8      -588.121          51.000    21596482.273 8  86960143.760 8      -450.662          51.000
E36  24232630.250 8 127343325.064 8     -1903.477          51.000    24232632.852 8  97574766.122 8     -1458.523          51.000
> 2020 05 18 22 55  0.0000000  0 14        .000000000000
G04  20769751.000 8 109145832.871 8     -1570.637          51.000    20769751.344 8  85048716.922 8     -1223.873          51.000
G07  23614378.984 7 124094398.428 7      3310.254          43.000    23614379.219 7  96696928.834 7      2579.416          42.000
G09  20375207.641 8 107072514.665 8       727.848          51.000    20375208.312 8  83433138.841 8       567.154          51.000
G19  23769738.484 7 124910801.694 7     -2908.770          44.000    23769736.461 6  97333099.069 6     -2266.574          40.000
R02  19556742.195 5 104358531.154 5      -180.094          35.000    19556743.625 4  81167742.962 4      -140.067          28.000
R11  21684393.172 6 115874811.969 6       166.297          38.000
R12  21980127.547 5 117413893.328 5      3362.613          35.000    21980118.305 5  91321909.910 5      2615.372          34.000
R17  20702171.625 8 110781534.680 8     -2976.789          51.000    20702172.648 7  86163376.461 7     -2315.283          46.000
C19  21792948.008 5 113481587.949 5       776.848          33.000
C20  23079101.961 7 120178922.974 7     -1668.430          42.000
C29  25565218.234 5 133124825.006 5     -3254.352          30.000
E05  24862097.117 5 130651198.410 5      1627.180          34.000    24862098.758 5 100109369.140 5      1247.141          31.000
E09  21599804.375 8 113507822.950 8      -584.020          51.000    21599806.227 8  86973527.423 8      -447.430          51.000
E36  24243479.852 8 127400340.094 8     -1905.246          51.000    24243483.141 8  97618452.958 8     -1459.789          51.000
> 2020 05 18 22 55 30.0000000  0 13        .000000000000
G04  20778748.594 8 109193116.090 8     -1582.176          51.000    20778749.023 8  85085560.994 8     -1232.864          51.000
G07  23595491.906 7 123995148.516 7      3305.496          43.000    23595491.992 7  96619591.225 7      2575.711          43.000
G09  20371090.984 8 107050880.731 8       713.840          51.000    20371091.516 8  83416281.230 8       556.239          51.000
G19  23786367.414 7 124998185.203 7     -2917.395          46.000    23786363.781 6  97401190.115 6     -2273.294          41.000
R02  19557781.891 6 104364074.866 6      -190.492          38.000    19557783.195 5  81172054.709 5      -148.164          30.000
R11  21683540.938 5 115870279.861 5       139.941          31.000    21683522.508 4  90121273.762 4       108.843          28.000
R12  21961283.852 5 117313222.897 5      3348.059          35.000    21961273.008 5  91243610.767 5      2604.049          31.000
R17  20718915.750 8 110871132.572 8     -2997.070          49.000    20718915.906 7  86233063.718 7     -2331.055          45.000
C20  23088729.078 7 120229051.283 7     -1673.891          42.000
C29  25583967.844 4 133222429.561 4     -3254.820          28.000
E05  24852822.930 5 130602464.406 5      1621.742          34.000
E09  21603155.141 8 113525431.116 8      -590.234          51.000    21603157.180 8  86987019.407 8      -452.255          51.000
E36  24254388.359 8 127457669.339 8     -1917.262          50.000    24254392.602 8  97662380.561 8     -1468.996          51.000
> 2020 05 18 22 56  0.0000000  0 13        .000000000000
G04  20787808.242 8 109240724.620 8     -1590.121          51.000    20787808.617 8  85122658.550 8     -1239.052          51.000
G07  23576628.945 7 123896025.350 7      3304.277          43.000    23576628.562 7  96542352.353 7      2574.759          43.000
G09  20367050.695 8 107029648.142 8       703.414          51.000    20367051.039 8  83399736.374 8       548.115          51.000
G19  23803042.273 7 125085810.877 7     -2922.555          47.000    23803036.945 6  97469469.839 6     -2277.315          41.000
R02  19558876.406 6 104369913.775 6      -197.602          38.000    19558879.000 5  81176596.001 5      -153.693          34.000
R11  21682813.820 5 115866338.389 5       116.344          34.000
R12  21942515.297 5 117212964.081 5      3337.551          35.000
R17  20735767.398 7 110961314.524 7     -3013.434          47.000    20735768.773 7  86303205.249 7     -2343.782          45.000
C20  23098384.539 6 120279326.889 6     -1675.867          41.000
C29  25602721.242 5 133320082.005 5     -3251.062          30.000
E05  24843575.219 6 130553862.187 6      1620.051          37.000
E09  21606537.398 8 113543204.352 8      -592.938          51.000    21606539.484 8  87000637.860 8      -454.380          51.000
E36  24265360.633 8 127515335.787 8     -1925.566          49.000    24265365.633 8  97706566.576 8     -1475.503          51.000
> 2020 05 18 22 56 30.0000000  0 14        .000000000000
G04  20796923.281 8 109288624.024 8     -1604.613          51.000    20796923.633 8  85159982.746 8     -1250.348          51.000
G07  23557784.461 6 123796999.446 6      3296.152          41.000    23557784.195 6  96465189.341 6      2568.427          41.000
G09  20363080.523 8 107008783.822 8       686.219          51.000    20363080.789 8  83383478.490 8       534.716          51.000
G19  23819756.312 7 125173642.798 7     -2934.348          45.000    23819750.125 6  97537910.261 6     -2286.508          39.000
R01  22708241.984 5 121388565.610 5     -2993.602          32.000
R02  19560019.805 6 104376013.029 6      -211.027          37.000    19560024.242 5  81181339.851 5      -164.135          32.000
R12  21923815.195 6 117113088.151 6      3319.531          37.000
R17  20752721.023 8 111052043.354 8     -3036.453          49.000    20752723.672 7  86373772.097 7     -2361.689          45.000
C20  23108060.961 6 120329717.081 6     -1684.445          39.000
C29  25621467.664 4 133417705.091 4     -3255.578          29.000
E04  26678197.484 5 140194870.631 5     -2290.160          35.000    26678177.383 5 107421981.971 5     -1754.675          32.000
E05  24834349.094 6 130505369.982 6      1611.301          40.000
E09  21609944.719 8 113561109.264 8      -602.012          51.000    21609946.742 8  87014357.204 8      -461.276          51.000
E36  24276391.289 8 127573305.407 8     -1940.383          51.000    24276395.977 8  97750984.882 8     -1486.766          51.000
> 2020 05 18 22 57  0.0000000  0 16        .000000000000
G03  22646072.320 5 119005918.368 5     -2613.402          33.000    22646074.086 5  92731865.372 5     -2036.414          33.000
G04  20806116.297 8 109336933.663 8     -1615.586          51.000    20806116.781 8  85197626.630 8     -1258.898          51.000
G07  23538981.711 6 123698193.620 6      3291.488          40.000    23538982.984 6  96388197.738 6      2564.796          40.000
G09  20359203.180 8 106988408.525 8       672.574          51.000    20359203.719 8  83367601.643 8       524.084          51.000
G19  23836531.695 7 125261798.489 7     -2942.301          44.000    23836526.023 7  97606602.985 7     -2292.702          42.000
R02  19561234.523 6 104382495.741 6      -220.984          37.000    19561238.523 4  81186381.896 4      -171.883          28.000
R11  21681838.625 4 115861170.672 4        60.930          29.000    21681818.930 4  90114161.990 4        47.390          28.000
R12  21905211.781 6 117013722.859 6      3305.348          41.000    21905221.531 4  91010703.000 4      2570.826          25.000
R17  20769800.539 8 111143438.313 8     -3055.988          51.000    20769803.141 7  86444856.999 7     -2376.880          44.000
C19  21775351.836 6 113389949.729 6       748.781          37.000
C20  23117782.266 6 120380341.593 6     -1689.742          40.000
C29  25640229.086 5 133515388.597 5     -3255.551          30.000
E04  26691274.648 5 140263594.253 5     -2290.172          32.000    26691252.531 5 107474641.996 5     -1755.573          30.000
E05  24825167.023 6 130457111.724 6      1606.379          38.000
E09  21613399.898 8 113579266.309 8      -607.859          51.000    21613401.938 8  87028269.739 8      -465.738          51.000
E36  24287503.414 8 127631697.960 8     -1951.809          51.000    24287506.742 8  97795727.226 8     -1495.563          51.000
> 2020 05 18 22 57 30.0000000  0 15        .000000000000
G04  20815371.734 8 109385571.295 8     -1626.613          51.000    20815372.227 8  85235526.091 8     -1267.491          51.000
G07  23520205.953 6 123599529.806 6      3286.469          41.000    23520210.164 6  96311316.848 6      2560.885          41.000
G09  20355403.430 8 106968441.410 8       658.770          51.000    20355404.281 8  83352042.848 8       513.330          51.000
G19  23853352.484 7 125350193.990 7     -2950.582          44.000    23853347.938 6  97675482.586 6     -2299.155          39.000
R02  19562505.727 6 104389279.429 6      -230.918          36.000    19562509.102 4  81191674.051 4      -179.603          25.000
R11  21681548.188 6 115859621.263 6        34.863          36.000    21681539.430 4  90113000.654 4        27.107          28.000
R12  21886690.859 6 116914790.606 6      3290.355          38.000
R17  20786989.117 8 111235413.398 8     -3075.453          51.000    20786991.195 7  86516393.136 7     -2392.019          45.000
C19  21771055.062 5 113367592.279 5       742.352          32.000
C20  23127534.219 6 120431120.286 6     -1694.898          38.000
C29  25658991.055 5 133613073.016 5     -3255.527          32.000
E04                                                                  26704330.430 4 107527273.386 4     -1756.459          29.000
E05  24816011.852 5 130409006.837 5      1600.984          32.000
E09  21616887.555 8 113597594.364 8      -613.727          51.000    21616889.695 8  87042313.310 8      -470.234          51.000
E36  24298681.016 8 127690431.623 8     -1963.453          51.000    24298682.742 8  97840730.920 8     -1504.404          51.000
> 2020 05 18 22 58  0.0000000  0 15        .000000000000
G03  22675993.484 5 119163145.109 5     -2628.371          34.000    22675993.570 4  92854387.389 4     -2048.084          28.000
G04  20824689.508 8 109434536.201 8     -1639.113          51.000    20824689.953 8  85273680.562 8     -1277.231          51.000
G07  23501458.250 7 123501011.434 7      3280.008          43.000    23501466.961 6  96234549.212 6      2555.847          36.000
G09  20351681.586 8 106948883.076 8       643.633          51.000    20351682.414 8  83336802.596 8       501.532          51.000
G19  23870218.492 7 125438826.842 7     -2959.809          44.000    23870214.617 7  97744547.154 7     -2306.344          42.000
R02  19563833.461 5 104396364.852 5      -243.109          35.000    19563838.180 4  81197189.167 4      -189.076          27.000
R12  21868251.820 6 116816296.812 6      3274.332          36.000    21868246.570 5  90857069.269 5      2546.706          32.000
R17  20804284.953 8 111327965.235 8     -3096.234          51.000    20804287.086 7  86588377.917 7     -2408.182          44.000
C19  21766797.867 5 113345437.857 5       732.852          32.000
C20  23137316.961 6 120482053.954 6     -1701.871          37.000
C29  25677752.336 4 133710756.450 4     -3258.066          28.000
E04  26717437.555 5 140401077.204 5     -2294.055          34.000
E05  24806876.828 5 130361013.373 5      1594.203          34.000
E09  21620407.828 8 113616093.760 8      -621.012          51.000    21620410.125 8  87056488.163 8      -475.819          51.000
E36  24309923.406 8 127749506.023 8     -1976.391          51.000    24309924.125 8  97885995.690 8     -1514.362          51.000
> 2020 05 18 22 58 30.0000000  0 14        .000000000000
G03  22690999.562 5 119242016.417 5     -2637.172          32.000    22691020.266 4  92915933.462 4     -2054.939          28.000
G04  20834062.742 8 109483792.752 8     -1651.785          51.000    20834063.305 8  85312062.298 8     -1287.105          51.000
G07  23482732.406 7 123402606.956 7      3273.309          44.000    23482748.117 5  96157870.294 5      2550.627          34.000
G09  20348030.859 8 106929699.300 8       628.133          51.000    20348031.766 8  83321854.215 8       489.454          51.000
G19  23887122.672 7 125527659.617 7     -2969.496          43.000    23887118.562 6  97813767.466 6     -2313.896          41.000
R02  19565210.992 5 104403716.631 5      -254.797          33.000    19565218.250 5  81202907.284 5      -198.172          31.000
R11  21681446.211 6 115859078.395 6       -21.105          37.000    21681439.734 4  90112597.944 4       -16.415          29.000
R17  20821680.398 8 111421055.302 8     -3117.160          50.000    20821682.930 7  86660781.295 7     -2424.458          43.000
C19  21762574.773 5 113323452.950 5       725.309          31.000
C20  23147120.094 5 120533108.648 5     -1709.684          32.000
E04  26730513.508 5 140469797.911 5     -2296.113          34.000
E05  24797779.414 6 130313183.025 6      1587.422          39.000
E09  21623954.156 8 113634729.909 8      -628.520          51.000    21623956.578 8  87070767.806 8      -481.623          51.000
E36  24321223.672 8 127808885.850 8     -1989.496          51.000    24321224.211 8  97931494.486 8     -1524.416          51.000
> 2020 05 18 22 59  0.0000000  0 12        .000000000000
G04  20843526.875 8 109533526.849 8     -1662.461          51.000    20843527.531 8  85350816.150 8     -1295.421          50.000
G07  23464064.562 7 123304506.411 7      3268.258          45.000    23464078.219 6  96081428.096 6      2546.691          39.000
G09  20344486.984 8 106911077.363 8       614.664          51.000    20344487.906 8  83307343.629 8       478.959          51.000
G19  23904100.086 7 125616876.702 7     -2976.977          43.000    23904095.281 6  97883287.207 6     -2319.725          41.000
R02  19566674.164 5 104411525.102 5      -264.770          34.000    19566681.242 5  81208980.521 5      -205.935          30.000
R11  21681629.188 5 115860115.031 5       -46.574          35.000    21681626.406 4  90113373.165 4       -36.227          27.000
R17  20839211.461 8 111514870.558 8     -3135.875          49.000    20839212.984 6  86733748.715 6     -2439.014          41.000
C19  21758423.273 5 113301824.024 5       717.980          30.000
C20  23156981.641 5 120584470.020 5     -1713.531          35.000
E05  24788738.859 6 130265660.495 6      1582.094          39.000
E09  21627562.148 8 113653689.884 8      -634.164          51.000    21627564.562 8  87085295.580 8      -485.903          51.000
E36  24332617.000 8 127868757.424 8     -2000.586          51.000    24332618.164 8  97977370.095 8     -1532.937          51.000
> 2020 05 18 22 59 30.0000000  0 13        .000000000000
G04  20853039.898 8 109583517.624 8     -1671.219          51.000    20853040.477 8  85389769.996 8     -1302.248          51.000
G07  23445413.602 7 123206493.466 7      3265.086          46.000    23445420.141 7  96005054.283 7      2544.223          45.000
G09  20341008.398 8 106892797.699 8       603.074          51.000    20341009.320 8  83293099.737 8       469.928          51.000
G19  23921108.211 7 125706255.515 7     -2982.551          43.000    23921103.625 6  97952932.987 6     -2324.066          38.000
R02  19568181.352 5 104419567.189 5      -272.336          35.000    19568186.148 4  81215235.390 4      -211.817          29.000
R11  21681952.875 5 115861868.296 5       -71.434          30.000    21681959.703 5  90114726.853 5       -55.550          30.000
R12  21813465.773 6 116523631.790 6      3229.402          36.000
R17  20856835.875 8 111609183.523 8     -3152.656          51.000    20856835.961 6  86807103.209 6     -2452.066          41.000
C19  21754298.008 5 113280336.047 5       712.727          31.000
C20  23166861.953 5 120635920.603 5     -1717.293          33.000
E05  24779712.883 6 130218226.477 6      1579.305          37.000    24779720.375 5  99777658.407 5      1209.754          32.000
E09  21631189.930 8 113672753.839 8      -637.816          51.000    21631192.188 8  87099903.024 8      -488.725          51.000
E36  24344061.125 8 127928900.132 8     -2009.883          51.000    24344063.852 8  98023453.481 8     -1540.043          51.000
