     3.02           OBSERVATION DATA    M (MIXED)           RINEX VERSION / TYPE
SAVERINEX           SC600               20200518 175932 LCL PGM / RUN BY / DATE
       G = GPS       R = GLONASS       C = COMPASS          COMMENT
       S = SBAS      J = QZSS          E = GALILEO          COMMENT
BEAN                                                        MARKER NAME
1                                                           MARKER NUMBER
GEODETIC                                                    MARKER TYPE
Unige DICCA         GTER                                    OBSERVER / AGENCY
SC60291900056       SC600               2.12(191202)        REC # / TYPE / VERS
                    HEMA45          NONE                    ANT # / TYPE
  4509407.8091   693652.4678  4442337.6214                  APPROX POSITION XYZ
        0.0000        0.0000        0.0000                  ANTENNA: DELTA H/E/N
G    8 C1C L1C D1C S1C C2Y L2Y D2Y S2Y                      SYS / # / OBS TYPES
R    8 C1C L1C D1C S1C C2P L2P D2P S2P                      SYS / # / OBS TYPES
C    4 C1I L1I D1I S1I                                      SYS / # / OBS TYPES
E    8 C1C L1C D1C S1C C7Q L7Q D7Q S7Q                      SYS / # / OBS TYPES
DBHZ                                                        COMMENT
     30.000                                                 INTERVAL
  2020    05    18    15    00    0.0000000     GPS         TIME OF FIRST OBS
  2020    05    18    15    59   30.0000000     GPS         TIME OF LAST OBS
     0                                                      RCV CLOCK OFFS APPL
G L1C  0.00000                                              SYS / PHASE SHIFT
G L2Y  0.00000                                              SYS / PHASE SHIFT
R L1C  0.00000                                              SYS / PHASE SHIFT
R L2P  0.25000                                              SYS / PHASE SHIFT
C L1I  0.00000                                              SYS / PHASE SHIFT
E L1C  0.50000                                              SYS / PHASE SHIFT
E L7Q -0.25000                                              SYS / PHASE SHIFT
 14 R03  5 R04  6 R05  1 R06 -4 R07  5 R09 -2 R10 -5 R11  0 GLONASS SLOT / FRQ #
    R12 -1 R16 -1 R19  3 R20  2 R21  4 R22 -3               GLONASS SLOT / FRQ #
 C1C   71.950 C2C   71.950 C2P   71.950                     GLONASS COD/PHS/BIS
    18                                                      LEAP SECONDS
*** Above antenna height is from mark to ANTENNA BOTTOM.    COMMENT
    17     4        0.0000        ANT MEASURE TYPE/HEIGT    COMMENT
    0.0000    0.0000    0.0458    0.0405    0.0000          COMMENT
                    BASE STATION                            COMMENT
                                                            END OF HEADER
> 2020 05 18 15 00  0.0000000  0 13        .000000000000
G10  21735264.789 8 114219576.749 8      2214.582          51.000    21735268.125 8  89002284.580 8      1725.648          51.000
G16  20607850.008 8 108294993.129 8      -986.211          50.000    20607849.469 8  84385687.980 8      -768.476          50.000
G20  20968802.984 7 110191833.261 7       -91.055          47.000    20968802.477 7  85863815.921 7       -70.952          42.000
G26  21862990.125 8 114890789.485 8     -2897.867          50.000    21862993.461 8  89525280.346 8     -2258.081          51.000
R05  21724550.438 5 116130096.919 5      -297.707          33.000
R06  21946083.094 7 117108514.325 7      3434.750          43.000
R11  20813005.023 8 111218466.787 8     -2733.082          50.000    20813005.922 7  86503234.065 7     -2125.734          45.000
R21  19743656.367 5 105652271.912 5      -339.164          33.000
C27  22265498.938 5 115942312.877 5      1377.340          32.000
C28  22282005.797 8 116028245.181 8     -1189.770          51.000
E26  26218393.945 5 137778590.545 5     -2370.281          35.000    26218395.656 5 105570613.810 5     -1816.276          30.000
E31  24800110.453 8 130325438.707 8     -2212.031          51.000    24800109.766 8  99859750.598 8     -1694.984          49.000
E33  23852568.359 8 125346124.293 8     -1009.988          51.000    23852569.250 8  96044453.261 8      -773.884          51.000
> 2020 05 18 15 00 30.0000000  0 15        .000000000000
G10  21722663.297 8 114153355.874 8      2198.309          51.000    21722666.469 8  88950683.912 8      1712.968          51.000
G16  20613532.766 8 108324853.714 8     -1006.559          51.000    20613531.844 8  84408955.960 8      -784.331          51.000
G20  20969376.484 8 110194845.456 8      -111.621          48.000    20969375.711 7  85866163.062 7       -86.981          43.000
G26  21879564.953 8 114977890.248 8     -2910.621          49.000    21879568.195 8  89593151.005 8     -2268.019          49.000
G27  20825595.000 5 109439254.415 5      1487.262          32.000
R05  21726296.719 5 116139432.414 5      -326.012          32.000    21726292.992 4  90330718.405 4      -253.571          25.000
R06  21926810.477 6 117005667.747 6      3419.707          40.000
R11  20828404.336 8 111300757.618 8     -2755.023          50.000    20828406.594 7  86567238.013 7     -2142.796          46.000
R21  19745574.117 4 105662548.098 4      -351.105          29.000
R22  21628687.758 5 115455423.276 5      2438.461          34.000    21628689.859 4  89798655.888 4      1896.581          28.000
C27  22257579.164 5 115901084.268 5      1368.520          31.000
C28  22288877.656 8 116064028.804 8     -1197.770          49.000
E26  26231921.125 5 137849676.041 5     -2371.246          33.000
E31  24812767.625 8 130391948.271 8     -2223.773          51.000    24812767.258 8  99910712.393 8     -1703.912          50.000
E33  23858346.914 8 125376490.587 8     -1016.316          51.000    23858347.688 8  96067720.939 8      -778.751          51.000
> 2020 05 18 15 01  0.0000000  0 12        .000000000000
G10  21710189.398 8 114087805.416 8      2181.754          51.000    21710192.758 8  88899605.649 8      1700.068          51.000
G16  20619365.758 8 108355503.590 8     -1026.871          51.000    20619364.492 8  84432838.970 8      -800.159          51.000
G20  20970102.586 7 110198660.801 7      -132.566          47.000    20970101.969 7  85869136.091 7      -103.295          43.000
G26  21896246.719 8 115065554.016 8     -2923.598          48.000    21896250.109 8  89661460.387 8     -2278.128          48.000
R05  21728237.852 4 116149855.851 4      -355.086          28.000
R06  21907655.906 6 116903457.411 6      3404.371          36.000
R11  20843960.688 8 111383888.650 8     -2776.867          50.000    20843964.281 7  86631895.471 7     -2159.786          46.000
R21  19747602.570 5 105673434.591 5      -363.348          30.000    19747618.625 4  82190478.230 4      -282.604          25.000
C27  22249740.109 5 115860262.753 5      1361.113          30.000
C28  22295829.906 8 116100230.916 8     -1205.801          49.000
E31  24825525.953 8 130458992.224 8     -2235.699          51.000    24825527.039 8  99962083.690 8     -1713.116          51.000
E33  23864196.750 8 125407231.411 8     -1023.027          51.000    23864197.242 8  96091275.588 8      -783.881          51.000
> 2020 05 18 15 01 30.0000000  0 10        .000000000000
G10  21697767.648 8 114022529.955 8      2163.078          51.000    21697771.508 8  88848741.665 8      1685.515          51.000
G16  20625272.961 8 108386544.394 8     -1049.348          51.000    20625271.461 8  84457026.594 8      -817.673          51.000
G20  20970905.742 8 110202881.765 8      -155.586          49.000    20970905.102 7  85872425.147 7      -121.236          43.000
G26  21912959.312 7 115153380.931 7     -2938.270          47.000    21912963.086 7  89729896.924 7     -2289.561          47.000
R06  21888544.562 5 116801483.422 5      3386.848          31.000
R11  20859597.984 8 111467451.779 8     -2800.805          50.000    20859602.164 7  86696888.991 7     -2178.407          46.000
R21  19749657.398 5 105684414.440 5      -376.270          31.000
C28  22302786.742 8 116136457.378 8     -1215.969          48.000
E31  24838309.297 8 130526171.504 8     -2249.609          49.000    24838312.438 8 100013558.700 8     -1723.715          51.000
E33  23870042.086 8 125437948.504 8     -1031.605          51.000    23870042.367 8  96114812.060 8      -790.409          51.000
> 2020 05 18 15 02  0.0000000  0 11        .000000000000
G10  21685348.758 8 113957269.858 8      2161.703          51.000    21685353.141 8  88797889.650 8      1684.444          51.000
G16  20631204.531 8 108417714.037 8     -1054.434          51.000    20631202.891 8  84481314.625 8      -821.637          51.000
G20  20971736.312 7 110207246.493 7      -161.152          47.000    20971735.891 7  85875826.242 7      -125.570          42.000
G26  21929652.445 7 115241107.020 7     -2935.855          46.000    21929656.969 7  89798254.917 7     -2287.680          46.000
R05  21732419.727 6 116172156.515 6      -397.562          36.000
R06  21869426.305 4 116699449.823 4      3386.965          28.000
R11  20875266.281 8 111551177.298 8     -2806.977          51.000    20875270.117 7  86762008.780 7     -2183.207          46.000
R21  19751702.805 5 105695350.376 5      -371.707          30.000
C28  22309698.086 8 116172448.671 8     -1209.031          48.000
E31  24851067.844 8 130593222.954 8     -2246.266          49.000    24851073.219 8 100064935.805 8     -1721.162          51.000
E33  23875832.938 8 125468379.514 8     -1022.934          51.000    23875833.281 8  96138129.330 8      -783.809          51.000
> 2020 05 18 15 02 30.0000000  0 11        .000000000000
G10  21673135.141 8 113893088.870 8      2135.777          51.000    21673139.758 8  88747878.523 8      1664.242          51.000
G16  20637362.453 8 108450073.734 8     -1084.102          51.000    20637360.891 8  84506529.962 8      -844.754          51.000
G20  20972796.156 8 110212815.986 8      -191.344          48.000    20972796.023 7  85880166.121 7      -149.099          43.000
G26  21946528.062 7 115329791.740 7     -2957.684          47.000    21946533.281 7  89867359.892 7     -2304.689          46.000
R05  21734806.844 5 116184939.508 5      -435.551          33.000    21734809.828 4  90366124.342 4      -338.777          27.000
R06  21850508.469 5 116598509.047 5      3361.469          33.000
R11  20891166.312 8 111636140.660 8     -2838.066          51.000    20891169.156 7  86828091.343 7     -2207.388          46.000
R22  21574142.672 5 115164266.994 5      2409.559          32.000    21574143.992 4  89572208.250 4      1874.101          29.000
C28  22316766.367 7 116209256.602 7     -1226.387          47.000
E31  24864004.195 8 130661206.750 8     -2267.227          50.000    24864010.586 8 100117027.328 8     -1737.241          51.000
E33  23881771.227 8 125499585.485 8     -1038.711          51.000    23881771.695 8  96162040.396 8      -795.889          51.000
> 2020 05 18 15 03  0.0000000  0 10        .000000000000
G10  21660965.148 8 113829136.195 8      2129.941          51.000    21660969.594 8  88698045.299 8      1659.698          51.000
G16  20643583.953 8 108482769.344 8     -1093.418          51.000    20643582.664 8  84532007.050 8      -852.014          50.000
G20  20973922.898 7 110218736.895 7      -201.250          47.000    20973922.234 6  85884779.816 6      -156.818          41.000
G26  21963423.695 7 115418579.875 7     -2959.223          47.000    21963429.008 7  89936545.440 7     -2305.888          47.000
R06  21831629.438 5 116497765.327 5      3356.352          35.000
R11  20907135.305 8 111721470.723 8     -2848.375          51.000    20907136.930 7  86894459.125 7     -2215.406          46.000
C28  22323829.328 7 116246035.792 7     -1223.645          46.000
E26  26299580.648 5 138205228.418 5     -2363.578          31.000
E31  24876955.766 8 130729268.435 8     -2267.996          51.000    24876962.258 8 100169178.501 8     -1737.815          51.000
E33  23887694.562 8 125530712.813 8     -1034.207          51.000    23887694.922 8  96185891.218 8      -792.465          51.000
> 2020 05 18 15 03 30.0000000  0 10        .000000000000
G10  21648920.195 8 113765840.647 8      2099.246          49.000    21648924.297 8  88648724.121 8      1635.779          49.000
G16  20649950.383 8 108516227.023 8     -1127.719          51.000    20649949.336 8  84558077.963 8      -878.742          49.000
G18  22780506.031 5 119712352.907 5     -2977.430          35.000
G20  20975197.578 7 110225435.749 7      -235.980          47.000    20975196.320 6  85889999.690 6      -183.881          40.000
G26  21980420.023 8 115507895.797 8     -2985.664          48.000    21980425.094 8  90006142.236 8     -2326.491          48.000
R06  21812869.984 6 116397655.595 6      3326.598          37.000
R11  20923253.781 8 111807597.590 8     -2883.816          51.000    20923254.898 7  86961446.651 7     -2242.971          47.000
C28  22330967.906 7 116283208.877 7     -1245.273          44.000
E31  24890003.133 8 130797833.200 8     -2293.500          51.000    24890009.250 8 100221715.121 8     -1757.297          51.000
E33  23893684.008 8 125562187.583 8     -1054.520          51.000    23893684.117 8  96210008.252 8      -808.005          51.000
> 2020 05 18 15 04  0.0000000  0 12        .000000000000
G10  21636872.344 8 113702530.325 8      2092.977          49.000    21636876.266 8  88599391.432 8      1630.894          49.000
G16  20656333.445 8 108549771.883 8     -1137.289          51.000    20656332.594 8  84584216.805 8      -886.199          49.000
G18  22797413.875 5 119801220.368 5     -2972.762          33.000
G20  20976492.031 7 110232238.451 7      -246.195          45.000    20976491.250 6  85895300.521 6      -191.837          39.000
G26  21997388.312 8 115597063.368 8     -2987.418          48.000    21997392.953 8  90075623.430 8     -2327.858          48.000
R05  21742735.797 5 116227322.853 5      -512.625          33.000
R06  21794102.797 6 116297499.770 6      3321.516          38.000
R11  20939391.875 8 111893831.995 8     -2894.113          50.000    20939393.094 7  87028517.809 7     -2250.980          47.000
C27  22203178.625 5 115617765.159 5      1326.785          30.000
C28  22338053.852 7 116320107.879 7     -1242.957          43.000
E31  24903017.867 8 130866225.652 8     -2294.484          51.000    24903022.953 8 100274119.694 8     -1758.075          51.000
E33  23899611.172 8 125593335.295 8     -1050.383          51.000    23899611.148 8  96233874.670 8      -804.827          51.000
> 2020 05 18 15 04 30.0000000  0 11        .000000000000
G10  21624968.883 8 113639977.929 8      2085.848          51.000    21624972.516 8  88550649.368 8      1625.336          51.000
G16  20662879.453 8 108584174.039 8     -1147.348          50.000    20662878.938 8  84611023.642 8      -894.040          49.000
G20  20977952.695 7 110239915.129 7      -256.934          44.000    20977951.961 6  85901282.348 6      -200.208          36.000
G21  22627217.758 6 118906794.638 6     -2345.426          37.000
G26  22014474.836 8 115686850.906 8     -2989.754          49.000    22014478.875 8  90145587.738 8     -2329.678          49.000
R06  21775474.031 6 116198085.020 6      3314.977          40.000
R11  20955695.594 8 111980953.611 8     -2905.156          50.000    20955697.383 7  87096279.037 7     -2259.566          47.000
C27  22195552.312 5 115578072.250 5      1328.754          31.000
C28  22345233.938 7 116357496.331 7     -1240.973          43.000
E31  24916146.398 8 130935214.946 8     -2296.105          51.000    24916149.820 8 100326981.575 8     -1759.318          50.000
E33  23905622.602 8 125624926.005 8     -1047.012          51.000    23905622.711 8  96258080.533 8      -802.229          51.000
> 2020 05 18 15 05  0.0000000  0  9        .000000000000
G10  21613203.367 8 113578148.116 8      2047.742          51.000    21613206.453 8  88502470.326 8      1595.646          51.000
G16  20669581.562 8 108619395.293 8     -1188.836          50.000    20669580.789 8  84638468.755 8      -926.366          48.000
G20  20979572.562 6 110248427.909 6      -298.844          41.000    20979572.383 5  85907915.693 5      -232.862          35.000
G26  22031671.812 8 115777218.680 8     -3023.086          49.000    22031675.242 8  90216004.157 8     -2355.651          49.000
R06  21756977.586 6 116099377.815 6      3277.191          40.000
R11  20972157.828 8 112068920.483 8     -2947.438          50.000    20972159.922 8  87164697.673 8     -2292.451          48.000
C28  22352501.164 6 116395336.904 6     -1270.043          41.000
E31  24929381.148 8 131004762.120 8     -2328.723          51.000    24929382.695 8 100380270.897 8     -1784.370          50.000
E33  23911711.102 8 125656921.619 8     -1074.469          51.000    23911711.438 8  96282596.649 8      -823.294          51.000
> 2020 05 18 15 05 30.0000000  0 10        .000000000000
G10  21601461.906 8 113516443.731 8      2042.582          51.000    21601464.320 8  88454388.991 8      1591.622          51.000
G16  20676325.344 8 108654835.481 8     -1197.105          48.000    20676324.352 8  84666084.463 8      -932.809          48.000
G20  20981237.109 6 110257177.258 6      -307.797          41.000    20981237.797 5  85914733.520 5      -239.833          32.000
G26  22048864.633 8 115867565.238 8     -3023.207          50.000    22048867.289 8  90286404.022 8     -2355.746          50.000
R05  21752062.375 5 116277209.939 5      -596.258          32.000    21752066.797 4  90437870.084 4      -463.756          26.000
R06  21738500.023 6 116000774.355 6      3272.691          38.000
R11  20988663.195 8 112157119.391 8     -2956.172          49.000    20988665.844 7  87233296.801 7     -2299.245          47.000
C28  22359741.320 7 116433035.720 7     -1266.438          42.000
E31  24942607.523 8 131074266.492 8     -2328.242          51.000    24942607.867 8 100433527.417 8     -1783.984          50.000
E33  23917762.547 8 125688722.359 8     -1068.906          51.000    23917763.117 8  96306963.447 8      -819.005          51.000
> 2020 05 18 15 06  0.0000000  0  9        .000000000000
G10  21589874.945 8 113455551.879 8      2029.934          51.000    21589877.086 8  88406940.829 8      1581.766          51.000
G16  20683241.023 7 108691178.990 7     -1212.812          47.000    20683240.367 7  84694404.039 7      -945.052          47.000
G20  20983077.469 6 110266848.076 6      -324.035          41.000    20983077.141 6  85922269.204 6      -252.495          38.000
G26  22066183.227 8 115958573.400 8     -3030.895          51.000    22066185.031 8  90357319.407 8     -2361.739          50.000
R06  21720172.188 5 115902974.634 5      3260.477          34.000
R11  21005340.445 8 112246242.965 8     -2972.188          49.000    21005344.016 7  87302615.185 7     -2311.698          47.000
C28  22367084.531 7 116471271.577 7     -1269.742          43.000
E31  24955955.414 8 131144411.634 8     -2335.148          51.000    24955956.133 8 100487274.923 8     -1789.294          50.000
E33  23923907.273 8 125721012.794 8     -1070.855          51.000    23923908.000 8  96331705.461 8      -820.526          51.000
> 2020 05 18 15 06 30.0000000  0 10        .000000000000
G10  21578266.156 8 113394546.119 8      2012.492          51.000    21578268.328 8  88359403.923 8      1568.179          51.000
G16  20690152.266 8 108727496.659 8     -1233.188          48.000    20690151.539 8  84722703.505 8      -960.925          48.000
G18  22882603.258 5 120248894.643 5     -2997.055          34.000    22882601.281 5  93700426.703 5     -2335.367          31.000
G20  20984916.312 6 110276511.309 6      -344.922          41.000    20984915.719 6  85929799.000 6      -268.770          39.000
G26  22083450.469 8 116049312.395 8     -3043.047          50.000    22083451.625 8  90428025.043 8     -2371.205          50.000
R06  21701817.664 5 115805040.575 5      3243.066          35.000
R11  21022014.055 8 112335343.314 8     -2992.988          51.000    21022017.102 7  87371915.418 7     -2327.880          46.000
C28  22374354.055 7 116509124.299 7     -1278.094          45.000
E31  24969248.039 8 131214267.619 8     -2346.609          49.000    24969250.148 8 100540800.892 8     -1798.054          51.000
E33  23929968.453 8 125752863.902 8     -1077.324          51.000    23929969.266 8  96356110.838 8      -825.455          51.000
> 2020 05 18 15 07  0.0000000  0  9        .000000000000
G10  21566842.117 8 113334511.229 8      1983.578          51.000    21566844.336 8  88312623.511 8      1545.648          51.000
G16  20697264.469 7 108764870.124 7     -1264.852          47.000    20697263.750 8  84751825.688 8      -985.599          48.000
G20  20986959.781 7 110287249.158 7      -377.094          42.000    20986959.844 6  85938166.131 6      -293.842          40.000
G26  22100871.820 8 116140862.626 8     -3066.691          48.000    22100872.977 8  90499362.838 8     -2389.633          49.000
R06  21683645.297 6 115708075.876 6      3214.496          37.000
R11  21038888.859 8 112425517.329 8     -3025.098          49.000    21038891.281 7  87442050.686 7     -2352.857          45.000
C28  22381756.102 7 116547666.566 7     -1297.715          46.000
E31  24982691.445 8 131284915.584 8     -2369.602          49.000    24982695.086 8 100594933.721 8     -1815.645          51.000
E33  23936151.812 8 125785357.747 8     -1095.301          51.000    23936152.742 8  96381008.712 8      -839.224          51.000
> 2020 05 18 15 07 30.0000000  0 11        .000000000000
G10  21555508.047 8 113274950.020 8      1989.316          51.000    21555509.953 8  88266212.156 8      1550.117          51.000
G16  20704482.305 8 108802799.428 8     -1261.633          48.000    20704481.820 8  84781380.984 8      -983.091          49.000
G20  20989112.672 7 110298562.030 7      -374.688          42.000    20989112.555 7  85946981.378 7      -291.964          42.000
G26  22118351.703 7 116232722.570 7     -3055.172          47.000    22118353.836 8  90570941.979 8     -2380.653          48.000
R05  21766609.188 5 116354943.801 5      -692.266          31.000
R06  21665561.758 6 115611577.503 6      3221.105          38.000
R11  21055867.883 7 112516253.322 7     -3021.582          46.000    21055871.367 7  87512623.096 7     -2350.119          46.000
R21  19778727.383 4 105839947.842 4      -485.961          27.000
C28  22389195.430 7 116586403.590 7     -1282.605          46.000
E31  24996190.602 8 131355854.801 8     -2357.590          50.000    24996195.523 8 100649289.731 8     -1806.483          51.000
E33  23942362.258 8 125817994.617 8     -1078.336          51.000    23942363.312 8  96406016.173 8      -826.293          51.000
> 2020 05 18 15 08  0.0000000  0  9        .000000000000
G10  21544258.070 8 113215833.255 8      1965.445          51.000    21544260.117 8  88220147.174 8      1531.516          51.000
G16  20711799.961 8 108841252.609 8     -1288.215          50.000    20711799.547 8  84811344.485 8     -1003.804          49.000
G20  20991368.898 7 110310418.183 7      -402.043          44.000    20991368.422 7  85956219.891 7      -313.283          42.000
G26  22135883.969 7 116324858.848 7     -3073.504          46.000    22135887.445 7  90642736.451 7     -2394.938          47.000
R06  21647560.688 6 115515519.144 6      3196.945          36.000
R11  21072945.570 8 112607515.710 8     -3048.391          49.000    21072950.344 7  87583604.950 7     -2370.970          46.000
C28  22396665.969 7 116625304.434 7     -1297.125          47.000
E31  25009739.477 8 131427052.680 8     -2375.258          51.000    25009745.070 8 100703843.932 8     -1819.997          51.000
E33  23948593.891 8 125850742.828 8     -1091.137          51.000    23948594.992 8  96431108.947 8      -836.063          51.000
> 2020 05 18 15 08 30.0000000  0 10        .000000000000
G10  21533045.977 8 113156915.257 8      1957.004          51.000    21533048.258 8  88174237.074 8      1524.938          51.000
G16  20719170.172 8 108879980.963 8     -1299.246          51.000    20719169.359 8  84841522.434 8     -1012.400          50.000
G20  20993681.578 7 110322569.429 7      -413.590          43.000    20993681.312 7  85965688.384 7      -322.275          43.000
G26  22153421.359 7 116417021.450 7     -3076.066          47.000    22153426.062 7  90714551.458 7     -2396.935          46.000
R05  21774757.305 5 116398456.179 5      -745.922          31.000
R06  21629595.906 6 115419653.360 6      3188.566          40.000
R11  21090075.047 8 112699048.673 8     -3059.234          50.000    21090079.602 7  87654797.165 7     -2379.408          46.000
C28  22404120.617 7 116664123.492 7     -1296.086          46.000
E31  25023290.547 8 131498259.999 8     -2377.391          51.000    25023296.008 8 100758405.369 8     -1821.526          51.000
E33  23954799.477 8 125883354.126 8     -1088.340          51.000    23954800.609 8  96456096.816 8      -833.899          51.000
> 2020 05 18 15 09  0.0000000  0 12        .000000000000
G10  21521948.023 8 113098595.856 8      1933.250          50.000    21521950.203 8  88128793.369 8      1506.432          50.000
G16  20726668.047 8 108919381.236 8     -1325.230          51.000    20726667.125 8  84872223.937 8     -1032.647          50.000
G18  22968410.312 5 120699810.746 5     -3015.531          32.000
G20  20996125.594 7 110335413.056 7      -440.340          45.000    20996125.289 7  85975696.403 7      -343.122          42.000
G26  22171039.648 8 116509605.881 8     -3093.953          48.000    22171044.484 8  90786695.146 8     -2410.873          48.000
R05  21779040.055 5 116421385.010 5      -779.906          33.000    21779058.445 4  90550066.861 4      -606.588          26.000
R06  21611743.539 6 115324388.501 6      3164.598          39.000
R11  21107330.391 8 112791252.439 8     -3085.324          49.000    21107333.695 7  87726511.116 7     -2399.700          46.000
C27  22128666.414 5 115229748.021 5      1261.000          30.000
C28  22411634.961 7 116703254.861 7     -1310.348          45.000
E31  25036918.859 8 131569873.008 8     -2394.512          51.000    25036923.656 8 100813277.644 8     -1834.759          51.000
E33  23961054.680 8 125916225.776 8     -1100.738          51.000    23961055.891 8  96481284.177 8      -843.405          51.000
> 2020 05 18 15 09 30.0000000  0 12        .000000000000
G10  21510997.602 8 113041051.612 8      1907.797          51.000    21511000.070 8  88083953.708 8      1486.592          51.000
G16  20734326.609 8 108959627.600 8     -1353.102          51.000    20734325.992 8  84903584.702 8     -1054.368          51.000
G20  20998734.930 7 110349123.372 7      -469.070          44.000    20998733.852 7  85986379.732 7      -365.509          42.000
G26  22188771.570 8 116602784.521 8     -3113.289          50.000    22188775.750 8  90859301.859 8     -2425.943          50.000
R06  21594037.508 6 115229906.156 6      3138.941          38.000
R11  21124743.594 8 112884300.912 8     -3113.027          49.000    21124746.352 7  87798882.099 7     -2421.247          45.000
R21  19790250.383 5 105901588.152 5      -544.727          31.000    19790245.797 4  82367915.347 4      -423.682          24.000
C27  22121459.344 5 115192228.584 5      1244.914          34.000
C28  22419242.320 7 116742871.556 7     -1326.043          44.000
E12  22343573.500 5 117416271.507 5      1130.438          34.000    22343572.531 5  89968308.397 5       866.278          33.000
E31  25050657.070 8 131642064.925 8     -2413.492          51.000    25050661.180 8 100868593.494 8     -1849.233          51.000
E33  23967392.664 8 125949532.001 8     -1114.852          51.000    23967394.016 8  96506804.525 8      -854.249          51.000
> 2020 05 18 15 10  0.0000000  0 12        .000000000000
G10  21500103.266 8 112983801.975 8      1903.473          51.000    21500105.719 8  88039343.647 8      1483.225          51.000
G16  20742054.211 8 109000236.271 8     -1359.566          51.000    20742053.703 8  84935227.794 8     -1059.402          51.000
G20  21001417.047 7 110363217.180 7      -476.016          44.000    21001416.312 7  85997361.932 7      -370.924          42.000
G26  22206524.492 8 116696072.637 8     -3111.164          51.000    22206527.602 8  90931993.851 8     -2424.287          51.000
R06  21576387.820 6 115135720.998 6      3134.734          39.000
R11  21142221.945 8 112977699.205 8     -3118.918          50.000    21142224.141 7  87871525.184 7     -2425.825          44.000
R21  19793279.945 5 105917795.398 5      -541.992          31.000
C27  22114251.977 4 115154713.043 4      1250.297          26.000
C28  22426851.273 7 116782495.451 7     -1320.898          46.000
E12                                                                  22337088.180 5  89942195.352 5       870.528          35.000
E31  25064412.961 8 131714351.692 8     -2411.062          51.000    25064416.273 8 100923982.018 8     -1847.452          50.000
E33  23973721.445 8 125982789.766 8     -1107.723          51.000    23973722.930 8  96532287.738 8      -848.786          51.000
> 2020 05 18 15 10 30.0000000  0 12        .000000000000
G10  21489260.617 8 112926822.757 8      1884.461          51.000    21489262.844 8  87994944.287 8      1468.414          51.000
G16  20749845.508 8 109041180.320 8     -1380.832          51.000    20749845.164 8  84967132.235 8     -1075.976          50.000
G20  21004167.102 7 110377667.922 7      -497.980          45.000    21004165.891 6  86008622.238 6      -388.037          39.000
G26  22224292.688 8 116789441.733 8     -3124.113          51.000    22224294.602 8  91004748.927 8     -2434.377          51.000
R05  21792858.367 5 116495262.164 5      -859.816          34.000    21792860.727 4  90607459.904 4      -668.743          28.000
R06  21558789.453 6 115041810.717 6      3115.270          39.000
R11  21159760.039 8 113071416.754 8     -3139.727          51.000    21159760.961 7  87944416.558 7     -2442.013          42.000
R21  19796323.812 5 105934082.939 5      -554.836          34.000    19796323.633 4  82393189.055 4      -431.536          28.000
C28  22434457.047 7 116822100.417 7     -1330.043          47.000
E12  22330592.273 5 117348055.075 5      1128.121          31.000    22330596.820 6  89916050.242 6       864.105          36.000
E31  25078181.203 8 131786705.609 8     -2423.305          51.000    25078183.477 8 100979421.985 8     -1856.800          50.000
E33  23980035.914 8 126015972.410 8     -1115.270          51.000    23980037.391 8  96557713.385 8      -854.539          51.000
> 2020 05 18 15 11  0.0000000  0 12        .000000000000
G10  21478554.039 8 112870557.757 8      1870.531          51.000    21478555.891 8  87951101.439 8      1457.560          51.000
G16  20757784.375 8 109082900.699 8     -1396.758          51.000    20757784.266 8  84999641.588 8     -1088.383          50.000
G20  21007068.922 6 110392916.577 6      -514.754          41.000    21007067.227 6  86020504.256 6      -401.110          39.000
G26  22242159.680 8 116883331.307 8     -3131.352          50.000    22242160.195 8  91077909.554 8     -2440.017          50.000
R06  21541327.039 5 114948628.578 5      3101.230          34.000
R11  21177440.742 8 113165898.594 8     -3155.078          51.000    21177440.844 7  88017902.361 7     -2453.953          42.000
R21  19799464.414 5 105950900.160 5      -562.047          31.000    19799469.188 5  82406269.103 5      -437.148          30.000
C28  22442143.633 7 116862124.270 7     -1334.203          47.000
E12                                                                  22324179.211 5  89890211.565 5       861.459          35.000
E26  26516035.461 5 139342671.944 5     -2365.824          35.000
E31  25092045.609 8 131859567.002 8     -2430.215          51.000    25092047.250 8 101035250.803 8     -1862.047          50.000
E33  23986420.039 8 126049521.260 8     -1117.426          51.000    23986421.469 8  96583419.644 8      -856.170          51.000
> 2020 05 18 15 11 30.0000000  0 14        .000000000000
G10  21467931.297 8 112814733.543 8      1852.480          51.000    21467933.484 8  87907602.084 8      1443.491          51.000
G16  20765818.523 8 109125120.660 8     -1416.613          51.000    20765818.383 8  85032540.235 8     -1103.855          50.000
G20  21010069.773 7 110408687.347 7      -535.500          42.000    21010068.648 6  86032793.195 6      -417.273          37.000
G26  22260072.625 8 116977463.795 8     -3142.816          50.000    22260072.273 8  91151259.443 8     -2448.951          50.000
G27  20652955.773 5 108532026.487 5      1258.691          33.000    20652954.766 5  84570393.465 5       980.802          32.000
R06  21523947.555 5 114855899.515 5      3082.309          31.000
R11  21195211.656 8 113260860.846 8     -3174.316          51.000    21195212.492 7  88091761.841 7     -2468.913          44.000
R21  19802652.922 5 105967995.432 5      -574.062          30.000    19802660.680 5  82419542.837 5      -446.496          30.000
R22  21336234.898 5 113894250.428 5      2290.520          33.000
C28  22449858.117 7 116902294.155 7     -1342.434          47.000
E12                                                                  22317783.062 5  89864468.371 5       855.455          34.000
E26  26529553.117 5 139413734.988 5     -2367.945          35.000
E31  25105953.477 8 131932659.041 8     -2441.266          49.000    25105955.156 8 101091256.368 8     -1870.589          51.000
E33  23992821.414 8 126083160.551 8     -1123.879          51.000    23992822.766 8  96609195.203 8      -861.193          51.000
> 2020 05 18 15 12  0.0000000  0 13        .000000000000
G10  21457418.500 8 112759486.883 8      1833.289          51.000    21457420.875 8  87864552.769 8      1428.537          51.000
G16  20773973.289 8 109167974.342 8     -1437.637          51.000    20773972.719 8  85065932.681 8     -1120.236          49.000
G18  23072097.211 5 121244689.588 5     -3040.637          31.000
G20  21013195.688 6 110425114.726 6      -557.422          40.000    21013194.133 5  86045593.658 5      -434.361          34.000
G26  22278056.875 8 117071971.772 8     -3155.156          48.000    22278056.656 8  91224901.946 8     -2458.566          48.000
R06  21506680.539 6 114763764.239 6      3062.441          37.000
R11  21213097.930 8 113356436.699 8     -3194.719          51.000    21213099.555 7  88166098.600 7     -2484.784          44.000
R21  19805915.289 4 105985447.821 4      -588.320          27.000    19805920.016 4  82433116.915 4      -457.586          27.000
C28  22457626.234 7 116942743.651 7     -1351.527          47.000
E12                                                                  22311437.031 5  89838923.829 5       849.197          34.000
E26  26543084.031 5 139484840.421 5     -2369.852          35.000    26543088.672 5 106878002.162 5     -1815.986          34.000
E31  25119930.617 8 132006115.097 8     -2453.184          49.000    25119933.148 8 101147540.857 8     -1879.787          51.000
E33  23999265.578 8 126117024.697 8     -1131.238          51.000    23999266.977 8  96635143.043 8      -866.787          51.000
> 2020 05 18 15 12 30.0000000  0 13        .000000000000
G10  21446982.625 8 112704644.902 8      1819.480          51.000    21446984.969 8  87821818.773 8      1417.780          51.000
G16  20782215.406 8 109211286.170 8     -1453.250          51.000    20782214.039 8  85099682.137 8     -1132.403          49.000
G18  23089452.766 5 121335827.725 5     -3040.090          35.000
G20  21016412.836 6 110442023.139 6      -573.508          39.000    21016412.820 5  86058768.995 5      -446.895          35.000
G26  22296078.516 7 117166678.149 7     -3162.027          46.000    22296079.594 7  91298699.062 7     -2463.917          46.000
R06  21489493.883 6 114672049.765 6      3048.031          41.000
R11  21231064.758 8 113452444.303 8     -3209.328          50.000    21231066.742 7  88240771.148 7     -2496.144          43.000
R21  19809216.703 4 106003107.812 4      -594.457          27.000    19809216.711 4  82446876.438 4      -462.355          27.000
C28  22465414.594 7 116983299.509 7     -1355.457          47.000
E12  22305112.977 5 117214159.963 5      1105.355          31.000    22305109.789 5  89813443.940 5       846.458          34.000
E26  26556595.125 5 139555849.465 5     -2367.023          32.000    26556601.555 5 106932410.186 5     -1814.008          31.000
E31  25133944.078 8 132079758.851 8     -2459.734          49.000    25133947.820 8 101203969.172 8     -1884.815          51.000
E33  24005719.148 8 126150938.443 8     -1133.141          51.000    24005720.695 8  96661128.901 8      -868.251          51.000
> 2020 05 18 15 13  0.0000000  0 14        .000000000000
G10  21436647.453 8 112650333.623 8      1801.688          51.000    21436650.219 8  87779498.290 8      1403.912          51.000
G16  20790568.039 8 109255179.013 8     -1472.531          49.000    20790566.359 8  85133884.356 8     -1147.427          49.000
G18  23106827.219 6 121427119.274 6     -3045.105          36.000
G20  21019745.141 5 110459535.801 5      -593.059          33.000    21019746.922 4  86072415.115 4      -462.124          28.000
G26  22314160.312 7 117261704.686 7     -3172.797          43.000    22314163.836 7  91372745.710 7     -2472.309          44.000
G27  20631691.422 5 108420286.474 5      1225.656          34.000
R06  21472411.031 6 114580886.947 6      3029.664          39.000
R11  21249134.742 8 113549005.471 8     -3227.680          50.000    21249136.719 7  88315874.224 7     -2510.421          44.000
R22  21297785.852 5 113689053.304 5      2269.039          30.000    21297793.609 5  88424823.579 5      1764.808          30.000
C28  22473246.727 7 117024084.596 7     -1363.188          46.000
E12  22298824.734 5 117181114.889 5      1098.605          31.000    22298823.273 5  89788123.680 5       841.456          35.000
E26                                                                  26570116.789 5 106986850.608 5     -1814.507          31.000
E31  25148017.258 8 132153712.891 8     -2470.113          50.000    25148021.883 8 101260635.221 8     -1892.726          51.000
E33  24012205.742 8 126185025.431 8     -1139.031          51.000    24012207.336 8  96687247.490 8      -872.758          51.000
> 2020 05 18 15 13 30.0000000  0 15        .000000000000
G10  21426413.406 8 112596554.714 8      1784.480          51.000    21426416.516 8  87737592.651 8      1390.504          51.000
G16  20799030.781 8 109299651.626 8     -1491.301          49.000    20799029.133 8  85168538.343 8     -1162.053          48.000
G18  23124225.594 5 121518547.025 5     -3049.137          31.000
G20  21023191.883 6 110477652.236 6      -613.121          38.000    21023194.469 6  86086531.775 6      -477.760          36.000
G26  22332302.250 7 117357048.994 7     -3182.699          44.000    22332308.469 7  91447039.979 7     -2480.025          44.000
R05  21824485.164 5 116664286.873 5     -1018.383          33.000
R06  21455431.602 6 114490279.886 6      3011.652          36.000
R11  21267308.031 8 113646116.160 8     -3245.426          50.000    21267309.648 7  88391404.697 7     -2524.220          44.000
R21  19816003.516 4 106039436.537 4      -615.137          28.000    19816000.992 5  82475109.409 5      -478.440          30.000
C27  22064829.102 4 114897369.069 4      1201.309          29.000
C28  22481122.547 7 117065098.816 7     -1370.105          46.000
E12  22292575.422 5 117148273.986 5      1092.098          34.000    22292576.664 5  89762964.960 5       836.476          33.000
E26                                                                  26583637.188 5 107041295.431 5     -1814.558          33.000
E31  25162149.602 8 132227975.553 8     -2479.820          50.000    25162154.602 8 101317537.744 8     -1900.092          51.000
E33  24018725.195 8 126219285.068 8     -1144.117          51.000    24018726.695 8  96713498.376 8      -876.673          51.000
> 2020 05 18 15 14  0.0000000  0 13        .000000000000
G10  21416302.758 8 112543423.619 8      1769.645          51.000    21416306.258 8  87696191.807 8      1378.944          51.000
G16  20807625.438 8 109344816.801 8     -1507.520          49.000    20807623.805 8  85203731.990 8     -1174.691          49.000
G20  21026775.625 6 110496485.449 6      -630.523          39.000    21026778.344 6  86101206.882 6      -491.320          38.000
G26  22350526.961 7 117452822.359 7     -3190.137          46.000    22350533.703 7  91521668.580 7     -2485.821          46.000
R06  21438579.219 6 114400348.324 6      2996.094          38.000
R11  21285605.055 8 113743887.682 8     -3260.473          49.000    21285606.109 7  88467449.182 7     -2535.926          45.000
R21  19819511.688 5 106058226.384 5      -623.672          30.000    19819509.461 5  82489713.331 5      -485.084          31.000
R22  21272387.672 4 113553461.771 4      2257.297          29.000
C28  22489064.203 7 117106454.627 7     -1374.715          46.000
E12  22286388.305 5 117115759.742 5      1088.145          34.000    22286390.977 5  89738060.714 5       833.372          30.000
E26                                                                  26597185.766 5 107095848.519 5     -1812.568          32.000
E31  25176362.000 8 132302658.850 8     -2487.031          50.000    25176366.984 8 101374762.574 8     -1905.617          51.000
E33  24025299.062 8 126253830.503 8     -1146.785          51.000    24025300.312 8  96739968.244 8      -878.747          51.000
> 2020 05 18 15 14 30.0000000  0 14        .000000000000
G10  21406241.609 8 112490551.465 8      1747.852          51.000    21406244.930 8  87654992.744 8      1361.965          51.000
G16  20816277.484 8 109390282.585 8     -1530.645          50.000    20816276.047 8  85239159.879 8     -1192.710          49.000
G20  21030421.539 5 110515643.702 5      -654.461          34.000    21030423.086 5  86116135.291 5      -509.960          33.000
G21  22899787.375 5 120339191.081 5     -2420.602          33.000    22899773.930 4  93770745.340 4     -1886.183          29.000
G26  22368759.219 7 117548631.807 7     -3204.363          47.000    22368765.469 7  91596325.258 7     -2496.909          47.000
R05  21836215.852 5 116727010.040 5     -1073.992          34.000    21836224.195 4  90787735.973 4      -835.336          26.000
R06  21421779.648 6 114310698.950 6      2973.434          40.000
R11  21303949.453 7 113841918.562 7     -3282.273          46.000    21303951.734 7  88543695.387 7     -2552.879          46.000
R21  19823025.961 5 106077052.725 5      -638.367          33.000    19823032.203 5  82504356.053 5      -496.511          34.000
R22  21259721.438 5 113485834.073 5      2245.410          31.000
C28  22496997.062 7 117147764.910 7     -1386.398          45.000
E26                                                                  26610686.852 5 107150206.523 5     -1816.659          34.000
E31  25190579.570 8 132377370.574 8     -2500.875          49.000    25190584.414 8 101432009.192 8     -1916.288          51.000
E33  24031852.945 8 126288270.623 8     -1156.312          51.000    24031853.859 8  96766357.407 8      -886.003          51.000
> 2020 05 18 15 15  0.0000000  0 12        .000000000000
G10  21396282.344 8 112438214.568 8      1738.289          51.000    21396285.539 8  87614210.775 8      1354.511          51.000
G16  20825038.734 8 109436322.305 8     -1541.582          50.000    20825037.328 8  85275035.002 8     -1201.233          50.000
G20  21034181.016 6 110535400.793 6      -665.824          38.000    21034182.414 6  86131530.407 6      -518.830          38.000
G26  22387050.398 8 117644749.505 8     -3206.457          48.000    22387055.531 8  91671222.128 8     -2498.538          48.000
R05  21842294.695 4 116759472.228 4     -1093.000          28.000    21842308.266 4  90813047.933 4      -850.108          26.000
R06  21405084.992 5 114221615.971 5      2962.785          34.000
R11  21322392.703 7 113940483.874 7     -3291.598          46.000    21322397.023 7  88620357.256 7     -2560.132          47.000
R21  19826607.445 6 106096209.012 6      -641.211          36.000    19826613.594 5  82519255.359 5      -498.723          32.000
C28  22504973.805 7 117189301.592 7     -1385.738          46.000
E26                                                                  26624191.633 5 107204583.519 5     -1810.811          35.000
E31  25204854.016 8 132452383.671 8     -2502.898          48.000    25204858.805 8 101489486.724 8     -1917.739          51.000
E33  24038438.859 8 126322879.491 8     -1153.852          51.000    24038439.562 8  96792875.872 8      -884.081          51.000
> 2020 05 18 15 15 30.0000000  0 13        .000000000000
G10  21386418.812 8 112386381.264 8      1716.238          51.000    21386422.109 8  87573821.247 8      1337.332          51.000
G16  20833902.438 8 109482901.533 8     -1564.684          49.000    20833901.258 8  85311330.488 8     -1219.234          49.000
G18  23193989.148 5 121885251.606 5     -3062.516          30.000
G20  21038048.562 6 110555722.497 6      -690.031          38.000    21038049.102 6  86147365.430 6      -537.690          37.000
G26  22405393.500 8 117741139.680 8     -3220.473          48.000    22405397.375 8  91746331.307 8     -2509.459          48.000
R05  21848509.711 5 116792723.989 5     -1124.496          33.000    21848516.375 4  90838840.138 4      -874.617          28.000
R06  21388491.180 6 114133069.200 6      2939.277          38.000
R11  21340930.773 8 114039545.474 8     -3313.414          49.000    21340935.625 8  88697405.133 8     -2577.103          48.000
R21  19830244.820 6 106115660.707 6      -656.418          40.000    19830246.242 5  82534384.478 5      -510.544          30.000
C28  22512988.062 7 117231031.538 7     -1397.273          46.000
E26                                                                  26637693.906 5 107258951.911 5     -1814.759          34.000
E31  25219178.633 7 132527663.113 7     -2516.906          47.000    25219183.492 8 101547168.363 8     -1928.580          51.000
E33  24045050.398 8 126357623.209 8     -1163.500          51.000    24045051.016 8  96819497.675 8      -891.558          51.000
> 2020 05 18 15 16  0.0000000  0 13        .000000000000
G10  21376665.172 8 112335124.464 8      1699.441          51.000    21376668.312 8  87533880.933 8      1324.243          51.000
G16  20842881.750 8 109530090.028 8     -1582.645          49.000    20842881.102 8  85348100.708 8     -1233.233          49.000
G18  23211482.555 5 121977172.660 5     -3066.715          34.000
G20  21042036.820 6 110576679.276 6      -708.605          38.000    21042036.453 6  86163695.433 6      -552.157          38.000
G26  22423801.445 8 117837871.124 8     -3229.551          48.000    22423804.555 7  91821706.401 7     -2516.533          47.000
R05  21854889.141 5 116826817.859 5     -1149.836          34.000    21854894.891 5  90865357.643 5      -894.314          31.000
R06  21372012.969 6 114045135.378 6      2921.234          37.000
R11  21359575.445 8 114139171.502 8     -3329.762          51.000    21359579.602 7  88774891.970 7     -2589.815          47.000
R21  19833949.359 5 106135480.109 5      -666.465          35.000    19833945.594 4  82549794.040 4      -518.368          26.000
C28  22521052.914 7 117273025.140 7     -1403.742          46.000
E26  26651202.930 5 140053013.484 5     -2367.637          33.000    26651207.336 5 107313365.954 5     -1813.870          33.000
E31  25233567.180 8 132603278.447 8     -2525.559          48.000    25233572.148 8 101605107.383 8     -1935.174          51.000
E33  24051701.039 8 126392572.461 8     -1167.848          51.000    24051701.719 8  96846276.956 8      -894.865          51.000
> 2020 05 18 15 16 30.0000000  0 14        .000000000000
G10  21367006.445 8 112284367.131 8      1683.750          51.000    21367009.391 8  87494329.791 8      1312.013          51.000
G16  20851961.852 8 109577808.141 8     -1599.168          50.000    20851961.391 8  85385283.611 8     -1246.105          49.000
G18  23228991.414 5 122069178.314 5     -3067.527          34.000
G20  21046130.906 6 110598191.764 6      -726.285          41.000    21046130.117 6  86180458.357 6      -565.943          39.000
G21  22955092.406 5 120629848.211 5     -2427.383          32.000
G26  22442258.570 7 117934862.647 7     -3237.125          47.000    22442261.461 7  91897284.162 7     -2522.438          47.000
R05  21861411.188 5 116861681.653 5     -1175.051          30.000    21861418.000 4  90892474.091 4      -913.922          29.000
R06  21355633.047 4 113957738.140 4      2904.176          29.000
R11  21378309.906 8 114239277.367 8     -3344.500          51.000    21378312.695 7  88852752.041 7     -2601.278          46.000
R21  19837706.719 5 106155586.492 5      -674.891          34.000    19837700.062 4  82565424.303 4      -524.918          26.000
C28  22529153.289 7 117315204.308 7     -1408.895          45.000
E26  26664713.305 5 140124013.424 5     -2366.359          34.000    26664716.992 5 107367765.330 5     -1812.735          34.000
E31  25248005.234 8 132679149.369 8     -2533.082          50.000    25248009.500 8 101663242.222 8     -1940.912          51.000
E33  24058375.695 8 126427648.042 8     -1171.066          51.000    24058376.617 8  96873153.029 8      -897.305          51.000
> 2020 05 18 15 17  0.0000000  0 13        .000000000000
G10  21357446.148 8 112234128.884 8      1666.457          50.000    21357449.211 8  87455183.127 8      1298.538          50.000
G16  20861146.211 8 109626072.481 8     -1617.379          50.000    20861145.617 8  85422892.183 8     -1260.295          49.000
G18  23246517.812 5 122161285.012 5     -3071.840          33.000    23246525.289 5  95190634.999 5     -2393.641          32.000
G20  21050333.648 6 110620276.741 6      -745.164          40.000    21050332.641 6  86197667.432 6      -580.644          40.000
G26  22460767.586 7 118032129.830 7     -3246.418          46.000    22460770.992 7  91973076.729 7     -2529.679          46.000
R05  21868078.906 5 116897414.355 5     -1200.117          30.000    21868083.391 5  90920202.476 5      -933.421          31.000
R06  21339359.586 5 113870900.697 5      2885.551          32.000
R11  21397136.195 8 114339877.292 8     -3360.988          51.000    21397138.211 7  88930996.380 7     -2614.102          46.000
R21  19841519.930 5 106175997.895 5      -684.984          35.000    19841514.492 4  82581299.361 4      -532.772          27.000
C28  22537293.000 7 117357586.721 7     -1415.641          44.000
E26  26678223.016 5 140195007.857 5     -2365.801          32.000    26678226.891 5 107422163.649 5     -1812.712          34.000
E31  25262495.578 8 132755292.188 8     -2542.105          51.000    25262498.609 8 101721585.385 8     -1947.880          51.000
E33  24065077.672 8 126462867.380 8     -1175.875          51.000    24065078.938 8  96900139.251 8      -900.992          51.000
> 2020 05 18 15 17 30.0000000  0 12        .000000000000
G10  21347982.734 8 112184403.080 8      1649.297          49.000    21347986.367 8  87416435.731 8      1285.166          48.000
G16  20870432.695 8 109674873.211 8     -1635.281          50.000    20870431.914 8  85460918.693 8     -1274.245          49.000
G18  23264061.766 5 122253482.625 5     -3074.371          34.000    23264065.773 5  95262445.140 5     -2395.614          34.000
G20  21054643.734 6 110642924.943 6      -764.074          41.000    21054641.242 6  86215315.346 6      -595.386          40.000
G26  22479327.039 7 118129661.916 7     -3255.098          47.000    22479331.031 7  92049075.705 7     -2536.443          47.000
R11  21416052.141 8 114440958.569 8     -3377.137          51.000    21416054.172 7  89009615.111 7     -2626.662          47.000
R21  19845388.938 5 106196705.369 5      -694.777          35.000    19845386.102 5  82597405.217 5      -540.379          30.000
C28  22545469.883 6 117400163.978 6     -1422.137          41.000
E19  28491282.492 7 149722699.977 7      2855.188          43.000    28491285.188 6 114722589.997 6      2187.819          39.000
E26                                                                  26691735.453 5 107476554.374 5     -1812.673          34.000
E31  25277036.086 8 132831696.862 8     -2550.887          51.000    25277037.688 8 101780129.176 8     -1954.564          50.000
E33  24071805.328 8 126498221.657 8     -1180.461          51.000    24071806.945 8  96927228.872 8      -904.473          51.000
> 2020 05 18 15 18  0.0000000  0 13        .000000000000
G10  21338615.695 8 112135181.731 8      1631.973          51.000    21338619.578 8  87378081.432 8      1271.667          51.000
G16  20879819.367 8 109724199.478 8     -1653.254          51.000    20879818.352 8  85499354.703 8     -1288.250          48.000
G18  23281621.156 6 122345760.358 6     -3077.168          36.000    23281625.742 5  95334383.751 5     -2397.790          32.000
G20  21059058.914 6 110666125.994 6      -782.789          38.000    21059056.711 6  86233394.065 6      -609.969          38.000
G21  22996737.906 4 120848732.132 4     -2435.719          29.000
G26  22497934.867 8 118227446.975 8     -3263.969          48.000    22497939.492 8  92125271.800 8     -2543.355          48.000
R06  21307123.461 5 113698881.043 5      2847.934          31.000
R11  21435055.883 8 114542507.292 8     -3393.016          51.000    21435057.914 7  89088597.400 7     -2639.012          47.000
C28  22553681.641 6 117442926.599 6     -1428.797          41.000
E19  28474980.883 7 149637033.531 7      2855.621          43.000    28474982.070 6 114656949.564 6      2188.172          39.000
E26                                                                  26705240.062 5 107530929.992 5     -1812.607          34.000
E31  25291624.172 8 132908352.185 8     -2559.609          51.000    25291624.719 8 101838865.029 8     -1961.259          50.000
E33  24078556.812 8 126533700.824 8     -1185.004          51.000    24078558.570 8  96954414.200 8      -907.978          51.000
> 2020 05 18 15 18 30.0000000  0 13        .000000000000
G10  21329350.266 8 112086490.402 8      1615.129          51.000    21329353.766 8  87340140.186 8      1258.545          51.000
G16  20889310.586 8 109774074.101 8     -1670.598          51.000    20889309.133 8  85538218.026 8     -1301.764          48.000
G18  23299200.422 6 122438140.838 6     -3080.062          36.000    23299204.906 5  95406348.395 5     -2400.055          32.000
G20  21063583.602 6 110689903.049 6      -801.316          36.000    21063581.273 5  86251921.674 5      -624.402          35.000
G26  22516595.195 8 118325506.570 8     -3272.371          49.000    22516600.234 8  92201681.831 8     -2549.900          49.000
R06  21291164.750 5 113613726.287 5      2829.758          34.000
R11  21454150.523 8 114644543.090 8     -3408.316          50.000    21454152.875 8  89167958.519 8     -2650.916          48.000
R21  19853292.305 5 106238992.877 5      -714.457          35.000    19853296.438 5  82630328.324 5      -555.683          30.000
C28  22561933.922 6 117485898.236 6     -1434.918          39.000
E19  28458679.188 7 149551368.473 7      2856.273          42.000    28458679.758 6 114591310.231 6      2188.400          38.000
E26                                                                  26718745.125 5 107585308.842 5     -1812.275          32.000
E31  25306263.773 8 132985280.531 8     -2567.922          51.000    25306264.211 8 101897810.094 8     -1967.658          50.000
E33  24085336.570 8 126569328.438 8     -1189.121          51.000    24085338.203 8  96981713.269 8      -911.184          51.000
> 2020 05 18 15 19  0.0000000  0 12        .000000000000
G10  21320183.734 8 112038317.394 8      1596.754          51.000    21320186.812 8  87302602.854 8      1244.227          51.000
G16  20898903.359 8 109824482.405 8     -1689.500          51.000    20898901.641 8  85577497.214 8     -1316.494          48.000
G18  23316796.828 6 122530609.325 6     -3084.250          37.000
G26  22535304.859 8 118423824.976 8     -3281.836          49.000    22535310.195 8  92278293.524 8     -2557.275          49.000
R06  21275313.758 6 113529139.909 6      2809.746          36.000
R11  21473332.398 8 114747048.301 8     -3424.832          48.000    21473335.664 7  89247684.756 7     -2663.758          47.000
R21  19857323.531 5 106260593.116 5      -725.512          35.000    19857331.664 4  82647128.546 4      -564.293          28.000
C28  22570224.039 6 117529065.513 6     -1442.680          39.000
E19  28442375.531 6 149465693.605 6      2855.832          41.000    28442376.578 6 114525663.378 6      2188.139          39.000
E26                                                                  26732248.141 5 107639685.563 5     -1812.786          31.000
E31  25320951.945 8 133062466.875 8     -2577.500          51.000    25320952.945 8 101956952.845 8     -1974.985          50.000
E33  24092141.898 8 126605090.666 8     -1194.668          51.000    24092143.297 8  97009115.484 8      -915.401          51.000
> 2020 05 18 15 19 30.0000000  0 13        .000000000000
G10  21311116.734 8 111990667.232 8      1578.461          51.000    21311119.570 8  87265472.917 8      1229.970          51.000
G16  20908597.852 8 109875426.102 8     -1708.176          51.000    20908596.227 8  85617193.591 8     -1331.046          48.000
G18  23334410.594 6 122623167.366 6     -3087.949          36.000    23334413.570 5  95550522.187 5     -2406.194          32.000
G26  22554063.922 8 118522402.691 8     -3291.395          50.000    22554069.141 8  92355107.277 8     -2564.726          50.000
R05  21903596.805 5 117087277.382 5     -1327.781          32.000
R06  21259571.156 6 113445129.157 6      2789.500          37.000
R11  21492602.195 8 114850021.670 8     -3441.305          50.000    21492606.039 7  89327775.119 7     -2676.570          47.000
R21  19861416.398 6 106282492.401 6      -736.195          37.000    19861422.367 4  82664158.228 4      -572.596          27.000
C27  21984572.812 4 114479442.621 4      1118.051          28.000
C28  22578552.617 5 117572431.279 5     -1449.621          33.000
E19  28426070.602 6 149380013.854 6      2854.945          40.000    28426073.297 6 114460012.794 6      2187.570          40.000
E31  25335688.875 8 133139912.439 8     -2586.836          50.000    25335690.891 8 102016294.248 8     -1982.181          50.000
E33  24098973.336 8 126640989.986 8     -1199.949          51.000    24098974.352 8  97036622.742 8      -919.433          51.000
> 2020 05 18 15 20  0.0000000  0 13        .000000000000
G10  21302145.930 8 111943523.501 8      1563.164          51.000    21302148.531 8  87228737.584 8      1218.053          51.000
G16  20918390.383 8 109926885.799 8     -1723.672          51.000    20918389.086 8  85657292.047 8     -1343.121          49.000
G18  23352038.031 5 122715795.692 5     -3088.160          33.000
G20  21077795.773 6 110764576.708 6      -857.297          38.000    21077795.703 6  86310052.164 6      -668.020          37.000
G21  23052480.211 5 121141600.405 5     -2445.438          32.000
G26  22572868.336 8 118621219.265 8     -3297.664          50.000    22572873.297 8  92432107.135 8     -2569.611          50.000
R06  21243934.008 6 113361679.659 6      2772.551          39.000
R11  21511955.875 8 114953440.739 8     -3454.406          51.000    21511959.938 7  89408212.120 7     -2686.763          46.000
R21  19865563.148 6 106304671.929 6      -743.781          36.000    19865566.430 4  82681400.997 4      -578.497          28.000
C27  21978137.414 4 114445918.408 4      1114.223          28.000
E19  28409761.742 6 149294313.427 6      2857.320          40.000    28409766.398 6 114394346.384 6      2189.393          41.000
E31  25350470.977 8 133217597.618 8     -2593.391          50.000    25350474.109 8 102075819.257 8     -1987.072          50.000
E33  24105827.234 8 126677007.938 8     -1202.445          51.000    24105827.984 8  97064220.906 8      -921.345          51.000
> 2020 05 18 15 20 30.0000000  0 12        .000000000000
G10  21293318.602 8 111897134.644 8      1544.785          51.000    21293320.992 8  87192590.437 8      1203.729          51.000
G16  20928327.688 8 109979107.118 8     -1742.258          51.000    20928326.531 8  85697983.969 8     -1357.603          49.000
G20  21082789.484 6 110790814.238 6      -876.887          39.000    21082787.406 6  86330496.929 6      -683.288          38.000
G26  22591764.609 8 118720519.329 8     -3307.020          49.000    22591769.188 8  92509483.731 8     -2576.901          49.000
G27  20533986.047 5 107906870.466 5      1055.832          35.000    20533989.328 5  84083234.935 5       822.723          34.000
R06  21228449.695 6 113279046.895 6      2751.988          39.000
R11  21531439.281 8 115057552.156 8     -3470.527          51.000    21531443.133 7  89489187.639 7     -2699.302          45.000
R21  19869809.539 6 106327383.114 6      -754.398          37.000    19869812.844 4  82699065.249 4      -586.754          29.000
C27  21971789.234 5 114412870.786 5      1106.047          32.000
E19  28393496.570 6 149208841.202 6      2856.254          41.000    28393502.875 6 114328854.766 6      2188.669          41.000
E31  25365345.398 8 133295767.741 8     -2602.598          50.000    25365349.469 8 102135715.851 8     -1994.243          51.000
E33  24112750.602 8 126713391.073 8     -1207.750          51.000    24112751.281 8  97092098.891 8      -925.401          51.000
> 2020 05 18 15 21  0.0000000  0 12        .000000000000
G10  21284538.016 8 111850992.708 8      1527.688          51.000    21284540.383 8  87156635.673 8      1190.406          51.000
G16  20938312.477 8 110031578.753 8     -1759.352          51.000    20938311.555 8  85738870.929 8     -1370.923          49.000
G20  21087834.711 7 110817331.280 7      -894.801          42.000    21087834.305 6  86351159.617 6      -697.244          40.000
G21  23080457.680 5 121288621.064 5     -2448.824          34.000
G26  22610655.242 8 118819790.711 8     -3314.719          48.000    22610659.812 8  92586837.982 8     -2582.898          48.000
G27  20527979.688 5 107875303.989 5      1045.402          35.000    20527981.297 6  84058637.651 6       814.599          36.000
R06  21213021.844 6 113196716.962 6      2732.711          36.000
R11  21550954.062 8 115161833.322 8     -3485.004          50.000    21550957.047 7  89570295.118 7     -2710.565          43.000
R21  19874057.883 6 106350106.696 6      -764.449          36.000    19874060.789 4  82716739.091 4      -594.575          26.000
E19  28377178.383 6 149123089.553 6      2856.879          41.000    28377185.656 6 114263149.036 6      2188.756          40.000
E31  25380215.430 8 133373911.427 8     -2610.645          51.000    25380219.867 8 102195592.170 8     -2000.355          50.000
E33  24119646.359 8 126749629.267 8     -1211.812          51.000    24119647.164 8  97119865.819 8      -928.559          51.000
> 2020 05 18 15 21 30.0000000  0 12        .000000000000
G10  21275866.836 8 111805426.252 8      1510.270          51.000    21275869.383 8  87121129.316 8      1176.833          51.000
G16  20948406.984 8 110084626.550 8     -1776.934          51.000    20948406.367 8  85780206.838 8     -1384.624          49.000
G20  21092995.898 7 110844454.550 7      -913.164          44.000    21092996.383 6  86372294.603 6      -711.559          38.000
G26  22629602.055 8 118919358.178 8     -3322.930          48.000    22629606.992 7  92664422.974 7     -2589.296          47.000
G27  20522048.641 5 107844134.524 5      1033.250          35.000    20522049.820 5  84034349.715 5       805.124          35.000
R06  21197712.422 5 113115025.939 5      2713.344          35.000
R11  21570561.844 8 115266612.544 8     -3499.996          50.000    21570564.102 7  89651789.990 7     -2722.222          44.000
R21  19878372.516 6 106373175.265 6      -773.555          38.000    19878374.711 3  82734710.112 3      -601.654          23.000
C28  22612265.656 5 117747998.914 5     -1474.711          35.000
E19  28360869.555 6 149037387.859 6      2856.512          39.000    28360877.273 6 114197481.533 6      2188.849          40.000
E31  25395142.883 8 133452354.199 8     -2618.797          51.000    25395146.891 8 102255697.644 8     -2006.611          49.000
E33  24126576.711 8 126786049.221 8     -1216.168          51.000    24126577.758 8  97147772.015 8      -931.848          51.000
> 2020 05 18 15 22  0.0000000  0 15        .000000000000
G10  21267289.547 8 111760353.304 8      1487.348          51.000    21267292.312 8  87086007.527 8      1158.972          51.000
G16  20958594.984 8 110138165.634 8     -1799.680          51.000    20958594.359 8  85821925.583 8     -1402.348          49.000
G18  23422730.492 4 123087261.918 4     -3104.043          28.000
G20  21098256.375 7 110872099.175 7      -936.898          44.000    21098256.391 6  86393835.875 6      -730.051          37.000
G21  23108468.555 5 121435776.493 5     -2459.699          35.000
G26  22648588.734 7 119019135.796 7     -3336.293          47.000    22648594.633 7  92742171.730 7     -2599.709          47.000
G27  20516177.289 6 107813279.598 6      1016.348          37.000    20516178.266 6  84010306.922 6       791.959          37.000
R06  21182506.812 5 113033893.198 5      2688.348          34.000
R11  21590245.406 8 115371800.437 8     -3520.023          48.000    21590249.242 7  89733602.753 7     -2737.796          45.000
R21  19882734.078 5 106396503.527 5      -788.102          34.000    19882751.773 4  82752868.312 4      -612.971          25.000
C27  21952837.688 5 114314181.244 5      1081.020          30.000
C28  22620774.742 5 117792296.440 5     -1486.559          34.000
E19  28344554.227 6 148951654.447 6      2851.586          38.000    28344562.688 6 114131789.749 6      2184.901          41.000
E31  25410111.109 8 133531010.877 8     -2632.305          51.000    25410114.016 8 102315967.000 8     -2016.922          49.000
E33  24133525.773 8 126822567.001 8     -1225.746          51.000    24133527.055 8  97175753.174 8      -939.217          51.000
> 2020 05 18 15 22 30.0000000  0 13        .000000000000
G10  21258826.500 8 111715880.206 8      1470.773          51.000    21258829.016 8  87051353.156 8      1146.057          51.000
G16  20968896.227 8 110192299.686 8     -1816.000          51.000    20968895.648 8  85864107.930 8     -1415.065          49.000
G20  21103635.961 7 110900369.118 7      -954.199          46.000    21103635.977 5  86415864.394 5      -743.532          35.000
G26  22667634.758 7 119119226.078 7     -3343.184          44.000    22667641.656 7  92820164.138 7     -2605.078          44.000
G27  20510385.812 5 107782845.437 5      1005.781          34.000    20510385.750 5  83986592.040 5       783.732          34.000
R06  21167427.289 6 112953428.855 6      2669.270          36.000
R11  21610024.922 8 115477499.454 8     -3533.410          49.000    21610030.383 7  89815813.053 7     -2748.208          44.000
R21  19887160.812 6 106420198.310 6      -797.500          36.000    19887167.445 4  82771297.720 4      -620.278          26.000
C28  22629328.195 6 117836859.408 6     -1491.340          40.000
E12  22185768.914 5 116587012.540 5       983.945          35.000
E19  28328253.383 6 148865996.273 6      2852.379          38.000    28328261.992 6 114066155.637 6      2185.469          40.000
E31  25425139.641 8 133609984.650 8     -2639.383          51.000    25425140.977 8 102376479.315 8     -2022.372          48.000
E33  24140513.398 8 126859287.082 8     -1228.973          51.000    24140514.789 8  97203889.344 8      -941.734          51.000
> 2020 05 18 15 23  0.0000000  0 15        .000000000000
G10  21250460.555 8 111671916.566 8      1457.363          51.000    21250462.688 8  87017095.773 8      1135.608          51.000
G16  20979293.078 8 110246935.246 8     -1829.117          51.000    20979292.445 8  85906681.089 8     -1425.286          48.000
G20  21109116.945 7 110929171.365 7      -968.531          45.000    21109116.594 5  86438307.677 5      -754.697          35.000
G21  23136518.555 5 121583202.089 5     -2458.457          34.000
G26  22686722.539 7 119219534.616 7     -3346.836          44.000    22686729.719 7  92898326.649 7     -2607.924          44.000
G27  20504656.359 5 107752698.264 5       997.852          33.000    20504655.469 5  83963134.292 5       777.550          34.000
R06  21152457.297 6 112873544.066 6      2653.234          40.000
R11  21629883.133 8 115583611.884 8     -3543.504          50.000    21629887.797 7  89898344.923 7     -2756.062          43.000
R21  19891639.805 6 106444165.484 6      -803.141          37.000    19891639.156 4  82789938.796 4      -624.665          29.000
C27  21940404.570 4 114249469.834 4      1071.305          29.000
C28  22637919.391 6 117881596.574 6     -1493.867          40.000
E12  22180149.797 5 116557483.157 5       981.836          34.000
E19  28311950.445 6 148780323.466 6      2856.363          41.000    28311957.891 6 114000510.321 6      2188.531          39.000
E31  25440210.383 8 133689181.963 8     -2643.199          51.000    25440210.398 8 102437162.902 8     -2025.317          49.000
E33  24147521.984 8 126896117.170 8     -1229.043          51.000    24147523.289 8  97232109.797 8      -941.746          51.000
> 2020 05 18 15 23 30.0000000  0 13        .000000000000
G10  21242194.312 8 111628476.747 8      1437.281          51.000    21242196.172 8  86983246.575 8      1119.959          51.000
G16  20989787.508 8 110302083.533 8     -1848.758          51.000    20989786.719 8  85949653.784 8     -1440.591          48.000
G20  21114701.461 7 110958517.635 7      -989.133          47.000    21114700.359 5  86461174.841 5      -770.756          34.000
G26  22705854.500 7 119320072.050 7     -3356.949          46.000    22705861.078 7  92976667.493 7     -2615.805          46.000
G27  20498992.727 6 107722938.418 6       984.328          36.000    20498991.578 5  83939944.734 5       767.012          35.000
R05  21967938.016 4 117431173.640 4     -1536.422          28.000
R06  21137598.617 5 112794255.820 5      2630.852          32.000
R11  21649820.312 8 115690146.637 8     -3560.207          49.000    21649823.633 6  89981205.191 6     -2769.053          41.000
R21  19896172.828 6 106468418.276 6      -814.953          38.000    19896170.719 5  82808802.040 5      -633.855          31.000
C28  22646547.164 7 117926520.766 7     -1502.656          43.000
E19  28295648.203 7 148694651.184 7      2853.949          43.000    28295653.203 6 113934865.384 6      2186.774          38.000
E31  25455325.625 8 133768614.085 8     -2653.562          51.000    25455325.578 8 102498026.414 8     -2033.243          50.000
E33  24154553.891 8 126933069.800 8     -1235.691          51.000    24154555.023 8  97260424.141 8      -946.837          51.000
> 2020 05 18 15 24  0.0000000  0 12        .000000000000
G10  21234033.656 8 111585591.981 8      1419.973          51.000    21234035.352 8  86949829.900 8      1106.472          51.000
G16  21000384.844 8 110357772.942 8     -1865.543          50.000    21000383.844 8  85993048.139 8     -1453.670          48.000
G20  21120394.961 7 110988436.890 7     -1006.961          45.000    21120393.547 6  86484488.510 6      -784.645          36.000
G26  22725035.547 8 119420865.717 8     -3364.223          48.000    22725040.969 8  93055207.962 8     -2621.472          48.000
G27  20493400.852 5 107693553.758 5       972.672          34.000    20493399.805 5  83917047.565 5       757.923          32.000
R06  21122859.297 4 112715598.584 4      2610.730          28.000
R11  21669841.281 7 115797129.351 7     -3573.758          47.000    21669844.164 7  90064413.900 7     -2779.589          42.000
R21  19900764.445 6 106492986.522 6      -824.457          40.000    19900764.547 5  82827910.680 5      -641.244          33.000
C28  22655216.867 7 117971661.405 7     -1508.469          42.000
E19  28279352.094 7 148609011.093 7      2853.965          44.000    28279355.016 6 113869245.140 6      2186.717          39.000
E31  25470490.914 8 133848309.095 8     -2661.043          51.000    25470491.812 8 102559091.374 8     -2038.987          51.000
E33  24161614.727 8 126970174.348 8     -1239.566          51.000    24161615.672 8  97288854.893 8      -949.765          51.000
> 2020 05 18 15 24 30.0000000  0 13        .000000000000
G10  21225967.094 8 111543202.034 8      1404.656          51.000    21225968.609 8  86916798.803 8      1094.540          51.000
G16  21011073.102 8 110413940.771 8     -1880.359          49.000    21011071.719 8  86036815.264 8     -1465.215          48.000
G20  21126185.398 7 111018866.009 7     -1022.914          46.000    21126183.539 6  86508199.500 6      -797.076          37.000
G21  23178692.484 5 121804834.119 5     -2464.445          33.000
G26  22744253.219 8 119521851.520 8     -3369.527          48.000    22744257.180 8  93133898.131 8     -2625.606          48.000
G27  20487869.352 6 107664483.687 6       963.559          37.000    20487868.148 6  83894395.591 6       750.825          37.000
R06  21108225.102 5 112637534.465 5      2593.875          30.000
R11  21689932.883 7 115904493.086 7     -3585.074          45.000    21689936.695 6  90147918.948 6     -2788.394          41.000
R21  19905401.492 6 106517807.242 6      -831.547          37.000    19905404.641 5  82847215.703 5      -646.753          30.000
C28  22663915.367 7 118016957.436 7     -1512.820          43.000
E19  28263050.492 7 148523343.694 7      2855.988          43.000    28263052.188 6 113803604.009 6      2188.367          39.000
E31  25485694.227 8 133928203.618 8     -2666.492          50.000    25485696.453 8 102620309.219 8     -2043.231          51.000
E33  24168692.641 8 127007368.735 8     -1241.398          51.000    24168693.438 8  97317354.488 8      -951.168          51.000
> 2020 05 18 15 25  0.0000000  0 16        .000000000000
G10  21217988.570 8 111501275.411 8      1389.254          51.000    21217989.953 8  86884128.749 8      1082.536          51.000
G16  21021845.852 8 110470552.000 8     -1895.008          50.000    21021844.352 7  86080927.901 7     -1476.626          47.000
G20  21132066.367 7 111049771.085 7     -1038.852          45.000    21132064.508 6  86532281.364 6      -809.498          37.000
G21  23192754.922 5 121878738.197 5     -2464.273          34.000
G26  22763500.562 8 119622994.080 8     -3374.629          48.000    22763503.477 8  93212710.463 8     -2629.584          48.000
G27  20482391.492 6 107635696.811 6       954.664          37.000    20482391.031 6  83871964.235 6       743.894          37.000
R05  21994389.031 5 117572509.014 5     -1605.656          35.000    21994395.344 5  91445337.367 5     -1248.844          30.000
R06  21093691.242 6 112559991.557 6      2574.945          38.000
R11  21710088.539 7 116012200.104 7     -3596.320          44.000    21710093.508 6  90231691.026 6     -2797.138          40.000
R12  20937092.383 5 111842190.252 5      -290.523          33.000    20937090.648 5  86988359.133 5      -225.966          31.000
R21  19910077.258 5 106542846.741 5      -838.918          32.000    19910081.586 4  82866690.877 4      -652.492          27.000
C27  21916008.508 5 114122413.302 5      1047.652          33.000
C28  22672637.203 7 118062376.162 7     -1516.512          42.000
E19  28246737.656 7 148437618.334 7      2857.859          43.000    28246738.773 6 113737918.453 6      2189.660          40.000
E31  25500928.898 8 134008263.129 8     -2671.891          50.000    25500932.359 8 102681653.478 8     -2047.251          51.000
E33  24175781.234 8 127044619.710 8     -1243.199          51.000    24175782.070 8  97345897.444 8      -952.560          51.000
> 2020 05 18 15 25 30.0000000  0 17        .000000000000
G10  21210128.562 8 111459971.674 8      1366.777          51.000    21210130.289 8  86851944.069 8      1065.021          51.000
G16  21032732.961 8 110527763.643 8     -1916.676          51.000    21032731.719 8  86125508.384 8     -1493.514          48.000
G20  21138067.727 7 111081308.939 7     -1061.520          45.000    21138066.438 6  86556856.317 6      -827.161          39.000
G21  23206845.625 5 121952789.527 5     -2469.844          33.000    23206834.852 4  95028107.795 4     -1924.554          24.000
G26  22782806.992 7 119724449.247 7     -3386.656          46.000    22782809.742 7  93291766.381 7     -2638.953          46.000
G27  20476997.414 5 107607352.466 5       937.594          32.000    20476998.039 5  83849877.696 5       730.593          31.000
R05  22003488.484 5 117621153.377 5     -1635.117          33.000    22003497.289 4  91483172.017 4     -1271.755          29.000
R06  21079294.422 6 112483156.096 6      2549.688          39.000
R11  21730337.492 7 116120406.646 7     -3614.738          43.000    21730343.188 6  90315851.606 6     -2811.466          38.000
R12  20938816.211 4 111851411.522 4      -322.234          29.000    20938816.805 4  86995531.196 4      -250.624          29.000
R21  19914823.578 5 106568266.093 5      -853.574          32.000
C27  21910013.227 4 114091196.631 4      1036.281          29.000
C28  22681412.609 6 118108074.284 6     -1527.594          40.000
E12  22152516.414 5 116412259.264 5       951.852          32.000    22152516.930 5  89199003.578 5       729.604          35.000
E19  28230444.109 7 148351995.088 7      2852.680          42.000    28230444.922 6 113672311.117 6      2185.852          40.000
E31  25516224.516 8 134088644.141 8     -2684.359          50.000    25516228.930 8 102743244.085 8     -2056.841          51.000
E33  24182910.547 8 127082085.062 8     -1252.090          51.000    24182911.711 8  97374604.657 8      -959.358          51.000
> 2020 05 18 15 26  0.0000000  0 15        .000000000000
G10  21202374.211 8 111419223.385 8      1349.117          51.000    21202376.234 8  86820192.185 8      1051.260          51.000
G16  21043720.875 8 110585505.224 8     -1933.492          51.000    21043719.984 7  86170501.787 7     -1506.617          47.000
G20  21144176.398 7 111113409.850 7     -1079.387          43.000    21144174.836 6  86581870.027 6      -841.078          39.000
G21  23220951.797 5 122026918.556 5     -2472.738          30.000    23220951.578 4  95085903.633 4     -1926.809          29.000
G26  22802159.211 7 119826145.730 7     -3393.688          46.000    22802162.211 7  93371010.350 7     -2644.435          46.000
G27  20471674.336 5 107579383.017 5       925.574          32.000    20471676.016 5  83828083.256 5       721.224          32.000
R05  22012728.844 6 117670562.702 6     -1659.996          36.000    22012733.570 4  91521601.430 4     -1291.108          28.000
R06  21065015.734 6 112406961.114 6      2529.258          36.000
R11  21750665.422 7 116229038.580 7     -3627.930          42.000    21750672.297 6  90400343.015 6     -2821.729          38.000
R21  19919629.523 6 106593994.664 6      -862.559          36.000
C28  22690228.609 6 118153983.599 6     -1533.863          39.000
E12  22147097.180 6 116383765.304 6       946.719          36.000    22147092.695 5  89177170.581 5       725.459          35.000
E19  28214156.984 6 148266407.511 6      2852.438          40.000    28214157.703 6 113606731.130 6      2185.532          39.000
E31  25531567.562 8 134169276.082 8     -2691.766          49.000    25531572.836 8 102805026.966 8     -2062.546          51.000
E33  24190067.641 8 127119695.574 8     -1255.969          51.000    24190068.898 8  97403423.094 8      -962.393          50.000
> 2020 05 18 15 26 30.0000000  0 17        .000000000000
G10  21194718.977 8 111378996.209 8      1331.777          51.000    21194721.391 8  86788846.352 8      1037.749          51.000
G16  21054802.625 8 110643739.459 8     -1949.754          51.000    21054802.039 8  86215879.055 8     -1519.289          48.000
G20  21150385.117 7 111146036.756 7     -1096.785          42.000    21150383.523 6  86607293.596 6      -854.638          40.000
G21  23235066.883 5 122101089.507 5     -2473.320          33.000
G26  22821550.234 7 119928045.519 7     -3400.422          46.000    22821553.344 7  93450412.708 7     -2649.682          46.000
G27  20466416.992 5 107551753.949 5       915.074          33.000    20466418.734 5  83806554.073 5       713.045          33.000
R05  22022106.375 5 117720698.308 5     -1684.457          35.000
R06  21050851.227 5 112331375.138 5      2509.098          30.000
R11  21771066.906 7 116338055.033 7     -3640.652          44.000    21771073.844 6  90485133.533 6     -2831.622          38.000
R12  20942734.062 5 111872285.951 5      -375.727          32.000
R21  19924488.102 6 106619996.016 6      -871.840          39.000    19924507.742 4  82926733.912 4      -678.104          25.000
C27  21898145.078 4 114029379.255 4      1022.457          29.000
C28  22699079.172 6 118200068.718 6     -1539.410          39.000
E12  22141705.492 5 116355424.025 5       942.086          34.000    22141700.148 6  89155454.550 6       721.646          36.000
E19  28197869.594 6 148180821.714 6      2852.379          39.000    28197871.180 6 113541152.485 6      2185.652          40.000
E31  25546951.148 8 134250121.613 8     -2698.695          49.000    25546957.367 8 102866973.507 8     -2067.894          51.000
E33  24197245.523 8 127157415.257 8     -1259.547          51.000    24197246.836 8  97432325.165 8      -965.065          50.000
> 2020 05 18 15 27  0.0000000  0 15        .000000000000
G10  21187166.617 8 111339310.009 8      1314.551          51.000    21187169.656 8  86757922.066 8      1024.328          51.000
G16  21065981.633 8 110702483.640 8     -1965.941          51.000    21065981.062 7  86261653.700 7     -1531.902          47.000
G20  21156697.234 6 111179207.012 6     -1114.148          41.000    21156696.102 6  86633140.595 6      -868.165          39.000
G26  22840983.250 7 120030164.645 7     -3406.781          47.000    22840985.727 7  93529985.964 7     -2654.638          47.000
G27  20461228.109 6 107524484.995 6       903.898          37.000    20461230.258 6  83785305.572 6       704.336          37.000
R05  22031623.414 5 117771576.784 5     -1707.969          30.000
R06  21036803.180 5 112256409.751 5      2488.570          32.000
R11  21791543.773 7 116447470.701 7     -3653.051          44.000    21791549.977 6  90570234.541 6     -2841.262          39.000
R21  19929402.219 6 106646288.925 6      -880.531          40.000    19929407.211 4  82947119.858 4      -684.855          26.000
C27  21892276.773 5 113998804.796 5      1016.586          31.000
C28  22707967.641 5 118246347.905 5     -1544.508          32.000
E12                                                                  22136341.070 6  89133869.561 6       717.835          37.000
E19  28181586.547 6 148095258.436 6      2852.543          38.000    28181589.734 6 113475591.156 6      2185.649          40.000
E31  25562379.117 8 134331197.575 8     -2705.676          51.000    25562385.680 8 102929096.606 8     -2073.168          51.000
E33  24204447.633 8 127195262.258 8     -1262.996          51.000    24204448.992 8  97461324.809 8      -967.798          49.000
> 2020 05 18 15 27 30.0000000  0 14        .000000000000
G10  21179726.109 8 111300210.516 8      1294.125          51.000    21179729.188 8  86727454.920 8      1008.409          51.000
G16  21077265.477 8 110761780.228 8     -1985.082          51.000    21077264.977 7  86307858.800 7     -1546.817          47.000
G20  21163120.633 6 111212963.774 6     -1134.262          39.000    21163119.773 6  86659444.598 6      -883.837          39.000
G21  23263312.680 5 122249569.759 5     -2479.191          32.000
G26  22860466.281 7 120132545.107 7     -3416.352          46.000    22860467.742 7  93609762.859 7     -2662.095          46.000
G27  20456116.414 6 107497621.865 6       889.395          37.000    20456119.688 6  83764373.270 6       693.035          36.000
R06  21022885.602 6 112182135.428 6      2464.727          37.000
R11  21812103.297 7 116557326.378 7     -3668.605          44.000    21812108.258 6  90655677.756 6     -2853.363          40.000
R21  19934379.617 6 106672918.095 6      -892.473          39.000    19934385.992 5  82967831.446 5      -694.145          31.000
C28  22716900.516 5 118292861.484 5     -1554.340          30.000
E12                                                                  22131023.086 6  89112449.578 6       711.652          37.000
E19  28165316.961 6 148009764.280 6      2849.543          37.000    28165321.562 6 113410082.786 6      2183.141          40.000
E31  25577859.844 8 134412546.687 8     -2715.555          51.000    25577865.938 8 102991428.996 8     -2080.750          50.000
E33  24211682.312 8 127233280.600 8     -1269.516          51.000    24211683.641 8  97490455.739 8      -972.785          49.000
> 2020 05 18 15 28  0.0000000  0 14        .000000000000
G10  21172379.992 8 111261607.023 8      1277.289          51.000    21172383.094 8  86697374.292 8       995.290          51.000
G16  21088636.250 8 110821535.845 8     -2000.652          50.000    21088636.133 8  86354421.598 8     -1558.950          48.000
G20  21169637.828 6 111247213.994 6     -1150.973          39.000    21169637.359 6  86686133.159 6      -896.859          39.000
G21  23277459.867 5 122323912.212 5     -2479.754          35.000
G26  22879981.070 7 120235092.531 7     -3422.246          45.000    22879982.047 7  93689669.855 7     -2666.688          45.000
G27  20451064.008 6 107471073.880 6       878.480          36.000    20451068.758 5  83743686.508 5       684.530          35.000
R05  22051070.000 5 117875582.021 5     -1758.652          31.000
R06  21009076.883 5 112108451.666 5      2444.742          35.000
R11  21832727.164 7 116667523.866 7     -3680.156          44.000    21832730.883 7  90741386.845 7     -2862.344          42.000
R21  19939402.492 6 106699790.091 6      -900.910          38.000    19939410.500 5  82988731.863 5      -700.708          35.000
E12                                                                  22125727.352 6  89091124.106 6       708.338          36.000
E19  28149043.828 6 147924249.400 6      2849.594          40.000    28149048.852 6 113344558.481 6      2183.374          39.000
E31  25593375.133 8 134494075.321 8     -2721.777          51.000    25593380.328 8 103053898.926 8     -2085.494          50.000
E33  24218932.055 8 127271378.034 8     -1272.383          50.000    24218933.219 8  97519647.273 8      -974.964          49.000
> 2020 05 18 15 28 30.0000000  0 14        .000000000000
G10  21165136.031 8 111223539.664 8      1257.570          51.000    21165139.172 8  86667711.425 8       979.925          51.000
G16  21100100.938 8 110881787.354 8     -2019.043          48.000    21100101.625 8  86401370.850 8     -1573.280          48.000
G20  21176256.523 7 111281995.049 7     -1170.539          42.000    21176256.242 6  86713235.313 6      -912.108          39.000
G21  23291615.859 5 122398302.602 5     -2482.297          35.000
G26  22899534.352 7 120337843.318 7     -3430.566          43.000    22899535.461 7  93769735.324 7     -2673.172          42.000
G27  20446079.508 6 107444880.964 6       864.910          38.000    20446083.914 6  83723276.446 6       673.956          38.000
R06  20995386.328 5 112035401.696 5      2421.551          32.000
R11  21853420.719 6 116778098.448 6     -3694.375          40.000    21853424.039 7  90827389.259 7     -2873.406          43.000
R21  19944477.562 6 106726944.052 6      -912.539          39.000    19944483.344 6  83009851.650 6      -709.756          37.000
C27  21874898.312 4 113908364.137 4       992.176          28.000
E12  22120459.805 5 116243801.045 5       916.895          32.000    22120460.195 5  89069922.873 5       702.559          34.000
E19  28132775.039 7 147838754.641 7      2847.016          42.000    28132779.328 6 113279049.574 6      2181.524          39.000
E31  25608931.648 8 134575820.557 8     -2730.922          51.000    25608935.789 8 103116534.811 8     -2092.569          50.000
E33  24226204.133 8 127309593.024 8     -1278.340          49.000    24226205.258 8  97548928.893 8      -979.522          50.000
> 2020 05 18 15 29  0.0000000  0 15        .000000000000
G10  21158000.383 8 111186041.783 8      1240.680          51.000    21158003.539 8  86638492.318 8       966.766          51.000
G16  21111666.047 8 110942565.547 8     -2034.535          48.000    21111667.086 8  86448730.498 8     -1585.349          48.000
G20  21182982.219 7 111317337.980 7     -1187.234          43.000    21182982.039 6  86740775.254 6      -925.115          37.000
G21  23305787.227 5 122472772.723 5     -2483.105          31.000
G26  22919130.906 6 120440827.054 6     -3436.133          37.000    22919133.016 6  93849982.373 6     -2677.506          38.000
G27  20441169.562 6 107419076.402 6       853.777          41.000    20441172.328 6  83703169.043 6       665.284          41.000
R11  21874189.297 6 116889078.569 6     -3705.977          37.000    21874192.820 7  90913707.041 7     -2882.429          42.000
R12  20955192.672 5 111938871.493 5      -512.379          30.000
R21  19949611.539 6 106754412.564 6      -920.785          41.000    19949615.383 6  83031216.047 6      -716.166          38.000
C27  21869193.242 4 113878615.212 4       985.875          29.000
C28  22743897.164 5 118433434.663 5     -1572.238          35.000
E12  22115229.852 5 116216319.518 5       913.000          32.000    22115229.984 5  89048870.288 5       699.604          35.000
E19  28116517.109 7 147753314.387 7      2847.379          44.000    28116520.414 6 113213582.455 6      2181.737          40.000
E31  25624534.750 8 134657812.817 8     -2737.000          51.000    25624537.742 8 103179359.971 8     -2097.143          49.000
E33  24233504.648 8 127347957.306 8     -1281.039          48.000    24233505.797 8  97578324.895 8      -981.596          50.000
> 2020 05 18 15 29 30.0000000  0 15        .000000000000
G10  21150962.656 8 111149059.551 8      1218.758          51.000    21150966.055 8  86609675.018 8       949.681          51.000
G16  21123321.258 8 111003813.763 8     -2054.922          50.000    21123321.859 8  86496456.369 8     -1601.238          48.000
G20  21189803.992 6 111353186.233 6     -1208.777          41.000    21189803.211 6  86768708.984 6      -941.901          39.000
G21  23319978.266 5 122547314.575 5     -2488.574          35.000
G26  22938759.375 6 120543986.295 6     -3447.035          36.000    22938763.938 6  93930366.238 6     -2685.998          37.000
G27  20436323.383 7 107393606.390 7       837.945          42.000    20436324.648 7  83683322.312 7       652.944          42.000
R06  20968374.516 6 111891279.587 6      2376.008          37.000
R11  21895022.445 5 117000403.324 5     -3722.203          33.000    21895025.422 6  91000292.940 6     -2895.044          37.000
R21  19954793.891 6 106782139.412 6      -934.215          41.000    19954796.375 6  83052781.329 6      -726.612          39.000
C27  21863525.383 5 113849099.798 5       975.781          31.000
C28  22752972.055 5 118480664.505 5     -1582.773          35.000
E12                                                                  22110028.227 6  89027924.096 6       692.071          36.000
E19  28100259.484 7 147667875.552 7      2842.438          45.000    28100261.922 6 113148116.462 6      2177.792          40.000
E31  25640173.492 8 134739995.280 8     -2748.113          51.000    25640175.664 8 103242330.900 8     -2105.700          49.000
E33  24240823.000 8 127386415.487 8     -1289.078          48.000    24240824.180 8  97607792.850 8      -987.699          50.000
> 2020 05 18 15 30  0.0000000  0 12        .000000000000
G10  21144038.219 8 111112673.593 8      1206.426          50.000    21144042.039 8  86581322.337 8       940.072          50.000
G16  21135081.055 8 111065609.629 8     -2065.477          51.000    21135081.047 8  86544608.954 8     -1609.465          49.000
G20  21196736.836 7 111389617.893 7     -1220.367          44.000    21196735.734 5  86797097.330 5      -950.935          35.000
G26  22958437.516 6 120647398.095 6     -3447.926          39.000    22958442.859 6  94010946.846 6     -2686.695          39.000
G27  20431555.961 7 107368551.581 7       831.703          42.000    20431556.469 7  83663799.093 7       648.080          42.000
R06  20955060.914 6 111820219.931 6      2360.422          39.000
R21  19960039.516 6 106810205.165 6      -937.547          41.000    19960041.047 6  83074610.242 6      -729.203          40.000
C28  22762085.945 6 118528135.666 6     -1582.914          40.000
E12  22104869.703 5 116161881.518 5       904.113          34.000    22104868.664 6  89007145.017 6       692.708          38.000
E19  28084017.477 7 147582519.609 7      2847.418          46.000    28084018.953 6 113082713.967 6      2181.731          38.000
E31  25655863.086 8 134822445.676 8     -2749.199          51.000    25655864.953 8 103305507.122 8     -2106.496          49.000
E33  24248174.242 7 127425046.628 7     -1287.000          47.000    24248175.445 8  97637393.331 8      -986.098          50.000
> 2020 05 18 15 30 30.0000000  0 15        .000000000000
G10  21137205.461 8 111076768.286 8      1188.797          51.000    21137209.547 8  86553344.206 8       926.338          51.000
G16  21146922.680 8 111127834.699 8     -2081.367          51.000    21146922.070 8  86593095.987 8     -1621.845          49.000
G20  21203758.344 7 111426515.034 7     -1237.629          42.000    21203757.047 5  86825848.349 5      -964.386          35.000
G21  23348353.438 5 122696416.474 5     -2485.703          33.000
G26  22978142.086 7 120750943.201 7     -3453.555          42.000    22978146.742 7  94091631.326 7     -2691.082          42.000
G27  20426845.203 7 107343796.374 7       820.340          43.000    20426845.531 7  83644509.301 7       639.229          43.000
R06  20941853.891 6 111749747.373 6      2339.375          40.000
R11  21936916.062 5 117224202.424 5     -3739.559          34.000    21936904.227 6  91174375.182 6     -2908.558          36.000
R12  20964483.812 5 111988509.025 5      -590.832          31.000
R21  19965325.656 7 106838490.712 7      -946.477          42.000    19965326.961 6  83096610.094 6      -736.151          40.000
C28  22771224.523 6 118575732.485 6     -1588.520          39.000
E12  22099727.414 5 116134864.475 5       898.652          33.000    22099729.531 6  88986443.637 6       688.871          38.000
E19  28067769.227 7 147497131.954 7      2846.621          46.000    28067769.648 6 113017287.155 6      2181.282          37.000
E31  25671581.375 8 134905045.483 8     -2755.773          50.000    25671583.086 8 103368797.834 8     -2111.588          49.000
E33  24255536.086 7 127463733.637 7     -1290.477          46.000    24255537.219 8  97667036.629 8      -988.831          50.000
> 2020 05 18 15 31  0.0000000  0 16        .000000000000
G10  21130486.438 8 111041458.551 8      1167.336          51.000    21130490.188 8  86525830.132 8       909.612          51.000
G16  21158867.172 8 111190601.001 8     -2100.992          51.000    21158866.234 8  86642004.763 8     -1637.137          49.000
G18  23743454.320 4 124772699.947 4     -3140.582          29.000
G20  21210889.711 7 111463989.852 7     -1258.422          43.000    21210888.477 5  86855049.522 5      -980.582          30.000
G21  23362562.438 5 122771094.713 5     -2490.863          35.000
G26  22997893.594 7 120854732.925 7     -3463.305          43.000    22997897.211 7  94172506.372 7     -2698.682          43.000
G27  20422213.328 7 107319455.663 7       804.566          43.000    20422213.523 7  83625542.509 7       626.935          43.000
R06  20928779.727 6 111679981.285 6      2314.137          39.000
R11  21957952.344 6 117336656.093 6     -3755.078          41.000    21957947.703 6  91261839.017 6     -2920.619          38.000
R12  20967894.102 6 112006691.604 6      -619.707          37.000
R21  19970674.359 6 106867111.841 6      -959.176          41.000    19970675.250 6  83118870.972 6      -746.026          39.000
C28  22780410.234 7 118623567.593 7     -1598.312          43.000
E12  22094626.188 5 116108043.405 5       890.086          33.000    22094630.922 6  88965906.986 6       682.077          36.000
E19  28051536.703 7 147411828.518 7      2842.238          46.000    28051536.438 6 112951924.816 6      2177.906          37.000
E31  25687349.297 8 134987906.718 8     -2766.121          49.000    25687350.852 8 103432288.857 8     -2119.418          49.000
E33  24262930.156 7 127502589.865 7     -1297.801          46.000    24262931.172 8  97696809.567 8      -994.296          50.000
> 2020 05 18 15 31 30.0000000  0 16        .000000000000
G10  21123844.328 8 111006552.170 8      1149.930          51.000    21123847.844 8  86498630.367 8       896.049          51.000
G16  21170877.242 8 111253713.454 8     -2116.371          50.000    21170876.375 8  86691183.269 8     -1649.120          49.000
G18  23761378.117 6 124866814.248 6     -3141.125          36.000
G20  21218094.266 6 111501847.525 6     -1275.230          37.000    21218092.266 5  86884548.971 5      -993.689          33.000
G21  23376780.719 6 122845783.760 6     -2490.969          38.000
G26  23017654.477 7 120958571.533 7     -3468.855          44.000    23017656.938 7  94253419.493 7     -2703.007          43.000
G27  20417623.672 7 107295337.344 7       793.355          44.000    20417624.695 7  83606749.012 7       618.199          43.000
R06  20915801.703 6 111610728.773 6      2292.965          40.000
R11  21979029.836 7 117449318.260 7     -3765.758          42.000    21979033.008 6  91349465.041 6     -2928.926          39.000
R12  20971420.906 5 112025532.468 5      -646.336          35.000    20971429.375 4  87131047.660 4      -502.709          28.000
R21  19976048.750 6 106895871.448 6      -967.746          40.000    19976049.508 6  83141239.548 6      -752.694          38.000
C28  22789605.633 6 118671449.391 6     -1603.738          41.000
E12                                                                  22089533.773 5  88945386.902 5       678.689          34.000
E19  28035283.477 7 147326418.140 7      2841.969          45.000    28035283.922 6 112886480.598 6      2177.406          39.000
E31  25703128.992 7 135070834.293 7     -2772.195          47.000    25703131.328 8 103495830.742 8     -2124.117          49.000
E33  24270319.578 7 127541421.724 7     -1300.770          46.000    24270320.625 8  97726563.839 8      -996.676          50.000
> 2020 05 18 15 32  0.0000000  0 15        .000000000000
G10  21117337.594 8 110972356.974 8      1128.582          51.000    21117340.930 8  86471984.796 8       879.418          51.000
G16  21183011.117 8 111317476.954 8     -2135.758          50.000    21183010.250 8  86740869.099 8     -1664.227          49.000
G18  23779323.156 5 124961117.309 5     -3147.352          34.000
G20  21225428.578 6 111540393.303 6     -1295.824          40.000    21225427.219 4  86914584.808 4     -1009.715          26.000
G26  23037482.469 7 121062763.204 7     -3478.312          43.000    23037483.648 7  94334607.708 7     -2710.379          43.000
G27  20413134.906 7 107271749.279 7       777.984          43.000    20413136.336 7  83588368.697 7       606.222          43.000
R06  20902978.617 5 111542304.909 5      2267.652          33.000
R11  22000205.992 7 117562496.013 7     -3780.547          43.000    22000213.883 6  91437492.113 6     -2940.428          39.000
R12  20975130.797 4 112045382.814 4      -675.805          28.000
R21  19981507.266 6 106925081.592 6      -980.473          38.000    19981507.547 6  83163958.503 6      -762.593          36.000
C28  22798867.352 7 118719681.799 7     -1612.941          42.000
E12                                                                  22084497.344 5  88925118.234 5       672.059          34.000
E19  28019068.555 7 147241209.348 7      2837.414          44.000    28019070.062 6 112821190.792 6      2174.191          39.000
E31  25718978.984 7 135154133.161 7     -2782.141          47.000    25718982.961 8 103559657.149 8     -2131.866          50.000
E33  24277762.531 7 127580535.538 7     -1307.906          46.000    24277763.859 8  97756534.164 8     -1002.147          50.000
> 2020 05 18 15 32 30.0000000  0 17        .000000000000
G10  21110935.383 8 110938710.968 8      1113.672          51.000    21110938.312 8  86445767.153 8       867.799          51.000
G16  21195237.227 8 111381726.754 8     -2148.363          50.000    21195236.680 8  86790933.893 8     -1674.049          50.000
G18  23797277.359 5 125055469.277 5     -3144.992          33.000
G20  21232863.367 6 111579463.124 6     -1309.703          38.000    21232862.969 5  86945012.835 5     -1020.548          31.000
G26  23057345.953 6 121167142.446 6     -3480.941          41.000    23057345.906 6  94415942.057 6     -2712.425          41.000
G27  20408716.141 7 107248529.612 7       768.961          45.000    20408717.383 7  83570275.448 7       599.193          45.000
R05  22145355.922 4 118379587.222 4     -1973.457          29.000
R06  20890278.484 5 111474534.070 5      2249.332          30.000
R11  22021448.273 7 117676019.428 7     -3788.418          43.000    22021459.227 6  91525788.087 6     -2946.547          37.000
R12  20978989.805 5 112065993.662 5      -699.125          34.000
R21  19987019.109 6 106954576.158 6      -986.414          40.000    19987018.266 5  83186898.709 5      -767.214          34.000
C27  21830356.828 4 113676405.651 4       938.605          28.000
C28  22808166.305 7 118768103.125 7     -1615.785          42.000
E12                                                                  22079493.203 5  88904975.950 5       670.314          34.000
E19  28002861.445 7 147156041.491 7      2839.754          42.000    28002863.133 6 112755932.353 6      2175.706          41.000
E31  25734869.492 8 135237638.561 8     -2785.559          49.000    25734874.523 8 103623641.771 8     -2134.392          51.000
E33  24285228.180 7 127619767.906 7     -1308.438          45.000    24285229.672 8  97786595.329 8     -1002.542          50.000
> 2020 05 18 15 33  0.0000000  0 16        .000000000000
G10  21104635.641 8 110905604.357 8      1090.266          51.000    21104638.289 8  86419969.804 8       849.558          51.000
G16  21207553.203 8 111446450.129 8     -2169.625          50.000    21207553.273 8  86841367.699 8     -1690.617          50.000
G18  23815241.320 5 125149940.281 5     -3151.773          31.000    23815236.422 5  97519411.568 5     -2455.927          32.000
G20  21240403.461 4 111619085.747 4     -1332.836          28.000    21240409.391 4  86975924.798 4     -1038.573          25.000
G26  23077242.805 6 121271696.211 6     -3492.207          39.000    23077241.805 6  94497412.365 6     -2721.206          38.000
G27  20404365.641 7 107225668.576 7       751.551          46.000    20404366.805 7  83552461.692 7       585.624          46.000
R05  22156510.148 5 118439199.156 5     -2003.711          35.000
R11  22042753.375 7 117789872.853 7     -3805.203          43.000    22042765.859 5  91614340.676 5     -2959.605          32.000
R12  20982993.484 5 112087390.277 5      -730.562          30.000
R21  19992581.359 6 106984343.905 6     -1000.996          39.000    19992580.750 5  83210051.380 5      -778.553          34.000
C27  21824972.992 5 113648369.857 5       926.469          33.000
C28  22817499.656 6 118816702.645 6     -1627.168          41.000
E12  22074523.359 6 116002393.804 6       864.348          37.000    22074519.891 5  88884951.651 5       662.292          34.000
E19  27986660.742 6 147070905.601 6      2832.965          41.000    27986662.812 7 112690698.410 7      2170.746          43.000
E31  25750797.680 8 135321337.879 8     -2797.566          50.000    25750803.234 8 103687774.968 8     -2143.527          51.000
E33  24292714.508 7 127659107.643 7     -1317.309          45.000    24292715.875 8  97816738.760 8     -1009.450          50.000
> 2020 05 18 15 33 30.0000000  0 15        .000000000000
G10  21098430.836 8 110872997.299 8      1077.969          51.000    21098433.570 8  86394561.730 8       839.979          51.000
G16  21219951.312 8 111511604.435 8     -2179.516          50.000    21219951.891 8  86892137.298 8     -1698.324          49.000
G21  23433745.625 6 123145111.185 6     -2495.902          37.000
G26  23097166.094 6 121376380.613 6     -3492.109          36.000    23097162.945 5  94578984.440 5     -2721.130          35.000
G27  20400075.938 7 107203126.493 7       745.477          46.000    20400077.094 7  83534896.439 7       580.891          46.000
R05  22167784.648 6 118499466.601 6     -2020.406          37.000
R11  22064112.828 7 117904010.415 7     -3809.898          43.000    22064123.766 5  91703114.106 5     -2963.263          30.000
R12  20987138.969 5 112109528.550 5      -750.953          33.000
R21  19998185.367 6 107014342.874 6     -1004.309          38.000    19998187.102 5  83233383.902 5      -781.132          35.000
C27  21819627.367 5 113620526.132 5       924.840          34.000
C28  22826858.820 6 118865439.748 6     -1626.930          36.000
E12  22069572.266 6 115976373.455 6       865.086          36.000    22069568.477 5  88865013.953 5       662.816          34.000
E19  27970458.914 6 146985763.154 6      2837.598          39.000    27970461.852 7 112625459.448 7      2174.278          45.000
E31  25766754.742 8 135405188.408 8     -2798.000          50.000    25766760.742 8 103752024.035 8     -2143.922          51.000
E33  24300213.320 7 127698513.540 7     -1315.219          43.000    24300214.539 8  97846932.855 8     -1007.618          50.000
> 2020 05 18 15 34  0.0000000  0 16        .000000000000
G10  21092338.617 8 110840982.450 8      1057.020          51.000    21092341.250 8  86369615.121 8       823.652          51.000
G16  21232448.820 8 111577279.651 8     -2198.168          50.000    21232449.414 8  86943312.772 8     -1712.858          49.000
G18  23851177.531 5 125338782.267 5     -3150.066          33.000
G21  23448010.391 5 123220059.112 5     -2500.031          34.000    23448019.445 5  96015717.142 5     -1948.076          30.000
G26  23117132.195 6 121481285.118 6     -3500.781          37.000    23117126.648 6  94660727.994 6     -2727.888          37.000
G27  20395864.656 7 107180996.178 7       730.426          46.000    20395866.039 7  83517652.042 7       569.163          46.000
R05  22179197.359 6 118560479.819 6     -2046.543          40.000
R06  20852921.758 5 111275242.107 5      2180.051          33.000
R11  22085543.172 6 118018520.525 6     -3823.633          41.000    22085550.719 5  91792177.348 5     -2973.940          33.000
R21  20003850.539 6 107044666.534 6     -1016.578          36.000    20003853.758 6  83256968.930 6      -790.672          36.000
C27  21814331.523 6 113592936.883 6       915.180          37.000
C28  22836259.477 6 118914405.383 6     -1636.016          37.000
E12  22064659.508 6 115950557.646 6       856.750          36.000    22064656.016 5  88845233.021 5       656.659          33.000
E19  27954272.344 6 146900707.811 6      2833.281          38.000    27954277.055 7 112560287.188 7      2171.028          44.000
E31  25782757.531 8 135489280.094 8     -2807.371          50.000    25782763.984 8 103816457.879 8     -2151.088          51.000
E33  24307741.859 7 127738076.923 7     -1321.832          42.000    24307743.164 8  97877247.644 8     -1012.781          50.000
> 2020 05 18 15 34 30.0000000  0 17        .000000000000
G10  21086358.422 8 110809556.873 8      1038.348          51.000    21086360.602 8  86345127.669 8       809.102          51.000
G16  21245044.461 8 111643470.095 8     -2214.227          51.000    21245044.641 8  86994889.714 8     -1725.371          48.000
G18  23869170.734 6 125433332.053 6     -3152.230          37.000
G20  21263585.531 6 111740935.373 6     -1380.445          37.000    21263576.469 5  87070790.418 5     -1075.672          32.000
G26  23137136.820 6 121586403.199 6     -3506.809          38.000    23137131.242 6  94742638.007 6     -2732.584          37.000
G27  20391731.148 7 107159274.813 7       717.906          46.000    20391733.039 7  83500726.296 7       559.407          45.000
R05  22190748.648 6 118622232.138 6     -2070.031          39.000    22190756.695 5  92261771.409 5     -1610.024          31.000
R06  20840734.672 6 111210199.786 6      2156.871          37.000
R11  22107042.820 5 118133395.056 5     -3834.418          34.000    22107049.266 6  91881524.161 6     -2982.325          36.000
R12  20995898.844 5 112156341.816 5      -807.145          34.000    20995897.539 4  87232693.339 4      -627.779          25.000
R21  20009577.234 6 107075310.453 6     -1025.895          39.000    20009580.562 6  83280803.014 6      -797.921          37.000
C27  21809083.836 5 113565598.812 5       907.883          33.000
C28  22845705.109 5 118963595.373 5     -1642.277          35.000
E12  22059784.836 6 115924942.343 6       850.734          36.000    22059782.016 5  88825605.701 5       652.463          32.000
E19  27938101.680 6 146815737.834 6      2831.461          40.000    27938108.008 7 112495180.310 7      2169.630          45.000
E31  25798805.172 8 135573607.125 8     -2814.199          50.000    25798811.461 8 103881072.066 8     -2156.314          51.000
E33  24315299.281 6 127777793.532 6     -1325.945          41.000    24315301.016 8  97907679.819 8     -1015.891          50.000
> 2020 05 18 15 35  0.0000000  0 14        .000000000000
G10  21080484.641 8 110778690.417 8      1019.484          51.000    21080486.602 8  86321075.890 8       794.403          51.000
G16  21257731.898 8 111710142.459 8     -2230.516          51.000    21257731.406 7  87046842.156 7     -1738.067          47.000
G18  23887170.164 6 125527930.089 6     -3154.051          37.000
G20  21271512.016 5 111782620.445 5     -1398.195          30.000
G26  23157174.414 6 121691701.285 6     -3513.082          38.000    23157169.477 6  94824688.348 6     -2737.467          38.000
G27  20387669.891 7 107137932.502 7       704.828          45.000    20387672.070 7  83484095.887 7       549.214          46.000
R05  22202432.062 6 118684689.255 6     -2093.863          37.000    22202440.781 4  92310349.167 4     -1628.560          26.000
R06  20828675.422 6 111145846.235 6      2133.348          36.000
R21  20015357.773 6 107106242.729 6     -1035.969          41.000    20015361.930 6  83304861.500 6      -805.753          38.000
C28  22855189.242 5 119012979.120 5     -1649.750          31.000
E12  22054942.000 5 115899503.314 5       844.891          33.000    22054940.422 5  88806105.167 5       647.509          32.000
E19  27921942.797 7 146730823.969 7      2829.449          42.000    27921949.797 7 112430116.510 7      2167.969          45.000
E31  25814891.602 8 135658136.636 8     -2821.184          50.000    25814896.836 8 103945841.388 8     -2161.614          51.000
E33  24322879.539 6 127817631.802 6     -1330.039          39.000    24322882.133 8  97938205.284 8     -1019.193          50.000
> 2020 05 18 15 35 30.0000000  0 16        .000000000000
G10  21074715.422 8 110748373.406 8      1001.070          51.000    21074717.383 8  86297452.268 8       780.055          51.000
G16  21270508.859 8 111777284.266 8     -2246.125          51.000    21270507.328 7  87099160.412 7     -1750.230          46.000
G18  23905177.531 5 125622564.639 5     -3155.172          35.000
G20  21279538.133 6 111824814.802 6     -1415.086          37.000    21279533.219 5  87136130.410 5     -1102.664          34.000
G26  23177242.906 6 121797166.296 6     -3518.125          37.000    23177239.445 6  94906868.744 6     -2741.399          37.000
G27  20383678.859 7 107116959.640 7       692.602          46.000    20383681.016 7  83467753.391 7       539.690          45.000
R05  22214246.062 6 118747838.102 6     -2116.754          37.000
R06  20816743.125 5 111082173.588 5      2110.938          34.000
R07  23180766.422 6 124088447.169 6      4350.566          38.000
R11  22150241.680 5 118364168.110 5     -3856.555          30.000
R21  20021189.547 6 107137452.627 6     -1045.406          41.000    20021194.719 6  83329135.863 6      -813.097          37.000
C28  22864708.656 5 119062545.709 5     -1655.516          32.000
E12  22050128.938 5 115874208.817 5       840.168          33.000    22050129.664 5  88786731.105 5       643.526          32.000
E19  27905793.266 7 146645957.802 7      2827.668          43.000    27905800.062 7 112365089.258 7      2166.744          43.000
E31  25831014.297 8 135742856.288 8     -2827.398          50.000    25831017.953 8 104010756.399 8     -2166.490          50.000
E33  24330480.766 6 127857580.938 6     -1333.977          38.000    24330484.250 8  97968815.671 8     -1021.979          49.000
> 2020 05 18 15 36  0.0000000  0 14        .000000000000
G10  21069052.898 8 110718616.837 8       982.555          51.000    21069054.539 8  86274265.341 8       765.630          51.000
G16  21283376.828 8 111844903.897 8     -2261.938          51.000    21283374.375 7  87151850.999 7     -1762.549          45.000
G18  23923193.828 5 125717244.623 5     -3156.324          31.000    23923198.578 4  97961498.274 4     -2459.473          28.000
G20  21287665.352 5 111867526.904 5     -1432.359          33.000
G26  23197344.211 5 121902805.844 5     -3523.738          35.000    23197342.578 6  94989185.179 6     -2745.770          36.000
G27  20379760.273 7 107096367.525 7       680.047          46.000    20379762.219 7  83451707.588 7       529.907          46.000
R05  22226191.383 6 118811685.826 6     -2140.188          38.000
R06  20804941.188 5 111019196.011 5      2087.691          32.000
R07  23156390.953 6 123957974.586 6      4347.414          38.000    23156393.812 4  96411765.820 4      3381.325          25.000
R21  20027075.609 7 107168950.285 7     -1054.727          43.000    20027081.953 6  83353634.068 6      -820.346          39.000
E12  22045348.367 5 115849086.950 5       834.441          33.000    22045350.820 5  88767492.171 5       639.584          30.000
E19  27889654.867 6 146561151.688 6      2825.895          41.000    27889660.711 6 112300108.011 6      2165.251          41.000
E31  25847174.523 8 135827774.338 8     -2833.797          49.000    25847176.680 8 104075823.416 8     -2171.393          49.000
E33  24338105.820 6 127897650.627 6     -1337.617          36.000    24338109.078 8  97999518.445 8     -1025.041          48.000
> 2020 05 18 15 36 30.0000000  0 13        .000000000000
G10  21063495.867 8 110689414.056 8       964.207          51.000    21063497.281 8  86251509.941 8       751.330          51.000
G16  21296333.711 8 111912991.842 8     -2277.418          51.000    21296331.047 7  87204906.510 7     -1774.611          45.000
G18  23941217.500 5 125811961.487 5     -3157.855          33.000
G20  21295889.500 6 111910747.500 6     -1449.477          38.000    21295891.039 5  87203117.010 5     -1129.432          30.000
G27  20375912.922 7 107076149.743 7       667.512          46.000    20375914.539 7  83435953.483 7       520.139          46.000
R05  22238264.602 5 118876222.069 5     -2162.871          35.000    22238271.969 4  92459335.863 4     -1682.233          28.000
R06  20793268.203 5 110956909.059 5      2064.145          33.000
R07  23132033.547 6 123827594.588 6      4344.617          38.000    23132041.805 4  96310378.356 4      3379.156          26.000
R21  20033014.273 7 107200727.698 7     -1063.934          44.000    20033021.617 6  83378349.840 6      -827.504          39.000
E12  22040599.281 5 115824128.926 5       829.066          35.000    22040601.430 4  88748368.541 4       635.866          28.000
E19  27873526.180 6 146476399.974 6      2824.258          39.000    27873532.055 7 112235168.451 7      2163.910          42.000
E31  25863370.156 8 135912881.439 8     -2840.039          48.000    25863371.305 8 104141035.293 8     -2176.158          49.000
E33  24345752.836 6 127937833.020 6     -1341.266          36.000    24345755.266 8  98030307.585 8     -1027.750          48.000
> 2020 05 18 15 37  0.0000000  0 15        .000000000000
G10  21058047.727 8 110660783.589 8       944.598          51.000    21058049.273 8  86229200.520 8       736.050          51.000
G16  21309382.094 7 111981563.784 7     -2293.848          47.000    21309380.211 7  87258339.152 7     -1787.417          45.000
G18  23959251.570 5 125906731.908 5     -3160.070          34.000    23959243.648 5  98109096.753 5     -2462.392          30.000
G20  21304213.906 6 111954492.874 6     -1467.266          38.000    21304220.055 4  87237204.230 4     -1143.330          27.000
G27  20372140.367 7 107056325.078 7       654.043          47.000    20372141.750 7  83420505.680 7       509.644          47.000
R05  22250469.805 5 118941462.178 5     -2186.652          35.000    22250476.930 4  92510078.327 4     -1700.724          26.000
R06  20781729.008 6 110895333.782 6      2040.418          36.000
R07  23107697.906 6 123697329.171 6      4340.254          40.000
R11  22215436.219 5 118712616.273 5     -3887.777          33.000
R21  20039008.609 7 107232802.646 7     -1074.457          43.000    20039015.617 6  83403297.023 6      -835.689          39.000
C27  21783462.711 5 113432241.035 5       869.340          30.000
E12  22035884.844 5 115799349.269 5       822.738          35.000
E19  27857411.234 6 146391722.596 6      2820.922          38.000    27857418.867 7 112170285.842 7      2161.644          43.000
E31  25879604.227 7 135998193.414 7     -2847.289          46.000    25879604.539 7 104206404.152 7     -2181.731          47.000
E33  24353424.633 6 127978145.490 6     -1346.223          38.000    24353426.328 8  98061196.384 8     -1031.354          48.000
> 2020 05 18 15 37 30.0000000  0 16        .000000000000
G10  21052704.055 8 110632702.881 8       926.871          51.000    21052705.633 8  86207319.477 8       722.237          51.000
G16  21322517.078 7 112050594.297 7     -2308.680          45.000    21322516.984 7  87312129.148 7     -1798.971          45.000
G18  23977290.945 5 126001531.362 5     -3160.879          33.000
G20  21312634.125 6 111998737.766 6     -1483.141          36.000    21312637.891 5  87271680.901 5     -1155.694          34.000
G21  23548103.695 5 123746134.459 5     -2509.375          34.000
G27  20368438.398 7 107036871.219 7       642.402          47.000    20368439.820 7  83405346.829 7       500.573          47.000
R05  22262800.828 6 119007379.649 6     -2208.402          36.000
R06  20770319.742 6 110834449.535 6      2017.918          38.000
R07  23083380.297 6 123567159.239 6      4337.176          40.000
R11  22237284.352 5 118829369.399 5     -3896.629          35.000    22237301.656 4  92422865.127 4     -3030.711          26.000
R21  20045054.453 7 107265151.334 7     -1082.699          43.000    20045060.445 6  83428457.110 6      -842.096          39.000
C27  21778462.539 4 113406213.612 4       864.047          28.000
E12  22031199.305 5 115774724.537 5       818.453          34.000
E19  27841307.266 6 146307098.330 6      2819.828          39.000    27841316.203 7 112105443.942 7      2160.845          43.000
E31  25895871.750 7 136083685.064 7     -2852.652          44.000    25895871.695 7 104271910.704 7     -2185.760          47.000
E33  24361116.891 6 128018564.324 6     -1348.859          37.000    24361117.742 8  98092166.683 8     -1033.625          48.000
> 2020 05 18 15 38  0.0000000  0 14        .000000000000
G10  21047479.266 8 110605247.455 8       900.445          51.000    21047481.117 8  86185925.645 8       701.646          51.000
G16  21335753.438 7 112120156.261 7     -2331.883          45.000    21335755.008 7  87366333.302 7     -1817.052          45.000
G20  21321162.562 6 112043555.297 6     -1507.832          40.000    21321164.531 5  87306603.633 5     -1174.934          32.000
G27  20364821.609 8 107017863.984 8       621.734          48.000    20364823.102 8  83390535.990 8       484.468          48.000
R05  22275272.633 6 119074047.402 6     -2239.125          36.000
R06  20759054.805 6 110774335.570 6      1986.457          39.000
R07  23059095.180 6 123437164.887 6      4325.707          38.000    23059096.531 4  96006658.763 4      3364.445          27.000
R11  22259197.188 6 118946485.830 6     -3914.430          36.000    22259215.633 5  92513955.596 5     -3044.556          30.000
R21  20051165.367 7 107297849.381 7     -1100.258          43.000    20051170.273 6  83453888.946 6      -855.756          41.000
C28  22912870.133 5 119313323.394 5     -1694.633          33.000
E12  22026557.281 5 115750329.397 5       804.641          33.000    22026556.484 5  88691814.726 5       617.073          31.000
E19  27825228.859 6 146222603.523 6      2810.098          39.000    27825237.328 7 112040701.210 7      2153.180          42.000
E31  25912185.727 6 136169429.248 6     -2866.480          41.000    25912186.852 7 104337610.785 7     -2196.424          45.000
E33  24368843.281 6 128059163.896 6     -1360.734          38.000    24368843.586 8  98123275.464 8     -1042.458          48.000
> 2020 05 18 15 38 30.0000000  0 15        .000000000000
G10  21042362.234 8 110578358.434 8       890.098          51.000    21042364.883 8  86164973.185 8       693.583          51.000
G16  21349080.195 8 112190188.410 8     -2339.031          48.000    21349082.398 7  87420903.808 7     -1822.622          47.000
G20  21329789.016 5 112088884.576 5     -1516.473          33.000    21329789.758 5  87341925.075 5     -1181.673          30.000
G21  23576791.406 5 123896874.800 5     -2511.129          31.000
G27  20361278.750 8 106999244.785 8       617.441          48.000    20361280.227 8  83376027.534 8       481.123          48.000
R05  22287872.500 6 119141401.918 6     -2253.262          36.000
R06  20747922.969 6 110714934.135 6      1971.520          37.000
R07  23034831.734 5 123307289.633 5      4330.508          32.000    23034834.945 4  95905644.754 4      3368.176          29.000
R11  22281165.805 5 119063900.526 5     -3915.598          35.000    22281188.625 5  92605278.118 5     -3045.465          30.000
R12  21036937.039 5 112375592.110 5     -1017.309          35.000
R21  20057330.039 7 107330836.139 7     -1100.855          43.000    20057334.312 6  83479545.298 6      -856.224          41.000
E12                                                                  22021945.523 5  88673249.341 5       619.198          31.000
E19  27809164.117 6 146138181.080 6      2816.254          40.000    27809172.023 7 111976013.950 7      2157.771          42.000
E31  25928535.914 6 136255364.525 6     -2864.312          41.000    25928538.180 7 104403457.266 7     -2194.739          43.000
E33  24376592.203 6 128099884.206 6     -1356.410          37.000    24376592.422 7  98154476.760 7     -1039.079          47.000
> 2020 05 18 15 39  0.0000000  0 18        .000000000000
G10  21037338.711 8 110551960.354 8       867.910          51.000    21037341.594 8  86144403.256 8       676.294          51.000
G16  21362481.883 8 112260611.889 8     -2357.844          50.000    21362483.891 8  87475779.226 8     -1837.284          48.000
G18  24031476.938 5 126286263.417 5     -3166.207          33.000    24031480.633 5  98404889.268 5     -2467.174          32.000
G20  21338497.930 6 112134561.306 6     -1536.500          38.000    21338497.875 5  87377584.589 5     -1197.267          31.000
G21  23591136.984 5 123972264.856 5     -2516.062          32.000
G27  20357795.469 8 106980938.505 8       601.125          48.000    20357796.867 8  83361762.906 8       468.409          48.000
R05  22300586.359 6 119209362.940 6     -2279.543          36.000
R06  20736910.555 6 110656171.211 6      1944.191          36.000
R07  23010576.141 5 123177460.312 5      4322.852          32.000    23010580.422 4  95804666.385 4      3362.218          28.000
R11  22303177.500 6 119181531.207 6     -3928.129          36.000    22303202.172 5  92696768.610 5     -3055.214          32.000
R12  21042721.805 5 112406520.131 5     -1047.164          32.000
R21  20063533.711 7 107364033.734 7     -1113.906          44.000    20063537.820 7  83505365.680 7      -866.372          43.000
C27  21763744.109 4 113329520.479 4       840.039          29.000
C28  22932391.617 5 119414979.329 5     -1702.301          33.000
E12                                                                  22017352.562 5  88654754.472 5       612.116          31.000
E19  27793099.617 6 146053756.775 6      2810.215          41.000    27793106.648 7 111911325.246 7      2153.198          42.000
E31  25944909.867 7 136341412.854 7     -2874.262          42.000    25944910.852 6 104469390.335 6     -2202.156          41.000
E33  24384349.219 6 128140648.664 6     -1363.348          37.000    24384349.711 7  98185711.903 7     -1044.691          47.000
> 2020 05 18 15 39 30.0000000  0 19        .000000000000
G10  21032415.117 8 110526087.061 8       844.223          51.000    21032417.680 8  86124242.229 8       657.836          51.000
G16  21375964.250 8 112331457.904 8     -2377.953          51.000    21375965.477 8  87530983.885 8     -1852.950          48.000
G18  24049538.750 5 126381174.415 5     -3173.938          34.000    24049542.141 5  98478854.364 5     -2473.198          30.000
G20  21347294.969 6 112180789.283 6     -1558.262          39.000    21347294.477 5  87413606.232 5     -1214.233          32.000
G21  23605484.625 5 124047675.992 5     -2522.648          32.000
G26  23338945.867 5 122646998.608 5     -3568.941          31.000    23338937.227 4  95569050.289 4     -2780.993          26.000
G27  20354378.039 8 106962979.290 8       583.523          49.000    20354379.414 8  83347768.705 8       454.694          49.000
R05  22313418.258 4 119277961.276 4     -2306.957          29.000
R06  20726024.359 6 110598083.188 6      1915.430          36.000
R07  22986337.750 4 123047714.868 4      4313.566          29.000    22986343.625 5  95703753.195 5      3354.993          30.000
R11  22325236.547 6 119299407.290 6     -3942.930          37.000    22325259.273 5  92788450.013 5     -3066.720          30.000
R12  21048646.344 5 112438191.037 5     -1077.703          31.000    21048664.805 4  87451849.456 4      -838.204          28.000
R21  20069782.930 7 107397475.797 7     -1128.457          43.000    20069787.102 7  83531376.134 7      -877.692          43.000
C27  21758911.031 6 113304339.800 6       826.699          36.000
C28  22942196.008 5 119466025.833 5     -1713.699          34.000
E12  22012787.992 5 115677983.763 5       788.512          33.000    22012785.492 5  88636362.364 5       604.277          32.000
E19  27777041.570 7 145969365.747 7      2802.961          42.000    27777046.758 6 111846662.015 6      2147.681          41.000
E31  25961312.266 7 136427605.466 7     -2884.910          43.000    25961311.375 6 104535433.959 6     -2210.441          40.000
E33  24392121.523 6 128181490.176 6     -1371.883          36.000    24392121.617 7  98217006.019 7     -1051.306          46.000
> 2020 05 18 15 40  0.0000000  0 16        .000000000000
G10  21027597.094 8 110500767.777 8       832.867          51.000    21027599.508 8  86104512.926 8       648.987          51.000
G16  21389532.203 8 112402753.050 8     -2385.785          51.000    21389532.500 8  87586538.522 8     -1859.056          49.000
G18  24067605.055 5 126476117.913 5     -3166.051          34.000
G20  21356186.008 5 112227508.861 5     -1567.418          33.000    21356184.828 4  87450011.123 4     -1221.365          29.000
G26  23359280.172 5 122753868.581 5     -3566.711          31.000
G27  20351032.242 8 106945396.783 8       578.000          49.000    20351033.461 8  83334068.046 8       450.390          49.000
R06  20715270.711 6 110540702.392 6      1899.051          36.000
R07  22962124.391 5 122918086.504 5      4317.039          31.000    22962129.922 5  95602931.124 5      3357.700          30.000
R11  22347347.750 6 119417553.204 6     -3944.227          39.000    22347362.188 4  92880341.344 4     -3067.729          29.000
R21  20076083.727 7 107431191.084 7     -1130.379          45.000    20076087.000 7  83557599.126 7      -879.184          44.000
C27  21754117.695 6 113279372.505 6       826.793          37.000
C28  22952032.781 5 119517252.208 5     -1712.262          34.000
E12  22008247.836 5 115654122.584 5       791.312          31.000    22008248.906 5  88618097.819 5       605.914          33.000
E19  27760995.562 7 145885038.594 7      2808.070          43.000    27760999.633 7 111782047.724 7      2151.704          43.000
E31  25977747.711 7 136513969.059 7     -2883.344          42.000    25977746.227 6 104601608.590 6     -2209.288          40.000
E33  24399914.094 6 128222436.848 6     -1368.340          38.000    24399913.430 7  98248380.750 7     -1048.534          46.000
> 2020 05 18 15 40 30.0000000  0 17        .000000000000
G10  21022906.773 8 110476119.664 8       820.633          51.000    21022909.062 8  86085306.611 8       639.454          51.000
G16  21403207.180 8 112474611.552 8     -2394.461          51.000    21403206.828 8  87642532.134 8     -1865.817          48.000
G18  24085695.703 5 126571158.917 5     -3160.574          33.000
G20  21365191.781 6 112274835.017 6     -1577.566          36.000    21365191.664 4  87486888.772 4     -1229.263          27.000
G26  23379666.219 5 122860994.262 5     -3565.070          31.000    23379671.047 5  95735816.747 5     -2777.977          32.000
G27  20347780.453 8 106928308.470 8       571.570          50.000    20347781.539 8  83320752.475 8       445.379          50.000
R05  22339471.305 5 119417250.214 5     -2337.160          35.000
R06  20704672.594 6 110484149.710 6      1881.754          38.000
R07  22937953.516 5 122788698.273 5      4318.973          34.000    22937960.109 5  95502295.928 5      3359.204          32.000
R11  22369533.227 5 119536083.238 5     -3947.926          33.000    22369535.859 4  92972531.399 4     -3070.612          29.000
R12  21060968.555 5 112503961.036 5     -1114.449          30.000    21060970.844 4  87503081.311 4      -866.791          27.000
R21  20082457.859 7 107465298.318 7     -1132.965          45.000    20082460.445 7  83584126.964 7      -881.195          45.000
C27  21749386.375 5 113254734.589 5       826.012          34.000
C28  22961924.547 5 119568773.813 5     -1712.121          34.000
E19  27744983.898 6 145800893.842 6      2811.688          41.000    27744987.820 7 111717573.244 7      2154.572          42.000
E31  25994237.492 7 136600618.213 7     -2882.781          42.000    25994237.984 7 104668002.046 7     -2208.986          42.000
E33  24407748.562 6 128263604.808 6     -1365.688          40.000    24407747.539 7  98279925.043 7     -1046.502          46.000
> 2020 05 18 15 41  0.0000000  0 17        .000000000000
G10  21018318.312 8 110452007.239 8       796.574          51.000    21018320.109 8  86066517.700 8       620.707          51.000
G16  21416962.766 8 112546895.568 8     -2414.742          51.000    21416961.820 7  87698857.312 7     -1881.617          47.000
G20  21374287.148 6 112322629.924 6     -1598.914          38.000    21374288.039 5  87524131.484 5     -1245.904          30.000
G21  23648600.617 5 124274226.617 5     -2517.223          34.000
G26  23400073.648 5 122968236.865 5     -3574.859          31.000    23400078.984 5  95819382.310 5     -2785.614          31.000
G27  20344597.031 8 106911579.270 8       553.328          50.000    20344598.164 8  83307716.745 8       431.165          50.000
R05  22352698.992 6 119487927.849 6     -2364.801          37.000    22352708.773 4  92935119.915 4     -1839.289          26.000
R06  20694204.133 5 110428290.381 5      1852.379          33.000
R07  22913802.680 6 122659416.123 6      4309.301          37.000    22913808.195 4  95401743.288 4      3351.684          27.000
R11  22391765.000 5 119654853.850 5     -3960.695          30.000    22391760.625 4  93064908.532 4     -3080.541          29.000
R12  21067340.469 4 112538035.191 4     -1146.727          29.000    21067348.328 4  87529554.643 4      -891.892          28.000
R21  20088879.711 7 107499658.250 7     -1147.746          47.000    20088881.211 7  83610851.327 7      -892.694          45.000
C27  21744691.156 5 113230291.750 5       813.277          33.000
C28  22971849.445 6 119620455.532 6     -1723.855          39.000
E19  27728980.469 6 145716797.540 6      2804.348          40.000    27728984.055 6 111653135.862 6      2148.546          39.000
E31  26010755.320 7 136687414.905 7     -2893.742          42.000    26010758.641 7 104734508.582 7     -2217.412          43.000
E33  24415598.984 7 128304857.660 7     -1374.641          42.000    24415597.734 7  98311534.367 7     -1053.314          45.000
> 2020 05 18 15 41 30.0000000  0 17        .000000000000
G10  21013839.477 8 110428470.936 8       778.484          51.000    21013841.047 8  86048177.730 8       606.611          51.000
G16  21430805.906 8 112619642.517 8     -2429.039          51.000    21430804.680 7  87755543.216 7     -1892.758          46.000
G18  24121869.320 4 126761276.116 4     -3167.566          28.000
G20  21383479.000 5 112370931.406 5     -1614.781          34.000    21383479.430 5  87561769.054 5     -1258.274          32.000
G21  23662983.828 5 124349826.540 5     -2517.605          34.000
G26  23420510.953 5 123075614.848 5     -3578.934          31.000    23420518.867 5  95903068.147 5     -2788.782          33.000
G27  20341489.609 8 106895250.048 8       541.117          50.000    20341490.961 8  83294992.679 8       421.650          50.000
R05  22366047.406 6 119559284.210 6     -2386.109          37.000    22366050.742 4  92990614.246 4     -1855.863          26.000
R06  20683874.539 5 110373167.670 5      1828.645          35.000
R07  22889679.945 6 122530284.435 6      4305.746          38.000
R12  21073864.883 6 112572894.564 6     -1171.309          38.000
R21  20095356.211 7 107534311.730 7     -1156.328          46.000    20095356.812 7  83637804.022 7      -899.366          46.000
C27  21740040.719 5 113206084.006 5       806.391          31.000
C28  22981813.344 6 119672336.792 6     -1729.594          38.000
E19  27712993.828 6 145632791.580 6      2802.113          39.000    27712998.281 6 111588767.648 6      2147.217          40.000
E31  26027308.875 7 136774397.214 7     -2898.875          43.000    26027313.594 7 104801157.328 7     -2221.312          44.000
E33  24423472.773 7 128346234.927 7     -1377.852          42.000    24423471.828 7  98343239.007 7     -1055.682          45.000
> 2020 05 18 15 42  0.0000000  0 16        .000000000000
G10  21009454.672 8 110405429.094 8       756.516          51.000    21009456.172 8  86030223.063 8       589.493          51.000
G16  21444720.859 8 112692768.088 8     -2447.113          51.000    21444719.508 7  87812524.149 7     -1906.842          46.000
G20  21392750.703 5 112419655.502 5     -1635.113          31.000
G21  23677369.789 5 124425425.052 5     -2523.027          34.000
G26  23440961.922 4 123183081.131 4     -3586.121          29.000    23440968.461 5  95986808.060 5     -2794.377          30.000
G27  20338442.773 8 106879239.564 8       525.133          50.000    20338444.297 8  83282516.971 8       409.194          50.000
R05  22379502.984 5 119631224.549 5     -2410.883          33.000    22379508.336 4  93046567.778 4     -1875.137          26.000
R06  20673667.242 5 110318700.641 5      1801.074          33.000
R07  22865570.656 6 122401224.020 6      4297.684          39.000
R12  21080523.070 5 112608453.399 5     -1201.125          35.000
R21  20101871.273 7 107569174.451 7     -1168.867          46.000    20101871.844 7  83664919.451 7      -909.119          47.000
C27  21735420.773 6 113182030.316 6       796.164          36.000
C28  22991799.086 6 119724336.026 6     -1738.559          39.000
E19  27697008.297 6 145548795.601 6      2796.270          38.000    27697014.336 6 111524407.168 6      2142.707          38.000
E31  26043881.852 7 136861480.857 7     -2907.730          44.000    26043886.805 7 104867883.732 7     -2227.989          44.000
E33  24431354.391 7 128387653.867 7     -1384.758          42.000    24431353.664 7  98374975.609 7     -1060.964          44.000
> 2020 05 18 15 42 30.0000000  0 14        .000000000000
G10  21005145.211 8 110382782.903 8       725.941          51.000    21005146.211 8  86012576.709 8       565.669          51.000
G16  21458688.711 8 112766170.885 8     -2473.816          51.000    21458687.320 7  87869721.107 7     -1927.649          46.000
G21  23691755.180 5 124501003.310 5     -2534.719          32.000    23691748.062 5  97013747.191 5     -1975.106          31.000
G27  20335437.844 8 106863449.429 8       500.266          51.000    20335439.328 8  83270212.973 8       389.817          51.000
R05  22393048.359 5 119703648.519 5     -2445.246          32.000    22393058.328 4  93102894.536 4     -1901.858          25.000
R06  20663563.719 5 110264791.041 5      1764.180          32.000
R07  22841456.438 6 122272137.854 6      4280.270          38.000
R12  21087293.734 5 112644525.440 5     -1238.461          32.000
R21  20108406.594 8 107604145.102 8     -1190.344          48.000    20108407.117 7  83692118.838 7      -925.823          47.000
C27  21730813.102 6 113158032.878 6       776.641          39.000
C28  23001789.109 6 119776354.620 6     -1756.484          41.000
E19  27681007.375 6 145464712.418 6      2781.770          41.000    27681010.578 5 111459979.901 5      2131.162          34.000
E31  26060454.688 7 136948564.606 7     -2925.145          44.000    26060458.875 7 104934610.213 7     -2241.350          44.000
E33  24439224.820 7 128429014.878 7     -1400.184          43.000    24439224.148 7  98406667.810 7     -1072.706          44.000
> 2020 05 18 15 43  0.0000000  0 13        .000000000000
G10  21001054.930 8 110361288.197 8       717.520          51.000    21001055.891 8  85995827.635 8       559.109          51.000
G16  21472852.766 8 112840603.993 8     -2478.074          51.000    21472851.445 7  87927720.912 7     -1930.967          46.000
G27  20332618.844 8 106848635.972 8       497.594          51.000    20332620.250 8  83258670.025 8       387.735          51.000
R06  20653709.984 5 110212208.969 5      1751.414          35.000
R07  22817481.203 6 122143799.200 6      4285.949          38.000    22817481.406 4  95000704.695 4      3333.519          25.000
R12  21094324.039 4 112682137.393 4     -1252.891          29.000    21094327.133 4  87641673.196 4      -974.470          27.000
R21  20115105.414 8 107639992.940 8     -1188.965          49.000    20115106.188 8  83720000.465 8      -924.753          48.000
C27  21726360.531 6 113134840.573 6       779.625          39.000
C28  23011926.859 7 119829140.878 7     -1752.438          43.000
E12  21981786.492 5 115515067.625 5       755.691          32.000    21981780.930 5  88511554.878 5       579.066          34.000
E19  27665135.227 7 145381299.335 7      2789.434          43.000    27665135.953 6 111396066.064 6      2137.466          38.000
E31  26077170.367 7 137036401.872 7     -2920.195          43.000    26077173.570 7 105001914.029 7     -2237.588          44.000
E33  24447227.930 7 128471072.934 7     -1393.332          42.000    24447227.492 7  98438894.097 7     -1067.537          45.000
> 2020 05 18 15 43 30.0000000  0 14        .000000000000
G10  20996960.156 8 110339769.845 8       718.609          51.000    20996961.203 8  85979060.136 8       559.958          51.000
G16  21486988.844 8 112914889.629 8     -2472.828          51.000    21486987.523 7  87985605.798 7     -1926.879          46.000
G27  20329762.242 8 106833624.527 8       504.504          51.000    20329763.516 8  83246972.803 8       393.120          51.000
R05  22420628.688 5 119851090.756 5     -2457.273          33.000
R06  20643881.672 6 110159763.164 6      1746.578          37.000
R07  22793422.805 6 122015015.303 6      4301.145          39.000    22793427.000 4  94900538.990 4      3345.335          28.000
R11  22503598.305 5 120252417.309 5     -3986.984          30.000    22503603.938 5  93529675.303 5     -3100.991          31.000
R21  20121744.156 8 107675520.265 8     -1177.875          49.000    20121745.258 8  83747632.793 8      -916.125          49.000
C27  21721838.281 5 113111289.084 5       791.906          35.000
C28  23021988.617 6 119881529.790 6     -1738.906          41.000
E12                                                                  21977426.570 5  88494033.543 5       590.171          31.000
E19  27649167.547 7 145297382.854 7      2806.660          45.000    27649168.453 6 111331766.559 6      2150.567          41.000
E31  26093804.453 7 137123815.073 7     -2905.660          42.000    26093807.398 7 105068892.941 7     -2226.505          44.000
E33  24455139.656 7 128512651.970 7     -1376.922          44.000    24455139.984 7  98470753.368 7     -1055.062          45.000
> 2020 05 18 15 44  0.0000000  0 14        .000000000000
G10  20992998.031 8 110318947.809 8       678.500          51.000    20992998.688 8  85962835.189 8       528.701          51.000
G16  21501233.539 8 112989745.140 8     -2508.609          51.000    21501231.898 7  88043934.753 7     -1954.761          46.000
G27  20327005.055 8 106819135.563 8       470.387          51.000    20327006.102 8  83235682.703 8       366.535          51.000
R05  22434564.602 5 119925592.408 5     -2500.371          34.000
R06  20634216.766 6 110108187.043 6      1700.711          36.000
R07  22769420.039 6 121886523.255 6      4273.973          38.000    22769428.508 5  94800600.837 5      3324.207          33.000
R11  22526080.828 5 120372603.873 5     -4016.223          35.000    22526092.922 5  93623153.634 5     -3123.732          31.000
R21  20128460.141 8 107711459.701 8     -1208.805          50.000    20128461.602 8  83775585.649 8      -940.181          49.000
C27  21717382.180 5 113088091.864 5       762.586          33.000
C28  23032109.891 6 119934234.143 6     -1765.980          39.000
E12                                                                  21973124.766 5  88476672.239 5       570.281          30.000
E19  27633241.398 7 145213684.547 7      2782.367          44.000    27633242.586 7 111267634.156 7      2132.010          42.000
E31  26110492.844 6 137211521.756 6     -2932.570          40.000    26110497.711 7 105136096.725 7     -2246.948          44.000
E33  24463097.172 7 128554471.193 7     -1401.867          43.000    24463098.578 7  98502796.667 7     -1074.275          45.000
> 2020 05 18 15 44 30.0000000  0 16        .000000000000
G10  20989184.914 8 110298908.881 8       649.867          51.000    20989185.867 8  85947220.478 8       506.390          51.000
G16  21515602.586 8 113065254.229 8     -2532.898          51.000    21515600.766 7  88102772.960 7     -1973.690          46.000
G20  21440542.281 6 112670841.594 6     -1727.859          36.000
G27  20324363.844 8 106805256.378 8       447.465          51.000    20324364.844 8  83224867.757 8       348.674          51.000
R05  22448659.445 5 120000957.124 5     -2531.766          33.000
R06  20624731.430 6 110057571.217 6      1666.363          36.000
R07  22745489.016 6 121758415.241 6      4258.180          37.000    22745500.305 5  94700961.404 5      3311.921          31.000
R11  22548651.289 6 120493247.666 6     -4034.527          37.000    22548670.539 4  93716987.602 4     -3137.972          28.000
R12  21115996.906 5 112797909.412 5     -1339.637          33.000
R21  20135269.773 8 107747899.105 8     -1228.152          51.000    20135271.180 8  83803927.395 8      -955.230          50.000
C27  21713010.625 5 113065334.927 5       746.219          34.000
C28  23042307.727 6 119987339.437 6     -1781.898          41.000
E12                                                                  21968900.531 5  88459657.131 5       558.055          33.000
E19  27617372.812 7 145130292.502 7      2769.621          43.000    27617374.414 7 111203736.397 7      2122.267          44.000
E31  26127252.727 6 137299606.338 6     -2947.562          39.000    26127260.234 7 105203590.070 7     -2258.447          45.000
E33  24471116.812 7 128596616.544 7     -1415.277          43.000    24471119.227 7  98535089.864 7     -1084.382          45.000
> 2020 05 18 15 45  0.0000000  0 15        .000000000000
G10  20985474.586 8 110279410.005 8       644.266          51.000    20985475.969 8  85932026.577 8       502.025          51.000
G16  21530049.203 8 113141171.838 8     -2533.992          51.000    21530047.656 7  88161929.500 7     -1974.542          46.000
G20  21450397.922 5 112722629.211 5     -1730.574          33.000    21450396.812 5  87835777.273 5     -1348.496          31.000
G27  20321792.562 8 106791744.468 8       447.598          51.000    20321793.617 8  83214338.993 8       348.777          51.000
R05  22462868.578 4 120076934.167 4     -2539.441          28.000    22462886.328 4  93393221.786 4     -1975.124          29.000
R06  20615380.930 6 110007670.486 6      1654.762          38.000
R07  22721583.328 5 121630447.599 5      4266.535          31.000    22721597.023 4  94601431.116 4      3318.419          27.000
R11  22571261.805 6 120614096.277 6     -4028.199          36.000
R21  20142126.297 8 107784590.040 8     -1223.793          51.000    20142127.680 8  83832464.761 8      -951.839          50.000
C27  21708678.375 5 113042777.498 5       752.016          35.000
C28  23052537.422 6 120040604.126 6     -1775.148          38.000
E12  21964710.984 5 115425363.859 5       736.898          31.000    21964703.977 5  88442750.392 5       564.822          35.000
E19  27601516.023 6 145046965.401 6      2779.656          41.000    27601518.711 7 111139888.423 7      2130.016          43.000
E31  26144038.648 6 137387823.437 6     -2939.336          40.000    26144047.766 7 105271184.998 7     -2252.236          44.000
E33  24479152.117 6 128638844.249 6     -1405.402          41.000    24479155.117 7  98567446.161 7     -1077.115          44.000
> 2020 05 18 15 45 30.0000000  0 16        .000000000000
G10  20981854.211 8 110260384.254 8       624.250          51.000    20981855.703 8  85917201.334 8       486.432          51.000
G16  21544560.016 8 113217428.171 8     -2549.438          50.000    21544558.906 7  88221349.993 7     -1986.575          46.000
G20  21460325.000 5 112774801.935 5     -1747.676          31.000    21460325.781 5  87876431.485 5     -1361.810          30.000
G27  20319278.594 8 106778533.437 8       433.309          51.000    20319279.641 8  83204044.677 8       337.643          51.000
R05  22477182.312 5 120153451.711 5     -2561.891          34.000
R06  20606151.789 6 109958419.636 6      1628.703          37.000
R07  22697691.305 5 121502556.445 5      4259.379          32.000    22697703.555 4  94501960.253 4      3312.856          24.000
R11  22593898.062 5 120735076.678 5     -4037.031          35.000    22593914.516 5  93905001.072 5     -3139.913          31.000
R12  21131214.656 5 112879137.570 5     -1377.969          35.000    21131222.875 4  87794924.860 4     -1071.753          26.000
R21  20149017.016 8 107821464.002 8     -1234.227          51.000    20149018.469 8  83861144.491 8      -959.954          50.000
C27  21704372.539 6 113020353.552 6       743.305          38.000
C28  23062784.312 5 120093961.591 5     -1782.527          33.000
E12                                                                  21960520.188 6  88425894.367 6       559.539          36.000
E19  27585658.508 6 144963637.948 6      2775.277          41.000    27585660.891 6 111076040.184 6      2126.649          39.000
E31  26160837.859 6 137476103.794 6     -2945.957          41.000    26160847.555 7 105338828.375 7     -2257.127          44.000
E33  24487190.266 7 128681086.647 7     -1410.500          42.000    24487193.500 7  98599813.683 7     -1080.680          44.000
> 2020 05 18 15 46  0.0000000  0 16        .000000000000
G10  20978347.195 8 110241954.837 8       605.148          51.000    20978348.984 8  85902840.762 8       471.544          51.000
G16  21559157.938 8 113294143.339 8     -2563.938          49.000    21559157.211 7  88281128.038 7     -1997.873          46.000
G20  21470349.195 5 112827446.570 5     -1763.613          33.000    21470350.359 4  87917479.713 4     -1374.244          27.000
G27  20316845.445 8 106765747.063 8       419.820          51.000    20316846.531 8  83194081.267 8       327.133          51.000
R05  22491621.438 5 120230631.341 5     -2583.109          35.000
R06  20597068.234 5 109909945.857 5      1603.172          35.000
R07  22673839.125 6 121374870.522 6      4253.141          38.000    22673843.203 4  94402679.185 4      3308.001          26.000
R11  22616583.727 4 120856166.374 4     -4044.996          29.000    22616603.852 5  93999321.137 5     -3146.108          34.000
R12  21139025.984 6 112920862.243 6     -1403.180          36.000    21139036.438 4  87827399.403 4     -1091.362          26.000
R21  20155965.258 8 107858645.813 8     -1243.719          51.000    20155966.773 8  83890063.661 8      -967.337          50.000
C27  21700115.266 5 112998185.226 5       735.957          35.000
C28  23073072.336 5 120147533.279 5     -1788.977          32.000
E12                                                                  21956371.484 6  88409182.956 6       555.211          36.000
E19  27569825.375 7 144880435.054 7      2771.977          42.000    27569824.602 6 111012287.352 6      2124.072          38.000
E31  26177673.156 7 137564568.282 7     -2951.105          42.000    26177682.633 7 105406612.849 7     -2261.311          44.000
E33  24495254.531 7 128723466.116 7     -1414.211          43.000    24495257.352 7  98632286.293 7     -1083.529          43.000
> 2020 05 18 15 46 30.0000000  0 16        .000000000000
G10  20974947.602 8 110224090.254 8       585.797          51.000    20974949.555 8  85888920.305 8       456.465          51.000
G16  21573836.906 8 113371283.745 8     -2578.551          48.000    21573836.516 7  88341237.431 7     -2009.260          47.000
G20  21480463.617 5 112880597.343 5     -1779.449          34.000    21480464.531 5  87958910.845 5     -1386.584          30.000
G27  20314487.211 8 106753354.396 8       406.406          51.000    20314488.430 8  83184424.641 8       316.680          51.000
R05  22506177.828 6 120308437.379 6     -2604.680          37.000
R06  20588123.320 5 109862219.008 5      1579.148          30.000
R07  22650020.102 6 121247361.843 6      4247.047          37.000    22650018.383 4  94303505.862 4      3303.262          27.000
R11  22639311.078 5 120977614.436 5     -4051.902          34.000    22639331.859 5  94093780.688 5     -3151.480          31.000
R12  21146972.250 5 112963333.605 5     -1428.977          34.000    21146974.945 4  87860422.289 4     -1111.426          27.000
R21  20162965.016 8 107896102.795 8     -1253.363          51.000    20162966.594 8  83919196.855 8      -974.838          51.000
C27  21695900.750 6 112976241.527 6       727.422          38.000
C28  23083389.859 5 120201288.538 5     -1794.613          31.000
E12                                                                  21952251.078 5  88392591.650 5       550.856          35.000
E19  27554010.688 7 144797326.873 7      2768.309          42.000    27554007.938 6 110948607.182 6      2121.423          37.000
E31  26194537.461 6 137653183.137 6     -2956.535          41.000    26194545.945 7 105474512.494 7     -2265.556          42.000
E33  24503339.164 6 128765950.571 6     -1418.230          41.000    24503340.922 6  98664839.339 6     -1086.708          41.000
> 2020 05 18 15 47  0.0000000  0 17        .000000000000
G10  20971645.531 8 110206738.199 8       569.805          51.000    20971647.656 8  85875399.219 8       444.004          51.000
G16  21588586.500 8 113448794.330 8     -2589.781          48.000    21588586.438 7  88401635.246 7     -2018.014          47.000
G20  21490657.547 5 112934165.699 5     -1792.211          35.000
G26  23646932.820 5 124265472.349 5     -3625.125          32.000    23646933.359 5  96830240.263 5     -2824.770          31.000
G27  20312194.094 8 106741303.769 8       395.980          51.000    20312195.430 8  83175034.544 8       308.556          51.000
R05  22520839.703 5 120386812.791 5     -2622.012          33.000
R06  20579309.203 5 109815188.392 5      1556.773          32.000
R07  22626225.102 5 121119981.221 5      4244.254          35.000    22626219.586 4  94204432.160 4      3301.089          25.000
R11  22662077.547 6 121099288.975 6     -4055.828          36.000    22662089.188 4  94188337.688 4     -3154.536          25.000
R12  21155042.398 4 113006465.306 4     -1450.344          29.000
R21  20170006.227 8 107933781.298 8     -1259.656          51.000    20170007.836 8  83948502.347 8      -979.733          50.000
C27  21691720.086 6 112954470.884 6       722.773          37.000
C28  23093739.719 5 120255172.913 5     -1798.004          34.000
E12                                                                  21948150.219 5  88376080.010 5       548.851          34.000
E19  27538204.805 7 144714262.675 7      2767.938          43.000    27538199.188 6 110884960.663 6      2120.917          36.000
E31  26211419.680 6 137741893.776 6     -2958.547          38.000    26211427.055 7 105542485.514 7     -2266.950          42.000
E33  24511433.820 7 128808487.017 7     -1418.801          42.000    24511434.734 6  98697432.198 6     -1086.959          40.000
> 2020 05 18 15 47 30.0000000  0 16        .000000000000
G10  20968466.641 8 110190033.511 8       546.086          51.000    20968469.055 8  85862382.596 8       425.522          51.000
G16  21603432.094 8 113526807.464 8     -2608.660          48.000    21603431.805 8  88462424.663 8     -2032.722          48.000
G20  21500956.070 6 112988284.210 6     -1812.852          36.000    21500952.945 4  88042807.874 4     -1412.612          27.000
G27  20309991.875 8 106729730.700 8       377.875          51.000    20309993.188 8  83166016.574 8       294.448          51.000
R05  22535634.320 6 120465891.503 6     -2647.527          36.000    22535636.703 4  93695699.250 4     -2059.185          25.000
R06  20570651.719 6 109768992.976 6      1526.270          36.000
R07  22602482.102 5 120992870.194 5      4232.090          34.000
R11  22684890.195 6 121221184.233 6     -4067.789          39.000
R12  21163286.492 5 113050494.043 5     -1480.105          34.000
R21  20177114.156 8 107971818.120 8     -1273.809          51.000    20177115.945 8  83978086.528 8      -990.743          50.000
C27  21687598.727 6 112933007.041 6       710.625          39.000
C28  23104138.508 6 120309320.664 6     -1809.285          38.000
E12                                                                  21944095.078 5  88359751.047 5       541.006          34.000
E19  27522433.219 7 144631379.373 7      2759.895          44.000    27522427.188 6 110821452.757 6      2114.673          40.000
E31  26228344.469 5 137830879.842 5     -2968.266          31.000    26228352.008 6 105610633.527 6     -2274.424          41.000
E33  24519564.406 7 128851209.688 7     -1427.102          43.000    24519564.047 6  98730167.755 6     -1093.565          39.000
> 2020 05 18 15 48  0.0000000  0 16        .000000000000
G10  20965386.719 8 110173848.749 8       545.461          51.000    20965389.352 8  85849771.094 8       425.034          51.000
G16  21618348.602 8 113605192.771 8     -2604.461          49.000    21618347.820 7  88523504.105 7     -2029.450          47.000
G20  21511334.508 6 113042823.305 6     -1810.484          36.000
G21  23850524.992 5 125335335.002 5     -2516.566          33.000
G27  20307856.336 8 106718508.243 8       382.801          51.000    20307857.688 8  83157271.809 8       298.286          51.000
R05  22550535.609 5 120545539.822 5     -2648.973          34.000
R06  20562127.820 5 109723505.479 5      1519.379          34.000
R11  22707730.531 6 121343234.717 6     -4055.898          41.000
R12  21171648.938 5 113095173.257 5     -1486.449          32.000    21171652.203 4  87962897.068 4     -1156.133          27.000
R21  20184264.742 8 108010082.948 8     -1264.422          51.000    20184266.766 8  84007848.034 8      -983.439          50.000
C27  21683512.453 6 112911723.999 6       720.711          41.000
C28  23114564.438 6 120363605.040 6     -1797.207          39.000
E12                                                                  21940060.406 5  88343506.633 5       551.227          32.000
E19  27506672.008 7 144548551.090 7      2774.637          46.000    27506669.016 7 110757987.014 7      2126.062          42.000
E31                                                                  26245296.883 6 105678857.113 6     -2264.176          40.000
E33  24527705.875 7 128893990.449 7     -1412.367          44.000    24527704.172 6  98762947.813 6     -1082.233          37.000
> 2020 05 18 15 48 30.0000000  0 17        .000000000000
G10  20962383.297 8 110158066.558 8       509.055          51.000    20962386.219 8  85837473.276 8       396.666          51.000
G16  21633312.852 8 113683830.497 8     -2635.891          48.000    21633311.984 7  88584780.249 7     -2053.941          47.000
G20  21521770.508 5 113097663.052 5     -1843.605          34.000
G21  23864957.211 5 125411144.996 5     -2534.504          33.000
G27  20305765.297 8 106707519.795 8       352.199          51.000    20305766.688 8  83148709.373 8       274.444          51.000
R05  22565520.000 5 120625634.637 5     -2687.801          31.000
R06  20553714.820 6 109678609.029 6      1476.270          36.000
R07  22555042.008 5 120738956.236 5      4220.191          35.000
R11  22730576.766 6 121465316.251 6     -4080.293          38.000
R12  21180121.758 6 113140423.041 6     -1528.156          39.000
R21  20191435.609 8 108048455.919 8     -1291.371          51.000    20191437.641 8  84037693.668 8     -1004.400          49.000
C27  21679438.133 6 112890505.765 6       695.961          41.000
C28  23124993.156 6 120417909.513 6     -1820.824          39.000
E12                                                                  21936023.734 5  88327280.567 5       533.814          32.000
E19  27490898.922 7 144465662.212 7      2753.664          46.000    27490898.516 7 110694474.797 7      2109.956          44.000
E31  26262239.852 5 138009021.667 5     -2977.254          35.000    26262238.141 6 105747064.717 6     -2281.192          38.000
E33  24535835.820 7 128936711.445 7     -1433.340          43.000    24535833.117 6  98795682.074 6     -1098.258          36.000
> 2020 05 18 15 49  0.0000000  0 17        .000000000000
G10  20959532.828 8 110143089.094 8       491.434          51.000    20959536.016 8  85825802.516 8       382.932          51.000
G16  21648401.016 8 113763120.125 8     -2648.094          49.000    21648400.352 7  88646564.377 7     -2063.450          47.000
G20  21532340.062 5 113153203.788 5     -1856.387          30.000
G21  23879430.680 5 125487258.614 5     -2534.293          30.000    23879428.258 4  97782264.942 4     -1974.774          25.000
G27  20303795.461 8 106697168.147 8       340.102          51.000    20303796.711 8  83140643.148 8       265.014          51.000
R05  22580664.609 5 120706581.440 5     -2706.953          35.000
R06  20545488.375 5 109634713.728 5      1451.551          30.000
R07  22531413.258 6 120612458.915 6      4214.938          40.000    22531410.164 4  93809649.102 4      3278.285          26.000
R11  22753504.039 5 121587833.473 5     -4085.477          31.000
R12  21188778.539 5 113186648.993 5     -1551.445          33.000
R21  20198703.195 8 108087346.349 8     -1299.180          51.000    20198704.961 8  84067941.760 8     -1010.473          50.000
C27  21675452.281 7 112869751.175 7       689.535          42.000
C28  23135502.508 6 120472632.089 6     -1825.621          39.000
E12                                                                  21932062.602 5  88311327.667 5       531.081          33.000
E19  27475190.859 7 144383116.605 7      2751.508          45.000    27475192.938 7 110631225.607 7      2108.265          46.000
E31  26279252.336 6 138098417.495 6     -2980.559          40.000    26279252.609 6 105815562.764 6     -2283.652          37.000
E33  24544030.516 7 128979774.236 7     -1435.469          44.000    24544028.133 5  98828678.209 5     -1099.881          35.000
> 2020 05 18 15 49 30.0000000  0 14        .000000000000
G10  20956787.297 8 110128662.390 8       472.973          51.000    20956790.672 8  85814560.890 8       368.547          51.000
G16  21663564.555 8 113842805.327 8     -2661.258          50.000    21663564.125 7  88708656.738 7     -2073.704          45.000
G21  23893904.062 6 125563314.460 6     -2534.559          36.000    23893903.539 4  97841539.842 4     -1974.981          29.000
G27  20301898.609 8 106687199.922 8       327.359          51.000    20301899.695 8  83132875.712 8       255.085          51.000
R05  22595917.977 5 120788118.147 5     -2725.855          30.000    22595927.328 4  93946337.355 4     -2120.104          29.000
R06  20537402.508 5 109591564.121 5      1427.195          30.000
R07  22507818.680 7 120486149.057 7      4208.516          43.000    22507817.109 4  93711408.264 4      3273.293          29.000
R21  20206018.969 8 108126494.731 8     -1307.723          51.000    20206020.781 8  84098390.483 8     -1017.118          49.000
C27  21671507.070 7 112849208.805 7       682.461          42.000
C28  23146043.148 6 120527520.759 6     -1830.934          40.000
E12                                                                  21928129.734 5  88295489.073 5       527.522          32.000
E19  27459499.430 7 144300662.166 7      2748.469          42.000    27459504.258 7 110568046.292 7      2105.922          45.000
E31  26296286.625 6 138187936.218 6     -2984.555          40.000    26296291.133 5 105884154.976 5     -2286.765          33.000
E33  24552241.453 7 129022924.238 7     -1438.445          42.000    24552239.555 5  98861741.182 5     -1102.263          34.000
> 2020 05 18 15 50  0.0000000  0 14        .000000000000
G10  20954161.992 8 110114867.372 8       455.844          51.000    20954165.422 8  85803811.524 8       355.203          51.000
G16  21678818.414 8 113922964.250 8     -2673.012          49.000    21678817.859 7  88771118.222 7     -2082.866          44.000
G20  21553748.594 5 113265758.524 5     -1885.820          33.000
G27  20300090.312 8 106677696.942 8       315.531          51.000    20300091.195 8  83125470.783 8       245.869          51.000
R05  22611298.211 5 120870333.779 5     -2744.277          32.000    22611303.688 4  94010261.190 4     -2134.432          27.000
R06  20529471.781 5 109549244.028 5      1403.570          33.000
R07  22484274.375 7 120360113.356 7      4203.332          45.000    22484270.633 5  93613380.596 5      3269.264          31.000
R21  20213398.594 8 108165983.600 8     -1315.266          51.000    20213400.352 8  84129104.017 8     -1022.984          49.000
C27  21667618.031 7 112828959.317 7       676.441          42.000
C28  23156631.711 6 120582655.439 6     -1835.430          38.000
E12  21924241.484 5 115212661.408 5       685.102          31.000    21924237.922 5  88279817.603 5       524.700          30.000
E19  27443840.469 6 144218381.784 6      2746.391          40.000    27443847.070 7 110505000.307 7      2104.323          45.000
E31  26313358.125 6 138277656.668 6     -2987.422          41.000    26313366.961 4 105953024.884 4     -2289.653          28.000
E33  24560484.305 7 129066241.975 7     -1440.098          42.000    24560482.227 5  98894884.681 5     -1103.329          34.000
> 2020 05 18 15 50 30.0000000  0 11        .000000000000
G10  20951619.305 8 110101504.892 8       442.246          51.000    20951622.391 8  85793399.194 8       344.607          51.000
G16  21694124.164 8 114003395.259 8     -2681.492          50.000    21694123.250 7  88833791.718 7     -2089.474          45.000
G27  20298332.703 8 106668460.625 8       307.383          51.000    20298333.469 8  83118273.658 8       239.519          51.000
R05  22626765.922 5 120953001.916 5     -2759.246          30.000    22626773.203 4  94074558.593 4     -2146.080          27.000
R07  22460743.688 7 120234152.823 7      4201.512          45.000    22460739.031 5  93515411.439 5      3267.849          33.000
R21  20220803.742 8 108205609.567 8     -1319.125          51.000    20220805.594 8  84159924.208 8     -1025.986          49.000
C27  21663747.781 7 112808805.645 7       674.027          42.000
C28  23167229.148 6 120637838.475 6     -1836.434          37.000
E19  27428177.328 6 144136078.124 6      2747.793          40.000    27428185.070 7 110441936.532 7      2105.491          46.000
E31  26330430.195 6 138367377.521 6     -2986.613          41.000
E33  24568721.273 6 129109527.836 6     -1438.281          39.000    24568719.094 5  98928051.793 5     -1102.497          34.000
> 2020 05 18 15 51  0.0000000  0 13        .000000000000
G10  20949196.086 8 110088769.291 8       412.676          51.000    20949198.641 8  85783475.355 8       321.566          51.000
G16  21709518.422 8 114084290.316 8     -2705.594          51.000    21709517.180 7  88896826.803 7     -2108.255          45.000
G27  20296662.977 8 106659686.096 8       283.293          51.000    20296663.688 8  83111436.357 8       220.748          51.000
R05  22642351.945 4 121036347.623 4     -2789.621          29.000
R06  20514000.742 5 109466651.994 5      1347.172          30.000
R07  22437264.914 7 120108469.704 7      4183.309          46.000    22437260.211 6  93417658.014 6      3253.691          36.000
R12  21224755.789 5 113378834.393 5     -1651.207          30.000
R21  20228271.602 8 108245570.193 8     -1339.059          51.000    20228272.984 8  84191004.711 8     -1041.487          48.000
C27  21659933.250 7 112788940.834 7       655.879          43.000
C28  23177872.984 6 120693262.204 6     -1852.906          36.000
E19  27412547.711 6 144053947.259 6      2733.422          41.000    27412554.820 7 110379005.102 7      2094.410          45.000
E31  26347538.969 6 138457291.093 6     -3001.891          41.000    26347530.164 5 106090617.959 5     -2299.755          35.000
E33  24576988.766 6 129152975.699 6     -1452.523          38.000    24576987.344 5  98961342.961 5     -1112.907          33.000
> 2020 05 18 15 51 30.0000000  0 14        .000000000000
G10  20946886.836 8 110076632.807 8       394.406          51.000    20946888.703 8  85774018.380 8       307.333          51.000
G16  21724995.312 8 114165619.123 8     -2718.242          51.000    21724993.875 7  88960199.864 7     -2118.114          47.000
G21  23951845.078 5 125867799.534 5     -2540.141          31.000
G27  20295076.062 8 106651346.362 8       270.582          51.000    20295076.797 8  83104937.866 8       210.843          51.000
R05  22658060.703 5 121120297.105 5     -2808.754          31.000
R06  20506494.570 5 109426638.157 5      1321.785          32.000
R07  22413833.602 8 119983040.009 8      4176.488          48.000    22413830.438 6  93320101.676 6      3248.383          39.000
R11  22868638.516 6 122203179.455 6     -4117.277          36.000    22868661.477 5  95046912.248 5     -3202.330          30.000
R21  20235796.266 8 108285837.019 8     -1347.480          51.000    20235797.680 8  84222323.363 8     -1048.040          48.000
C27  21656168.969 7 112769337.818 7       649.008          45.000
C28  23188557.859 5 120748898.825 5     -1858.316          32.000
E19  27396946.102 6 143971963.469 6      2730.355          40.000    27396952.781 7 110316186.381 7      2092.061          45.000
E31  26364678.820 7 138547367.422 7     -3005.383          42.000    26364673.430 5 106159637.441 5     -2302.937          35.000
E33  24585281.703 6 129196557.327 6     -1454.977          38.000    24585282.070 5  98994736.706 5     -1114.897          34.000
> 2020 05 18 15 52  0.0000000  0 12        .000000000000
G10  20944694.195 8 110065108.948 8       374.215          51.000    20944695.336 8  85765038.778 8       291.599          51.000
G16  21740556.773 8 114247392.676 8     -2732.785          51.000    21740555.320 8  89023919.487 8     -2129.443          48.000
G21  23966349.148 6 125943988.413 6     -2541.102          36.000
G27  20293574.570 8 106643455.670 8       255.805          51.000    20293575.367 8  83098789.282 8       199.328          51.000
R07  22390452.422 7 119857881.641 7      4167.688          46.000    22390451.344 7  93222756.305 7      3241.535          42.000
R11  22891775.828 5 122326812.595 5     -4124.383          35.000    22891791.992 4  95143071.308 4     -3207.856          27.000
R21  20243380.672 8 108326423.756 8     -1357.988          51.000    20243382.445 7  84253890.810 7     -1056.213          47.000
C27  21652457.523 7 112750010.400 7       639.801          44.000
C28  23199286.578 5 120804761.469 5     -1865.406          35.000
E19  27381375.648 6 143890142.038 6      2725.090          41.000    27381381.445 7 110253492.103 7      2087.840          44.000
E31  26381852.078 7 138637618.048 7     -3011.109          42.000    26381847.805 5 106228790.429 5     -2306.872          35.000
E33  24593602.750 6 129240285.897 6     -1460.055          38.000    24593604.719 5  99028243.014 5     -1118.725          35.000
> 2020 05 18 15 52 30.0000000  0 13        .000000000000
G10  20942603.445 8 110054120.833 8       357.273          51.000    20942604.359 8  85756476.652 8       278.398          51.000
G16  21756187.602 8 114329531.824 8     -2744.055          51.000    21756186.102 7  89087924.000 7     -2138.227          47.000
G21  23980851.070 5 126020196.399 5     -2540.320          35.000
G27  20292143.969 8 106635937.918 8       244.344          51.000    20292144.812 8  83092931.290 8       190.398          51.000
R07  22367107.695 7 119732920.808 7      4161.871          45.000    22367109.047 7  93125564.566 7      3237.011          44.000
R11  22914937.938 6 122450575.005 6     -4127.727          37.000    22914953.031 4  95239330.861 4     -3210.460          29.000
R12  21253157.148 5 113530563.948 5     -1721.707          34.000    21253156.133 5  88301529.276 5     -1339.096          32.000
R21  20251010.258 8 108367251.588 8     -1364.977          51.000    20251011.938 7  84285645.790 7     -1061.648          47.000
C27  21648784.266 7 112730882.841 7       634.227          44.000
C28  23210047.953 4 120860773.543 4     -1868.430          26.000
E19  27365822.305 7 143808408.119 7      2722.910          42.000    27365826.656 7 110190864.826 7      2086.398          44.000
E31  26399043.688 7 138727963.924 7     -3013.215          43.000    26399038.133 5 106298016.490 5     -2309.333          32.000
E33  24601936.836 6 129284084.051 6     -1461.449          37.000    24601939.555 6  99061802.639 6     -1119.722          36.000
> 2020 05 18 15 53  0.0000000  0 11        .000000000000
G10  20940644.039 8 110043823.175 8       322.152          51.000    20940644.828 8  85748452.544 8       251.031          51.000
G16  21771916.555 8 114412188.436 8     -2773.395          50.000    21771915.016 7  89152331.734 7     -2161.087          46.000
G27  20290813.914 8 106628948.601 8       214.703          51.000    20290814.812 8  83087485.062 8       167.301          51.000
R07  22343830.281 7 119608319.016 7      4137.828          45.000    22343833.578 7  93028652.092 7      3218.311          44.000
R11  22938152.508 6 122574619.601 6     -4149.191          37.000    22938163.289 4  95335809.932 4     -3227.149          29.000
R21  20258714.602 8 108408477.993 8     -1390.512          51.000    20258716.172 7  84317710.767 7     -1081.509          46.000
C27  21645178.953 7 112712109.002 7       610.402          44.000
C28  23220853.078 5 120917097.709 5     -1891.000          33.000
E19  27350315.711 6 143726918.489 6      2702.504          41.000    27350319.758 7 110128424.785 7      2070.938          44.000
E31  26416282.672 7 138818557.820 7     -3033.211          43.000    26416275.031 4 106367392.433 4     -2323.786          29.000
E33  24610313.430 5 129328106.163 5     -1480.461          35.000    24610316.922 6  99095533.876 6     -1134.469          37.000
> 2020 05 18 15 53 30.0000000  0 12        .000000000000
G10  20938786.359 8 110034060.661 8       318.797          51.000    20938786.977 8  85740845.414 8       248.413          51.000
G16  21787713.664 8 114495204.722 8     -2770.852          50.000    21787712.211 7  89217019.737 7     -2159.105          46.000
G27  20289555.062 8 106622333.247 8       216.512          51.000    20289556.039 8  83082330.234 8       168.710          51.000
R07  22320591.297 7 119483922.690 7      4145.555          45.000    22320596.109 7  92931899.420 7      3224.320          43.000
R11  22961387.555 5 122698783.987 5     -4138.355          33.000    22961397.203 4  95432382.190 4     -3218.718          28.000
R12  21272805.023 5 113635574.097 5     -1769.555          33.000
R21  20266463.805 8 108449944.619 8     -1383.918          51.000    20266465.227 7  84349962.574 7     -1076.381          45.000
C27  21641612.219 7 112693535.460 7       617.961          45.000
C28  23231700.055 5 120973561.347 5     -1882.309          35.000
E19  27334826.445 6 143645519.950 6      2714.102          41.000    27334830.117 7 110066054.535 7      2079.642          44.000
E31  26433539.047 7 138909242.472 7     -3022.000          44.000
E33  24618703.578 6 129372196.724 6     -1468.684          37.000    24618708.312 6  99129317.529 6     -1125.160          38.000
> 2020 05 18 15 54  0.0000000  0 11        .000000000000
G10  20937013.867 8 110024746.526 8       300.789          51.000    20937015.039 8  85733587.679 8       234.384          51.000
G16  21803562.047 8 114578491.661 8     -2782.922          49.000    21803560.688 7  89281918.633 7     -2168.514          43.000
G27  20288351.117 8 106616005.892 8       203.898          51.000    20288351.930 8  83077399.821 8       158.882          51.000
R06  20471196.039 6 109238340.284 6      1192.902          39.000
R07  22297374.508 7 119359647.904 7      4138.102          45.000    22297380.727 6  92835241.251 6      3218.523          40.000
R21  20274241.297 8 108491563.133 8     -1392.059          51.000    20274242.711 7  84382332.508 7     -1082.712          44.000
C27  21638067.664 7 112675076.853 7       611.070          45.000
C28  23242555.570 6 121030087.375 6     -1887.719          36.000
E19  27319338.523 7 143564127.402 7      2710.723          42.000    27319342.242 7 110003688.883 7      2077.050          46.000
E31  26450795.898 7 138999929.080 7     -3025.160          44.000    26450792.180 5 106506376.891 5     -2317.962          34.000
E33  24627090.633 6 129416268.585 6     -1471.191          36.000    24627096.062 6  99163086.841 6     -1127.058          39.000
> 2020 05 18 15 54 30.0000000  0 13        .000000000000
G10  20935325.180 8 110015873.230 8       291.750          51.000    20935326.961 8  85726673.457 8       227.338          51.000
G16  21819460.070 8 114662039.230 8     -2785.965          49.000    21819458.375 6  89347020.611 6     -2170.882          40.000
G27  20287200.695 8 106609959.866 8       200.086          51.000    20287201.281 8  83072688.646 8       155.911          51.000
R05  22754598.406 5 121636334.889 5     -2912.824          33.000
R06  20464533.375 6 109202802.658 6      1177.090          37.000
R07  22274180.648 8 119235490.843 8      4139.938          48.000    22274187.000 5  92738674.665 5      3219.954          35.000
R12  21292905.828 5 113742903.042 5     -1805.664          35.000    21292912.852 5  88466702.255 5     -1404.405          33.000
R21  20282045.523 8 108533325.583 8     -1391.145          51.000    20282046.609 7  84414814.410 7     -1082.001          44.000
C27  21634543.781 7 112656726.161 7       613.043          45.000
C28  23253421.305 5 121086668.314 5     -1883.812          33.000
E19  27303850.883 7 143482735.483 7      2716.406          43.000    27303854.508 7 109941323.737 7      2081.309          45.000
E31  26468051.359 7 139090608.138 7     -3019.219          44.000    26468050.406 5 106575858.184 5     -2313.376          35.000
E33  24635472.492 6 129460313.880 6     -1464.402          40.000    24635477.750 6  99196835.853 6     -1122.164          40.000
> 2020 05 18 15 55  0.0000000  0 15        .000000000000
G10  20933784.828 8 110007779.482 8       259.355          51.000    20933787.016 8  85720366.649 8       202.095          51.000
G16  21835471.938 8 114746183.715 8     -2812.320          49.000    21835469.492 6  89412587.694 6     -2191.418          39.000
G27  20286168.367 8 106604534.684 8       173.020          51.000    20286168.867 8  83068461.235 8       134.820          51.000
R05  22771072.375 6 121724400.719 6     -2946.074          38.000
R06  20458061.094 6 109168264.963 6      1137.355          36.000
R07  22251074.797 8 119111801.241 8      4117.734          49.000    22251060.281 4  92642427.902 4      3202.679          28.000
R11  23031168.414 4 123071602.459 4     -4155.723          29.000    23031176.062 4  95722365.677 4     -3232.229          26.000
R12  21303182.438 5 113797801.685 5     -1842.633          35.000    21303192.172 5  88509401.148 5     -1433.159          33.000
R21  20289940.891 8 108575576.442 8     -1413.949          50.000    20289942.570 7  84447676.183 7     -1099.738          43.000
C27  21631105.023 7 112638819.659 7       591.863          44.000
C28  23264360.422 5 121143639.731 5     -1902.895          35.000
E12                                                                  21886871.719 5  88129368.304 5       478.875          32.000
E19  27288428.297 7 143401684.949 7      2698.453          45.000    27288431.227 7 109879220.136 7      2067.700          45.000
E31  26485369.484 7 139181616.377 7     -3036.484          42.000    26485369.742 6 106645591.732 6     -2326.624          37.000
E33  24643914.008 6 129504671.124 6     -1481.344          41.000    24643918.242 6  99230823.875 6     -1134.918          41.000
> 2020 05 18 15 55 30.0000000  0 14        .000000000000
G10  20932347.555 8 110000227.565 8       242.840          51.000    20932350.250 8  85714482.040 8       189.229          51.000
G16  21851552.008 8 114830685.219 8     -2822.480          49.000    21851549.680 6  89478432.960 6     -2199.335          41.000
G27  20285209.109 8 106599493.552 8       161.633          51.000    20285209.625 8  83064533.090 8       125.948          51.000
R05  22787646.273 6 121813003.723 6     -2961.836          40.000    22787649.125 4  94743480.859 4     -2303.647          28.000
R06  20451731.539 5 109134487.128 5      1113.141          34.000
R07  22228011.930 8 118988341.351 8      4111.559          51.000    22228007.281 5  92546406.722 5      3197.882          35.000
R12  21313587.906 6 113853371.679 6     -1863.926          36.000    21313597.578 5  88552622.279 5     -1449.711          33.000
R21  20297882.328 8 108618074.118 8     -1420.539          50.000    20297884.773 7  84480729.897 7     -1104.864          43.000
C27  21627706.188 7 112621122.465 7       586.496          45.000
C28  23275331.469 5 121200765.734 5     -1906.594          34.000
E12                                                                  21883301.203 5  88115002.852 5       477.310          31.000
E19  27273025.656 7 143320740.242 7      2696.477          46.000    27273028.141 7 109817197.633 7      2066.084          43.000
E31  26502704.453 6 139272714.248 6     -3037.816          41.000    26502705.680 6 106715393.929 6     -2327.683          37.000
E33  24652369.477 6 129549102.415 6     -1482.102          39.000    24652372.383 6  99264868.649 6     -1135.579          40.000
> 2020 05 18 15 56  0.0000000  0 16        .000000000000
G10  20931014.750 8 109993224.827 8       227.941          51.000    20931017.906 8  85709025.360 8       177.617          51.000
G16  21867701.039 8 114915548.292 8     -2831.078          50.000    21867699.469 7  89544559.987 7     -2206.035          43.000
G20  21689411.961 6 113978629.142 6     -2064.598          36.000
G26  24022785.281 5 126240600.549 5     -3678.730          31.000    24022791.812 5  98369310.504 5     -2866.549          31.000
G27  20284324.516 8 106594844.665 8       152.109          51.000    20284325.117 8  83060910.583 8       118.527          51.000
R05  22804323.273 6 121902148.030 6     -2976.781          39.000    22804326.914 5  94812815.359 5     -2315.274          33.000
R07  22204994.078 8 118865123.272 8      4107.000          50.000    22204993.977 6  92450570.520 6      3194.336          41.000
R11  23077864.555 5 123321110.079 5     -4157.461          35.000    23077861.008 4  95916402.569 4     -3233.587          28.000
R12  21324119.219 5 113909617.439 5     -1882.320          35.000    21324124.992 5  88596369.079 5     -1464.024          35.000
R21  20305871.227 7 108660825.689 7     -1425.645          47.000    20305874.031 7  84513981.129 7     -1108.835          42.000
C27  21624349.430 7 112603642.415 7       582.641          45.000
C28  23286333.719 5 121258053.795 5     -1908.746          30.000
E12                                                                  21879761.898 5  88100724.416 5       476.723          33.000
E19  27257644.750 7 143239910.691 7      2696.141          46.000    27257646.469 7 109755263.338 7      2065.856          42.000
E31  26520057.742 6 139363907.152 6     -3037.789          41.000    26520059.438 6 106785268.970 6     -2327.719          37.000
E33  24660840.758 6 129593614.950 6     -1481.449          41.000    24660842.625 6  99298975.628 6     -1135.202          41.000
> 2020 05 18 15 56 30.0000000  0 15        .000000000000
G10  20929810.133 8 109986895.407 8       200.840          51.000    20929813.500 8  85704093.331 8       156.499          51.000
G16  21883942.117 8 115000894.740 8     -2851.699          49.000    21883941.359 7  89611063.689 7     -2222.103          44.000
G21  24097004.648 5 126630614.314 5     -2548.453          30.000
G26  24043831.133 5 126351193.717 5     -3688.977          32.000    24043835.250 5  98455486.860 5     -2874.533          32.000
G27  20283538.367 8 106590713.096 8       130.344          51.000    20283539.000 8  83057691.183 8       101.567          51.000
R05  22821124.516 4 121991956.190 4     -3003.160          29.000    22821128.281 5  94882666.148 5     -2335.791          31.000
R07  22182045.281 8 118742277.580 8      4089.898          48.000    22182047.375 7  92355023.978 7      3181.035          44.000
R11  23101262.047 6 123446126.615 6     -4169.727          39.000    23101257.828 4  96013637.533 4     -3243.124          26.000
R12  21334796.398 5 113966658.426 5     -1912.875          30.000    21334801.289 5  88640753.360 5     -1487.786          32.000
R21  20313931.453 8 108703957.644 8     -1442.801          48.000    20313934.656 7  84547528.203 7     -1122.178          42.000
C27  21621058.266 7 112586503.239 7       566.906          45.000
E12                                                                  21876274.180 6  88086662.173 6       466.122          36.000
E19  27242309.242 7 143159322.485 7      2683.480          46.000    27242311.047 6 109693513.998 6      2056.191          41.000
E31  26537452.781 6 139455317.363 6     -3049.531          38.000    26537454.859 6 106855310.512 6     -2336.803          37.000
E33  24669350.359 6 129638332.546 6     -1492.719          39.000    24669352.156 6  99333239.756 6     -1143.697          41.000
> 2020 05 18 15 57  0.0000000  0 14        .000000000000
G10  20928714.180 8 109981136.355 8       184.023          51.000    20928717.430 8  85699605.721 8       143.395          51.000
G16  21900255.250 8 115086619.416 8     -2862.098          50.000    21900254.844 7  89677862.123 7     -2230.206          45.000
G26  24064887.961 5 126461848.947 5     -3687.984          33.000    24064890.977 5  98541711.597 5     -2873.757          33.000
G27  20282831.148 8 106586996.780 8       118.660          51.000    20282831.883 8  83054795.354 8        92.462          51.000
R06  20433657.188 5 109037944.470 5      1032.254          33.000
R07  22159145.867 7 118619704.511 7      4082.840          44.000    22159150.125 7  92259689.405 7      3175.542          45.000
R11  23124681.383 6 123571268.430 6     -4171.793          40.000
R21  20322042.891 7 108747365.307 7     -1449.863          43.000    20322046.266 6  84581289.718 6     -1127.671          41.000
C27  21617812.492 7 112569603.613 7       561.027          44.000
C28  23308484.328 5 121373434.933 5     -1926.293          31.000
E12                                                                  21872815.109 6  88072720.073 6       463.955          37.000
E19  27227000.062 7 143078874.959 7      2680.809          45.000    27227000.766 6 109631872.434 6      2054.180          38.000
E31  26554869.859 6 139546840.105 6     -3051.105          38.000    26554872.570 6 106925438.247 6     -2337.594          38.000
E33  24677879.148 6 129683152.235 6     -1494.141          38.000    24677881.195 7  99367582.096 7     -1144.783          42.000
> 2020 05 18 15 57 30.0000000  0 14        .000000000000
G10  20927700.164 8 109975807.669 8       165.871          51.000    20927703.375 8  85695453.502 8       129.250          51.000
G16  21916613.383 8 115172579.998 8     -2873.867          51.000    21916612.820 7  89744844.383 7     -2239.377          45.000
G26  24085930.352 5 126572423.931 5     -3688.953          34.000    24085932.961 5  98627873.868 5     -2874.512          35.000
G27  20282176.508 8 106583556.736 8       105.504          51.000    20282177.312 8  83052114.796 8        82.211          51.000
R05  22855006.102 5 122173088.285 5     -3037.465          32.000    22855005.102 4  95023521.724 4     -2362.476          26.000
R06  20427911.422 5 109007281.796 5      1006.703          35.000
R07  22136271.250 7 118497265.553 7      4074.359          45.000    22136278.016 7  92164459.079 7      3168.946          46.000
R11  23148096.562 6 123696388.539 6     -4175.105          38.000
R21  20330179.523 7 108790906.174 7     -1458.328          44.000    20330183.000 7  84615154.835 7     -1134.255          42.000
C27  21614585.734 7 112552805.539 7       553.820          45.000
E12                                                                  21869357.164 5  88058790.938 5       460.581          34.000
E19  27211691.344 7 142998430.283 7      2676.723          45.000    27211690.844 6 109570233.103 6      2050.947          38.000
E31  26572281.422 6 139638333.611 6     -3053.984          36.000    26572285.398 6 106995543.607 6     -2339.955          37.000
E33  24686400.922 6 129727933.897 6     -1496.645          38.000    24686402.734 7  99401895.308 7     -1146.920          42.000
> 2020 05 18 15 58  0.0000000  0 17        .000000000000
G10  20926812.219 8 109971141.013 8       146.211          51.000    20926815.055 8  85691817.145 8       113.931          51.000
G16  21933060.016 8 115259005.576 8     -2886.859          51.000    21933058.930 7  89812188.966 7     -2249.501          46.000
G21  24140610.891 5 126859782.654 5     -2546.438          30.000
G26  24107000.266 5 126683147.952 5     -3690.984          33.000    24107003.648 5  98714152.172 5     -2876.098          32.000
G27  20281618.703 8 106580625.476 8        91.016          51.000    20281619.508 8  83049830.693 8        70.921          51.000
R05  22872110.094 5 122264502.735 5     -3055.867          33.000    22872108.891 4  95094622.892 4     -2376.786          29.000
R06  20422333.578 5 108977510.925 5       978.773          35.000
R07  22113468.750 7 118375201.112 7      4064.266          47.000    22113475.734 7  92069520.104 7      3161.095          46.000
R11  23171550.852 6 123821718.541 6     -4179.449          36.000
R12  21367574.352 5 114141768.605 5     -1980.055          35.000
R21  20338385.117 6 108834815.826 6     -1468.176          41.000    20338388.172 6  84649306.811 6     -1141.914          41.000
C27  21611422.539 7 112536339.222 7       544.922          44.000
C28  23330728.789 4 121489227.101 4     -1939.297          29.000
E12                                                                  21865944.211 4  88045099.247 4       455.406          29.000
E19  27196428.156 7 142918222.235 7      2671.289          45.000    27196426.117 6 109508775.083 6      2046.799          38.000
E31  26589730.664 5 139730027.580 5     -3058.434          35.000    26589735.641 5 107065802.613 5     -2343.307          35.000
E33  24694960.016 6 129772909.057 6     -1501.098          39.000    24694960.812 7  99436356.764 7     -1149.928          42.000
> 2020 05 18 15 58 30.0000000  0 15        .000000000000
G10  20926023.562 8 109966995.976 8       127.211          51.000    20926025.914 8  85688587.247 8        99.125          51.000
G16  21949567.781 8 115345753.792 8     -2899.227          50.000    21949566.469 7  89879784.939 7     -2259.138          45.000
G21  24155152.875 5 126936187.963 5     -2547.902          30.000
G26  24128071.789 6 126793878.172 6     -3693.234          37.000    24128074.656 6  98800435.350 6     -2877.845          38.000
G27  20281131.211 8 106578063.602 8        76.945          51.000    20281132.070 8  83047834.428 8        59.957          51.000
R06  20416896.070 5 108948490.089 5       952.379          34.000
R07  22090710.773 7 118253373.033 7      4054.676          47.000    22090717.086 7  91974765.000 7      3153.640          45.000
R11  23195017.219 5 123947111.401 5     -4182.688          31.000
R12  21378752.703 5 114201462.069 5     -2002.035          35.000    21378744.922 5  88823335.759 5     -1557.138          30.000
R21  20346632.531 6 108878951.599 6     -1476.895          38.000    20346635.953 6  84683634.618 6     -1148.699          40.000
C27  21608296.891 7 112520066.318 7       536.996          45.000
C28  23341915.203 5 121547458.719 5     -1944.473          32.000
E19  27181184.070 7 142838112.540 7      2666.422          47.000    27181181.656 6 109447392.402 6      2042.821          40.000
E31  26607188.688 5 139821779.860 5     -3061.633          35.000    26607196.156 5 107136106.375 5     -2346.064          34.000
E33  24703528.867 6 129817937.208 6     -1504.172          41.000    24703528.930 6  99470858.891 6     -1152.419          41.000
> 2020 05 18 15 59  0.0000000  0 15        .000000000000
G10  20925363.992 8 109963529.086 8       115.461          51.000    20925366.000 8  85685885.801 8        89.970          51.000
G16  21966165.773 8 115432978.413 8     -2904.090          48.000    21966164.766 7  89947752.142 7     -2262.927          46.000
G21  24169714.742 5 127012694.241 5     -2541.137          32.000
G26  24149174.133 6 126904768.768 6     -3687.918          36.000    24149175.102 5  98886843.561 5     -2873.702          35.000
G27  20280743.992 8 106576028.569 8        70.246          51.000    20280744.789 8  83046248.686 8        54.737          51.000
R05  22906619.469 4 122449009.662 4     -3084.582          28.000
R07  22068026.836 7 118131945.017 7      4052.277          46.000    22068032.531 7  91880321.104 7      3151.774          44.000
R11  23218524.188 5 124072722.227 5     -4178.293          35.000
R12  21390071.812 5 114261922.505 5     -2017.680          33.000    21390063.977 4  88870368.487 4     -1569.309          29.000
R21  20354952.812 6 108923473.017 6     -1479.211          41.000    20354955.906 6  84718262.428 6     -1150.497          39.000
C27  21605238.852 7 112504142.711 7       536.117          45.000
C28  23353154.359 5 121605956.914 5     -1943.590          35.000
E19  27165989.242 7 142758260.159 7      2668.672          47.000    27165987.562 7 109386206.863 7      2044.734          42.000
E31  26624686.867 6 139913745.293 6     -3057.852          36.000    26624697.023 5 107206621.433 5     -2343.194          31.000
E33  24712136.719 6 129863174.886 6     -1500.039          39.000    24712137.125 6  99505521.529 6     -1149.419          41.000
> 2020 05 18 15 59 30.0000000  0 11        .000000000000
G10  20924788.766 8 109960505.612 8        82.957          51.000    20924790.500 8  85683529.855 8        64.642          51.000
G16  21982808.820 7 115520442.531 7     -2929.840          46.000    21982808.594 7  90015905.979 7     -2282.992          45.000
G26  24170261.180 5 127015582.819 5     -3702.848          35.000    24170262.430 5  98973192.079 5     -2885.339          34.000
G27  20280412.531 8 106574286.666 8        42.730          51.000    20280413.180 8  83044891.367 8        33.296          51.000
R07  22045374.211 7 118010683.034 7      4028.738          45.000    22045378.758 7  91786006.305 7      3133.466          44.000
R11  23242024.992 6 124198307.884 6     -4196.082          36.000    23242024.789 4  96598706.838 4     -3263.619          25.000
R21  20363300.820 6 108968141.109 6     -1501.801          40.000    20363303.672 6  84753004.329 6     -1168.064          38.000
C27  21602203.555 7 112488336.620 7       514.625          46.000
E19  27150799.062 7 142678432.639 7      2650.082          46.000    27150798.359 7 109325040.344 7      2030.570          43.000
E31  26642182.305 6 140005687.394 6     -3074.824          39.000
E33  24720739.461 6 129908387.358 6     -1517.059          38.000    24720740.641 6  99540164.896 6     -1162.703          41.000
