     3.02           OBSERVATION DATA    M (MIXED)           RINEX VERSION / TYPE
SAVERINEX           SC600               20200505 155932 LCL PGM / RUN BY / DATE
       G = GPS       R = GLONASS       C = COMPASS          COMMENT
       S = SBAS      J = QZSS          E = GALILEO          COMMENT
BEAN                                                        MARKER NAME
1                                                           MARKER NUMBER
GEODETIC                                                    MARKER TYPE
Unige DICCA         GTER                                    OBSERVER / AGENCY
SC60291900056       SC600               2.12(191226)        REC # / TYPE / VERS
                    HEMA45          NONE                    ANT # / TYPE
  4509407.8091   693652.4678  4442337.6214                  APPROX POSITION XYZ
        0.0000        0.0000        0.0000                  ANTENNA: DELTA H/E/N
G    8 C1C L1C D1C S1C C2Y L2Y D2Y S2Y                      SYS / # / OBS TYPES
R    8 C1C L1C D1C S1C C2P L2P D2P S2P                      SYS / # / OBS TYPES
C    8 C1I L1I D1I S1I C7I L7I D7I S7I                      SYS / # / OBS TYPES
E    8 C1C L1C D1C S1C C7Q L7Q D7Q S7Q                      SYS / # / OBS TYPES
DBHZ                                                        COMMENT
     30.000                                                 INTERVAL
  2020    05    05    13    00    0.0000000     GPS         TIME OF FIRST OBS
  2020    05    05    13    59   30.0000000     GPS         TIME OF LAST OBS
     0                                                      RCV CLOCK OFFS APPL
G L1C  0.00000                                              SYS / PHASE SHIFT
G L2Y  0.00000                                              SYS / PHASE SHIFT
R L1C  0.00000                                              SYS / PHASE SHIFT
R L2P  0.25000                                              SYS / PHASE SHIFT
C L1I  0.00000                                              SYS / PHASE SHIFT
C L7I  0.00000                                              SYS / PHASE SHIFT
E L1C  0.50000                                              SYS / PHASE SHIFT
E L7Q -0.25000                                              SYS / PHASE SHIFT
 12 R01  1 R06 -4 R07  5 R08  6 R09 -2 R10 -5 R11  0 R12 -1 GLONASS SLOT / FRQ #
    R13 -2 R21  4 R22 -3 R23  3                             GLONASS SLOT / FRQ #
 C1C   71.950 C2C   71.950 C2P   71.950                     GLONASS COD/PHS/BIS
    18                                                      LEAP SECONDS
*** Above antenna height is from mark to ANTENNA BOTTOM.    COMMENT
    17     4        0.0000        ANT MEASURE TYPE/HEIGT    COMMENT
    0.0000    0.0000    0.0458    0.0405    0.0000          COMMENT
                    BASE STATION                            COMMENT
                                                            END OF HEADER
> 2020 05 05 13 00  0.0000000  0 18        .000000000000
G18  20862883.555 7 109635271.987 7      1838.199          43.000    20862885.555 7  85430092.913 7      1432.360          43.000
G21  20992309.352 8 110315349.085 8      1377.766          51.000    20992308.773 8  85959990.324 8      1073.584          49.000
G25  22723515.414 6 119412901.857 6     -2970.195          38.000    22723519.922 6  93048977.758 6     -2314.441          37.000
G29  21008701.141 8 110401475.578 8     -1777.773          51.000    21008700.438 8  86027118.464 8     -1385.278          51.000
G31  21401066.188 8 112463361.703 8     -1316.051          50.000    21401064.000 8  87633797.562 8     -1025.494          50.000
R12  20136367.820 8 107564869.057 8     -2701.461          51.000    20136373.055 8  83661565.337 8     -2101.136          48.000
R22  20138389.117 6 107500061.513 6     -2587.051          37.000    20138406.234 5  83611193.242 5     -2012.145          33.000
R23  19864874.492 8 106263750.154 8      1979.078          51.000    19864878.875 6  82649538.501 6      1539.283          41.000
R24  22908816.984 5 122503779.840 5      3753.918          32.000    22908828.828 5  95280711.963 5      2919.717          31.000
C05  39627974.234 6 206353249.161 6        19.105          36.000    39627973.578 6 159565429.659 6        14.586          38.000
C11  21977111.625 8 114440684.067 8       893.875          49.000    21977110.422 8  88492798.439 8       691.228          51.000
C12  22593860.539 8 117652158.438 8     -1958.090          51.000    22593859.945 8  90976109.906 8     -1514.216          51.000
C24  25188254.438 5 131161813.073 5     -3321.922          33.000
C25  22187529.609 8 115536298.215 8     -1116.648          51.000
E13  23800860.828 8 125074374.888 8     -1249.715          49.000    23800863.656 8  95836233.118 8      -957.517          51.000
E21  23891735.328 8 125551895.360 8     -1276.496          51.000    23891738.547 8  96202132.022 8      -978.094          51.000
E26  22961820.227 8 120665285.371 8      1634.086          51.000    22961823.734 8  92457773.110 8      1252.131          51.000
E27  27464900.055 7 144328994.415 7     -2815.004          45.000    27464904.922 7 110589715.870 7     -2156.975          46.000
> 2020 05 05 13 00 30.0000000  0 18        .000000000000
G18  20852439.375 7 109580388.279 7      1820.586          45.000    20852441.133 7  85387326.379 7      1418.641          45.000
G21  20984491.164 8 110274265.410 8      1361.020          50.000    20984490.906 8  85927977.095 8      1060.535          49.000
G25  22740496.836 7 119502133.870 7     -2978.578          43.000    22740501.070 7  93118509.171 7     -2320.970          43.000
G29  21018876.172 8 110454945.828 8     -1786.949          51.000    21018875.250 8  86068783.592 8     -1392.428          51.000
G31  21408630.758 8 112503114.738 8     -1334.312          51.000    21408627.727 8  87664773.944 8     -1039.721          51.000
R12  20151594.078 8 107646205.682 8     -2721.074          51.000    20151599.211 7  83724827.090 7     -2116.394          47.000
R22  20152961.711 6 107577873.299 6     -2600.715          37.000
R23  19853828.820 8 106204662.429 8      1960.000          51.000    19853832.984 6  82603581.376 6      1524.444          40.000
R24  22887782.492 5 122391298.208 5      3745.574          30.000
C05  39627863.555 5 206352684.676 5        18.883          35.000    39627863.656 6 159564984.755 6        14.568          38.000
C11  21971995.305 8 114414042.715 8       882.164          50.000    21971994.320 8  88472197.680 8       682.109          51.000
C12  22605163.289 8 117711014.798 8     -1965.707          51.000    22605162.648 8  91021621.367 8     -1519.970          51.000
C24  25207405.977 5 131261541.770 5     -3326.789          34.000
C25  22194007.359 8 115570032.722 8     -1132.496          51.000
E13  23808025.242 8 125112023.663 8     -1260.336          49.000    23808027.789 8  95865080.861 8      -965.724          51.000
E21  23899053.023 8 125590350.270 8     -1287.254          51.000    23899056.508 8  96231597.467 8      -986.334          51.000
E26  22952522.703 8 120616428.457 8      1622.945          51.000    22952526.547 8  92420337.326 8      1243.558          51.000
E27  27480981.078 7 144413502.726 7     -2818.770          43.000    27480985.219 7 110654468.891 7     -2160.010          45.000
> 2020 05 05 13 01  0.0000000  0 18        .000000000000
G18  20842094.617 8 109526024.211 8      1803.719          48.000    20842096.070 8  85344964.791 8      1405.495          48.000
G21  20976766.438 8 110233673.373 8      1345.227          48.000    20976766.562 8  85896346.945 8      1048.228          48.000
G25  22757521.562 7 119591593.349 7     -2985.480          44.000    22757525.336 7  93188217.824 7     -2326.348          44.000
G29  21029101.805 8 110508681.793 8     -1795.332          51.000    21029100.719 8  86110655.755 8     -1398.960          51.000
G31  21416296.977 8 112543401.854 8     -1351.531          51.000    21416294.297 8  87696166.506 8     -1053.141          51.000
R12  20166927.906 8 107728118.063 8     -2739.730          49.000    20166933.383 7  83788536.656 7     -2130.901          47.000
R22  20167614.133 6 107656084.945 6     -2613.395          41.000    20167615.703 4  83732509.659 4     -2032.643          27.000
R23  19842887.719 8 106146135.076 8      1941.828          51.000    19842891.852 6  82558060.093 6      1510.311          40.000
R24  22866801.953 4 122279061.154 4      3736.844          29.000
C05  39627754.039 6 206352113.589 6        18.957          36.000    39627753.695 6 159564541.899 6        14.786          37.000
C11  21966944.727 8 114387742.445 8       871.227          51.000    21966943.727 8  88451860.654 8       673.787          51.000
C12  22616507.031 8 117770084.816 8     -1972.277          51.000    22616506.445 8  91067298.054 8     -1525.017          51.000
C24  25226584.617 5 131361406.147 5     -3331.137          35.000
C25  22200575.070 8 115604234.550 8     -1147.586          51.000
E13  23815248.703 8 125149983.615 8     -1270.258          49.000    23815250.977 8  95894167.067 8      -973.287          51.000
E21  23906430.008 8 125629118.107 8     -1297.180          51.000    23906433.609 8  96261302.702 8      -993.907          51.000
E26  22943287.125 8 120567898.235 8      1612.480          51.000    22943290.734 8  92383151.847 8      1235.588          51.000
E27  27497081.742 6 144498120.411 6     -2822.055          41.000    27497085.820 7 110719305.694 7     -2162.228          43.000
> 2020 05 05 13 01 30.0000000  0 18        .000000000000
G18  20831842.195 8 109472145.548 8      1786.703          49.000    20831843.758 8  85302981.434 8      1392.236          49.000
G21  20969128.461 7 110193538.009 7      1328.898          47.000    20969129.141 7  85865072.639 7      1035.505          47.000
G25  22774582.312 7 119681243.584 7     -2992.781          43.000    22774585.930 7  93258075.130 7     -2332.040          43.000
G29  21039371.070 8 110562646.640 8     -1803.809          51.000    21039369.953 8  86152706.275 8     -1405.565          51.000
G31  21424057.914 8 112584186.092 8     -1368.844          51.000    21424056.062 8  87727946.414 8     -1066.635          51.000
R12  20182361.812 7 107810567.602 7     -2758.391          47.000    20182368.266 7  83852664.051 7     -2145.415          47.000
R22  20182332.750 6 107734656.347 6     -2626.000          38.000    20182333.555 4  83793637.357 4     -2042.444          26.000
R23  19832044.422 8 106088132.442 8      1923.430          51.000    19832048.789 6  82512946.929 6      1496.004          40.000
R24  22845871.852 5 122167098.363 5      3728.812          33.000
C05  39627638.422 6 206351511.405 6        19.875          36.000    39627637.867 6 159564074.723 6        15.202          37.000
C11  21961952.852 8 114361747.382 8       860.281          50.000    21961951.609 8  88431759.622 8       665.251          51.000
C12  22627884.789 8 117829331.678 8     -1978.945          51.000    22627884.320 8  91113111.486 8     -1530.255          51.000
C24  25245782.094 5 131461369.099 5     -3334.953          33.000
C25  22207225.969 8 115638867.694 8     -1162.766          51.000
E13  23822524.398 8 125188217.667 8     -1280.180          50.000    23822526.578 8  95923463.291 8      -980.857          51.000
E21  23913859.547 8 125668163.156 8     -1307.344          50.000    23913863.281 8  96291220.345 8     -1001.656          51.000
E26  22934106.805 8 120519659.381 8      1601.953          51.000    22934109.992 8  92346189.630 8      1227.527          51.000
E27  27513196.406 6 144582810.911 6     -2825.305          41.000    27513200.656 7 110784198.315 7     -2164.832          42.000
> 2020 05 05 13 02  0.0000000  0 18        .000000000000
G18  20821694.297 8 109418815.290 8      1769.203          51.000    20821695.758 8  85261425.401 8      1378.600          50.000
G21  20961589.633 8 110153921.970 8      1312.527          49.000    20961590.641 8  85834203.034 8      1022.749          49.000
G25  22791690.188 6 119771145.174 6     -3000.332          41.000    22791694.352 6  93328128.269 6     -2337.921          41.000
G29  21049695.359 8 110616900.761 8     -1812.559          51.000    21049694.422 8  86194982.213 8     -1412.380          51.000
G31  21431925.141 8 112625527.241 8     -1386.645          51.000    21431923.852 8  87760160.292 8     -1080.502          51.000
R12  20197907.195 7 107893614.809 7     -2777.516          47.000    20197914.680 7  83917256.317 7     -2160.290          47.000
R22  20197130.688 6 107813647.144 6     -2639.305          38.000    20197124.578 4  83855044.616 4     -2052.793          26.000
R23  19821311.469 8 106030717.740 8      1904.777          51.000    19821315.648 6  82468291.104 6      1481.497          41.000
R24  22824984.945 6 122055376.317 6      3720.238          37.000
C05  39627526.867 5 206350935.275 5        18.789          35.000    39627527.641 6 159563634.437 6        14.916          38.000
C11  21957030.742 8 114336118.306 8       848.898          49.000    21957029.844 8  88411941.613 8       656.371          51.000
C12  22639307.977 8 117888814.923 8     -1986.016          51.000    22639307.555 8  91159107.698 8     -1535.777          51.000
C24  25265008.570 5 131561489.869 5     -3339.258          31.000
C25  22213971.172 8 115673992.558 8     -1178.348          51.000
E13  23829863.953 8 125226786.094 8     -1290.543          50.000    23829865.828 8  95953015.722 8      -988.852          51.000
E21  23921353.539 8 125707546.886 8     -1317.828          51.000    23921357.336 8  96321397.510 8     -1009.746          51.000
E26  22924993.977 8 120471773.837 8      1590.918          51.000    22924997.094 8  92309498.147 8      1218.973          51.000
E27  27529337.305 6 144667634.974 6     -2828.918          40.000    27529342.047 7 110849193.249 7     -2167.717          43.000
> 2020 05 05 13 02 30.0000000  0 18        .000000000000
G18  20811656.375 8 109366063.084 8      1749.762          51.000    20811657.992 8  85220319.789 8      1363.451          50.000
G21  20954155.422 8 110114853.388 8      1294.152          50.000    20954156.414 8  85803759.979 8      1008.430          50.000
G25  22808851.047 7 119861325.200 7     -3009.562          43.000    22808855.211 7  93398398.433 7     -2345.111          43.000
G29  21060079.672 8 110671470.784 8     -1823.242          51.000    21060078.883 8  86237504.309 8     -1420.708          51.000
G31  21439903.523 8 112667452.050 8     -1406.234          51.000    21439902.086 8  87792828.958 8     -1095.767          51.000
R12  20213570.562 8 107977286.500 8     -2798.309          49.000    20213577.703 7  83982334.286 7     -2176.462          46.000
R22  20212010.664 5 107893082.320 5     -2652.984          30.000    20212008.992 5  83916832.139 5     -2063.420          30.000
R23  19810693.484 8 105973920.156 8      1884.062          51.000    19810698.422 7  82424115.257 7      1465.382          42.000
R24  22804128.266 6 121943928.620 6      3709.164          40.000    22804135.375 5  94845292.235 5      2884.908          30.000
C05  39627427.383 6 206350412.019 6        17.984          36.000    39627427.055 6 159563225.597 6        13.680          37.000
C11  21952184.344 8 114310882.766 8       835.719          51.000    21952183.781 8  88392427.908 8       646.176          51.000
C12  22650781.594 8 117948560.982 8     -1994.859          51.000    22650781.117 8  91205307.131 8     -1542.540          51.000
C24  25284270.273 5 131661794.614 5     -3345.180          30.000
C25  22220816.125 8 115709636.422 8     -1195.695          51.000
E13  23837272.102 8 125265715.702 8     -1302.629          49.000    23837273.672 8  95982844.899 8      -998.139          51.000
E21  23928917.773 8 125747297.406 8     -1330.086          51.000    23928920.984 8  96351855.721 8     -1019.148          51.000
E26  22915954.266 8 120424270.177 8      1578.184          51.000    22915957.516 8  92273099.270 8      1209.237          51.000
E27  27545509.062 6 144752619.977 6     -2834.520          39.000    27545515.547 7 110914311.478 7     -2171.914          43.000
> 2020 05 05 13 03  0.0000000  0 18        .000000000000
G18  20801708.516 8 109313784.931 8      1734.414          51.000    20801710.289 8  85179583.585 8      1351.491          51.000
G21  20946805.477 8 110076227.892 8      1279.859          50.000    20946806.383 8  85773662.182 8       997.293          50.000
G25  22826044.719 7 119951677.291 7     -3014.906          42.000    22826048.820 7  93468802.676 7     -2349.278          42.000
G29  21070503.805 8 110726250.033 8     -1829.699          51.000    21070503.078 8  86280189.420 8     -1425.740          51.000
G31  21447972.492 8 112709853.712 8     -1421.559          51.000    21447970.797 8  87825869.177 8     -1107.711          51.000
R12  20229331.258 8 108061473.166 8     -2815.113          51.000    20229337.047 7  84047812.749 7     -2189.536          46.000
R22  20226954.438 6 107972852.108 6     -2664.742          39.000    20226956.805 5  83978875.321 5     -2072.577          33.000
R23  19800170.773 8 105917632.981 8      1867.453          51.000    19800176.422 7  82380336.370 7      1452.467          42.000
R24  22783334.625 7 121832731.924 7      3702.750          42.000    22783348.086 5  94758806.013 5      2879.920          32.000
C05  39627317.477 6 206349839.294 6        20.168          36.000    39627317.266 6 159562783.506 6        15.151          38.000
C11  21947393.656 8 114285936.084 8       826.426          51.000    21947393.227 8  88373137.533 8       639.054          51.000
C12  22662285.211 8 118008463.910 8     -1999.664          50.000    22662284.602 8  91251627.861 8     -1546.291          51.000
C24  25303547.672 4 131762212.944 4     -3348.035          29.000
C25  22227740.766 8 115745694.144 8     -1209.051          51.000
E13  23844728.547 8 125304899.731 8     -1310.688          50.000    23844730.211 8  96012869.028 8     -1004.320          51.000
E21  23936531.961 8 125787309.310 8     -1338.457          51.000    23936534.172 8  96382514.181 8     -1025.550          51.000
E26  22906967.617 8 120377043.404 8      1569.305          51.000    22906970.898 8  92236912.547 8      1202.382          51.000
E27  27561691.547 6 144837659.612 6     -2835.855          40.000    27561700.320 7 110979471.564 7     -2172.994          44.000
> 2020 05 05 13 03 30.0000000  0 17        .000000000000
G18  20791861.508 8 109262037.106 8      1715.445          51.000    20791863.078 8  85139260.620 8      1336.711          51.000
G21  20939550.344 8 110038100.588 8      1261.797          50.000    20939550.812 8  85743952.584 8       983.218          50.000
G25  22843281.195 6 120042255.371 6     -3023.586          39.000    22843284.820 6  93539382.996 6     -2356.041          39.000
G29  21080977.922 8 110781291.795 8     -1839.785          51.000    21080977.094 8  86323079.089 8     -1433.599          51.000
G31  21456142.219 8 112752785.551 8     -1440.598          51.000    21456140.406 8  87859322.519 8     -1122.544          51.000
R12  20245198.664 8 108146228.402 8     -2835.375          51.000    20245203.414 7  84113733.451 7     -2205.295          46.000
R22  20241970.820 5 108053008.664 5     -2679.117          35.000    20241972.203 5  84041219.323 5     -2083.752          35.000
R23  19789754.273 8 105861912.616 8      1847.211          51.000    19789760.234 7  82336998.330 7      1436.720          42.000
R24  22762589.648 7 121721802.781 7      3692.262          43.000    22762600.359 5  94672527.805 5      2871.759          35.000
C05  39627208.289 5 206349277.459 5        17.926          35.000    39627208.859 6 159562349.158 6        14.148          38.000
C11  21942668.688 8 114261332.204 8       813.715          50.000    21942668.641 8  88354112.247 8       629.249          51.000
C12  22673829.195 8 118068576.720 8     -2008.035          50.000    22673828.438 8  91298110.894 8     -1552.592          50.000
C25  22234755.328 8 115782219.517 8     -1225.992          51.000
E13  23852243.727 8 125344391.769 8     -1322.223          50.000    23852245.578 8  96043129.145 8     -1013.072          51.000
E21  23944206.211 8 125827637.369 8     -1350.211          51.000    23944207.281 8  96413414.867 8     -1034.526          51.000
E26  22898044.344 8 120330148.786 8      1556.957          51.000    22898047.414 8  92200980.310 8      1193.008          51.000
E27  27577894.953 6 144922807.983 6     -2840.926          39.000    27577905.719 7 111044715.002 7     -2176.750          45.000
> 2020 05 05 13 04  0.0000000  0 18        .000000000000
G18  20782117.695 8 109210831.563 8      1698.270          51.000    20782118.773 8  85099360.235 8      1323.327          50.000
G21  20932392.367 8 110000483.035 8      1245.824          50.000    20932392.078 8  85714640.223 8       970.775          49.000
G25  22860561.531 5 120133068.986 5     -3030.195          34.000    22860565.156 5  93610146.704 5     -2361.197          35.000
G29  21091503.844 8 110836605.598 8     -1847.836          51.000    21091502.734 8  86366180.740 8     -1439.872          51.000
G31  21464414.219 8 112796256.631 8     -1457.539          50.000    21464412.844 8  87893196.046 8     -1135.745          50.000
R12  20261173.922 8 108231560.738 8     -2853.594          51.000    20261178.047 7  84180103.019 7     -2219.462          46.000
R22  20257059.742 6 108133559.066 6     -2691.473          37.000    20257060.648 5  84103869.648 5     -2093.374          35.000
R23  19779446.203 8 105806770.249 8      1828.984          51.000    19779452.086 7  82294109.824 7      1422.543          42.000
R24  22741897.383 7 121611153.839 7      3684.117          44.000    22741905.336 6  94586467.555 6      2865.424          39.000
C05  39627102.672 6 206348720.986 6        18.199          36.000    39627102.219 6 159561917.716 6        14.462          38.000
C11  21938011.352 8 114237081.342 8       802.992          50.000    21938011.766 8  88335359.970 8       620.864          51.000
C12  22685415.266 8 118128908.332 8     -2014.309          49.000    22685414.469 8  91344763.111 8     -1557.600          50.000
C24  25342177.750 4 131963369.471 4     -3355.379          27.000
C25  22241861.594 8 115819222.217 8     -1240.969          51.000
E13  23859819.336 8 125384200.977 8     -1331.816          49.000    23859821.070 8  96073632.307 8     -1020.474          51.000
E21  23951942.688 8 125868292.055 8     -1360.191          51.000    23951942.617 8  96444565.823 8     -1042.258          50.000
E26  22889186.391 8 120283597.232 8      1546.457          51.000    22889189.266 8  92165310.935 8      1184.966          51.000
E27  27594119.836 6 145008074.777 6     -2843.535          36.000    27594133.078 7 111110049.198 7     -2178.968          46.000
> 2020 05 05 13 04 30.0000000  0 17        .000000000000
G18  20772473.219 8 109160148.558 8      1680.277          51.000    20772473.727 8  85059867.000 8      1309.307          50.000
G21  20925327.398 8 109963354.726 8      1228.934          51.000    20925326.359 8  85685709.094 8       957.611          48.000
G25  22877882.297 5 120224095.869 5     -3038.312          33.000    22877884.359 5  93681076.511 5     -2367.519          34.000
G29  21102077.320 8 110892169.087 8     -1856.699          51.000    21102076.133 8  86409476.949 8     -1446.779          51.000
G31  21472784.578 8 112840244.436 8     -1475.328          50.000    21472784.039 8  87927472.228 8     -1149.606          50.000
R12  20277252.336 8 108317446.497 8     -2872.547          51.000    20277255.711 7  84246903.033 7     -2234.206          46.000
R22  20272218.750 5 108214479.299 5     -2703.523          32.000    20272220.117 6  84166807.449 6     -2102.747          37.000
R23  19769242.016 8 105752185.021 8      1809.766          51.000    19769247.805 6  82251654.639 6      1407.595          41.000
R24  22721253.930 7 121500765.563 7      3674.816          44.000    22721261.219 6  94500610.070 6      2858.194          40.000
C05  39626994.672 5 206348159.344 5        18.012          35.000    39626995.047 6 159561491.898 6        14.148          38.000
C11  21933417.820 8 114213162.143 8       791.258          51.000    21933418.141 8  88316864.147 8       611.866          51.000
C12  22697039.117 8 118189436.460 8     -2021.332          49.000    22697038.438 8  91391567.297 8     -1563.034          51.000
C25  22249055.086 8 115856680.626 8     -1256.633          50.000
E13  23867450.820 8 125424304.834 8     -1342.254          50.000    23867452.516 8  96104361.240 8     -1028.462          51.000
E21  23959737.367 8 125909252.121 8     -1370.891          51.000    23959736.570 8  96475950.758 8     -1050.399          50.000
E26  22880389.508 8 120237367.959 8      1535.137          51.000    22880392.625 8  92129888.501 8      1176.262          51.000
E27                                                                  27610378.203 7 111175457.340 7     -2181.821          47.000
> 2020 05 05 13 05  0.0000000  0 16        .000000000000
G18  20762930.133 8 109109999.349 8      1663.312          51.000    20762930.438 8  85020789.732 8      1296.088          49.000
G21  20918357.469 8 109926726.233 8      1213.148          51.000    20918355.680 8  85657167.413 8       945.310          48.000
G25  22895246.000 6 120315344.864 6     -3044.703          38.000    22895249.961 6  93752179.646 6     -2372.496          38.000
G29  21112699.883 8 110947990.842 8     -1864.469          51.000    21112698.805 8  86452974.403 8     -1452.836          51.000
G31  21481255.023 8 112884757.555 8     -1491.891          51.000    21481255.281 8  87962157.754 8     -1162.512          51.000
R12  20293435.367 8 108403893.759 8     -2890.262          50.000    20293438.320 7  84314139.757 7     -2247.984          45.000
R23  19759144.117 8 105698167.397 8      1791.668          51.000    19759149.867 6  82209640.915 6      1393.520          40.000
R24  22700661.281 7 121390649.898 7      3666.672          43.000    22700668.227 6  94414964.616 6      2851.859          39.000
C05  39626889.281 6 206347612.063 6        19.023          36.000    39626889.234 6 159561066.470 6        14.450          37.000
C11  21928890.086 8 114189584.193 8       780.871          51.000    21928889.898 8  88298632.177 8       603.807          51.000
C12  22708702.430 8 118250169.344 8     -2027.293          49.000    22708701.766 8  91438529.813 8     -1567.604          50.000
C25  22256337.680 8 115894603.934 8     -1271.285          51.000
E13  23875140.039 8 125464712.002 8     -1351.336          51.000    23875141.859 8  96135322.563 8     -1035.451          51.000
E21  23967591.984 8 125950527.443 8     -1380.492          51.000    23967591.359 8  96507577.268 8     -1057.804          51.000
E26  22871655.656 8 120191471.295 8      1524.902          51.000    22871659.211 8  92094720.929 8      1168.492          51.000
E27                                                                  27626642.711 7 111240946.385 7     -2183.775          46.000
> 2020 05 05 13 05 30.0000000  0 17        .000000000000
G18  20753488.594 8 109060383.808 8      1645.426          51.000    20753488.641 8  84982128.304 8      1282.150          49.000
G21  20911482.031 8 109890596.120 8      1196.504          50.000    20911480.328 8  85629014.094 8       932.341          48.000
G25  22912652.984 6 120406813.644 6     -3052.039          39.000    22912656.742 6  93823454.072 6     -2378.209          39.000
G29  21123370.875 8 111004067.675 8     -1873.059          51.000    21123370.047 8  86496670.626 8     -1459.526          51.000
G31  21489824.867 8 112929792.275 8     -1509.406          51.000    21489825.500 8  87997249.733 8     -1176.161          51.000
R12  20309722.828 8 108490898.442 8     -2908.883          51.000    20309725.695 7  84381810.011 7     -2262.467          43.000
R22  20302747.461 5 108377427.025 5     -2728.281          30.000    20302753.156 6  84293583.219 6     -2121.997          36.000
R23  19749152.367 8 105644716.235 8      1772.738          51.000    19749157.680 6  82168067.793 6      1378.799          40.000
R24  22680119.312 7 121280806.825 7      3657.551          42.000    22680125.477 6  94329531.228 6      2844.765          37.000
C05  39626783.375 6 206347060.017 6        19.238          36.000    39626783.789 6 159560641.166 6        14.393          38.000
C11  21924427.195 8 114166345.586 8       769.535          50.000    21924427.305 8  88280662.622 8       595.005          51.000
C12  22720404.469 8 118311104.324 8     -2033.902          48.000    22720403.758 8  91485648.596 8     -1572.766          50.000
C25  22263709.477 8 115932989.904 8     -1286.750          51.000
E13  23882886.398 8 125505419.596 8     -1361.332          51.000    23882888.273 8  96166514.090 8     -1043.131          50.000
E21  23975506.312 8 125992116.404 8     -1391.016          51.000    23975506.281 8  96539444.111 8     -1065.861          51.000
E26  22862984.734 8 120145906.083 8      1513.801          51.000    22862988.672 8  92059807.337 8      1159.958          51.000
E27                                                                  27642926.570 7 111306514.607 7     -2186.490          46.000
> 2020 05 05 13 06  0.0000000  0 17        .000000000000
G18  20744144.320 8 109011279.628 8      1627.367          51.000    20744144.062 8  84943865.304 8      1268.078          49.000
G21  20904696.562 8 109854941.086 8      1179.660          50.000    20904695.414 8  85601230.971 8       919.216          48.000
G25  22930096.828 6 120498477.631 6     -3059.133          38.000    22930100.953 6  93894880.569 6     -2383.740          39.000
G29  21134085.672 8 111060374.803 8     -1881.727          51.000    21134085.164 8  86540546.296 8     -1466.280          51.000
G31  21498489.297 8 112975323.668 8     -1527.055          51.000    21498489.711 8  88032728.747 8     -1189.910          51.000
R12  20326110.180 8 108578434.445 8     -2927.699          51.000    20326112.656 7  84449893.461 7     -2277.102          43.000
R23  19739261.992 8 105591807.953 8      1753.527          51.000    19739267.117 7  82126916.940 7      1363.855          42.000
R24  22659624.062 6 121171214.479 6      3648.082          40.000    22659628.773 6  94244292.824 6      2837.400          36.000
C05  39626673.688 5 206346488.464 5        18.266          35.000    39626674.180 6 159560199.950 6        14.133          38.000
C11  21920024.914 8 114143422.699 8       757.859          51.000    21920025.414 8  88262937.207 8       585.977          51.000
C12  22732140.469 8 118372216.425 8     -2040.969          48.000    22732139.617 8  91532904.351 8     -1578.264          49.000
C24  25419735.266 5 132367219.723 5     -3372.773          31.000
C25  22271165.320 8 115971814.419 8     -1302.449          50.000
E13  23890685.078 8 125546402.629 8     -1371.680          51.000    23890686.812 8  96197916.682 8     -1051.003          49.000
E21  23983475.719 8 126033995.278 8     -1401.684          51.000    23983476.602 8  96571533.124 8     -1074.050          51.000
E26  22854372.164 8 120100649.017 8      1502.598          51.000    22854376.594 8  92025129.878 8      1151.269          51.000
E27                                                                  27659225.430 7 111372143.179 7     -2189.417          47.000
> 2020 05 05 13 06 30.0000000  0 18        .000000000000
G18  20734906.742 8 108962737.357 8      1609.547          51.000    20734906.750 8  84906040.168 8      1254.195          49.000
G21  20898011.438 8 109819811.444 8      1163.055          51.000    20898010.297 7  85573857.241 7       906.276          47.000
G25  22947587.031 6 120590384.899 6     -3066.848          38.000    22947591.688 6  93966496.650 6     -2389.754          38.000
G29  21144853.469 8 111116960.278 8     -1889.926          51.000    21144853.156 8  86584638.860 8     -1472.669          51.000
G31  21507257.344 8 113021399.370 8     -1544.074          51.000    21507257.398 8  88068631.873 8     -1203.175          51.000
R12  20342606.273 8 108666549.493 8     -2945.945          51.000    20342608.352 7  84518427.325 7     -2291.294          45.000
R22  20333546.266 4 108541854.116 4     -2752.246          28.000    20333551.695 5  84421449.767 5     -2140.636          35.000
R23  19729482.492 8 105539492.982 8      1734.715          51.000    19729487.594 7  82086227.520 7      1349.223          42.000
R24  22639183.461 5 121061924.650 5      3639.227          35.000    22639189.211 6  94159289.628 6      2830.507          37.000
C05  39626569.617 6 206345946.112 6        18.582          36.000    39626570.148 6 159559775.576 6        14.088          38.000
C11  21915692.742 8 114120863.793 8       746.727          51.000    21915693.008 8  88245493.228 8       577.413          51.000
C12  22743919.594 8 118433552.970 8     -2047.383          48.000    22743918.602 8  91580333.631 8     -1583.160          49.000
C24  25439180.219 5 132468471.658 5     -3376.840          32.000
C25  22278714.039 8 116011125.520 8     -1317.648          50.000
E13  23898545.289 8 125587709.017 8     -1381.379          51.000    23898546.859 8  96229567.029 8     -1058.405          49.000
E21  23991509.617 8 126076213.230 8     -1412.047          51.000    23991511.531 8  96603881.948 8     -1081.961          51.000
E26  22845827.641 8 120055749.766 8      1491.516          51.000    22845832.297 8  91990726.564 8      1142.853          51.000
E27  27675543.508 6 145435964.070 6     -2860.434          38.000    27675548.625 8 111437869.252 8     -2191.821          48.000
> 2020 05 05 13 07  0.0000000  0 18        .000000000000
G18  20725771.602 8 108914733.093 8      1591.234          51.000    20725771.891 8  84868634.274 8      1239.926          50.000
G21  20891421.797 8 109785182.097 8      1146.012          51.000    20891420.266 7  85546873.345 7       892.996          47.000
G25  22965118.133 6 120682509.345 6     -3074.430          38.000    22965122.945 6  94038281.901 6     -2395.663          38.000
G29  21155669.320 8 111173797.756 8     -1898.727          51.000    21155669.000 8  86628927.792 8     -1479.527          51.000
G31  21516123.977 8 113067992.524 8     -1561.641          51.000    21516123.680 8  88104938.221 8     -1216.863          51.000
R12  20359205.414 8 108755215.766 8     -2964.582          51.000    20359207.398 8  84587389.939 8     -2305.786          48.000
R22  20349053.172 5 108624614.642 5     -2764.766          34.000    20349063.391 6  84485822.248 6     -2150.373          36.000
R23  19719809.070 8 105487746.262 8      1715.520          51.000    19719814.172 7  82045980.103 7      1334.293          42.000
R24  22618795.078 6 120952913.766 6      3629.227          36.000    22618803.148 6  94074503.352 6      2822.732          40.000
C05  39626466.195 5 206345408.155 5        18.242          35.000    39626466.719 6 159559358.797 6        13.889          38.000
C11  21911425.617 8 114098643.695 8       735.125          51.000    21911425.492 8  88228311.242 8       568.373          51.000
C12  22755736.773 7 118495087.740 7     -2054.398          47.000    22755735.781 8  91627916.204 8     -1588.630          49.000
C24  25458643.570 5 132569839.745 5     -3380.449          34.000
C25  22286351.414 8 116050897.528 8     -1333.262          50.000
E13  23906462.055 8 125629312.286 8     -1391.570          51.000    23906463.398 8  96261444.849 8     -1066.289          48.000
E21  23999603.266 8 126118745.013 8     -1422.844          51.000    23999605.906 8  96636471.244 8     -1090.261          51.000
E26  22837346.750 8 120011183.537 8      1479.980          51.000    22837351.125 8  91956578.414 8      1134.083          51.000
E27  27691883.773 7 145521843.560 7     -2864.328          43.000    27691890.859 8 111503672.873 8     -2194.670          48.000
> 2020 05 05 13 07 30.0000000  0 18        .000000000000
G18  20716736.703 8 108867254.381 8      1573.551          51.000    20716736.930 8  84831637.895 8      1226.143          50.000
G21  20884924.797 8 109751039.993 8      1129.594          51.000    20884922.930 7  85520269.146 7       880.206          46.000
G25  22982687.227 6 120774836.203 6     -3081.227          39.000    22982692.328 6  94110224.765 6     -2400.962          39.000
G29  21166530.195 8 111230871.942 8     -1906.621          51.000    21166529.836 8  86673401.172 8     -1485.679          51.000
G31  21525086.219 8 113115087.951 8     -1578.527          51.000    21525085.984 8  88141635.956 8     -1230.021          51.000
R12  20375904.070 8 108844416.852 8     -2982.480          51.000    20375906.398 8  84656768.539 8     -2319.710          48.000
R22  20364624.156 5 108707724.228 5     -2776.992          34.000    20364631.469 5  84550462.971 5     -2159.889          30.000
R23  19710238.906 8 105436554.074 8      1696.895          51.000    19710244.250 6  82006164.004 6      1319.810          41.000
R24  22598461.750 6 120844169.398 6      3620.062          38.000    22598468.102 6  93989924.414 6      2815.604          40.000
C05  39626360.867 6 206344858.977 6        18.570          36.000    39626361.250 6 159558934.139 6        13.864          37.000
C11  21907220.656 8 114076748.433 8       724.176          50.000    21907220.414 8  88211380.459 8       559.994          51.000
C12  22767589.070 7 118556805.615 7     -2060.664          46.000    22767588.234 8  91675640.366 8     -1593.358          49.000
C24  25478127.742 5 132671308.628 5     -3384.598          35.000
C25  22294074.781 8 116091116.038 8     -1348.348          50.000
E13  23914432.367 8 125671197.272 8     -1401.156          50.000    23914433.680 8  96293538.551 8     -1073.607          48.000
E21  24007753.930 8 126161576.767 8     -1432.992          51.000    24007756.992 8  96669290.369 8     -1098.007          51.000
E26  22828926.945 8 119966936.854 8      1469.273          51.000    22828930.828 8  91922675.120 8      1125.792          51.000
E27  27708241.836 7 145607809.623 7     -2867.180          45.000    27708249.305 7 111569542.839 7     -2196.978          46.000
> 2020 05 05 13 08  0.0000000  0 18        .000000000000
G18  20707804.039 8 108820313.094 8      1555.660          51.000    20707804.297 8  84795060.299 8      1212.206          50.000
G21  20878522.742 8 109717396.340 8      1113.035          51.000    20878520.602 7  85494053.364 7       867.303          46.000
G25  23000297.492 6 120867375.060 6     -3088.285          39.000    23000300.641 6  94182332.805 6     -2406.459          39.000
G29  21177437.906 8 111288192.447 8     -1914.863          51.000    21177437.523 8  86718066.488 8     -1492.101          51.000
G31  21534145.641 8 113162694.770 8     -1595.535          51.000    21534145.781 8  88178732.169 8     -1243.274          51.000
R12  20392703.734 8 108934161.414 8     -3000.547          49.000    20392707.164 8  84726569.863 8     -2333.759          49.000
R22  20380257.383 5 108791185.853 5     -2787.926          35.000    20380258.336 5  84615377.495 5     -2168.387          33.000
R23  19700774.547 8 105385927.703 8      1678.004          51.000    19700780.047 7  81966787.946 7      1305.114          42.000
R24  22578181.328 6 120735704.147 6      3610.957          39.000    22578185.047 6  93905562.633 6      2808.528          40.000
C05  39626255.477 6 206344310.218 6        18.133          36.000    39626255.828 6 159558509.769 6        14.015          37.000
C11  21903080.117 8 114055188.139 8       712.914          50.000    21903079.766 8  88194708.686 8       551.331          51.000
C12  22779478.141 7 118618715.846 7     -2067.129          46.000    22779477.617 8  91723513.300 8     -1598.381          48.000
C24  25497633.938 6 132772886.958 6     -3387.895          36.000
C25  22301886.266 8 116131790.814 8     -1363.484          51.000
E13  23922458.320 8 125713373.319 8     -1410.812          51.000    23922459.672 8  96325855.273 8     -1081.003          48.000
E21  24015963.742 8 126204719.002 8     -1443.352          51.000    24015966.773 8  96702347.402 8     -1105.966          51.000
E26  22820570.141 8 119923020.705 8      1458.219          51.000    22820573.625 8  91889025.087 8      1117.327          51.000
E27  27724618.477 7 145693872.307 7     -2870.328          46.000    27724625.758 7 111635486.841 7     -2199.552          44.000
> 2020 05 05 13 08 30.0000000  0 18        .000000000000
G18  20698975.773 8 108773919.899 8      1537.367          51.000    20698975.883 8  84758909.781 8      1197.948          50.000
G21  20872217.398 8 109684260.495 8      1096.098          51.000    20872214.992 7  85468233.254 7       854.105          47.000
G25  23017949.797 5 120960134.101 5     -3095.523          35.000    23017950.203 5  94254612.503 5     -2412.099          34.000
G29  21188393.953 8 111345767.183 8     -1923.242          51.000    21188393.508 8  86762929.907 8     -1498.630          51.000
G31  21543303.531 8 113210820.431 8     -1612.637          51.000    21543303.953 8  88216232.668 8     -1256.603          51.000
R12  20409605.672 7 109024456.506 7     -3018.910          47.000    20409610.914 8  84796799.422 8     -2348.041          49.000
R22  20395959.945 5 108875006.513 5     -2799.965          34.000    20395962.781 5  84680571.292 5     -2177.750          35.000
R23  19691418.172 8 105335876.604 8      1658.844          51.000    19691423.461 6  81927859.327 6      1290.212          41.000
R24  22557953.672 6 120627529.499 6      3600.891          41.000    22557955.477 6  93821426.879 6      2800.696          39.000
C05  39626151.898 5 206343771.084 5        17.586          35.000    39626152.250 6 159558092.866 6        14.079          37.000
C11  21899005.883 8 114033971.794 8       701.547          51.000    21899005.242 8  88178302.862 8       542.517          51.000
C12  22791405.617 7 118680826.287 7     -2073.625          45.000    22791405.492 8  91771541.025 8     -1603.455          48.000
C24  25517162.609 5 132874582.283 5     -3391.555          34.000
C25  22309787.398 8 116172930.310 8     -1378.949          51.000
E13  23930541.312 8 125755848.432 8     -1420.668          51.000    23930542.336 8  96358401.124 8     -1088.540          48.000
E21  24024234.414 8 126248180.958 8     -1453.949          51.000    24024237.570 8  96735649.396 8     -1114.065          51.000
E26  22812278.117 8 119879444.732 8      1446.992          51.000    22812281.281 8  91855635.702 8      1108.743          51.000
E27  27741015.055 7 145780039.937 7     -2873.859          46.000    27741021.508 7 111701511.236 7     -2202.021          42.000
> 2020 05 05 13 09  0.0000000  0 17        .000000000000
G18  20690251.406 8 108728072.857 8      1519.086          51.000    20690251.547 8  84723184.830 8      1183.706          50.000
G21  20866008.023 8 109651630.086 8      1079.242          51.000    20866005.664 7  85442806.991 7       840.968          47.000
G29  21199397.602 8 111403592.015 8     -1931.613          51.000    21199397.102 8  86807988.216 8     -1505.153          51.000
G31  21552559.219 8 113259460.305 8     -1629.879          51.000    21552559.422 8  88254133.839 8     -1270.036          51.000
R12  20426610.758 8 109115296.639 8     -3037.051          49.000    20426616.508 8  84867452.875 8     -2362.151          48.000
R22  20411728.625 4 108959191.347 4     -2811.672          28.000    20411732.414 5  84746053.105 5     -2186.865          35.000
R23  19682168.539 8 105286398.402 8      1639.730          51.000    19682173.602 6  81889376.316 6      1275.346          40.000
R24  22537778.492 6 120519643.997 6      3591.344          40.000    22537779.367 6  93737515.992 6      2793.267          38.000
C05  39626049.562 5 206343238.621 5        17.535          35.000    39626049.984 6 159557681.144 6        13.529          38.000
C11  21894996.984 8 114013095.922 8       690.203          50.000    21894996.336 8  88162160.325 8       533.724          51.000
C12  22803370.719 7 118743132.456 7     -2080.234          45.000    22803370.766 7  91819720.103 7     -1608.433          47.000
C24  25536712.211 5 132976389.870 5     -3395.410          32.000
C25  22317777.102 8 116214530.634 8     -1394.312          51.000
E13  23938680.109 8 125798618.152 8     -1430.512          50.000    23938680.656 8  96391172.734 8     -1096.100          48.000
E21  24032565.219 8 126291959.368 8     -1464.523          51.000    24032568.359 8  96769193.855 8     -1122.185          51.000
E26  22804050.398 8 119836206.164 8      1435.664          51.000    22804053.414 8  91822504.865 8      1100.099          51.000
E27  27757430.719 7 145866308.567 7     -2877.316          45.000    27757435.969 6 111767613.035 6     -2204.745          40.000
> 2020 05 05 13 09 30.0000000  0 16        .000000000000
G18  20681627.719 8 108682755.969 8      1501.035          50.000    20681627.977 8  84687872.977 8      1169.638          50.000
G21  20859891.383 8 109619488.193 8      1062.684          51.000    20859889.359 7  85417761.402 7       828.065          47.000
G25  23053369.438 6 121146247.407 6     -3109.785          36.000    23053372.758 6  94399700.206 6     -2423.212          36.000
G29  21210445.383 8 111461648.467 8     -1939.703          51.000    21210444.859 8  86853226.989 8     -1511.457          51.000
G31  21561909.156 8 113308595.487 8     -1646.668          51.000    21561908.656 8  88292420.960 8     -1283.121          51.000
R12  20443715.070 8 109206662.042 8     -3054.926          51.000    20443720.336 8  84938514.818 8     -2376.053          48.000
R23  19673022.977 8 105237475.744 8      1620.805          51.000    19673027.125 6  81851325.346 6      1260.626          39.000
R24  22517653.711 6 120412031.852 6      3581.758          40.000    22517654.789 6  93653817.704 6      2785.815          39.000
C05  39625945.305 6 206342695.718 6        17.922          36.000    39625945.625 6 159557261.313 6        14.127          38.000
C11  21891050.297 8 113992543.023 8       679.074          51.000    21891049.758 8  88146267.510 8       525.191          51.000
C12  22815370.141 7 118805615.987 7     -2086.367          46.000    22815369.898 7  91868036.313 7     -1613.242          46.000
C24  25556279.844 5 133078290.796 5     -3398.953          33.000
C25  22325851.750 8 116256573.933 8     -1409.457          51.000
E13  23946871.367 8 125841663.877 8     -1440.051          50.000    23946871.977 8  96424155.810 8     -1103.311          48.000
E21  24040952.867 8 126336036.886 8     -1474.816          51.000    24040955.406 8  96802967.493 8     -1130.000          51.000
E26  22795883.719 8 119793288.071 8      1424.719          51.000    22795886.602 8  91789619.590 8      1091.677          51.000
> 2020 05 05 13 10  0.0000000  0 17        .000000000000
G18  20673108.352 8 108637987.868 8      1483.328          49.000    20673108.656 8  84652988.750 8      1155.840          49.000
G21  20853871.234 8 109587852.762 8      1046.297          50.000    20853869.172 8  85393110.426 8       815.296          48.000
G25  23071144.312 6 121239634.873 6     -3116.129          40.000    23071140.234 6  94472469.600 6     -2428.152          40.000
G29  21221540.297 8 111519952.482 8     -1947.344          51.000    21221539.797 8  86898658.685 8     -1517.411          51.000
G31  21571356.289 8 113358241.439 8     -1663.125          51.000    21571355.148 8  88331106.073 8     -1295.945          51.000
R12  20460920.570 8 109298567.847 8     -3072.309          51.000    20460925.289 7  85009997.066 7     -2389.573          47.000
R22  20443455.234 5 109128552.655 5     -2833.871          33.000    20443458.734 6  84877777.032 6     -2204.122          36.000
R23  19663983.922 8 105189126.559 8      1602.359          51.000    19663988.758 6  81813720.456 6      1246.283          40.000
R24  22497584.227 7 120304712.645 7      3572.590          43.000    22497586.055 6  93570347.282 6      2778.684          39.000
C05  39625842.383 6 206342159.807 6        17.812          36.000    39625842.734 6 159556846.894 6        14.018          38.000
C11  21887168.969 8 113972330.037 8       668.363          51.000    21887168.359 8  88130637.555 8       516.763          51.000
C12  22827406.820 7 118868292.659 7     -2092.109          46.000    22827405.945 7  91916501.880 7     -1617.818          44.000
C24  25575869.062 5 133180300.561 5     -3401.508          34.000
C25  22334014.625 8 116299076.651 8     -1424.258          51.000
E13  23955118.320 8 125885001.721 8     -1449.320          50.000    23955119.227 8  96457362.725 8     -1110.416          49.000
E21  24049400.508 8 126380430.820 8     -1484.863          51.000    24049402.070 8  96836983.569 8     -1137.770          50.000
E26  22787781.273 8 119750708.256 8      1413.871          51.000    22787783.922 8  91756993.510 8      1083.332          51.000
> 2020 05 05 13 10 30.0000000  0 17        .000000000000
G18  20664691.258 7 108593758.723 7      1465.156          47.000    20664692.102 7  84618524.482 7      1141.683          47.000
G21  20847945.141 8 109556713.089 8      1029.590          48.000    20847943.414 7  85368845.756 7       802.281          47.000
G25  23088954.055 6 121333224.645 6     -3123.082          36.000    23088951.547 6  94545396.628 6     -2433.573          37.000
G29  21232680.023 8 111578492.058 8     -1955.344          51.000    21232679.445 8  86944273.934 8     -1523.644          51.000
G31  21580898.422 8 113408385.901 8     -1679.938          51.000    21580897.062 8  88370179.676 8     -1309.042          51.000
R12  20478224.367 8 109391000.589 8     -3089.906          51.000    20478229.000 7  85081889.170 7     -2403.260          47.000
R22  20459411.586 5 109213735.450 5     -2845.250          35.000    20459423.250 6  84944030.289 6     -2212.975          38.000
R23  19655050.266 8 105141339.886 8      1583.402          51.000    19655055.758 6  81776553.050 6      1231.535          40.000
R24  22477568.008 7 120197676.954 7      3562.969          46.000    22477570.117 6  93487097.357 6      2771.201          38.000
C05  39625738.703 5 206341619.999 5        17.434          35.000    39625739.047 6 159556429.515 6        13.565          38.000
C11  21883350.633 8 113952445.688 8       657.184          51.000    21883349.586 8  88115261.719 8       508.197          51.000
C12  22839478.086 7 118931150.373 7     -2098.359          45.000    22839476.781 7  91965107.444 7     -1622.560          44.000
C24  25595477.141 5 133282406.637 5     -3405.613          35.000
C25  22342263.281 8 116342027.095 8     -1439.219          51.000
E13  23963418.367 8 125928619.349 8     -1458.719          49.000    23963419.383 8  96490784.029 8     -1117.654          49.000
E21  24057905.781 8 126425130.011 8     -1495.180          49.000    24057906.891 8  96871233.565 8     -1145.654          50.000
E26  22779740.727 8 119708455.988 8      1402.867          51.000    22779743.602 8  91724618.421 8      1074.849          51.000
> 2020 05 05 13 11  0.0000000  0 17        .000000000000
G18  20656379.492 7 108550083.597 7      1446.867          47.000    20656381.047 7  84584491.950 7      1127.429          47.000
G21  20842115.820 7 109526083.153 7      1012.781          47.000    20842115.016 7  85344978.293 7       789.183          47.000
G25  23106801.383 5 121427029.730 5     -3129.297          35.000    23106805.328 6  94618491.307 6     -2438.416          36.000
G29  21243867.000 8 111637279.832 8     -1963.500          51.000    21243866.180 8  86990082.583 8     -1530.000          51.000
G31  21590537.945 8 113459040.646 8     -1696.684          51.000    21590536.516 8  88409650.887 8     -1322.091          51.000
R12  20495628.281 8 109483971.985 8     -3107.629          50.000    20495633.359 7  85154200.206 7     -2417.048          46.000
R22  20475435.258 5 109299261.020 5     -2856.285          33.000    20475443.055 5  85010550.152 5     -2221.558          35.000
R23  19646224.812 8 105094130.219 8      1564.344          51.000    19646230.141 6  81739834.410 6      1216.712          39.000
R24  22457607.461 7 120090940.791 7      3553.137          46.000    22457608.219 5  93404080.368 5      2763.551          34.000
C05  39625637.055 6 206341090.127 6        17.875          36.000    39625637.312 6 159556019.802 6        13.580          38.000
C11  21879597.930 8 113932903.481 8       646.043          51.000    21879596.562 8  88100150.449 8       499.549          51.000
C12  22851586.312 7 118994201.480 7     -2104.617          45.000    22851584.898 7  92013862.550 7     -1627.357          44.000
C24  25615105.891 5 133384621.011 5     -3408.402          35.000
C25  22350599.828 8 116385438.191 8     -1454.387          51.000
E13  23971774.031 8 125972529.376 8     -1468.250          50.000    23971775.211 8  96524429.372 8     -1125.059          50.000
E21  24066471.484 8 126470148.219 8     -1505.660          49.000    24066473.734 8  96905728.032 8     -1153.679          51.000
E26  22771764.914 8 119666545.486 8      1391.570          51.000    22771768.453 8  91692505.197 8      1066.271          51.000
> 2020 05 05 13 11 30.0000000  0 16        .000000000000
G18  20648171.219 8 108506949.381 8      1428.559          49.000    20648172.844 8  84550880.866 8      1113.163          49.000
G21  20836381.375 8 109495949.479 8       995.992          48.000    20836380.875 8  85321497.508 8       776.098          48.000
G25  23124689.164 6 121521034.671 6     -3137.113          37.000    23124695.445 6  94691741.904 6     -2444.507          38.000
G29  21255098.211 8 111696300.349 8     -1971.391          50.000    21255097.320 8  87036072.596 8     -1536.149          50.000
G31  21600271.734 8 113510189.905 8     -1713.406          51.000    21600270.102 8  88449507.431 8     -1335.122          51.000
R12  20513130.188 8 109577465.157 8     -3125.340          50.000    20513134.969 7  85226917.050 7     -2430.823          45.000
R23  19637505.047 8 105047483.404 8      1545.258          51.000    19637510.062 6  81703553.576 6      1201.870          40.000
R24  22437700.320 7 119984491.327 7      3543.344          46.000    22437696.492 4  93321286.436 4      2755.937          29.000
C05  39625534.523 6 206340556.273 6        17.613          36.000    39625534.766 6 159555606.959 6        13.843          37.000
C11  21875907.922 8 113913688.815 8       634.812          51.000    21875906.961 8  88085292.454 8       490.850          51.000
C12  22863728.789 7 119057430.657 7     -2110.809          44.000    22863727.555 7  92062755.360 7     -1632.287          44.000
C24  25634752.906 6 133486927.729 6     -3411.352          36.000
C25  22359021.438 8 116429294.942 8     -1469.562          51.000
E13  23980182.609 8 126016716.221 8     -1477.715          50.000    23980184.172 8  96558286.805 8     -1132.269          50.000
E21  24075095.750 8 126515471.127 8     -1516.039          51.000    24075099.227 8  96940455.982 8     -1161.706          51.000
E26  22763851.742 8 119624962.804 8      1380.355          51.000    22763855.820 8  91660643.152 8      1057.708          51.000
> 2020 05 05 13 12  0.0000000  0 17        .000000000000
G18  20640066.281 8 108464356.675 8      1410.352          49.000    20640067.664 8  84517691.730 8      1098.975          49.000
G21  20830741.766 8 109466311.656 8       979.234          50.000    20830740.961 8  85298403.109 8       763.040          49.000
G25  23142615.680 6 121615238.012 6     -3143.555          40.000    23142621.484 6  94765147.055 6     -2449.526          41.000
G29  21266373.398 8 111755551.729 8     -1979.184          50.000    21266372.602 8  87082242.492 8     -1542.221          50.000
G31  21610099.039 8 113561831.267 8     -1729.867          50.000    21610097.156 8  88489747.441 8     -1347.948          51.000
R12  20530729.672 8 109671476.917 8     -3142.777          51.000    20530733.852 7  85300037.251 7     -2444.385          45.000
R22  20507658.430 5 109471272.371 5     -2877.594          31.000
R23  19628890.461 8 105001398.793 8      1526.398          51.000    19628895.680 7  81667710.035 7      1187.202          42.000
R24  22417847.578 8 119878329.759 8      3533.543          48.000    22417841.648 5  93238657.078 5      2748.311          31.000
C05  39625431.141 6 206340017.804 6        17.508          36.000    39625431.328 6 159555190.596 6        13.620          37.000
C11  21872280.289 8 113894800.754 8       623.867          50.000    21872280.094 8  88070687.011 8       482.371          51.000
C12  22875905.109 7 119120835.822 7     -2116.855          44.000    22875904.266 7  92111784.230 7     -1636.836          44.000
C24  25654418.398 6 133589324.599 6     -3414.945          37.000
C25  22367528.227 8 116473595.903 8     -1484.496          51.000
E13  23988643.562 8 126061177.962 8     -1486.949          50.000    23988645.430 8  96592354.891 8     -1139.360          50.000
E21  24083778.562 8 126561098.049 8     -1526.332          51.000    24083782.367 8  96975416.861 8     -1169.533          51.000
E26  22756001.078 8 119583707.652 8      1369.410          51.000    22756005.477 8  91629032.077 8      1049.276          51.000
> 2020 05 05 13 12 30.0000000  0 16        .000000000000
G18  20632066.609 8 108422317.833 8      1392.285          49.000    20632068.031 8  84484934.213 8      1084.898          49.000
G21  20825198.922 8 109437181.290 8       962.887          51.000    20825197.820 8  85275704.133 8       750.301          48.000
G25  23160582.469 7 121709649.933 7     -3149.965          43.000    23160586.852 7  94838714.812 7     -2454.518          43.000
G29  21277694.477 8 111815044.031 8     -1986.820          49.000    21277693.641 8  87128600.122 8     -1548.172          50.000
G31  21620021.375 8 113613974.364 8     -1746.203          49.000    21620019.398 8  88530378.434 8     -1360.678          50.000
R12  20548427.891 8 109766016.511 8     -3159.766          50.000    20548431.516 7  85373568.002 7     -2457.595          45.000
R23  19620383.016 8 104955888.002 8      1507.754          51.000    19620388.617 7  81632312.771 7      1172.697          42.000
R24  22398051.562 8 119772469.298 8      3523.945          49.000    22398053.695 6  93156320.807 6      2740.849          38.000
C05                                                                  39625329.156 6 159554779.354 6        14.109          37.000
C11  21868717.523 8 113876250.172 8       613.020          51.000    21868717.656 8  88056342.516 8       474.059          51.000
C12  22888116.992 7 119184426.931 7     -2122.340          44.000    22888116.547 7  92160956.884 7     -1641.345          43.000
C24  25674103.203 6 133691820.912 6     -3417.887          37.000
C25  22376122.203 8 116518351.433 8     -1499.125          51.000
E13  23997158.617 8 126105924.515 8     -1496.043          50.000    23997160.523 8  96626641.205 8     -1146.289          51.000
E21  24092521.656 8 126607040.076 8     -1536.359          51.000    24092525.430 8  97010619.183 8     -1177.249          51.000
E26  22748215.000 8 119542791.664 8      1358.484          51.000    22748219.477 8  91597680.883 8      1040.875          51.000
> 2020 05 05 13 13  0.0000000  0 17        .000000000000
G18  20624172.438 8 108380832.109 8      1373.965          51.000    20624173.555 8  84452607.674 8      1070.622          49.000
G21  20819752.273 8 109408556.951 8       945.961          51.000    20819750.867 8  85253399.479 8       737.115          48.000
G25  23178588.516 6 121804267.586 6     -3157.312          41.000    23178592.375 6  94912442.821 6     -2460.244          40.000
G29  21289060.797 8 111874774.260 8     -1994.762          49.000    21289059.945 8  87175143.150 8     -1554.360          49.000
G31  21630038.336 8 113666615.278 8     -1762.703          49.000    21630036.312 8  88571397.318 8     -1373.535          49.000
R12  20566223.289 7 109861079.364 7     -3177.188          46.000    20566227.203 7  85447505.744 7     -2471.146          45.000
R22  20540130.680 5 109644590.954 5     -2899.449          33.000    20540126.977 5  85279128.045 5     -2255.133          30.000
R23  19611982.617 8 104910949.480 8      1488.656          51.000    19611988.273 7  81597360.593 7      1157.844          42.000
R24  22378311.812 8 119666909.882 8      3513.840          48.000    22378316.492 6  93074219.105 6      2732.987          41.000
C05  39625227.719 6 206338958.198 6        17.551          36.000    39625228.047 6 159554372.032 6        13.490          37.000
C11  21865219.266 8 113858034.781 8       601.848          51.000    21865219.516 8  88042257.223 8       465.423          51.000
C12  22900364.078 7 119248200.884 7     -2128.406          43.000    22900363.828 7  92210270.952 7     -1646.045          43.000
C24  25693806.297 6 133794413.176 6     -3420.645          37.000
C25  22384803.133 8 116563558.740 8     -1514.141          51.000
E13  24005727.352 8 126150952.715 8     -1505.297          50.000    24005729.188 8  96661143.324 8     -1153.379          51.000
E21  24101324.227 8 126653295.181 8     -1546.758          51.000    24101327.766 8  97046061.393 8     -1185.142          51.000
E26  22740493.398 8 119502213.168 8      1347.266          51.000    22740497.492 8  91566588.291 8      1032.353          51.000
> 2020 05 05 13 13 30.0000000  0 17        .000000000000
G18  20616382.414 8 108339892.874 8      1355.078          50.000    20616382.852 8  84420706.956 8      1055.908          49.000
G21  20814400.344 8 109380431.031 8       928.840          50.000    20814398.570 8  85231483.205 8       723.771          49.000
G25  23196631.312 6 121899082.138 6     -3164.020          38.000    23196634.477 6  94986324.264 6     -2465.470          38.000
G29  21300470.656 8 111934733.748 8     -2002.785          48.000    21300469.539 8  87221864.825 8     -1560.612          48.000
G31  21640148.562 8 113719744.941 8     -1779.492          50.000    21640146.359 8  88612797.029 8     -1386.617          50.000
R12  20584113.102 7 109956655.109 7     -3194.824          43.000    20584118.672 7  85521842.488 7     -2484.863          44.000
R22  20556452.531 5 109731731.389 5     -2910.070          32.000    20556455.648 5  85346903.317 5     -2263.388          31.000
R23  19603687.562 8 104866575.658 8      1469.320          51.000    19603692.844 6  81562847.639 6      1142.808          41.000
R24  22358626.867 7 119561645.272 7      3503.535          47.000    22358631.484 7  92992346.684 7      2724.972          43.000
C05  39625125.930 6 206338428.705 6        17.297          36.000    39625126.422 6 159553962.580 6        13.596          38.000
C11  21861783.844 8 113840146.617 8       590.488          50.000    21861784.203 8  88028424.989 8       456.597          51.000
C12  22912644.695 7 119312148.558 7     -2134.816          44.000    22912644.383 7  92259719.313 7     -1650.763          42.000
C24  25713525.961 6 133897092.015 6     -3424.676          36.000
C25  22393569.594 8 116609209.269 8     -1529.383          51.000
E13  24014347.867 8 126196253.510 8     -1514.914          50.000    24014349.773 8  96695854.317 8     -1160.721          51.000
E21  24110184.609 8 126699855.477 8     -1557.453          51.000    24110187.766 8  97081737.466 8     -1193.409          51.000
E26  22732834.719 8 119461964.782 8      1335.777          51.000    22732838.234 8  91535748.646 8      1023.500          51.000
> 2020 05 05 13 14  0.0000000  0 17        .000000000000
G18  20608698.211 8 108299511.434 8      1337.305          51.000    20608698.477 8  84389240.913 8      1042.056          48.000
G21  20809145.273 8 109352814.254 8       912.535          49.000    20809143.234 8  85209963.625 8       711.066          49.000
G25  23214712.477 6 121994102.935 6     -3170.418          39.000    23214715.859 6  95060366.378 6     -2470.456          39.000
G29  21311925.773 8 111994931.416 8     -2010.137          48.000    21311924.414 8  87268772.082 8     -1566.340          48.000
G31  21650353.477 8 113773371.660 8     -1795.387          50.000    21650351.320 8  88654584.057 8     -1399.003          50.000
R12  20602102.078 7 110052751.839 7     -3211.434          47.000    20602108.016 7  85596584.303 7     -2497.785          43.000
R22  20572840.867 5 109819228.969 5     -2920.207          33.000    20572856.102 5  85414964.091 5     -2271.272          31.000
R23  19595500.039 8 104822776.891 8      1450.875          51.000    19595504.758 6  81528781.938 6      1128.455          41.000
R24  22338998.680 7 119456687.609 7      3493.812          46.000    22339003.375 7  92910712.999 7      2717.410          44.000
C05  39625025.750 5 206337906.916 5        17.727          35.000    39625026.164 6 159553559.123 6        13.481          38.000
C11  21858413.164 8 113822595.440 8       579.953          50.000    21858413.570 8  88014853.321 8       448.342          51.000
C12  22924960.398 7 119376279.069 7     -2140.172          43.000    22924959.703 7  92309309.056 7     -1654.874          42.000
C24  25733263.086 5 133999865.892 5     -3426.645          35.000
C25  22402423.203 8 116655312.338 8     -1543.871          51.000
E13  24023021.898 8 126241835.898 8     -1523.668          51.000    24023023.773 8  96730781.083 8     -1167.522          51.000
E21  24119104.859 8 126746731.138 8     -1567.383          51.000    24119107.688 8  97117655.166 8     -1200.988          51.000
E26  22725240.859 8 119422057.075 8      1324.988          51.000    22725243.930 8  91505170.028 8      1015.242          51.000
> 2020 05 05 13 14 30.0000000  0 17        .000000000000
G18  20601119.938 8 108259685.893 8      1318.266          51.000    20601119.648 7  84358208.045 7      1027.220          47.000
G21  20803985.898 7 109325703.552 7       895.207          47.000    20803984.508 7  85188838.417 7       697.564          47.000
G25  23232832.500 6 122089325.946 6     -3177.414          40.000    23232835.641 6  95134566.062 6     -2475.910          41.000
G29  21323425.531 8 112055363.154 8     -2018.328          48.000    21323424.055 8  87315861.704 8     -1572.726          48.000
G31  21660651.773 8 113827490.350 8     -1812.230          49.000    21660650.062 8  88696754.453 8     -1412.128          49.000
R12  20620189.133 8 110149364.096 8     -3228.949          51.000    20620194.211 7  85671727.044 7     -2511.408          44.000
R22  20589285.461 5 109906973.822 5     -2931.281          35.000    20589318.406 5  85483249.012 5     -2279.885          31.000
R23  19587418.961 8 104779550.646 8      1431.234          51.000    19587423.750 6  81495161.558 6      1113.185          41.000
R24  22319427.188 7 119352035.982 7      3483.180          45.000    22319432.711 7  92829317.314 7      2709.143          44.000
C05  39624926.469 5 206337389.881 5        17.566          35.000    39624926.781 6 159553159.330 6        13.215          38.000
C11  21855106.484 8 113805377.960 8       568.301          49.000    21855107.234 8  88001539.672 8       439.449          51.000
C12  22937310.266 7 119440588.084 7     -2146.746          43.000    22937309.281 7  92359036.830 7     -1659.943          43.000
C24  25753016.953 6 134102730.108 6     -3430.426          36.000
C25  22411363.023 8 116701864.031 8     -1559.273          50.000
E13  24031748.789 8 126287695.579 8     -1533.348          51.000    24031750.594 8  96765920.300 8     -1174.909          51.000
E21  24128084.508 8 126793918.957 8     -1578.137          51.000    24128086.891 8  97153812.055 8     -1209.219          51.000
E26  22717711.109 8 119382487.295 8      1313.297          51.000    22717714.102 8  91474850.325 8      1006.301          51.000
> 2020 05 05 13 15  0.0000000  0 16        .000000000000
G18  20593646.547 8 108220411.675 8      1299.809          51.000    20593645.406 7  84327604.784 7      1012.838          45.000
G21  20798921.453 7 109299093.884 7       878.484          46.000    20798921.133 7  85168103.619 7       684.533          46.000
G25  23250990.016 7 122184744.583 7     -3183.883          43.000    23250991.945 7  95208918.183 7     -2480.948          43.000
G29  21334968.641 7 112116022.316 7     -2025.793          47.000    21334967.133 8  87363128.570 8     -1578.540          48.000
G31  21671042.070 8 113882093.874 8     -1828.312          48.000    21671041.031 8  88739302.643 8     -1424.659          48.000
R12  20638371.609 8 110246483.743 8     -3245.957          51.000    20638376.406 7  85747264.492 7     -2524.633          46.000
R23  19579443.875 8 104736890.902 8      1412.332          51.000    19579448.328 6  81461981.744 6      1098.477          40.000
R24  22299912.938 7 119247686.001 7      3473.125          47.000    22299918.398 7  92748156.239 7      2701.319          44.000
C05  39624827.039 6 206336872.239 6        17.277          36.000    39624827.414 6 159552759.056 6        13.336          38.000
C11  21851862.773 8 113788488.163 8       557.383          49.000    21851863.859 8  87988479.427 8       431.019          51.000
C12  22949693.141 7 119505068.788 7     -2152.324          43.000    22949692.109 7  92408897.382 7     -1664.223          43.000
C24  25772787.070 6 134205677.310 6     -3433.023          38.000
C25  22420387.688 8 116748857.894 8     -1573.945          50.000
E13  24040527.156 8 126333825.576 8     -1542.242          51.000    24040529.000 8  96801266.655 8     -1181.712          51.000
E21  24137122.477 8 126841413.188 8     -1588.340          51.000    24137124.375 8  97190203.713 8     -1217.007          51.000
E26  22710244.359 8 119343250.139 8      1302.273          51.000    22710247.625 8  91444785.492 8       997.867          51.000
> 2020 05 05 13 15 30.0000000  0 17        .000000000000
G18  20586278.484 8 108181692.078 8      1281.453          51.000    20586276.734 7  84297433.726 7       998.535          45.000
G21  20793953.266 7 109272987.661 7       861.863          46.000    20793953.508 7  85147761.083 7       671.582          46.000
G25  23269184.664 6 122280360.074 6     -3190.414          41.000    23269186.406 6  95283423.717 6     -2486.037          40.000
G29  21346555.289 7 112176909.902 7     -2033.441          47.000    21346553.805 7  87410573.418 7     -1584.503          47.000
G31  21681524.742 8 113937182.695 8     -1844.328          48.000    21681524.469 8  88782228.998 8     -1437.139          48.000
R12  20656648.688 8 110344110.119 8     -3262.621          51.000    20656652.930 7  85823196.118 7     -2537.594          47.000
R22  20622368.867 4 110083596.792 4     -2951.672          29.000    20622391.875 4  85620678.361 4     -2295.745          25.000
R23  19571575.117 8 104694800.423 8      1393.566          51.000    19571579.406 6  81429244.719 6      1083.885          41.000
R24  22280456.789 8 119143641.944 8      3463.113          48.000    22280460.953 7  92667233.139 7      2693.536          44.000
C05  39624727.945 6 206336356.382 6        16.984          36.000    39624728.336 6 159552360.143 6        13.233          38.000
C11  21848682.609 8 113771928.037 8       546.551          50.000    21848683.531 8  87975674.085 8       422.697          51.000
C12  22962109.438 7 119569722.308 7     -2158.039          44.000    22962108.406 7  92458891.596 7     -1668.699          44.000
C24  25792573.375 6 134308708.090 6     -3435.727          38.000
C25  22429497.688 8 116796295.279 8     -1588.594          50.000
E13  24049357.047 8 126380226.944 8     -1551.137          51.000    24049358.719 8  96836820.935 8     -1188.539          51.000
E21  24146219.344 8 126889215.987 8     -1598.535          51.000    24146220.367 8  97226831.790 8     -1224.852          51.000
E26  22702841.258 8 119304348.168 8      1291.156          51.000    22702844.867 8  91414977.504 8       989.369          51.000
> 2020 05 05 13 16  0.0000000  0 18        .000000000000
G18  20579016.539 8 108143529.516 8      1262.707          51.000    20579014.484 7  84267696.706 7       983.928          46.000
G21  20789081.500 7 109247386.550 7       844.844          47.000    20789082.180 7  85127812.159 7       658.320          47.000
G25  23287416.258 6 122376172.891 6     -3197.180          40.000    23287419.078 6  95358083.002 6     -2491.309          41.000
G29  21358185.508 7 112238026.283 7     -2041.184          46.000    21358183.938 7  87458196.558 7     -1590.533          46.000
G31  21692099.969 8 113992756.355 8     -1860.742          50.000    21692100.414 8  88825533.126 8     -1449.929          50.000
R12  20675020.250 8 110442242.476 8     -3279.586          51.000    20675023.586 7  85899521.311 7     -2550.786          47.000
R13  19320780.289 6 103171886.766 6       741.473          36.000    19320783.711 6  80244819.277 6       576.701          38.000
R22  20638989.031 5 110172246.613 5     -2960.961          32.000    20638954.727 4  85689448.130 4     -2302.976          26.000
R23  19563812.969 8 104653280.714 8      1374.273          51.000    19563817.375 6  81396951.659 6      1068.879          41.000
R24  22261058.250 7 119039906.820 7      3452.547          47.000    22261061.352 7  92586550.346 7      2685.317          44.000
C05  39624629.523 6 206335843.670 6        16.754          36.000    39624629.812 6 159551963.703 6        12.955          37.000
C11  21845566.164 8 113755698.505 8       535.398          50.000    21845566.734 8  87963124.387 8       413.892          51.000
C12  22974558.867 7 119634548.652 7     -2164.043          42.000    22974557.922 7  92509019.440 7     -1673.339          44.000
C24  25812375.008 5 134411822.173 5     -3438.887          35.000
C25  22438693.180 8 116844176.680 8     -1603.609          51.000
E13  24058238.617 8 126426899.746 8     -1560.406          51.000    24058239.828 8  96872583.198 8     -1195.690          51.000
E21  24155375.148 8 126937328.559 8     -1609.109          51.000    24155375.273 8  97263697.223 8     -1232.978          50.000
E26  22695502.305 8 119265783.031 8      1279.711          51.000    22695505.922 8  91385427.611 8       980.552          51.000
> 2020 05 05 13 16 30.0000000  0 17        .000000000000
G18  20571861.836 8 108105930.152 8      1244.629          51.000    20571859.891 8  84238398.533 8       969.844          48.000
G21  20784306.945 8 109222295.957 8       828.574          48.000    20784307.898 7  85108261.082 7       645.645          47.000
G25  23305686.461 6 122472187.115 6     -3203.250          40.000    23305690.328 6  95432899.215 6     -2496.039          40.000
G29  21369860.031 7 112299375.676 7     -2048.172          44.000    21369858.453 7  87506001.264 7     -1595.978          44.000
G31  21702768.352 8 114048818.200 8     -1876.062          51.000    21702769.219 8  88869217.659 8     -1461.870          51.000
R12  20693486.383 8 110540883.338 8     -3295.809          51.000    20693489.773 8  85976241.976 8     -2563.407          48.000
R13  19316686.773 6 103150019.898 6       717.117          36.000    19316688.680 6  80227811.690 6       557.758          39.000
R23  19556158.805 8 104612336.631 8      1356.027          51.000    19556163.266 6  81365106.247 6      1054.688          41.000
R24  22241717.977 7 118936487.851 7      3442.863          46.000    22241721.297 7  92506113.457 7      2677.783          44.000
C05  39624532.734 6 206335339.514 6        17.516          36.000    39624532.977 6 159551573.861 6        13.638          38.000
C11  21842514.023 8 113739804.310 8       524.980          50.000    21842514.461 8  87950834.007 8       405.951          51.000
C12  22987041.867 6 119699551.710 6     -2169.250          41.000    22987041.148 7  92559283.921 7     -1677.260          42.000
C24  25832193.164 5 134515022.924 5     -3440.480          34.000
C25  22447974.984 8 116892506.198 8     -1617.711          51.000
E13  24067172.633 8 126473847.882 8     -1568.789          51.000    24067173.695 8  96908556.421 8     -1202.050          51.000
E21  24164590.727 8 126985755.918 8     -1618.734          51.000    24164590.469 8  97300803.845 8     -1240.386          50.000
E26  22688228.656 8 119227560.186 8      1269.191          51.000    22688231.875 8  91356139.995 8       972.482          51.000
> 2020 05 05 13 17  0.0000000  0 17        .000000000000
G18  20564811.234 8 108068879.286 8      1225.551          51.000    20564809.719 8  84209527.768 8       954.975          48.000
G21  20779626.711 8 109197700.266 8       811.324          49.000    20779627.477 8  85089095.641 8       632.201          49.000
G25  23323992.344 6 122568386.066 6     -3210.156          41.000    23323996.914 6  95507859.387 6     -2501.420          40.000
G29  21381575.375 7 112360941.083 7     -2056.109          42.000    21381574.180 7  87553974.288 7     -1602.163          42.000
G31  21713526.492 8 114105350.532 8     -1892.590          51.000    21713527.070 8  88913268.807 8     -1474.745          51.000
R12  20712043.352 8 110640014.420 8     -3312.871          51.000    20712047.516 7  86053343.884 7     -2576.678          46.000
R13  19312729.719 6 103128889.965 6       691.254          36.000    19312731.633 6  80211377.298 6       537.642          39.000
R23  19548609.430 8 104571952.628 8      1336.477          51.000    19548614.414 7  81333696.470 7      1039.482          42.000
R24  22222433.438 7 118833370.587 7      3431.832          46.000    22222438.195 7  92425911.182 7      2669.203          44.000
C05  39624434.406 6 206334827.514 6        16.977          36.000    39624434.922 6 159551178.698 6        13.067          38.000
C11  21839523.352 8 113724229.602 8       513.488          50.000    21839523.406 8  87938790.677 8       397.050          51.000
C12  22999555.523 6 119764714.845 6     -2175.172          40.000    22999554.844 6  92609672.173 6     -1681.721          40.000
C24  25852024.523 5 134618293.123 5     -3443.637          34.000
C25  22457339.516 8 116941267.402 8     -1632.867          51.000
E13  24076155.656 8 126521054.335 8     -1578.168          51.000    24076157.047 8  96944727.588 8     -1209.204          51.000
E21  24173863.117 8 127034482.193 8     -1629.531          51.000    24173862.586 8  97338139.522 8     -1248.602          51.000
E26  22681017.281 8 119189664.191 8      1257.379          51.000    22681020.016 8  91327102.821 8       963.464          51.000
> 2020 05 05 13 17 30.0000000  0 17        .000000000000
G18  20557865.875 8 108032380.922 8      1207.379          51.000    20557864.594 8  84181087.482 8       940.815          50.000
G21  20775041.383 8 109173602.662 8       794.988          49.000    20775041.703 8  85070318.301 8       619.471          49.000
G25  23342334.141 6 122664771.764 6     -3215.969          41.000    23342339.461 7  95582965.093 7     -2505.953          42.000
G29  21393332.039 6 112422724.227 6     -2062.883          39.000    21393331.297 6  87602117.022 6     -1607.438          39.000
G31  21724374.523 8 114162354.640 8     -1908.004          51.000    21724374.375 8  88957687.550 8     -1486.759          51.000
R12  20730691.320 8 110739636.107 8     -3328.875          49.000    20730696.555 7  86130827.312 7     -2589.128          44.000
R13  19308911.445 6 103108502.105 6       667.172          37.000    19308913.914 6  80195520.058 6       518.911          40.000
R23  19541165.719 8 104532131.759 8      1317.988          51.000    19541170.594 7  81302724.710 7      1025.102          42.000
R24  22203206.617 7 118730559.938 7      3421.934          46.000    22203212.602 7  92345947.331 7      2661.504          45.000
C05  39624335.516 5 206334312.636 5        17.426          35.000    39624336.070 6 159550780.591 6        13.324          38.000
C11  21836594.641 8 113708976.953 8       503.012          50.000    21836594.023 8  87926996.351 8       389.124          51.000
C12  23012100.492 6 119830039.723 6     -2180.301          40.000    23012098.844 6  92660185.515 6     -1685.832          37.000
C24  25871870.086 5 134721634.084 5     -3446.031          34.000
C25  22466786.992 8 116990462.297 8     -1646.945          51.000
E13  24085188.117 8 126568520.869 8     -1586.480          51.000    24085189.758 8  96981098.045 8     -1215.522          51.000
E21  24183192.805 8 127083510.270 8     -1639.156          51.000    24183192.750 8  97375706.473 8     -1255.971          51.000
E26  22673868.812 8 119152098.313 8      1246.805          51.000    22673871.195 8  91298318.601 8       955.416          51.000
> 2020 05 05 13 18  0.0000000  0 18        .000000000000
G18  20551026.352 8 107996439.420 8      1189.211          51.000    20551025.898 8  84153081.135 8       926.658          51.000
G21  20770551.414 8 109150007.024 8       778.574          49.000    20770551.602 8  85051932.104 8       606.684          49.000
G25  23360712.320 7 122761346.684 7     -3221.750          44.000    23360718.008 7  95658218.210 7     -2510.458          43.000
G29  21405130.961 6 112484727.749 6     -2070.031          40.000    21405130.406 6  87650431.467 6     -1613.008          40.000
G31  21735312.602 8 114219832.016 8     -1923.277          51.000    21735311.547 8  89002475.066 8     -1498.658          51.000
R12  20749431.125 7 110839749.103 7     -3344.844          47.000    20749437.555 7  86208692.911 7     -2601.545          45.000
R13  19305233.203 6 103088862.338 6       642.738          37.000    19305235.852 6  80180244.687 6       499.911          41.000
R22  20705997.109 5 110529997.968 5     -2999.652          35.000    20705967.641 5  85967665.933 5     -2333.075          30.000
R23  19533828.031 8 104492877.529 8      1299.559          51.000    19533832.820 7  81272193.640 7      1010.768          43.000
R24  22184039.016 7 118628061.161 7      3411.941          47.000    22184045.273 7  92266226.094 7      2653.735          45.000
C05  39624236.625 5 206333797.618 5        17.340          35.000    39624237.180 6 159550382.342 6        13.463          37.000
C11  21833728.086 8 113694049.499 8       492.559          50.000    21833727.172 8  87915453.512 8       380.905          51.000
C12  23024677.211 6 119895528.625 6     -2184.984          40.000    23024674.711 6  92710825.629 6     -1689.840          36.000
C24  25891729.672 5 134825047.447 5     -3447.223          31.000
C25  22476317.953 8 117040093.302 8     -1661.191          51.000
E13  24094270.492 8 126616249.654 8     -1594.855          51.000    24094272.250 8  97017669.446 8     -1222.065          51.000
E21  24192580.516 8 127132843.411 8     -1649.094          51.000    24192581.359 8  97413507.176 8     -1263.651          51.000
E26  22666784.078 8 119114866.333 8      1235.953          51.000    22666786.094 8  91269790.220 8       946.996          51.000
> 2020 05 05 13 18 30.0000000  0 17        .000000000000
G18  20544295.516 8 107961069.940 8      1169.566          51.000    20544295.641 8  84125520.507 8       911.350          51.000
G21  20766159.656 8 109126927.486 8       760.793          50.000    20766159.719 8  85033948.052 8       592.826          50.000
G25  23379129.297 7 122858124.009 7     -3229.023          45.000    23379134.578 7  95733629.045 7     -2516.125          45.000
G29  21416974.523 6 112546964.709 6     -2078.121          40.000    21416974.016 6  87698927.807 6     -1619.315          40.000
G31  21746342.867 8 114277795.201 8     -1940.105          51.000    21746340.516 8  89047641.142 8     -1511.770          51.000
R12  20768267.023 8 110940365.475 8     -3362.195          50.000    20768274.008 7  86286950.067 7     -2615.041          47.000
R13  19301698.297 6 103069987.030 6       616.539          38.000    19301700.859 6  80165563.874 6       479.530          40.000
R22  20722885.461 5 110620121.609 5     -3010.391          34.000    20722863.930 4  86037833.139 4     -2341.412          28.000
R23  19526598.656 8 104454204.584 8      1279.531          51.000    19526604.039 7  81242114.693 7       995.191          43.000
R24  22164933.141 8 118525890.213 8      3400.289          48.000    22164938.359 7  92186759.863 7      2644.669          43.000
C05  39624140.398 5 206333296.589 5        16.535          35.000    39624141.008 6 159549994.927 6        12.569          37.000
C11  21830926.461 8 113679460.766 8       480.730          50.000    21830925.500 8  87904172.583 8       371.807          51.000
C12  23037287.812 6 119961194.368 6     -2191.641          37.000    23037285.203 6  92761602.527 6     -1694.942          37.000
C25  22485935.133 8 117090173.508 8     -1676.762          51.000
E13  24103405.219 8 126664253.605 8     -1604.547          51.000    24103407.219 8  97054451.686 8     -1229.431          51.000
E21  24202028.852 8 127182495.640 8     -1660.219          51.000    24202030.508 8  97451552.382 8     -1272.173          51.000
E26  22659765.414 8 119077982.609 8      1223.762          51.000    22659767.406 8  91241528.687 8       937.738          51.000
> 2020 05 05 13 19  0.0000000  0 16        .000000000000
G18  20537669.828 8 107926252.805 8      1150.875          51.000    20537670.078 8  84098390.272 8       896.786          51.000
G21  20761862.289 8 109104343.861 8       743.965          51.000    20761861.805 8  85016350.420 8       579.713          50.000
G25  23397580.727 7 122955082.149 7     -3235.234          45.000    23397585.328 7  95809180.778 7     -2520.962          45.000
G29  21428858.266 7 112609413.662 7     -2085.473          42.000    21428858.125 7  87747589.325 7     -1625.044          42.000
G31  21757460.828 8 114336221.340 8     -1955.680          51.000    21757458.375 8  89093167.973 8     -1523.909          51.000
R12  20787193.547 8 111041461.840 8     -3378.262          51.000    20787200.258 8  86365580.523 8     -2627.540          48.000
R13  19298303.172 6 103051857.364 6       591.293          38.000    19298305.758 7  80151463.041 7       459.895          42.000
R23  19519473.984 8 104416091.746 8      1260.641          51.000    19519479.258 7  81212471.377 7       980.498          42.000
R24  22145884.734 8 118424027.960 8      3389.832          48.000    22145887.484 6  92107533.733 6      2636.536          41.000
C05  39624043.039 6 206332790.315 6        16.664          36.000    39624043.625 6 159549602.661 6        12.898          38.000
C11  21828186.102 8 113665190.116 8       469.945          50.000    21828184.898 8  87893137.607 8       363.458          51.000
C12  23049927.961 6 120027015.380 6     -2197.176          37.000    23049925.844 6  92812499.521 6     -1698.836          38.000
C25  22495634.594 8 117140681.528 8     -1691.105          51.000
E13  24112588.172 8 126712510.857 8     -1613.160          51.000    24112590.320 8  97091428.026 8     -1236.046          51.000
E21  24211533.930 8 127232446.212 8     -1670.422          51.000    24211536.305 8  97489826.185 8     -1279.868          51.000
E26  22652808.719 8 119041426.853 8      1212.672          51.000    22652811.125 8  91213518.454 8       929.220          51.000
> 2020 05 05 13 19 30.0000000  0 17        .000000000000
G18  20531152.312 8 107892003.291 8      1132.754          51.000    20531152.836 8  84071702.343 8       882.665          51.000
G21  20757662.102 8 109082270.392 8       728.008          51.000    20757660.992 8  84999150.296 8       567.279          50.000
G25  23416068.766 7 123052234.463 7     -3241.129          45.000    23416073.211 7  95884883.804 7     -2525.555          45.000
G29  21440785.008 6 112672087.989 6     -2092.645          36.000    21440784.750 6  87796426.441 6     -1630.632          36.000
G31  21768669.086 8 114395123.095 8     -1970.578          51.000    21768667.359 8  89139065.409 8     -1535.515          51.000
R12  20806212.070 8 111143049.961 8     -3393.895          51.000    20806217.859 7  86444593.459 7     -2639.699          47.000
R13  19295050.422 6 103034489.337 6       566.598          38.000    19295053.336 7  80137954.561 7       440.687          42.000
R22  20756814.875 5 110801286.610 5     -3028.441          31.000
R23  19512456.508 8 104378553.671 8      1242.289          51.000    19512461.461 7  81183275.104 7       966.225          42.000
R24  22126896.703 8 118322490.800 8      3379.824          49.000    22126897.289 6  92028560.510 6      2628.755          41.000
C05  39623947.195 6 206332290.316 6        17.051          36.000    39623947.781 6 159549216.830 6        13.040          37.000
C11  21825509.289 8 113651251.393 8       459.727          49.000    21825508.008 8  87882359.302 8       355.375          51.000
C12  23062600.766 6 120093004.861 6     -2201.672          38.000    23062598.750 6  92863526.756 6     -1702.829          39.000
C25  22505418.695 8 117191630.665 8     -1705.074          51.000
E13  24121821.977 8 126761034.554 8     -1621.367          51.000    24121824.055 8  97128608.521 8     -1242.388          51.000
E21  24221098.508 8 127282709.335 8     -1680.199          51.000    24221101.352 8  97528339.492 8     -1287.407          51.000
E26  22645917.266 8 119005213.755 8      1201.895          51.000    22645919.969 8  91185770.753 8       920.953          51.000
> 2020 05 05 13 20  0.0000000  0 15        .000000000000
G18  20524740.539 8 107858310.043 8      1113.789          51.000    20524741.180 8  84045447.874 8       867.888          51.000
G21  20753556.516 8 109060694.797 8       710.934          51.000    20753555.352 8  84982338.166 8       553.974          50.000
G25  23434591.016 7 123149567.748 7     -3247.438          44.000    23434595.109 7  95960727.880 7     -2530.474          44.000
G31  21779965.250 8 114454486.249 8     -1986.457          51.000    21779964.297 8  89185322.380 8     -1547.892          51.000
R12  20825318.867 8 111245114.869 8     -3410.121          48.000    20825324.477 7  86523977.229 7     -2652.316          46.000
R13  19291938.461 6 103017872.145 6       541.355          39.000    19291941.438 7  80125030.084 7       421.054          42.000
R23  19505544.016 8 104341577.807 8      1223.117          51.000    19505548.977 6  81154516.119 6       951.313          41.000
R24  22107967.422 8 118221267.862 8      3368.766          50.000    22107967.672 7  91949831.700 7      2620.157          42.000
C05  39623850.523 6 206331787.602 6        16.422          36.000    39623851.141 6 159548828.082 6        12.877          37.000
C11  21822893.625 8 113637632.146 8       448.656          49.000    21822892.609 8  87871828.039 8       346.890          51.000
C12  23075303.258 6 120159149.466 6     -2207.137          36.000    23075301.633 6  92914673.923 6     -1706.925          40.000
C25  22515284.906 8 117243007.751 8     -1719.645          51.000
E13  24131103.930 8 126809811.203 8     -1630.117          51.000    24131106.070 8  97165982.825 8     -1249.075          51.000
E21  24230720.078 8 127333272.602 8     -1690.500          51.000    24230723.430 8  97567082.756 8     -1295.315          51.000
E26  22639088.766 8 118969331.236 8      1190.500          51.000    22639091.875 8  91158276.350 8       912.192          51.000
> 2020 05 05 13 20 30.0000000  0 15        .000000000000
G18  20518435.375 8 107825177.134 8      1094.824          51.000    20518435.758 8  84019630.017 8       853.110          51.000
G21  20749546.430 8 109039620.730 8       693.852          51.000    20749545.039 8  84965916.835 8       540.664          49.000
G25  23453147.758 7 123247084.281 7     -3253.836          44.000    23453151.117 7  96036714.715 7     -2535.460          44.000
G31  21791349.711 8 114514312.234 8     -2002.145          51.000    21791349.453 8  89231940.001 8     -1560.113          51.000
R12  20844512.688 7 111347657.071 7     -3426.184          43.000    20844520.000 7  86603732.247 7     -2664.809          44.000
R13  19288968.203 6 103002011.762 6       515.594          39.000    19288971.445 7  80112694.221 7       401.017          43.000
R23  19498737.164 8 104305167.530 8      1203.977          51.000    19498741.914 6  81126197.036 6       936.426          41.000
R24  22089097.242 8 118120364.056 8      3357.785          48.000    22089099.258 6  91871351.048 6      2611.614          41.000
C05  39623753.781 6 206331283.367 6        16.426          36.000    39623754.453 6 159548438.962 6        12.801          37.000
C11  21820340.039 8 113624335.127 8       437.609          50.000    21820339.188 8  87861545.936 8       338.342          51.000
C12  23088035.258 5 120225451.283 5     -2213.117          35.000    23088034.602 6  92965942.694 6     -1711.072          40.000
C25  22525233.625 8 117294814.932 8     -1734.348          51.000
E13  24140434.320 8 126858842.675 8     -1638.859          51.000    24140436.648 8  97203552.396 8     -1255.731          51.000
E21  24240399.469 8 127384139.020 8     -1700.848          51.000    24240403.430 8  97606058.286 8     -1303.232          51.000
E26  22632323.891 8 118933782.722 8      1179.133          51.000    22632327.578 8  91131037.894 8       903.449          51.000
> 2020 05 05 13 21  0.0000000  0 15        .000000000000
G18  20512239.117 8 107792614.710 8      1075.695          51.000    20512239.234 8  83994256.715 8       838.207          51.000
G21  20745633.594 8 109019057.850 8       676.684          50.000    20745632.000 8  84949893.822 8       527.286          50.000
G25  23471740.719 7 123344792.244 7     -3260.469          43.000    23471743.531 7  96112850.742 7     -2540.625          43.000
G31  21802823.719 8 114574608.501 8     -2017.988          51.000    21802824.055 8  89278924.084 8     -1572.458          51.000
R12  20863798.102 7 111450683.566 7     -3442.504          47.000    20863805.406 7  86683863.969 7     -2677.506          42.000
R13  19286141.852 6 102986918.600 6       490.023          40.000    19286145.047 7  80100955.083 7       381.129          43.000
R23  19492038.070 8 104269332.288 8      1184.703          51.000    19492042.727 6  81098325.199 6       921.439          41.000
R24  22070288.117 7 118019790.695 7      3346.691          47.000    22070292.719 6  91793127.337 6      2602.982          41.000
C05  39623658.883 5 206330789.185 5        15.484          35.000    39623659.516 6 159548056.794 6        12.553          37.000
C11  21817849.875 8 113611369.209 8       426.535          49.000    21817849.312 8  87851519.858 8       329.842          51.000
C12  23100799.000 6 120291918.293 6     -2218.836          36.000    23100799.328 6  93017339.232 6     -1715.612          41.000
C25  22535266.438 8 117347060.415 8     -1749.008          51.000
E13  24149814.773 8 126908137.091 8     -1647.730          51.000    24149816.961 8  97241323.433 8     -1262.532          51.000
E21  24250138.508 8 127435317.682 8     -1711.312          51.000    24250142.414 8  97645273.091 8     -1311.286          51.000
E26  22625624.805 8 118898577.828 8      1167.566          51.000    22625628.719 8  91104062.712 8       894.635          51.000
> 2020 05 05 13 21 30.0000000  0 16        .000000000000
G18  20506149.852 8 107760615.177 8      1057.074          51.000    20506149.898 8  83969322.045 8       823.697          50.000
G21  20741816.016 8 108998997.494 8       660.168          50.000    20741814.766 8  84934262.416 8       514.417          50.000
G25  23490368.062 6 123442682.213 6     -3266.059          41.000    23490370.898 7  96189128.570 7     -2544.981          42.000
G29  21488932.133 6 112925060.095 6     -2121.766          37.000    21488910.492 6  87993521.948 6     -1653.324          37.000
G31  21814385.203 8 114635364.473 8     -2032.895          51.000    21814385.688 8  89326266.388 8     -1584.074          51.000
R12  20883174.477 8 111554182.997 8     -3457.895          51.000    20883179.711 7  86764363.413 7     -2689.477          44.000
R13  19283458.172 6 102972586.278 6       465.117          40.000    19283460.992 7  80089807.721 7       361.758          43.000
R23  19485444.789 8 104234062.956 8      1166.125          51.000    19485449.492 6  81070893.524 6       906.986          40.000
R24  22051540.617 8 117919540.834 8      3336.246          49.000    22051546.555 7  91715155.265 7      2594.861          44.000
C05  39623564.016 5 206330295.754 5        16.188          35.000    39623564.766 6 159547675.246 6        12.868          37.000
C11  21815421.477 8 113598725.526 8       416.020          50.000    21815421.305 8  87841742.978 8       321.789          51.000
C12  23113593.016 6 120358540.980 6     -2223.664          36.000    23113594.016 6  93068856.115 6     -1719.282          40.000
C25  22545381.852 8 117399734.819 8     -1762.988          51.000
E13  24159243.406 8 126957684.701 8     -1655.762          51.000    24159245.234 8  97279288.471 8     -1268.674          51.000
E21  24259935.320 8 127486799.948 8     -1721.117          51.000    24259939.000 8  97684720.534 8     -1318.754          51.000
E26  22618989.531 8 118863708.284 8      1156.727          51.000    22618993.477 8  91077344.494 8       886.332          51.000
> 2020 05 05 13 22  0.0000000  0 16        .000000000000
G18  20500167.727 8 107729178.773 8      1039.078          51.000    20500167.555 8  83944826.153 8       809.671          50.000
G21  20738093.906 8 108979438.806 8       644.223          50.000    20738092.938 8  84919021.910 8       501.995          50.000
G25  23509029.734 6 123540752.655 6     -3271.664          41.000    23509032.891 6  96265547.016 6     -2549.349          41.000
G29  21501030.875 6 112988711.043 6     -2127.836          36.000
G31  21826033.938 8 114696577.630 8     -2047.406          51.000    21826033.820 8  89373964.943 8     -1595.381          51.000
R12  20902639.234 8 111658152.195 8     -3472.820          51.000    20902643.078 7  86845228.258 7     -2701.082          46.000
R13  19280917.188 6 102959015.931 6       439.930          41.000    19280919.461 7  80079253.019 7       342.168          43.000
R23  19478957.523 8 104199359.511 8      1148.008          51.000    19478961.367 6  81043901.952 6       892.895          40.000
R24  22032854.898 8 117819615.378 8      3326.066          50.000    22032861.117 7  91637435.542 7      2586.944          44.000
C05  39623469.359 6 206329802.724 6        16.895          36.000    39623470.023 6 159547294.016 6        13.378          37.000
C11  21813055.250 8 113586403.282 8       405.953          50.000    21813054.820 8  87832214.641 8       313.894          51.000
C12  23126416.938 5 120425317.698 5     -2227.461          35.000    23126417.820 6  93120492.125 6     -1722.583          38.000
C25  22555580.016 8 117452836.523 8     -1776.512          51.000
E13  24168719.828 8 127007483.753 8     -1663.559          51.000    24168721.609 8  97317446.173 8     -1274.702          51.000
E21  24269789.570 8 127538585.108 8     -1730.652          51.000    24269793.117 8  97724400.054 8     -1326.087          51.000
E26  22612417.773 8 118829173.802 8      1146.105          51.000    22612421.812 8  91050883.027 8       878.194          51.000
> 2020 05 05 13 22 30.0000000  0 16        .000000000000
G18  20494292.305 8 107698303.025 8      1020.172          51.000    20494292.500 8  83920767.144 8       794.939          50.000
G21  20734466.719 8 108960378.651 8       627.301          50.000    20734465.711 8  84904169.855 8       488.806          49.000
G25  23527725.352 6 123638999.407 6     -3277.578          41.000    23527728.648 6  96342102.835 6     -2553.960          41.000
G29  21513201.875 6 113052664.519 6     -2134.789          38.000    21513199.094 6  88092956.604 6     -1663.475          37.000
G31  21837768.750 8 114758242.721 8     -2062.758          51.000    21837767.984 8  89422015.636 8     -1607.347          51.000
R12  20922189.984 8 111762585.044 8     -3488.582          48.000    20922193.750 7  86926453.761 7     -2713.345          47.000
R13  19278518.484 6 102946205.710 6       414.594          41.000    19278520.758 7  80069289.510 7       322.462          44.000
R23  19472575.438 8 104165218.116 8      1128.949          51.000    19472579.055 6  81017347.566 6       878.072          41.000
R24  22014229.703 8 117720012.817 8      3314.906          50.000    22014235.617 7  91559966.940 7      2578.263          44.000
C05  39623374.289 5 206329307.106 5        16.945          35.000    39623374.859 6 159546910.790 6        12.967          38.000
C11  21810749.688 8 113574398.828 8       395.070          49.000    21810749.320 8  87822932.040 8       305.545          51.000
C12  23139269.758 5 120492244.234 5     -2232.969          35.000    23139269.508 6  93172243.941 6     -1726.715          36.000
C25  22565859.656 8 117506361.259 8     -1791.000          51.000
E13  24178243.219 8 127057529.680 8     -1672.066          51.000    24178245.195 8  97355793.043 8     -1281.203          51.000
E21  24279700.836 8 127590669.648 8     -1740.883          51.000    24279703.961 8  97764308.970 8     -1333.956          51.000
E26  22605909.469 8 118794971.322 8      1134.797          51.000    22605913.078 8  91024675.942 8       869.550          51.000
> 2020 05 05 13 23  0.0000000  0 17        .000000000000
G18  20488521.734 8 107667979.268 8      1001.777          51.000    20488522.531 8  83897138.259 8       780.603          51.000
G21  20730932.656 8 108941808.090 8       611.059          50.000    20730931.797 8  84889699.310 8       476.150          49.000
G25  23546452.758 7 123737411.911 7     -3283.129          44.000    23546456.086 7  96418787.841 7     -2558.285          44.000
G29  21525408.750 6 113116815.087 6     -2141.242          37.000    21525406.047 6  88142944.088 6     -1668.494          36.000
G31  21849587.258 8 114820348.200 8     -2077.312          51.000    21849586.250 8  89470409.497 8     -1618.685          51.000
R12  20941823.492 7 111867469.191 7     -3503.445          44.000    20941829.008 7  87008030.344 7     -2724.902          47.000
R13  19276260.555 6 102934147.472 6       389.629          41.000    19276262.891 7  80059910.874 7       303.045          44.000
R23  19466296.492 8 104131629.071 8      1110.664          51.000    19466300.266 6  80991222.759 6       863.850          41.000
R24  21995662.562 8 117620725.301 8      3304.559          48.000    21995667.906 7  91482743.387 7      2570.215          43.000
C05  39623276.766 5 206328799.800 5        17.383          35.000    39623277.422 6 159546518.511 6        13.390          37.000
C11  21808503.188 8 113562702.384 8       384.992          50.000    21808503.305 8  87813887.629 8       297.628          51.000
C12  23152149.344 5 120559309.962 5     -2238.566          34.000    23152147.898 6  93224103.452 6     -1730.561          36.000
C24  26091048.414 5 135862922.534 5     -3469.055          30.000
C25  22576218.281 8 117560298.602 8     -1804.617          51.000
E13  24187811.602 8 127107811.827 8     -1679.812          51.000    24187813.570 8  97394320.918 8     -1287.120          51.000
E21  24289667.477 8 127643043.956 8     -1750.504          51.000    24289670.258 8  97804439.902 8     -1341.265          51.000
E26  22599462.781 8 118761091.616 8      1124.133          51.000    22599465.555 8  90998716.173 8       861.304          51.000
> 2020 05 05 13 23 30.0000000  0 16        .000000000000
G18  20482864.086 8 107638248.739 8       980.535          50.000    20482865.047 8  83873971.601 8       764.053          50.000
G21  20727499.508 8 108923767.466 8       591.988          51.000    20727498.883 8  84875641.700 8       461.290          49.000
G25  23565219.547 7 123836029.637 7     -3291.324          44.000    23565223.117 7  96495632.746 7     -2564.668          44.000
G29  21537660.383 5 113181201.871 5     -2150.027          35.000    21537658.609 5  88193115.539 5     -1675.346          35.000
G31  21861496.711 8 114882932.835 8     -2094.629          50.000    21861495.562 8  89519176.736 8     -1632.178          50.000
R12  20961548.742 8 111972843.273 8     -3521.180          48.000    20961555.672 7  87089987.993 7     -2738.695          45.000
R13  19274151.234 6 102922884.218 6       361.773          41.000    19274153.516 7  80051150.553 7       281.379          44.000
R23  19460128.445 8 104098633.186 8      1089.496          51.000    19460132.125 6  80965559.294 6       847.389          40.000
R24  21977161.734 7 117521795.291 7      3291.109          47.000    21977165.633 6  91405797.918 6      2559.755          41.000
C05  39623184.766 5 206328320.968 5        15.281          35.000    39623185.508 6 159546148.242 6        11.937          37.000
C11  21806323.898 8 113551353.781 8       372.039          50.000    21806324.125 8  87805112.179 8       287.675          51.000
C12  23165062.914 5 120626553.910 5     -2245.273          32.000    23165059.984 5  93276100.675 5     -1735.992          31.000
C25  22586663.375 8 117614687.538 8     -1821.000          51.000
E13  24197432.406 8 127158369.415 8     -1690.297          51.000    24197434.039 8  97433059.826 8     -1295.139          51.000
E21  24299697.047 8 127695748.252 8     -1762.766          51.000    24299699.664 8  97844823.675 8     -1350.703          51.000
E26  22593084.938 8 118727575.307 8      1110.660          51.000    22593087.375 8  90973034.869 8       850.974          51.000
> 2020 05 05 13 24  0.0000000  0 16        .000000000000
G18  20477313.266 8 107609080.236 8       963.227          50.000    20477314.594 8  83851242.901 8       750.566          49.000
G21  20724161.352 8 108906224.751 8       576.863          51.000    20724160.508 8  84861972.059 8       449.504          49.000
G25  23584019.031 7 123934819.697 7     -3295.441          44.000    23584022.430 7  96572611.954 7     -2567.879          43.000
G29  21549950.680 4 113245755.193 4     -2156.820          27.000    21549950.836 4  88243445.885 4     -1680.633          29.000
G31  21873490.578 8 114945962.610 8     -2108.164          49.000    21873489.484 8  89568290.849 8     -1642.725          49.000
R12  20981361.086 8 112078672.213 8     -3534.844          51.000    20981367.086 7  87172299.354 7     -2749.326          44.000
R13  19272185.164 6 102912385.372 6       337.629          41.000    19272187.359 7  80042984.796 7       262.600          44.000
R23  19454065.156 8 104066198.083 8      1072.148          51.000    19454069.094 6  80940332.036 6       833.896          41.000
R24  21958723.086 8 117423192.199 8      3281.578          49.000    21958725.094 6  91329106.685 6      2552.342          41.000
C05  39623092.148 6 206327838.254 6        16.461          36.000    39623093.062 6 159545775.765 6        12.650          37.000
C11  21804205.094 8 113540320.825 8       362.840          50.000    21804205.180 8  87796580.799 8       280.456          51.000
C12  23178004.391 5 120693943.363 5     -2248.648          31.000    23178000.578 4  93328207.504 4     -1738.779          27.000
C25  22597188.594 8 117669495.370 8     -1833.652          51.000
E13  24207099.312 8 127209169.255 8     -1697.086          51.000    24207100.688 8  97471984.363 8     -1300.388          51.000
E21  24309783.375 8 127748750.398 8     -1771.398          51.000    24309785.781 8  97885435.682 8     -1357.317          51.000
E26  22586770.188 8 118694390.726 8      1100.875          51.000    22586772.602 8  90947607.748 8       843.546          51.000
> 2020 05 05 13 24 30.0000000  0 15        .000000000000
G18  20471869.359 8 107580472.952 8       944.035          50.000    20471870.906 8  83828951.527 8       735.612          50.000
G21  20720917.742 8 108889178.286 8       559.660          51.000    20720916.523 8  84848689.113 8       436.102          49.000
G25  23602850.516 7 124033779.572 7     -3301.930          44.000    23602853.023 7  96649723.521 7     -2572.932          44.000
G31  21885568.477 8 115009433.870 8     -2123.273          49.000    21885567.484 8  89617748.944 8     -1654.502          49.000
R12  21001258.320 8 112184951.571 8     -3550.379          51.000    21001262.586 7  87254961.002 7     -2761.409          44.000
R13  19270362.055 6 102902651.024 6       311.465          41.000    19270364.734 7  80035413.616 7       242.247          45.000
R23  19448105.930 8 104034321.754 8      1052.930          51.000    19448110.234 6  80915539.368 6       818.948          40.000
R24  21940345.773 8 117324916.087 8      3270.191          48.000    21940347.938 7  91252669.766 7      2543.482          43.000
C05  39622998.789 5 206327352.273 5        16.469          35.000    39622999.852 6 159545400.020 6        12.318          37.000
C11  21802146.641 8 113529601.825 8       351.875          50.000    21802146.484 8  87788292.185 8       272.092          51.000
C12  23190973.172 5 120761475.979 5     -2254.098          34.000    23190971.602 4  93380426.862 4     -1743.023          29.000
C25  22607793.898 8 117724719.499 8     -1847.992          51.000
E13  24216811.828 8 127260208.621 8     -1705.496          51.000    24216813.352 8  97511092.446 8     -1306.878          51.000
E21  24319925.992 8 127802048.723 8     -1781.801          51.000    24319928.062 8  97926274.645 8     -1365.249          51.000
E26  22580518.383 8 118661536.578 8      1089.395          51.000    22580520.711 8  90922433.792 8       834.728          51.000
> 2020 05 05 13 25  0.0000000  0 16        .000000000000
G18  20466533.844 8 107552434.979 8       925.141          50.000    20466535.258 8  83807103.766 8       720.889          50.000
G21  20717770.023 8 108872635.637 8       543.164          51.000    20717768.633 8  84835798.773 8       423.245          49.000
G25  23621715.328 7 124132915.583 7     -3307.348          45.000    23621716.430 7  96726972.314 7     -2577.154          45.000
G29  21574649.656 5 113375565.990 5     -2170.613          31.000    21574651.469 5  88344585.947 5     -1691.381          32.000
G31  21897731.828 8 115073352.216 8     -2137.914          50.000    21897730.969 8  89667555.409 8     -1665.907          51.000
R12  21021240.781 8 112291686.215 8     -3565.355          51.000    21021243.852 7  87337976.764 7     -2773.054          46.000
R13  19268683.672 6 102893689.805 6       285.777          41.000    19268686.773 7  80028443.777 7       222.271          45.000
R23  19442252.672 8 104003011.874 8      1034.281          50.000    19442257.477 6  80891187.243 6       804.441          41.000
R24  21922030.750 8 117226976.178 8      3259.078          48.000    21922034.047 7  91176494.335 7      2534.839          44.000
C05  39622906.047 6 206326869.647 6        16.465          36.000    39622907.141 6 159545026.830 6        12.436          37.000
C11  21800149.992 8 113519203.515 8       341.312          51.000    21800149.773 8  87780251.563 8       263.915          51.000
C12  23203970.867 6 120829157.674 6     -2258.312          36.000    23203979.453 4  93432809.494 4     -1746.690          27.000
C25  22618480.219 8 117780366.119 8     -1861.812          51.000
E13  24226571.094 8 127311493.651 8     -1713.504          51.000    24226572.875 8  97550388.758 8     -1312.992          51.000
E21  24330126.164 8 127855650.303 8     -1791.754          51.000    24330127.797 8  97967345.971 8     -1372.920          51.000
E26  22574330.562 8 118629020.396 8      1078.234          51.000    22574333.102 8  90897518.794 8       826.207          51.000
> 2020 05 05 13 25 30.0000000  0 16        .000000000000
G18  20461306.422 8 107524964.104 8       905.918          51.000    20461307.539 8  83785697.894 8       705.910          51.000
G21  20714717.656 8 108856593.846 8       526.141          51.000    20714715.641 8  84823298.680 8       409.980          49.000
G25  23640613.086 7 124232223.847 7     -3313.250          45.000    23640612.984 7  96804355.317 7     -2581.756          45.000
G29  21587056.766 5 113440748.788 5     -2176.934          35.000    21587057.523 5  88395392.543 5     -1696.306          35.000
G31  21909979.227 8 115137712.234 8     -2152.934          50.000    21909978.648 8  89717706.047 8     -1677.614          50.000
R12  21041307.109 8 112398870.381 8     -3580.582          51.000    21041309.914 7  87421342.151 7     -2784.897          46.000
R13  19267149.688 6 102885500.510 6       260.012          40.000    19267153.328 7  80022074.322 7       202.228          45.000
R23  19436504.445 8 103972264.919 8      1015.156          50.000    19436510.055 6  80867272.961 6       789.566          41.000
R24  21903777.969 7 117129370.936 7      3247.594          47.000    21903781.781 7  91100579.155 7      2525.906          42.000
C05  39622813.375 6 206326386.658 6        15.984          36.000    39622814.492 6 159544654.129 6        12.046          37.000
C11  21798214.328 8 113509122.740 8       330.473          51.000    21798214.156 8  87772456.475 8       255.488          51.000
C12  23216996.430 5 120896984.657 5     -2263.188          35.000    23217004.500 4  93485252.672 4     -1749.992          28.000
C25  22629246.859 8 117836431.264 8     -1876.047          51.000
E13  24236376.250 8 127363020.213 8     -1721.852          51.000    24236378.023 8  97589870.134 8     -1319.359          51.000
E21  24340383.328 8 127909552.020 8     -1802.055          51.000    24340384.555 8  98008647.266 8     -1380.777          51.000
E26  22568206.438 8 118596839.426 8      1066.891          51.000    22568209.312 8  90872860.664 8       817.464          51.000
> 2020 05 05 13 26  0.0000000  0 16        .000000000000
G18  20456188.688 8 107498069.402 8       887.066          51.000    20456189.695 8  83764741.021 8       691.224          50.000
G21  20711761.922 8 108841060.898 8       509.363          51.000    20711759.547 8  84811195.100 8       396.906          50.000
G25  23659545.188 7 124331711.904 7     -3319.074          46.000    23659545.133 7  96881878.385 7     -2586.292          46.000
G29  21599504.234 6 113506161.445 6     -2184.715          37.000    21599504.656 6  88446363.441 6     -1702.372          36.000
G31  21922311.695 8 115202520.732 8     -2167.500          50.000    21922311.297 8  89768206.172 8     -1688.961          49.000
R12  21061458.094 8 112506509.778 8     -3595.363          51.000    21061460.711 7  87505061.605 7     -2796.397          44.000
R13  19265762.242 6 102878093.131 6       234.160          40.000    19265766.352 7  80016313.021 7       182.125          45.000
R23  19430863.219 8 103942089.613 8       996.449          49.000    19430869.227 6  80843803.264 6       775.016          41.000
R24  21885589.992 7 117032110.466 7      3236.402          47.000    21885592.648 7  91024932.188 7      2517.205          42.000
C05  39622722.523 6 206325913.850 6        15.496          36.000    39622723.633 6 159544288.525 6        12.170          37.000
C11  21796340.875 8 113499367.417 8       319.855          51.000    21796340.742 8  87764913.034 8       247.248          51.000
C12  23230050.570 5 120964964.177 5     -2268.148          33.000    23230056.711 5  93537813.786 5     -1753.916          30.000
C25  22640095.211 8 117892922.151 8     -1889.938          51.000
E13  24246228.750 8 127414795.483 8     -1729.926          51.000    24246230.242 8  97629542.083 8     -1325.495          51.000
E21  24350699.156 8 127963762.089 8     -1812.059          51.000    24350699.562 8  98050184.825 8     -1388.446          50.000
E26  22562148.125 8 118565002.353 8      1055.629          51.000    22562151.070 8  90848466.029 8       808.808          51.000
> 2020 05 05 13 26 30.0000000  0 18        .000000000000
G18  20451177.375 8 107471733.951 8       868.043          51.000    20451178.094 8  83744219.920 8       676.397          50.000
G21  20708899.531 8 108826019.567 8       492.617          50.000    20708897.258 8  84799474.601 8       383.858          50.000
G25  23678508.148 7 124431361.020 7     -3324.898          46.000    23678508.641 7  96959526.994 7     -2590.830          47.000
G29  21611988.664 6 113571766.414 6     -2190.652          40.000    21611989.031 6  88497484.158 6     -1706.999          38.000
G31  21934725.609 8 115267757.745 8     -2182.305          50.000    21934725.609 8  89819040.175 8     -1700.500          50.000
R12  21081689.531 8 112614583.865 8     -3610.242          51.000    21081691.852 7  87589119.109 7     -2807.969          42.000
R13  19264518.312 6 102871451.125 6       207.945          40.000    19264522.539 7  80011147.008 7       161.735          45.000
R22  20999942.359 5 112099048.504 5     -3148.336          31.000    20999929.680 4  87188150.300 4     -2448.706          25.000
R23  19425325.562 8 103912467.325 8       977.672          50.000    19425331.469 6  80820763.693 6       760.411          41.000
R24  21867463.625 8 116935178.622 8      3224.984          48.000    21867465.281 7  90949540.845 7      2508.321          43.000
C05  39622630.156 5 206325432.089 5        15.305          35.000    39622631.266 6 159543916.780 6        12.052          37.000
C11  21794526.570 8 113489919.717 8       309.270          51.000    21794526.312 8  87757607.475 8       239.216          51.000
C12  23243130.211 5 121033077.752 5     -2273.062          30.000    23243135.359 6  93590483.554 6     -1757.383          36.000
C24  26231208.203 4 136592782.262 4     -3480.809          28.000
C25  22651021.844 8 117949820.171 8     -1903.824          51.000
E13  24256125.047 8 127466800.643 8     -1737.754          51.000    24256126.492 8  97669390.190 8     -1331.508          51.000
E21  24361070.297 8 128018262.652 8     -1821.969          51.000    24361070.094 8  98091944.961 8     -1396.066          50.000
E26  22556151.906 8 118533491.714 8      1044.477          51.000    22556155.047 8  90824321.517 8       800.328          51.000
> 2020 05 05 13 27  0.0000000  0 18        .000000000000
G18  20446273.664 8 107445963.773 8       849.707          51.000    20446273.664 8  83724139.274 8       662.109          50.000
G21  20706131.586 8 108811475.030 8       476.555          49.000    20706129.461 8  84788141.193 8       371.341          49.000
G25  23697502.492 7 124531175.720 7     -3329.762          46.000    23697503.805 7  97037304.625 7     -2594.623          46.000
G29  21624510.602 6 113637568.218 6     -2196.836          37.000    21624509.789 6  88548758.231 6     -1711.838          38.000
G31  21947222.031 8 115333426.934 8     -2196.027          50.000    21947222.375 8  89870210.945 8     -1711.193          50.000
R12  21102002.094 8 112723095.382 8     -3624.168          49.000    21102004.305 7  87673516.858 7     -2818.800          43.000
R13  19263419.047 6 102865581.413 6       182.992          41.000    19263423.352 7  80006581.678 7       142.327          45.000
R22  21017668.094 5 112193602.777 5     -3155.582          30.000    21017662.461 4  87261769.615 4     -2454.345          26.000
R23  19419892.531 8 103883403.477 8       959.645          50.000    19419897.938 6  80798158.502 6       746.390          40.000
R24  21849398.930 7 116838582.560 7      3214.465          47.000    21849401.180 7  90874410.615 7      2500.142          44.000
C05  39622537.414 5 206324949.861 5        16.016          35.000    39622538.484 6 159543543.147 6        12.442          37.000
C11  21792772.391 8 113480784.691 8       299.410          51.000    21792772.102 8  87750543.706 8       231.450          51.000
C12  23256236.438 5 121101325.896 5     -2277.570          30.000    23256241.438 6  93643260.348 6     -1760.872          36.000
C24  26251265.289 4 136697226.323 4     -3481.980          29.000
C25  22662027.711 8 118007129.641 8     -1917.051          51.000
E13  24266065.898 8 127519039.966 8     -1745.133          51.000    24266067.672 8  97709417.727 8     -1337.204          51.000
E21  24371497.914 8 128073058.918 8     -1831.422          51.000    24371496.922 8  98133931.677 8     -1403.312          50.000
E26  22550218.523 8 118502313.157 8      1033.816          51.000    22550222.055 8  90800431.472 8       792.148          51.000
> 2020 05 05 13 27 30.0000000  0 18        .000000000000
G18  20441480.953 8 107420777.473 8       830.426          51.000    20441480.688 8  83704513.614 8       647.088          51.000
G21  20703461.438 8 108797445.076 8       459.695          48.000    20703459.758 8  84777208.747 8       358.204          49.000
G25  23716531.297 7 124631172.912 7     -3335.500          45.000    23716533.633 7  97115224.453 7     -2599.094          46.000
G29  21637073.344 6 113703584.083 6     -2203.410          39.000    21637072.734 6  88600199.184 6     -1716.943          39.000
G31  21959803.820 8 115399544.223 8     -2210.719          49.000    21959803.898 8  89921730.903 8     -1722.638          49.000
R12  21122398.406 8 112832059.874 8     -3639.043          48.000    21122403.070 7  87758267.004 7     -2830.367          46.000
R13  19262468.219 6 102860504.096 6       156.820          41.000    19262472.484 7  80002632.642 7       121.971          45.000
R22  21035413.727 4 112288466.150 4     -3163.910          28.000
R23  19414567.156 8 103854916.403 8       940.566          50.000    19414572.242 6  80776001.891 6       731.552          40.000
R24  21831400.695 7 116742342.226 7      3202.613          47.000    21831403.695 7  90799557.014 7      2490.921          44.000
C05  39622447.578 6 206324482.306 6        16.039          36.000    39622448.664 6 159543181.612 6        12.439          37.000
C11  21791081.414 8 113471979.785 8       288.562          51.000    21791081.156 8  87743735.202 8       223.216          51.000
C12  23269373.602 5 121169732.965 5     -2281.859          33.000    23269377.344 5  93696157.161 5     -1764.494          34.000
C24  26271332.281 5 136801718.716 5     -3483.328          31.000
C25  22673115.844 8 118064867.187 8     -1931.055          51.000
E13  24276054.500 8 127571530.162 8     -1753.184          51.000    24276056.562 8  97749637.484 8     -1343.399          51.000
E21  24381985.203 8 128128168.619 8     -1841.625          51.000    24381984.109 8  98176158.550 8     -1411.118          50.000
E26  22544351.961 8 118471484.789 8      1022.355          51.000    22544355.570 8  90776809.749 8       783.372          51.000
> 2020 05 05 13 28  0.0000000  0 16        .000000000000
G18  20436794.906 8 107396151.877 8       811.406          51.000    20436794.461 8  83685324.863 8       632.265          51.000
G21  20700884.680 8 108783906.141 8       443.094          49.000    20700883.578 8  84766658.938 8       345.268          49.000
G25  23735589.836 7 124731327.820 7     -3341.113          45.000    23735592.805 7  97193267.170 7     -2603.468          44.000
G29  21649671.766 6 113769789.126 6     -2209.258          37.000    21649671.070 5  88651787.582 5     -1721.497          35.000
G31  21972465.773 8 115466083.536 8     -2225.160          49.000    21972465.586 8  89973579.698 8     -1733.891          49.000
R12  21142875.789 8 112941450.277 8     -3653.473          50.000    21142882.117 8  87843348.452 8     -2841.590          48.000
R13  19261661.703 7 102856195.798 7       130.613          42.000    19261665.500 7  79999281.740 7       101.588          44.000
R23  19409345.094 8 103826981.352 8       921.832          50.000    19409350.242 6  80754274.627 6       716.980          40.000
R24  21813465.766 8 116646434.694 8      3191.312          48.000    21813467.836 7  90724962.355 7      2482.138          43.000
C05  39622356.367 5 206324007.003 5        15.891          35.000    39622357.391 6 159542813.089 6        12.369          37.000
C11  21789449.352 8 113463480.976 8       278.066          51.000    21789448.867 8  87737163.379 8       215.133          51.000
C12  23282536.742 5 121238270.935 5     -2286.621          33.000    23282537.578 6  93749155.028 6     -1768.188          36.000
C25  22684281.484 8 118123008.067 8     -1944.812          51.000
E13  24286086.117 8 127624246.250 8     -1760.938          51.000    24286088.078 8  97790030.331 8     -1349.332          51.000
E21  24392527.500 8 128183567.747 8     -1851.488          51.000    24392526.211 8  98218607.206 8     -1418.706          51.000
E26  22538547.844 8 118440983.034 8      1011.195          51.000    22538551.273 8  90753438.280 8       774.842          51.000
> 2020 05 05 13 28 30.0000000  0 19        .000000000000
G18  20432217.086 8 107372095.428 8       792.066          51.000    20432216.414 8  83666579.571 8       617.195          51.000
G20  24529979.031 6 128905903.094 6      3331.961          36.000
G21  20698403.062 8 108770865.807 8       426.086          50.000    20698402.258 8  84756497.643 8       332.015          50.000
G25  23754679.680 7 124831647.289 7     -3347.016          45.000    23754682.781 7  97271438.123 7     -2608.067          45.000
G29  21662307.211 5 113836190.587 5     -2217.078          35.000    21662307.969 5  88703528.938 5     -1727.590          33.000
G31  21985208.922 8 115533050.628 8     -2239.641          48.000    21985208.336 8  90025761.840 8     -1745.175          48.000
R12  21163434.922 8 113051272.034 8     -3668.273          51.000    21163441.484 8  87928765.377 8     -2853.102          49.000
R13  19261000.875 6 102852666.385 6       104.480          41.000    19261004.398 7  79996536.626 7        81.263          45.000
R22  21071072.859 5 112478748.412 5     -3178.039          32.000    21071071.094 4  87483497.099 4     -2471.802          29.000
R23  19404227.906 8 103799605.801 8       902.820          51.000    19404232.820 6  80732982.557 6       702.197          40.000
R24  21795594.188 7 116550869.706 7      3179.402          45.000    21795595.602 7  90650634.113 7      2472.868          43.000
C05  39622265.023 5 206323531.042 5        15.480          35.000    39622266.258 6 159542445.857 6        11.804          37.000
C11  21787877.562 8 113455295.617 8       267.430          51.000    21787877.062 8  87730833.950 8       206.712          51.000
C12  23295726.297 5 121306946.272 5     -2291.254          31.000    23295725.078 5  93802259.267 5     -1772.250          34.000
C24  26311481.992 5 137010792.341 5     -3486.477          31.000
C25  22695525.633 8 118181558.889 8     -1958.812          51.000
E13  24296161.945 8 127677194.913 8     -1769.121          51.000    24296163.672 8  97830601.380 8     -1355.575          51.000
E21  24403126.359 8 128239263.859 8     -1861.816          51.000    24403125.211 8  98261283.424 8     -1426.554          51.000
E26  22532807.289 8 118410815.872 8       999.676          51.000    22532810.562 8  90730323.202 8       766.045          51.000
> 2020 05 05 13 29  0.0000000  0 19        .000000000000
G18  20427746.141 8 107348601.491 8       772.930          51.000    20427745.906 8  83648272.617 8       602.286          51.000
G20  24510949.828 6 128805903.577 6      3332.559          38.000
G21  20696015.156 8 108758316.700 8       409.309          50.000    20696014.367 8  84746719.120 8       318.942          50.000
G25  23773799.547 7 124932123.208 7     -3352.699          46.000    23773802.484 7  97349730.977 7     -2612.496          46.000
G29  21674978.547 6 113902781.227 6     -2223.625          37.000    21674979.492 5  88755416.922 5     -1732.692          34.000
G31  21998031.844 8 115600436.377 8     -2253.953          49.000    21998031.203 8  90078270.177 8     -1756.327          49.000
R12  21184072.883 8 113161514.674 8     -3682.613          50.000    21184079.266 8  88014509.638 8     -2864.255          48.000
R13  19260484.594 6 102849908.911 6        78.105          41.000    19260488.148 7  79994391.908 7        60.749          45.000
R23  19399213.773 8 103772782.404 8       883.973          50.000    19399218.367 6  80712119.919 6       687.534          40.000
R24  21777783.875 7 116455641.658 7      3167.855          45.000    21777787.242 7  90576567.856 7      2463.888          44.000
C05                                                                  39622173.773 6 159542074.485 6        11.638          37.000
C11  21786364.484 8 113447416.337 8       256.684          51.000    21786364.203 8  87724741.196 8       198.517          51.000
C12  23308939.938 4 121375766.022 4     -2297.055          29.000    23308938.109 6  93855463.339 6     -1775.470          37.000
C24  26331567.594 5 137115372.917 5     -3487.516          32.000
C25  22706846.586 8 118240511.357 8     -1972.500          51.000
E01  23835611.875 7 125256984.638 7       844.508          43.000    23835607.414 6  95976117.618 6       646.794          38.000
E13  24306280.352 8 127730367.712 8     -1777.055          51.000    24306282.031 8  97871344.166 8     -1361.660          51.000
E21  24413780.297 8 128295249.505 8     -1871.848          51.000    24413779.719 8  98304181.507 8     -1434.282          51.000
E26  22527129.070 8 118380976.238 8       988.301          51.000    22527132.227 8  90707459.091 8       757.299          51.000
> 2020 05 05 13 29 30.0000000  0 20        .000000000000
G18  20423386.570 8 107325693.480 8       754.559          50.000    20423386.711 8  83630422.223 8       587.968          51.000
G20  24491920.094 6 128705901.409 6      3334.020          36.000
G21  20693724.938 8 108746281.583 8       393.238          50.000    20693724.234 8  84737341.139 8       306.422          50.000
G25  23792953.516 7 125032777.400 7     -3357.293          46.000    23792956.641 7  97428162.717 7     -2616.075          46.000
G29  21687690.195 6 113969580.964 6     -2229.551          38.000    21687690.773 6  88807468.599 6     -1737.315          37.000
G31  22010938.734 8 115668261.577 8     -2267.406          51.000    22010938.109 8  90131120.915 8     -1766.813          51.000
R12  21204793.188 8 113272198.917 8     -3696.082          48.000    21204799.383 7  88100597.368 7     -2874.734          47.000
R13  19260117.633 7 102847948.667 7        52.430          42.000    19260120.961 7  79992867.273 7        40.779          44.000
R22  21106876.055 5 112669861.868 5     -3193.230          33.000
R23  19394306.688 8 103746533.963 8       866.059          49.000    19394311.758 6  80691704.472 6       673.601          40.000
R24  21760044.273 8 116360775.156 8      3156.738          48.000    21760047.797 7  90502782.817 7      2455.244          45.000
C05  39622083.258 5 206322584.363 5        16.066          35.000    39622084.367 6 159541714.847 6        12.254          37.000
C11  21784914.414 8 113439865.283 8       246.879          51.000    21784914.203 8  87718902.224 8       190.954          51.000
C12                                                                  23322180.312 5  93908784.253 5     -1778.606          35.000
C24  26351662.875 5 137220000.165 5     -3487.465          34.000
C25  22718248.711 8 118299886.986 8     -1985.609          51.000
E01  23830821.477 7 125231808.612 7       834.234          43.000    23830816.453 6  95956826.909 6       639.266          38.000
E13  24316445.531 8 127783786.392 8     -1784.000          51.000    24316447.336 8  97912275.351 8     -1366.928          51.000
E21  24424493.336 8 128351547.398 8     -1881.105          51.000    24424493.586 8  98347318.824 8     -1441.355          51.000
E26  22521517.805 8 118351487.278 8       977.840          51.000    22521520.938 8  90684863.660 8       749.260          51.000
> 2020 05 05 13 30  0.0000000  0 19        .000000000000
G18  20419134.938 8 107303352.061 8       735.281          50.000    20419135.016 8  83613013.313 8       572.946          51.000
G20  24472886.344 5 128605879.699 5      3334.516          34.000    24472890.375 5 100212393.782 5      2598.324          31.000
G21  20691528.859 8 108734740.345 8       376.496          51.000    20691528.188 8  84728347.972 8       293.374          51.000
G25  23812137.289 7 125133589.007 7     -3363.082          46.000    23812141.016 7  97506717.144 7     -2620.586          46.000
G29  21700438.117 5 114036570.209 5     -2236.379          33.000    21700439.133 5  88859668.031 5     -1742.633          32.000
G31  22023925.234 8 115736504.030 8     -2281.688          51.000    22023924.289 8  90184296.814 8     -1777.941          51.000
R12  21225591.531 8 113383301.741 8     -3710.398          48.000    21225597.758 7  88187010.643 7     -2885.868          44.000
R13  19259896.102 6 102846766.325 6        26.227          41.000    19259899.391 7  79991947.658 7        20.398          44.000
R22  21124841.797 5 112765770.548 5     -3200.586          35.000
R23  19389503.625 8 103720840.029 8       847.266          50.000    19389508.930 6  80671720.297 6       658.984          41.000
R24  21742369.047 8 116266251.562 8      3145.047          50.000    21742372.508 7  90429264.536 7      2446.151          46.000
C05  39621993.305 6 206322116.200 6        15.461          36.000    39621994.406 6 159541352.826 6        12.128          37.000
C11  21783523.508 8 113432622.459 8       236.352          51.000    21783523.188 8  87713301.609 8       182.687          51.000
C12                                                                  23335447.844 5  93962205.979 5     -1782.360          35.000
C25  22729728.023 8 118359664.869 8     -1999.359          51.000
E01  23826092.258 7 125206957.691 7       822.906          42.000    23826087.773 6  95937785.320 6       630.386          39.000
E13  24326653.508 8 127837429.856 8     -1791.836          51.000    24326655.352 8  97953378.778 8     -1372.986          51.000
E21  24435261.836 8 128408137.302 8     -1891.246          51.000    24435262.828 8  98390679.884 8     -1449.074          51.000
E26  22515969.289 8 118322329.219 8       966.391          51.000    22515972.758 8  90662521.772 8       740.514          51.000
> 2020 05 05 13 30 30.0000000  0 18        .000000000000
G18  20414993.477 8 107281589.494 8       713.773          50.000    20414993.938 8  83596055.474 8       556.187          50.000
G21  20689428.898 8 108723704.532 8       357.414          49.000    20689428.289 8  84719748.645 8       278.504          50.000
G25  23831353.000 7 125234568.817 7     -3370.668          45.000    23831357.336 7  97585402.666 7     -2626.495          45.000
G29  21713224.352 5 114103759.794 5     -2245.758          30.000    21713225.742 5  88912023.480 5     -1749.938          30.000
G31  22036992.914 8 115805173.621 8     -2298.121          51.000    22036991.672 8  90237805.554 8     -1790.744          51.000
R12  21246470.656 8 113494832.166 8     -3726.758          49.000    21246474.828 6  88273756.448 6     -2898.595          41.000
R13  19259822.938 7 102846374.749 7        -2.316          42.000    19259825.688 7  79991643.099 7        -1.802          44.000
R22  21142852.375 5 112861901.311 5     -3210.215          34.000
R23  19384805.969 8 103695711.916 8       826.047          49.000    19384811.648 6  80652176.224 6       642.481          40.000
R24  21724759.992 8 116172084.516 8      3130.945          50.000    21724763.406 7  90356023.561 7      2435.180          46.000
C05  39621905.102 5 206321656.829 5        12.754          35.000    39621906.180 6 159540997.612 6        10.330          37.000
C11  21782194.000 8 113425699.162 8       223.418          51.000    21782193.641 8  87707948.088 8       172.773          51.000
C12                                                                  23348742.875 5  94015736.796 5     -1787.894          34.000
C25  22741286.867 8 118419855.483 8     -2015.238          51.000
E01  23821426.758 6 125182444.995 6       809.520          41.000    23821424.102 6  95919002.863 6       620.206          40.000
E13  24336906.289 8 127891308.672 8     -1801.910          51.000    24336907.953 8  97994662.544 8     -1380.729          51.000
E21  24446088.062 8 128465030.800 8     -1903.539          51.000    24446089.352 8  98434273.568 8     -1458.508          51.000
E26  22510485.953 8 118293513.950 8       952.746          51.000    22510489.523 8  90640442.542 8       730.053          51.000
> 2020 05 05 13 31  0.0000000  0 17        .000000000000
G18  20410965.789 8 107260424.305 8       696.391          50.000    20410966.352 8  83579563.135 8       542.642          50.000
G21  20687428.344 8 108713192.044 8       342.660          50.000    20687427.766 8  84711557.118 8       267.008          50.000
G25  23850603.758 7 125335733.856 7     -3374.066          45.000    23850608.945 7  97664232.497 7     -2629.146          45.000
G31  22050144.773 8 115874285.913 8     -2310.020          50.000    22050143.555 8  90291659.248 8     -1800.018          50.000
R12  21267432.953 8 113606805.798 8     -3738.770          50.000    21267434.609 7  88360846.881 7     -2907.938          42.000
R13  19259901.602 6 102846793.721 6       -26.188          41.000    19259904.094 7  79991968.944 7       -20.368          43.000
R23  19380217.242 8 103671167.752 8       809.371          49.000    19380223.070 6  80633086.318 6       629.511          39.000
R24  21707220.039 8 116078293.750 8      3120.941          48.000    21707223.414 7  90283075.244 7      2427.402          45.000
C05  39621822.078 5 206321224.443 5        15.117          35.000    39621823.102 6 159540663.309 6        11.554          37.000
C11  21780929.305 8 113419112.809 8       214.891          51.000    21780928.953 8  87702855.106 8       166.279          51.000
C12                                                                  23362068.820 5  94069389.787 5     -1789.594          34.000
C25  22752928.492 8 118480475.520 8     -2026.855          51.000
E01  23816828.602 6 125158290.019 6       800.223          39.000    23816829.094 6  95900494.455 6       613.110          41.000
E13  24347207.000 8 127945439.697 8     -1807.562          51.000    24347208.508 8  98036139.557 8     -1384.991          51.000
E21  24456975.484 8 128522245.597 8     -1911.480          51.000    24456977.406 8  98478113.434 8     -1464.575          51.000
E26  22505071.477 8 118265059.670 8       943.410          51.000    22505074.734 8  90618639.916 8       722.915          51.000
E33  26875662.945 6 141232558.339 6      2746.840          41.000
> 2020 05 05 13 31 30.0000000  0 18        .000000000000
G18  20407038.898 8 107239787.683 8       679.566          50.000    20407039.312 8  83563482.655 8       529.532          50.000
G21  20685514.375 8 108703133.462 8       328.211          49.000    20685513.398 8  84703719.260 8       255.749          49.000
G25  23869876.906 7 125437013.837 7     -3377.297          47.000    23869882.164 7  97743151.912 7     -2631.663          47.000
G29  21738906.594 5 114238725.167 5     -2253.383          30.000
G31  22063367.266 8 115943770.157 8     -2321.770          50.000    22063366.070 8  90345802.792 8     -1809.171          50.000
R12  21288464.672 8 113719149.270 8     -3750.395          50.000    21288465.945 7  88448225.062 7     -2916.974          44.000
R13  19260119.164 7 102847954.111 7       -50.477          42.000    19260121.102 7  79992871.451 7       -39.263          43.000
R23  19375724.789 8 103647136.646 8       793.039          50.000    19375730.250 6  80614395.476 6       616.811          38.000
R24  21689737.023 8 115984810.457 8      3111.496          48.000    21689739.969 7  90210366.040 7      2420.053          44.000
C05  39621731.016 5 206320750.697 5        16.973          35.000    39621732.102 6 159540296.956 6        13.290          36.000
C11  21779715.781 8 113412794.350 8       206.691          50.000    21779715.539 8  87697969.289 8       159.794          51.000
C12  23375407.656 4 121721886.757 4     -2316.191          29.000    23375412.305 5  94123111.075 5     -1791.346          31.000
C25  22764639.531 8 118541455.053 8     -2038.094          51.000
E01  23812285.781 6 125134424.761 6       791.113          40.000    23812288.672 7  95882208.041 7       606.211          42.000
E13  24357542.281 8 127999752.503 8     -1812.867          51.000    24357543.859 8  98077755.853 8     -1389.095          51.000
E21  24467910.766 8 128579712.137 8     -1919.250          51.000    24467912.703 8  98522146.202 8     -1470.582          51.000
E26  22499712.391 8 118236897.222 8       934.441          51.000    22499715.445 8  90597060.911 8       715.977          51.000
E33  26859991.984 6 141150207.551 6      2743.902          41.000
> 2020 05 05 13 32  0.0000000  0 17        .000000000000
G18  20403217.906 8 107219708.760 8       658.375          51.000    20403218.711 8  83547836.774 8       513.019          50.000
G21  20683692.148 8 108693557.174 8       309.531          50.000    20683690.852 8  84696257.227 8       241.193          50.000
G25  23889177.258 7 125538436.478 7     -3384.656          47.000    23889182.422 7  97822182.482 7     -2637.398          47.000
G29  21751796.336 5 114306455.372 5     -2262.109          34.000    21751797.430 5  89069964.681 5     -1762.683          34.000
G31  22076665.148 8 116013652.345 8     -2337.680          48.000    22076664.328 8  90400256.450 8     -1821.569          48.000
R12  21309569.852 8 113831889.031 8     -3766.203          50.000    21309571.656 7  88535911.522 7     -2929.269          45.000
R13  19260481.078 6 102849886.224 6       -78.949          41.000    19260482.758 7  79994374.173 7       -61.405          43.000
R23  19371333.938 8 103623647.185 8       772.332          49.000    19371339.297 6  80596125.944 6       600.706          38.000
R24  21672318.820 8 115891665.231 8      3097.574          51.000    21672320.812 7  90137919.782 7      2409.227          45.000
C05  39621637.578 5 206320264.128 5        14.883          35.000    39621638.719 6 159539920.748 6        11.415          38.000
C11  21778559.102 8 113406771.907 8       194.188          50.000    21778558.750 8  87693312.352 8       150.092          51.000
C25  22776424.633 8 118602821.349 8     -2053.551          51.000
E01  23807804.508 6 125110879.277 6       777.883          40.000    23807808.078 7  95864166.690 7       595.878          42.000
E13  24367917.523 8 128054274.578 8     -1822.582          51.000    24367919.281 8  98119532.495 8     -1396.539          51.000
E21  24478899.250 8 128637458.865 8     -1931.254          50.000    24478901.664 8  98566393.660 8     -1479.777          51.000
E26  22494414.023 8 118209055.456 8       921.066          51.000    22494417.062 8  90575727.632 8       705.695          51.000
E33  26844346.156 6 141067993.535 6      2736.402          40.000
> 2020 05 05 13 32 30.0000000  0 18        .000000000000
G18  20399512.852 8 107200237.873 8       639.453          51.000    20399513.531 8  83532664.667 8       498.275          50.000
G20  24377697.562 5 128105663.855 5      3335.293          32.000
G21  20681971.180 8 108684513.014 8       293.266          51.000    20681969.734 8  84689209.836 8       228.519          50.000
G25  23908514.023 7 125640050.700 7     -3389.664          47.000    23908518.531 7  97901362.329 7     -2641.297          47.000
G29  21764727.734 6 114374410.150 6     -2268.301          36.000    21764728.461 5  89122916.458 5     -1767.507          34.000
G31  22090047.727 8 116083980.241 8     -2351.051          48.000    22090047.828 8  90455057.430 8     -1831.988          48.000
R12  21330758.109 8 113945072.771 8     -3779.523          50.000    21330760.266 7  88623943.304 7     -2939.629          43.000
R13  19260997.008 6 102852641.727 6      -105.113          40.000    19260998.656 7  79996517.340 7       -81.755          43.000
R23  19367053.641 8 103600750.028 8       753.988          49.000    19367059.180 6  80578317.063 6       586.435          38.000
R24  21654973.734 8 115798910.256 8      3085.969          50.000    21654975.617 7  90065777.076 7      2400.198          45.000
C05  39621551.156 6 206319814.582 6        15.199          36.000    39621552.500 6 159539572.163 6        11.526          38.000
C11  21777468.719 8 113401094.448 8       184.277          50.000    21777468.289 8  87688922.180 8       142.401          51.000
C25  22788292.789 8 118664622.586 8     -2066.684          51.000
E01  23803394.523 7 125087704.786 7       767.082          42.000    23803397.875 7  95846409.621 7       587.614          42.000
E13  24378341.938 8 128109054.664 8     -1829.594          51.000    24378343.859 8  98161506.845 8     -1401.935          51.000
E21  24489949.992 8 128695535.313 8     -1940.684          49.000    24489953.836 8  98610893.795 8     -1487.044          51.000
E26  22489186.172 8 118181584.358 8       910.172          51.000    22489188.977 8  90554678.356 8       697.431          51.000
E33  26828735.016 6 140985967.250 6      2731.391          36.000
> 2020 05 05 13 33  0.0000000  0 17        .000000000000
G18  20395915.133 8 107181331.315 8       622.188          51.000    20395915.727 8  83517932.300 8       484.824          50.000
G20  24358658.094 5 128005611.351 5      3336.539          31.000
G21  20680342.953 8 108675956.274 8       278.426          51.000    20680341.438 8  84682542.274 8       216.955          51.000
G25  23927878.531 7 125741811.308 7     -3393.078          45.000    23927882.805 7  97980656.259 7     -2643.957          46.000
G31  22103506.953 8 116154707.920 8     -2362.918          49.000    22103507.352 8  90510169.901 8     -1841.235          49.000
R12  21352020.594 8 114058652.930 8     -3791.125          51.000    21352021.188 6  88712283.322 6     -2948.659          39.000
R13  19261658.781 6 102856176.053 6      -129.594          40.000    19261660.742 7  79999266.270 7      -100.795          44.000
R23  19362875.625 8 103578399.827 8       737.363          48.000    19362880.773 6  80560933.565 6       573.505          38.000
R24  21637692.766 8 115706502.296 8      3075.926          50.000    21637695.609 7  89993904.261 7      2392.387          46.000
C05  39621463.547 5 206319357.589 5        16.816          35.000    39621465.023 6 159539219.536 6        13.233          37.000
C11  21776435.930 8 113395717.965 8       175.551          49.000    21776435.812 8  87684764.756 8       135.928          51.000
C25  22800235.641 8 118726813.795 8     -2078.195          51.000
E01  23799047.508 7 125064858.606 7       757.609          43.000    23799050.086 7  95828904.107 7       580.422          42.000
E13  24388806.711 8 128164047.492 8     -1835.145          51.000    24388808.711 8  98203644.188 8     -1406.105          51.000
E21  24501054.805 7 128753897.157 7     -1948.617          47.000    24501060.453 8  98655612.612 8     -1493.096          51.000
E26  22484020.523 8 118154439.937 8       900.914          51.000    22484023.133 8  90533879.398 8       690.248          51.000
E33                                                                  26813171.852 6 107965491.506 6      2090.699          38.000
> 2020 05 05 13 33 30.0000000  0 18        .000000000000
G18  20392427.461 8 107163003.630 8       601.605          51.000    20392428.211 8  83503651.015 8       468.783          50.000
G20  24339620.695 5 127905569.227 5      3334.820          31.000
G21  20678810.141 8 108667901.087 8       260.441          51.000    20678808.461 8  84676265.508 8       202.941          50.000
G25  23947273.109 7 125843731.536 7     -3399.785          44.000    23947277.539 7  98060074.558 7     -2649.186          44.000
G31  22117044.812 8 116225846.767 8     -2377.703          50.000    22117044.602 8  90565602.739 8     -1852.759          50.000
R12  21373359.383 8 114172640.994 8     -3806.047          51.000    21373358.695 6  88800940.575 6     -2960.262          40.000
R13  19262469.438 6 102860505.368 6      -157.070          40.000    19262471.789 7  80002633.522 7      -122.166          44.000
R22  21251707.422 5 113443056.342 5     -3248.145          31.000
R23  19358802.391 8 103556610.211 8       717.355          48.000    19358807.672 6  80543986.112 6       557.943          39.000
R24  21620479.711 8 115614457.349 8      3062.449          50.000    21620483.477 7  89922313.741 7      2381.905          46.000
C05  39621377.570 5 206318909.409 5        15.363          35.000    39621378.984 6 159538873.021 6        11.880          38.000
C11  21775463.734 8 113390656.038 8       163.781          50.000    21775463.602 8  87680850.583 8       126.746          51.000
C25  22812256.031 8 118789407.734 8     -2092.797          51.000
E01  23794765.930 7 125042356.226 7       744.777          42.000    23794767.781 7  95811662.027 7       570.650          43.000
E13  24399314.328 8 128219266.029 8     -1844.047          51.000    24399316.258 8  98245954.488 8     -1412.947          50.000
E21  24512217.023 8 128812558.214 8     -1959.992          49.000    24512223.680 8  98700560.713 8     -1501.785          51.000
E26  22478919.883 8 118127636.482 8       888.148          51.000    22478922.648 8  90513341.704 8       680.535          51.000
E33                                                                  26797617.797 6 107902873.613 6      2085.566          39.000
> 2020 05 05 13 34  0.0000000  0 18        .000000000000
G18  20389043.922 8 107145223.102 8       577.801          51.000    20389044.469 8  83489796.078 8       450.234          49.000
G20  24320579.344 5 127805508.440 5      3330.219          31.000
G21  20677366.594 8 108660315.115 8       239.383          51.000    20677364.852 8  84670354.368 8       186.535          50.000
G25  23966691.562 7 125945778.261 7     -3409.340          42.000    23966696.945 7  98139591.397 7     -2656.631          43.000
G31  22130654.359 8 116297363.060 8     -2395.926          50.000    22130653.219 8  90621329.655 8     -1866.955          50.000
R12  21394767.359 8 114287001.361 8     -3823.930          49.000    21394769.039 7  88889887.472 7     -2974.168          44.000
R13  19263423.164 6 102865598.108 6      -188.289          39.000    19263425.797 7  80006594.542 7      -146.447          44.000
R22  21269987.430 5 113540586.474 5     -3259.301          32.000
R23  19354827.539 7 103535348.198 7       694.234          47.000    19354833.375 6  80527448.981 6       539.960          39.000
R24  21603328.828 8 115522743.937 8      3045.809          51.000    21603332.820 7  89850981.131 7      2368.962          45.000
C05                                                                  39621288.375 6 159538508.132 6         8.026          37.000
C11  21774545.938 8 113385876.450 8       149.023          50.000    21774545.477 8  87677154.698 8       115.234          51.000
C25  22824347.234 8 118852371.365 8     -2110.609          51.000
E01  23790543.617 7 125020166.934 7       728.742          42.000    23790545.344 7  95794659.830 7       558.399          43.000
E13  24409858.711 8 128274677.011 8     -1855.855          51.000    24409860.523 8  98288412.256 8     -1422.073          50.000
E21  24523430.492 8 128871486.135 8     -1974.414          50.000    24523437.461 8  98745713.281 8     -1512.836          51.000
E26  22473878.094 8 118101141.997 8       872.332          51.000    22473881.156 8  90493040.766 8       668.386          51.000
E33                                                                  26782089.102 6 107840354.503 6      2077.849          39.000
> 2020 05 05 13 34 30.0000000  0 17        .000000000000
G18  20385776.781 8 107128054.434 8       566.812          51.000    20385777.164 8  83476417.901 8       441.672          50.000
G20  24301546.500 5 127705496.027 5      3337.816          34.000
G21  20676024.500 8 108653262.426 8       230.973          51.000    20676023.023 8  84664858.791 8       179.982          51.000
G25  23986146.203 7 126048014.776 7     -3406.160          42.000    23986152.383 7  98219256.152 7     -2654.154          42.000
G31  22144347.242 8 116369318.675 8     -2401.105          50.000    22144345.383 8  90677398.909 8     -1870.991          50.000
R12  21416256.594 7 114401796.747 7     -3828.879          47.000    21416261.195 7  88979172.791 7     -2978.014          46.000
R13  19264532.422 6 102871520.380 6      -206.234          41.000    19264534.703 7  80011200.753 7      -160.405          44.000
R22  21288301.406 5 113638348.235 5     -3257.914          32.000
R23  19350963.352 7 103514678.474 7       683.965          47.000    19350969.727 6  80511372.494 6       531.973          38.000
R24  21586252.414 8 115431429.212 8      3041.996          50.000    21586256.016 7  89779958.626 7      2366.000          44.000
C05  39621203.977 5 206318006.002 5        18.648          35.000    39621205.430 6 159538174.478 6        14.224          37.000
C11  21773694.391 8 113381442.598 8       146.848          49.000    21773694.086 8  87673726.168 8       113.464          51.000
C25  22836521.266 8 118915767.197 8     -2115.762          51.000
E01  23786392.953 7 124998356.402 7       725.703          42.000    23786394.914 7  95777947.860 7       555.873          43.000
E13  24420451.773 8 128330343.651 8     -1855.047          51.000    24420453.859 8  98331065.919 8     -1421.343          50.000
E21  24534707.367 8 128930744.981 8     -1976.066          50.000    24534713.797 8  98791119.385 8     -1514.033          51.000
E26  22468907.234 8 118075020.917 8       869.297          51.000    22468910.391 8  90473025.936 8       666.088          51.000
> 2020 05 05 13 35  0.0000000  0 17        .000000000000
G18  20382610.477 8 107111415.293 8       541.988          51.000    20382611.047 8  83463452.353 8       422.329          51.000
G20  24282507.930 6 127605453.012 6      3331.449          37.000
G21  20674768.086 8 108646659.834 8       208.699          51.000    20674766.820 8  84659713.931 8       162.626          51.000
G25  24005621.266 6 126150357.459 6     -3416.602          41.000    24005628.016 7  98299003.645 7     -2662.287          42.000
G31  22158107.281 8 116441628.656 8     -2420.062          50.000    22158105.406 8  90733744.325 8     -1885.766          50.000
R12  21437810.891 7 114516940.030 7     -3847.754          47.000    21437818.094 8  89068728.706 8     -2992.701          48.000
R13  19265781.508 6 102878188.857 6      -238.750          41.000    19265783.602 7  80016387.363 7      -185.697          45.000
R22  21306641.062 5 113736296.704 5     -3270.156          31.000
R23  19347194.188 8 103494516.755 8       659.703          48.000    19347200.977 6  80495691.172 6       513.102          37.000
R24  21569234.617 8 115340430.527 8      3024.152          50.000    21569237.969 7  89709181.914 7      2352.118          44.000
C05  39621113.078 5 206317533.209 5        12.859          35.000    39621114.688 6 159537808.880 6         9.814          37.000
C11  21772893.328 8 113377272.148 8       130.910          49.000    21772893.453 8  87670501.322 8       101.240          51.000
C25  22848762.805 8 118979511.946 8     -2134.383          51.000
E01  23782298.852 7 124976843.331 7       708.523          42.000    23782300.773 7  95761463.803 7       542.802          44.000
E13  24431077.461 8 128386182.121 8     -1867.922          51.000    24431079.938 8  98373851.238 8     -1431.223          50.000
E21  24546031.820 8 128990251.709 8     -1991.434          51.000    24546037.250 8  98836715.434 8     -1525.904          51.000
E26  22463991.656 8 118049190.703 8       852.410          51.000    22463994.758 8  90453233.954 8       653.145          51.000
> 2020 05 05 13 35 30.0000000  0 18        .000000000000
G18  20379570.727 8 107095441.063 8       522.812          51.000    20379571.164 8  83451004.909 8       407.386          51.000
G20  24263490.805 6 127505516.714 6      3330.461          36.000
G21  20673622.844 8 108640642.115 8       192.215          51.000    20673621.492 8  84655024.820 8       149.778          51.000
G25  24025142.039 6 126252940.367 6     -3422.164          41.000    24025148.820 7  98378938.339 7     -2666.621          42.000
G29  21843066.930 5 114786090.975 5     -2306.715          35.000
G31  22171959.742 8 116514426.285 8     -2433.227          50.000    22171958.719 8  90790469.748 8     -1896.018          50.000
R12  21459456.430 8 114632565.741 8     -3860.816          49.000    21459464.781 7  89158659.804 7     -3002.857          47.000
R13  19267195.773 6 102885741.754 6      -265.012          41.000    19267198.125 7  80022261.816 7      -206.120          44.000
R23  19343545.992 7 103475000.190 7       641.148          47.000    19343552.203 5  80480511.625 5       498.671          34.000
R24  21552302.352 8 115249886.545 8      3011.957          51.000    21552305.539 7  89638758.866 7      2342.633          44.000
C05  39621040.094 5 206317152.280 5        11.906          35.000    39621041.719 6 159537515.095 6         9.675          37.000
C11  21772168.570 8 113373498.538 8       120.504          49.000    21772168.812 8  87667583.329 8        93.260          51.000
C25  22861096.922 8 119043738.213 8     -2147.555          51.000
E01  23778287.742 7 124955764.124 7       696.777          43.000    23778289.273 7  95745312.199 7       533.894          44.000
E13  24441761.344 8 128442326.360 8     -1875.141          51.000    24441763.594 8  98416870.838 8     -1436.829          50.000
E21  24557429.273 8 129050141.080 8     -2001.332          51.000    24557433.805 8  98882604.678 8     -1533.401          51.000
E26  22459157.305 8 118023786.502 8       841.121          51.000    22459160.711 8  90433768.401 8       644.525          51.000
E33  26735702.617 5 140497061.417 5      2698.695          34.000    26735692.438 6 107653561.261 6      2067.619          37.000
> 2020 05 05 13 36  0.0000000  0 17        .000000000000
G18  20376625.711 8 107079965.191 8       505.234          50.000    20376626.094 8  83438945.782 8       393.689          50.000
G20  24244463.844 5 127405523.299 5      3331.258          34.000    24244467.148 5  99277039.464 5      2595.785          31.000
G21  20672557.109 8 108635041.997 8       177.441          51.000    20672555.875 8  84650661.106 8       138.266          50.000
G25  24044676.875 7 126355595.705 7     -3425.168          42.000    24044682.781 7  98458929.453 7     -2668.962          42.000
G31  22185872.812 8 116587542.296 8     -2444.809          51.000    22185872.781 8  90847443.279 8     -1905.043          51.000
R12  21481160.367 8 114748501.472 8     -3872.008          49.000    21481168.148 7  89248832.012 7     -3011.562          44.000
R13  19268744.328 6 102894010.290 6      -289.902          41.000    19268746.484 7  80028692.912 7      -225.477          45.000
R23  19339986.117 7 103455957.779 7       624.391          47.000    19339991.570 5  80465700.889 5       485.640          34.000
R24  21535423.969 8 115159629.192 8      3001.383          50.000    21535426.312 7  89568558.763 7      2334.412          44.000
C05  39620953.312 5 206316701.173 5        13.715          35.000    39620954.938 6 159537165.509 6        11.028          36.000
C11  21771488.312 8 113369956.071 8       111.855          49.000    21771488.492 8  87664844.073 8        86.491          51.000
C25  22873491.250 8 119108279.406 8     -2158.961          51.000
E01  23774328.102 7 124934953.273 7       686.891          43.000    23774329.312 7  95729366.220 7       526.319          44.000
E13  24452471.516 8 128498608.398 8     -1880.688          50.000    24452473.141 8  98459996.022 8     -1441.097          48.000
E21  24568867.688 8 129110245.972 8     -2009.496          51.000    24568871.320 8  98928659.048 8     -1539.711          51.000
E26  22454372.383 8 117998641.604 8       831.504          51.000    22454376.297 8  90414501.543 8       637.132          51.000
E33  26720293.125 5 140416087.856 5      2694.703          32.000    26720288.578 6 107591530.937 6      2064.713          37.000
> 2020 05 05 13 36 30.0000000  0 17        .000000000000
G18  20373786.680 8 107065046.040 8       489.945          50.000    20373787.281 8  83427320.484 8       381.776          49.000
G20  24225437.172 6 127305534.646 6      3334.984          36.000
G21  20671582.008 8 108629917.696 8       164.852          50.000    20671581.000 8  84646668.148 8       128.456          48.000
G25  24064236.602 7 126458380.496 7     -3426.426          43.000    24064240.539 7  98539021.402 7     -2669.945          43.000
G31  22199857.156 8 116661032.561 8     -2454.004          50.000    22199858.375 8  90904708.432 8     -1912.211          50.000
R12  21502932.523 8 114864803.210 8     -3880.809          50.000    21502938.188 6  89339288.753 6     -3018.413          39.000
R13  19270437.992 6 102903053.645 6      -312.434          41.000    19270439.930 7  80035726.628 7      -243.004          44.000
R23  19336526.195 7 103437448.532 7       610.055          46.000    19336531.867 5  80451304.847 5       474.487          33.000
R24  21518610.375 8 115069719.003 8      2993.172          50.000    21518611.773 6  89498628.659 6      2328.023          41.000
C05  39620863.680 5 206316233.689 5        18.047          35.000    39620865.344 6 159536805.824 6        13.653          39.000
C11  21770863.188 8 113366701.942 8       105.516          49.000    21770863.672 8  87662327.772 8        81.613          51.000
C12  23510195.961 4 122423753.686 4     -2355.062          28.000    23510191.836 5  94665794.659 5     -1822.751          32.000
C25  22885956.727 8 119173191.693 8     -2167.977          51.000
E01  23770430.812 7 124914470.189 7       679.109          44.000    23770431.742 7  95713671.382 7       520.371          47.000
E13  24463218.656 8 128555085.114 8     -1883.875          49.000    24463220.117 8  98503270.381 8     -1443.474          50.000
E21  24580357.977 8 129170624.089 8     -2015.203          51.000    24580360.484 8  98974922.771 8     -1544.141          51.000
E26  22449647.977 8 117973814.109 8       824.234          51.000    22449651.656 8  90395477.874 8       631.559          51.000
> 2020 05 05 13 37  0.0000000  0 20        .000000000000
G18  20371065.953 8 107050748.500 8       468.688          51.000    20371066.648 8  83416179.541 8       365.211          51.000
G20  24206423.391 6 127205618.294 6      3331.695          38.000    24206421.719 5  99121244.681 5      2596.126          34.000
G21  20670709.508 8 108625333.196 8       146.250          50.000    20670708.609 8  84643095.830 8       113.961          50.000
G25  24083833.102 7 126561358.366 7     -3433.379          43.000    24083835.188 7  98619263.766 7     -2675.363          42.000
G29  21882715.172 6 114994408.292 6     -2322.418          36.000
G31  22213924.898 8 116734959.353 8     -2469.012          51.000    22213926.805 8  90962313.707 8     -1923.905          51.000
R12  21524785.164 8 114981533.809 8     -3895.645          51.000    21524789.305 7  89430079.058 7     -3029.949          42.000
R13  19272289.086 7 102912939.214 7      -341.191          42.000    19272291.156 7  80043415.392 7      -265.371          43.000
R22  21380383.586 4 114129937.373 4     -3291.312          29.000    21380384.969 4  88767736.305 4     -2559.910          29.000
R23  19333177.945 7 103419537.579 7       589.555          46.000    19333183.188 5  80437374.084 5       458.543          32.000
R24  21501874.305 8 114980223.009 8      2978.766          50.000    21501875.047 6  89429020.704 6      2316.821          41.000
C05                                                                  39620785.383 6 159536483.799 6        11.780          37.000
C11  21770305.805 8 113363799.681 8        93.262          49.000    21770306.344 8  87660083.573 8        72.052          51.000
C12  23523807.344 5 122494649.432 5     -2362.852          30.000    23523800.320 4  94720603.921 4     -1826.771          29.000
C25  22898505.938 8 119238537.916 8     -2183.016          51.000
E01  23766607.750 7 124894380.876 7       665.473          43.000    23766608.844 7  95698278.262 7       509.848          44.000
E13  24474014.977 8 128611820.047 8     -1893.035          49.000    24474016.648 8  98546742.610 8     -1450.561          48.000
E21  24591912.055 8 129231339.771 8     -2027.109          51.000    24591913.773 8  99021445.131 8     -1553.243          50.000
E26  22444996.516 8 117949368.721 8       810.836          51.000    22444999.188 8  90376746.986 8       621.272          51.000
E33  26689572.242 5 140254660.267 5      2685.375          35.000    26689575.992 6 107467856.615 6      2057.945          41.000
> 2020 05 05 13 37 30.0000000  0 17        .000000000000
G18  20368447.820 8 107036990.609 8       447.234          51.000    20368448.797 8  83405459.117 8       348.494          51.000
G20  24187409.258 6 127105693.768 6      3328.590          36.000    24187405.656 5  99043382.218 5      2593.706          32.000
G21  20669924.305 8 108621205.979 8       127.605          51.000    20669923.312 8  84639879.825 8        99.436          50.000
G25  24103450.188 7 126664446.173 7     -3440.707          42.000    24103451.297 7  98699591.818 7     -2681.073          42.000
G31  22228060.070 8 116809238.501 8     -2484.227          51.000    22228060.836 8  91020193.535 8     -1935.761          51.000
R12  21546701.945 8 115098606.783 8     -3910.625          51.000    21546706.938 7  89521135.726 7     -3041.600          46.000
R13  19274282.266 7 102923583.451 7      -369.938          42.000    19274284.266 7  80051694.229 7      -287.729          42.000
R23  19329925.500 7 103402140.506 7       568.949          44.000    19329930.625 5  80423843.025 5       442.519          32.000
R24  21485200.039 8 114891059.052 8      2964.156          50.000    21485201.516 6  89359671.036 6      2305.458          41.000
C05  39620697.883 5 206315370.631 5        13.332          35.000    39620699.438 6 159536137.696 6        10.155          37.000
C11  21769800.453 8 113361167.562 8        80.941          50.000    21769800.727 8  87658048.252 8        62.541          51.000
C25  22911122.859 8 119304235.228 8     -2198.090          51.000
E01  23762844.211 7 124874604.474 7       651.617          44.000    23762845.438 7  95683124.909 7       499.378          45.000
E13  24484844.680 8 128668729.854 8     -1902.211          49.000    24484846.344 8  98590348.826 8     -1457.559          48.000
E21  24603514.070 8 129292310.481 8     -2038.980          51.000    24603515.391 8  99068162.908 8     -1562.336          51.000
E26  22440402.250 8 117925223.393 8       797.508          51.000    22440404.422 8  90358246.023 8       611.107          51.000
E33  26674259.805 6 140174183.842 6      2678.129          37.000    26674263.391 7 107406192.895 7      2052.097          42.000
> 2020 05 05 13 38  0.0000000  0 17        .000000000000
G18  20365942.727 8 107023826.261 8       429.688          51.000    20365943.844 8  83395201.177 8       334.821          51.000
G20  24168402.125 5 127005819.944 5      3328.922          33.000
G21  20669236.109 8 108617588.834 8       112.926          50.000    20669235.203 8  84637061.290 8        87.994          50.000
G25  24123097.852 7 126767696.502 7     -3443.574          43.000    24123099.969 7  98780046.542 7     -2683.308          43.000
G31  22242272.125 8 116883921.087 8     -2495.371          51.000    22242270.812 8  91078387.704 8     -1944.448          51.000
R12  21568692.422 8 115216073.630 8     -3921.344          49.000    21568697.961 8  89612498.758 8     -3049.934          48.000
R13  19276428.156 7 102935042.002 7      -394.609          42.000    19276429.945 7  80060606.435 7      -306.918          43.000
R23  19326779.391 7 103385311.619 7       552.371          45.000    19326784.555 5  80410753.913 5       429.625          32.000
R24  21468598.281 8 114802283.157 8      2953.430          49.000    21468601.016 7  89290623.135 7      2297.112          43.000
C05  39620616.109 5 206314944.358 5        14.234          35.000    39620617.766 6 159535808.819 6        11.194          38.000
C11  21769357.242 8 113358858.368 8        72.367          50.000    21769357.375 8  87656262.635 8        55.947          51.000
C25  22923817.055 8 119370335.485 8     -2209.215          51.000
E01  23759151.039 7 124855195.888 7       641.594          45.000    23759151.617 7  95668253.409 7       491.632          46.000
E13  24495717.680 8 128725867.100 8     -1907.520          49.000    24495718.961 8  98634129.284 8     -1461.576          49.000
E21  24615174.570 8 129353589.511 8     -2046.969          51.000    24615176.375 8  99115116.937 8     -1568.436          51.000
E26  22435875.031 8 117901431.774 8       788.055          51.000    22435877.133 8  90340016.111 8       603.795          51.000
E33  26658982.188 6 140093888.961 6      2674.125          38.000    26658984.281 7 107344668.295 7      2049.074          43.000
> 2020 05 05 13 38 30.0000000  0 17        .000000000000
G18  20363542.695 8 107011214.247 8       412.516          51.000    20363543.984 8  83385373.642 8       321.441          50.000
G21  20668637.047 8 108614440.772 8        98.375          50.000    20668636.172 8  84634608.283 8        76.656          50.000
G25  24142768.461 7 126871066.973 7     -3446.484          43.000    24142771.797 7  98860594.899 7     -2685.572          43.000
G31  22256552.547 8 116958963.702 8     -2506.102          49.000    22256549.641 8  91136862.375 8     -1952.809          49.000
R12  21590747.008 7 115333889.333 7     -3931.699          44.000    21590753.758 8  89704133.180 8     -3057.985          49.000
R13  19278718.188 6 102947272.137 6      -419.141          41.000    19278720.352 7  80070118.736 7      -325.998          44.000
R22  21436024.391 5 114426861.294 5     -3307.387          33.000
R23  19323732.016 7 103369007.893 7       536.082          44.000    19323735.953 5  80398073.225 5       416.953          31.000
R24  21452061.172 8 114713854.538 8      2943.125          48.000    21452065.500 7  89221845.339 7      2289.097          43.000
C05  39620530.812 5 206314500.589 5        16.570          35.000    39620532.648 6 159535465.716 6        12.647          36.000
C11  21768968.133 8 113356830.584 8        64.066          50.000    21768968.367 8  87654694.624 8        49.595          51.000
C25  22936580.312 8 119436796.340 8     -2220.074          51.000
E01  23755520.125 7 124836115.134 7       631.785          44.000    23755520.281 7  95653633.099 7       484.152          45.000
E13  24506625.773 8 128783189.250 8     -1912.551          49.000    24506626.883 7  98678051.427 7     -1465.524          47.000
E21  24626885.797 8 129415135.137 8     -2054.664          51.000    24626888.453 8  99162275.229 8     -1574.356          51.000
E26  22431407.125 8 117877952.545 8       778.680          51.000    22431408.703 8  90322025.546 8       596.663          51.000
E33  26643730.906 6 140013735.324 6      2670.785          38.000    26643731.578 6 107283251.932 6      2046.272          40.000
> 2020 05 05 13 39  0.0000000  0 20        .000000000000
G18  20361251.133 8 106999172.308 8       391.414          51.000    20361252.602 8  83375990.324 8       304.998          51.000
G20  24130398.352 5 126806109.482 5      3326.691          34.000
G21  20668130.531 8 108611778.389 8        80.242          50.000    20668129.414 8  84632533.703 8        62.529          50.000
G25  24162465.281 7 126974574.119 7     -3452.930          45.000    24162469.047 7  98941249.773 7     -2690.595          45.000
G29  21936000.891 6 115274476.380 6     -2346.621          37.000    21936000.406 6  89824249.264 6     -1828.533          36.000
G31  22270903.891 8 117034381.569 8     -2520.480          48.000    22270900.812 8  91195629.494 8     -1964.014          48.000
R12  21612868.078 7 115452068.869 7     -3945.922          45.000    21612877.234 7  89796050.662 7     -3069.050          46.000
R13  19281156.328 7 102960293.803 7      -447.688          42.000    19281158.641 6  80080246.700 6      -348.198          41.000
R22  21454628.586 5 114526266.435 5     -3314.352          33.000
R23  19320785.375 7 103353246.303 7       515.855          44.000    19320788.836 5  80385814.247 5       401.221          31.000
R24  21435592.789 8 114625792.545 8      2928.945          48.000    21435597.227 6  89153352.737 6      2278.072          39.000
C05  39620445.406 5 206314056.202 5        14.375          35.000    39620447.266 6 159535122.068 6        10.992          38.000
C11  21768636.266 8 113355101.356 8        52.195          50.000    21768636.539 8  87653357.477 8        40.346          51.000
C12  23578482.414 4 122779341.173 4     -2378.180          29.000    23578483.695 5  94940790.625 5     -1839.397          32.000
C25  22949415.875 8 119503633.808 8     -2234.527          51.000
E01  23751955.078 7 124817381.089 7       618.082          46.000    23751955.320 7  95639278.417 7       473.526          47.000
E13  24517572.125 7 128840712.716 7     -1921.348          47.000    24517573.578 8  98722127.841 8     -1472.231          48.000
E21  24638651.383 8 129476964.593 8     -2066.160          51.000    24638654.695 8  99209651.001 8     -1583.198          51.000
E26  22427002.156 8 117854803.365 8       765.672          51.000    22427003.188 8  90304287.849 8       586.678          51.000
E33  26628509.516 5 139933759.542 5      2663.375          34.000    26628508.711 6 107221958.084 6      2040.567          41.000
> 2020 05 05 13 39 30.0000000  0 20        .000000000000
G18  20359073.117 8 106987726.438 8       371.809          51.000    20359074.414 8  83367071.467 8       289.721          51.000
G20  24111413.594 5 126706340.384 5      3324.668          34.000
G21  20667721.000 8 108609627.062 8        63.527          49.000    20667720.117 8  84630857.356 8        49.502          49.000
G25  24182193.055 7 127078242.772 7     -3458.094          45.000    24182196.383 7  99022030.466 7     -2694.622          45.000
G29  21949414.148 5 115344970.736 5     -2352.621          34.000    21949419.367 5  89879179.851 5     -1833.211          34.000
G31  22285330.633 8 117110198.363 8     -2533.625          48.000    22285328.430 7  91254707.479 7     -1974.253          47.000
R12  21635064.875 8 115570635.722 8     -3958.547          48.000    21635072.867 7  89888269.274 7     -3078.873          47.000
R13  19283747.438 6 102974132.990 6      -474.703          41.000    19283750.320 7  80091010.482 7      -369.217          43.000
R22  21473276.336 6 114625796.621 6     -3320.879          37.000
R23  19317945.328 7 103338053.194 7       497.258          43.000    19317948.523 5  80373997.423 5       386.756          32.000
R24  21419198.703 8 114538124.697 8      2915.949          48.000    21419201.617 6  89085166.710 6      2267.964          39.000
C05  39620364.914 5 206313637.045 5        13.605          35.000    39620366.719 6 159534797.944 6        10.672          37.000
C11  21768366.586 8 113353695.690 8        41.746          50.000    21768366.445 8  87652270.525 8        32.241          51.000
C12  23592204.227 5 122850786.466 5     -2384.168          30.000    23592195.852 5  94996036.559 5     -1843.439          32.000
C25  22962328.406 8 119570872.119 8     -2247.730          51.000
E01  23748461.383 7 124799020.788 7       605.992          46.000    23748461.406 7  95625210.150 7       464.317          47.000
E13  24528561.508 7 128898462.136 7     -1928.383          47.000    24528563.367 7  98766377.430 7     -1477.775          47.000
E21  24650476.062 8 129539103.297 8     -2076.254          51.000    24650479.711 8  99257263.736 8     -1590.848          51.000
E26  22422664.625 8 117832010.041 8       754.102          51.000    22422666.258 8  90286822.850 8       577.785          51.000
E33                                                                  26613319.883 6 107160807.355 6      2036.006          36.000
> 2020 05 05 13 40  0.0000000  0 19        .000000000000
G18  20357000.125 8 106976832.529 8       363.309          51.000    20357001.312 8  83358582.706 8       283.098          51.000
G21  20667400.117 8 108607942.546 8        57.727          48.000    20667399.625 8  84629544.751 8        44.982          48.000
G25  24201943.031 7 127182027.734 7     -3452.051          46.000    24201945.664 7  99102901.765 7     -2689.913          46.000
G29  21962886.438 5 115415717.795 5     -2348.816          31.000    21962858.359 5  89934310.763 5     -1830.250          30.000
G31  22299824.781 8 117186367.536 8     -2535.496          48.000    22299823.359 8  91314060.049 8     -1975.711          48.000
R12  21657325.812 8 115689541.871 8     -3959.633          50.000    21657331.664 7  89980751.758 7     -3079.714          45.000
R13  19286483.867 7 102988745.797 7      -490.344          42.000    19286486.578 7  80102375.980 7      -381.375          43.000
R22  21491950.125 5 114725468.900 5     -3315.398          32.000
R23  19315202.359 7 103323382.376 7       489.871          43.000    19315204.977 4  80362586.815 4       381.011          29.000
R24  21402870.359 8 114450807.439 8      2914.230          49.000    21402873.336 6  89017253.339 6      2266.624          41.000
C05  39620280.789 5 206313198.445 5        24.461          35.000    39620282.695 6 159534459.583 6        18.999          37.000
C11  21768150.367 8 113352569.503 8        42.129          50.000    21768149.984 8  87651399.691 8        32.640          51.000
C12  23605936.977 5 122922296.542 5     -2376.500          31.000    23605939.305 5  95051316.916 5     -1837.455          34.000
C25  22975309.312 8 119638466.079 8     -2249.742          51.000
E01  23745030.680 7 124780991.418 7       604.719          46.000    23745030.820 7  95611395.431 7       463.574          47.000
E13  24539585.141 7 128956392.305 7     -1924.430          47.000    24539587.195 7  98810765.468 7     -1474.704          46.000
E21  24662351.195 8 129601506.679 8     -2075.055          51.000    24662354.539 8  99305079.297 8     -1589.959          51.000
E26  22418386.078 8 117809528.437 8       753.617          51.000    22418388.711 8  90269596.706 8       577.501          51.000
E33                                                                  26598156.656 5 107099766.666 5      2040.277          34.000
> 2020 05 05 13 40 30.0000000  0 18        .000000000000
G18  20355050.164 8 106966585.251 8       335.441          51.000    20355051.469 8  83350597.832 8       261.383          51.000
G21  20667185.805 7 108606818.254 7        32.863          47.000    20667185.453 7  84628668.674 7        25.608          47.000
G25  24221732.828 7 127286022.440 7     -3465.363          45.000    24221735.172 7  99183936.467 7     -2700.289          45.000
G29  21976347.930 5 115486492.323 5     -2362.258          32.000    21976352.758 5  89989479.048 5     -1840.733          30.000
G31  22314403.953 8 117262981.273 8     -2556.578          49.000    22314403.102 8  91373759.019 8     -1992.139          50.000
R12  21679667.320 8 115808880.358 8     -3980.430          49.000    21679671.453 7  90073570.478 7     -3095.893          44.000
R13  19289383.406 6 103004228.290 6      -526.109          41.000    19289385.961 7  80114417.889 7      -409.196          44.000
R23  19312575.602 7 103309329.630 7       462.875          42.000    19312578.289 5  80351656.903 5       360.014          32.000
R24  21386626.117 8 114363938.228 8      2892.855          51.000    21386629.078 6  88949688.442 6      2250.002          41.000
C05  39620211.234 5 206312836.563 5        15.309          35.000    39620213.188 6 159534179.751 6        11.928          37.000
C11  21768005.688 8 113351816.072 8        23.492          50.000    21768005.234 8  87650817.098 8        18.114          51.000
C12  23619714.250 5 122994018.207 5     -2389.719          32.000    23619711.570 5  95106776.216 5     -1847.906          30.000
C25  22988376.422 8 119706507.982 8     -2270.848          51.000
E01  23741680.992 7 124763388.748 7       584.121          46.000    23741681.875 8  95597907.670 8       447.558          48.000
E13  24550660.789 7 129014596.580 7     -1940.008          47.000    24550662.852 7  98855363.529 7     -1486.739          46.000
E21  24674294.438 8 129664268.876 8     -2093.500          51.000    24674297.086 8  99353169.800 8     -1604.131          51.000
E26  22414184.859 8 117787453.083 8       733.664          51.000    22414187.797 8  90252681.824 8       562.128          51.000
E33  26583053.844 6 139694882.285 6      2647.621          36.000    26583040.070 5 107038909.227 5      2028.951          34.000
> 2020 05 05 13 41  0.0000000  0 18        .000000000000
G18  20353184.266 8 106956779.642 8       316.965          51.000    20353185.406 8  83342957.116 8       246.986          51.000
G21  20667039.086 7 108606049.066 7        17.227          46.000    20667038.945 7  84628069.283 7        13.423          46.000
G25  24241523.117 7 127390020.873 7     -3469.047          45.000    24241525.711 7  99264974.091 7     -2703.156          46.000
G29  21989845.727 4 115557417.884 4     -2368.762          29.000    21989847.180 5  90044747.435 5     -1845.788          30.000
G31  22329028.609 8 117339832.271 8     -2568.137          51.000    22329028.234 8  91433642.868 8     -2001.149          51.000
R12  21702049.406 7 115928439.868 7     -3991.441          46.000    21702052.297 6  90166561.094 6     -3104.457          41.000
R13  19292406.844 6 103020372.532 6      -551.715          41.000    19292409.555 7  80126974.483 7      -429.112          44.000
R22  21529399.320 5 114925303.578 5     -3333.801          32.000    21529396.352 4  89386408.000 4     -2592.956          26.000
R23  19310024.469 7 103295685.383 7       445.445          42.000    19310029.102 5  80341044.748 5       346.457          34.000
R24  21370427.086 8 114277310.025 8      2881.000          51.000    21370428.492 6  88882310.984 6      2240.778          39.000
C05  39620117.414 5 206312347.574 5        15.887          35.000    39620119.289 6 159533801.651 6        12.137          37.000
C11  21767893.492 8 113351231.732 8        14.281          50.000    21767892.875 8  87650365.250 8        10.977          51.000
C25  23001490.164 8 119774793.288 8     -2282.633          51.000
E01  23738373.758 7 124746009.096 7       573.105          47.000    23738374.750 8  95584590.786 8       439.103          48.000
E13  24561749.719 7 129072864.834 7     -1946.027          46.000    24561751.055 7  98899992.660 7     -1491.079          46.000
E21  24686266.656 8 129727184.493 8     -2102.266          51.000    24686268.953 8  99401377.840 8     -1610.812          51.000
E26  22410022.008 8 117765578.987 8       723.293          51.000    22410025.242 8  90235921.152 8       554.194          51.000
E33  26567955.312 6 139615493.138 6      2643.398          39.000    26567933.211 6 106978078.703 6      2025.303          37.000
> 2020 05 05 13 41 30.0000000  0 16        .000000000000
G18  20351449.898 8 106947665.003 8       295.480          51.000    20351450.570 8  83335854.808 8       230.245          50.000
G21  20667007.367 7 108605883.863 7        -1.277          46.000    20667007.547 7  84627940.546 7         -.995          46.000
G25  24261361.219 7 127494271.193 7     -3475.973          44.000    24261364.922 7  99346208.024 7     -2708.550          44.000
G31  22343745.656 8 117417167.434 8     -2582.688          51.000    22343745.602 8  91493903.981 8     -2012.484          51.000
R12  21724517.523 7 116048470.536 7     -4005.430          43.000    21724521.250 6  90259918.236 6     -3115.334          40.000
R13  19295601.648 6 103037432.110 6      -580.621          40.000    19295604.570 7  80140243.060 7      -451.594          44.000
R23  19307597.438 7 103282702.520 7       425.094          43.000    19307602.727 5  80330946.927 5       330.628          33.000
R24  21354320.742 8 114191177.517 8      2866.094          51.000    21354320.078 6  88815319.083 6      2229.184          39.000
C05                                                                  39620048.453 6 159533516.318 6        10.197          37.000
C11  21767860.906 8 113351063.015 8         1.832          50.000    21767860.227 8  87650234.789 8         1.456          51.000
C25  23014697.469 8 119843567.507 8     -2297.406          51.000
E01  23735156.656 7 124729102.864 7       558.922          46.000    23735156.969 7  95571636.690 7       428.145          47.000
E13  24572898.852 7 129131453.139 7     -1955.035          46.000    24572900.117 7  98944885.978 7     -1498.023          45.000
E21  24698315.414 8 129790502.328 8     -2114.102          51.000    24698318.117 8  99449894.066 8     -1619.854          51.000
E26  22405945.023 8 117744155.362 8       709.770          51.000    22405949.016 8  90219505.668 8       543.882          51.000
E33  26552905.805 6 139536389.512 6      2635.031          39.000    26552881.992 6 106917466.856 6      2019.235          40.000
> 2020 05 05 13 42  0.0000000  0 18        .000000000000
G18  20349807.367 8 106939033.169 8       277.902          51.000    20349807.859 8  83329128.728 8       216.550          51.000
G20  24016602.766 5 126208101.593 5      3318.551          32.000
G21  20667051.281 8 108606113.722 8       -16.008          48.000    20667051.062 8  84628119.657 8       -12.474          48.000
G25  24281207.430 7 127598564.233 7     -3478.910          45.000    24281212.211 7  99427475.248 7     -2710.842          45.000
G29  22016971.328 6 115699949.580 6     -2379.555          36.000    22016971.094 5  90155799.355 5     -1854.198          35.000
G31  22358514.773 8 117494776.173 8     -2593.238          51.000    22358514.750 8  91554378.302 8     -2020.705          51.000
R12  21747034.242 7 116168757.919 7     -4015.668          45.000    21747039.109 6  90353475.008 6     -3123.300          41.000
R13  19298928.211 6 103055195.987 6      -605.582          39.000    19298931.430 7  80154059.401 7      -471.008          44.000
R23  19305254.406 7 103270168.488 7       408.383          43.000    19305260.234 5  80321198.236 5       317.631          35.000
R24  21338267.156 8 114105330.206 8      2854.957          50.000    21338266.016 6  88748549.004 6      2220.522          40.000
C05  39619958.961 5 206311522.571 5        15.113          35.000    39619961.141 6 159533164.487 6        11.671          37.000
C11  21767868.664 8 113351103.312 8        -6.617          50.000    21767867.820 8  87650265.940 8        -4.887          51.000
C25  23027958.180 8 119912622.979 8     -2308.285          50.000
E01  23731990.352 7 124712463.233 7       548.652          46.000    23731990.031 8  95558886.839 8       420.351          48.000
E13  24584067.984 7 129190148.183 7     -1959.906          46.000    24584069.539 7  98989860.084 7     -1501.701          45.000
E21  24710400.945 8 129854013.812 8     -2121.992          50.000    24710403.859 8  99498558.664 8     -1625.894          51.000
E26  22401914.164 8 117722974.021 8       700.328          51.000    22401918.758 8  90203275.835 8       536.672          51.000
E33  26537869.633 6 139457364.076 6      2631.387          37.000    26537845.852 7 106856914.955 7      2016.156          42.000
> 2020 05 05 13 42 30.0000000  0 17        .000000000000
G18  20348281.516 8 106931014.526 8       258.117          51.000    20348281.508 8  83322880.465 8       201.133          49.000
G20  23997668.500 5 126108612.494 5      3315.414          35.000
G21  20667195.055 8 108606868.143 8       -32.777          50.000    20667194.445 8  84628707.531 8       -25.541          49.000
G25  24301086.594 7 127703029.321 7     -3484.180          45.000    24301092.016 7  99508876.536 7     -2714.948          45.000
G31  22373360.125 8 117572786.721 8     -2605.949          51.000    22373360.133 8  91615165.718 8     -2030.610          51.000
R12  21769625.016 7 116289431.666 7     -4027.762          47.000    21769630.016 7  90447332.287 7     -3132.707          43.000
R13  19302411.953 6 103073796.418 6      -633.008          40.000    19302414.797 7  80168526.384 7      -492.339          44.000
R23  19303020.125 7 103258215.360 7       389.715          42.000    19303026.305 5  80311901.401 5       303.112          34.000
R24  21322290.781 8 114019902.018 8      2841.656          49.000    21322290.805 6  88682104.861 6      2210.177          41.000
C05  39619879.953 5 206311111.131 5        13.512          35.000    39619882.172 6 159532846.269 6        11.007          37.000
C11  21767940.867 8 113351481.190 8       -17.148          49.000    21767940.367 8  87650558.156 8       -13.330          51.000
C25  23041297.156 8 119982087.377 8     -2321.320          50.000
E01  23728899.766 7 124696221.779 7       535.754          47.000    23728899.430 8  95546442.106 8       410.489          48.000
E13  24595281.984 7 129249079.241 7     -1967.156          46.000    24595284.203 7  99035015.039 7     -1507.379          45.000
E21  24722548.289 8 129917848.929 8     -2132.199          49.000    24722551.555 8  99547471.234 8     -1633.763          51.000
E26  22397954.367 8 117702165.335 8       688.484          51.000    22397958.828 8  90187331.531 8       527.516          51.000
E33  26522866.438 5 139378548.320 5      2624.484          34.000    26522849.234 7 106796523.668 7      2011.085          44.000
> 2020 05 05 13 43  0.0000000  0 18        .000000000000
G18  20346857.625 8 106923532.028 8       240.457          51.000    20346856.742 8  83317049.966 8       187.369          48.000
G20  23978738.430 6 126009145.511 6      3315.172          36.000
G21  20667423.914 8 108608070.025 8       -47.602          50.000    20667423.094 8  84629644.096 8       -37.092          50.000
G25  24320983.781 7 127807588.264 7     -3486.699          45.000    24320989.164 7  99590350.959 7     -2716.912          45.000
G31  22388266.305 8 117651119.452 8     -2616.410          51.000    22388266.367 8  91676204.192 8     -2038.761          51.000
R12  21792273.172 7 116410410.332 7     -4037.652          46.000    21792278.688 7  90541426.746 7     -3140.399          44.000
R13  19306037.992 6 103093155.805 6      -657.770          40.000    19306040.383 7  80183583.681 7      -511.599          45.000
R22  21604608.148 5 115326814.537 5     -3354.613          30.000    21604613.320 4  89698652.644 4     -2609.144          28.000
R23  19300879.328 6 103246763.697 6       373.262          41.000    19300885.750 5  80302994.523 5       290.315          34.000
R24  21306378.531 8 113934815.816 8      2830.574          50.000    21306380.250 6  88615926.753 6      2201.561          41.000
C05  39619794.680 5 206310667.032 5        15.336          35.000    39619796.898 6 159532502.904 6        12.070          37.000
C11  21768063.039 8 113352119.987 8       -25.621          49.000    21768062.906 8  87651052.121 8       -19.682          51.000
C25  23054699.914 8 120051882.873 8     -2332.070          50.000
E01  23725870.320 7 124680302.647 7       525.414          46.000    23725870.391 8  95534244.340 8       402.497          49.000
E13  24606525.992 7 129308168.064 7     -1972.023          45.000    24606528.945 7  99080290.890 7     -1511.085          45.000
E21  24734742.867 8 129981930.048 8     -2140.016          49.000    24734746.508 8  99596572.323 8     -1639.782          51.000
E26  22394051.094 8 117681652.194 8       679.004          51.000    22394055.273 8  90171613.669 8       520.231          51.000
E33  26507886.922 5 139299890.036 5      2620.945          35.000    26507877.445 7 106736234.702 7      2008.140          45.000
> 2020 05 05 13 43 30.0000000  0 17        .000000000000
G18  20345555.391 8 106916689.264 8       220.078          51.000    20345554.125 8  83311717.968 8       171.489          49.000
G20  23959834.070 6 125909807.751 6      3311.789          37.000
G21  20667757.578 8 108609822.410 8       -64.941          50.000    20667756.359 8  84631009.615 8       -50.604          49.000
G25  24340918.398 7 127912343.727 7     -3492.336          44.000    24340923.266 7  99671978.511 7     -2721.304          44.000
G31  22403252.680 8 117729875.617 8     -2629.594          50.000    22403252.672 8  91737572.610 8     -2049.034          50.000
R12  21814997.156 7 116531796.077 7     -4050.004          44.000    21815003.492 7  90635837.847 7     -3150.003          43.000
R13  19309825.359 6 103113379.216 6      -685.723          40.000    19309828.055 7  80199312.995 7      -533.340          46.000
R23  19298852.422 7 103235918.234 7       354.023          42.000    19298858.938 5  80294559.147 5       275.352          35.000
R24  21290550.836 8 113850178.363 8      2816.461          50.000    21290552.820 6  88550097.672 6      2190.581          41.000
C05  39619722.867 5 206310293.362 5        14.172          35.000    39619725.070 6 159532213.985 6        10.817          37.000
C11  21768255.273 8 113353121.968 8       -36.719          50.000    21768254.898 8  87651826.916 8       -28.411          51.000
C25  23068186.359 8 120122110.755 8     -2345.449          51.000
E01  23722921.898 7 124664810.774 7       512.012          47.000    23722922.727 8  95522373.928 8       392.282          50.000
E13  24617819.570 7 129367517.226 7     -1980.062          45.000    24617822.945 7  99125766.222 7     -1517.113          45.000
E21  24747003.781 8 130046360.496 8     -2150.750          49.000    24747007.789 8  99645941.080 8     -1647.998          51.000
E26  22390223.836 8 117661538.225 8       666.500          51.000    22390228.352 8  90156201.695 8       510.713          51.000
E33  26492951.188 6 139221445.997 6      2613.699          37.000    26492950.125 7 106676128.284 7      2002.621          44.000
> 2020 05 05 13 44  0.0000000  0 19        .000000000000
G18  20344353.336 8 106910373.678 8       201.258          49.000    20344352.023 8  83306796.757 8       156.824          49.000
G20  23940934.359 6 125810489.941 6      3309.910          36.000
G21  20668174.289 8 108612011.889 8       -80.879          51.000    20668172.922 8  84632715.725 8       -63.023          49.000
G25  24360868.969 7 128017182.100 7     -3496.590          44.000    24360873.438 7  99753670.636 7     -2724.622          44.000
G29  22071622.031 5 115987168.444 5     -2402.516          32.000    22071636.906 4  90379651.915 4     -1872.111          29.000
G31  22418297.750 8 117808940.699 8     -2641.152          49.000    22418297.633 8  91799181.741 8     -2058.041          50.000
R12  21837774.461 7 116653471.532 7     -4061.105          43.000    21837781.859 6  90730474.286 6     -3158.638          41.000
R13  19313753.039 6 103134352.752 6      -712.195          40.000    19313755.789 7  80215625.757 7      -553.930          45.000
R22  21642390.047 5 115528520.114 5     -3365.406          35.000    21642387.391 4  89855514.292 4     -2617.538          27.000
R23  19296917.039 7 103225563.449 7       336.457          42.000    19296923.305 5  80286505.434 5       261.692          34.000
R24  21274785.477 8 113765876.283 8      2803.812          48.000    21274788.219 6  88484529.438 6      2180.743          40.000
C05  39619643.336 5 206309878.955 5        13.770          35.000    39619645.492 6 159531893.531 6        10.768          37.000
C11  21768495.945 8 113354375.088 8       -46.441          50.000    21768495.164 8  87652795.919 8       -35.939          51.000
C25  23081734.719 8 120192658.065 8     -2357.359          51.000
E01  23720033.688 8 124649634.832 8       500.027          48.000    23720035.328 8  95510745.611 8       383.159          50.000
E13  24629141.156 7 129427013.072 7     -1986.109          45.000    24629144.547 7  99171353.940 7     -1521.791          45.000
E21  24759309.070 8 130111027.207 8     -2159.992          48.000    24759313.836 8  99695490.932 8     -1655.062          51.000
E26  22386451.109 8 117641710.855 8       655.637          51.000    22386455.742 8  90141009.318 8       502.380          51.000
E33  26478042.102 6 139143128.605 6      2608.027          41.000    26478045.781 7 106616118.960 7      1998.188          43.000
> 2020 05 05 13 44 30.0000000  0 19        .000000000000
G18  20343253.125 8 106904593.655 8       181.316          49.000    20343251.828 8  83302292.845 8       141.286          49.000
G20  23922041.398 6 125711203.262 6      3306.469          36.000    23922049.570 5  97956793.793 5      2576.469          35.000
G21  20668675.648 8 108614646.278 8       -97.516          51.000    20668674.453 8  84634768.528 8       -75.986          49.000
G25  24380836.609 7 128122110.741 7     -3501.324          44.000    24380841.195 7  99835433.106 7     -2728.308          44.000
G31  22433402.773 8 117888320.899 8     -2653.469          48.000    22433402.805 8  91861036.416 8     -2067.638          49.000
R12  21860607.938 7 116775442.303 7     -4072.828          45.000    21860614.148 6  90825340.403 6     -3167.758          36.000
R13  19317823.031 7 103156085.065 7      -739.566          42.000    19317825.109 7  80232528.657 7      -575.218          45.000
R22  21661312.258 5 115629514.401 5     -3371.090          33.000
R23  19295074.211 7 103215707.544 7       317.973          42.000    19295080.500 5  80278839.728 5       247.312          33.000
R24  21259084.523 8 113681919.523 8      2790.469          49.000    21259087.836 6  88419229.736 6      2170.365          40.000
C05  39619557.633 5 206309433.394 5        13.117          35.000    39619559.742 6 159531548.226 6        10.294          37.000
C11  21768786.508 8 113355887.437 8       -57.094          50.000    21768785.680 8  87653965.363 8       -44.091          51.000
C12  23730536.828 5 123571059.647 5     -2419.711          31.000
C25  23095345.773 8 120263531.685 8     -2370.121          51.000
E01  23717207.625 8 124634784.487 8       487.289          48.000    23717209.719 8  95499366.781 8       373.356          50.000
E13  24640492.070 7 129486662.961 7     -1993.238          45.000    24640495.352 7  99217059.674 7     -1527.125          44.000
E21  24771660.953 8 130175938.265 8     -2170.117          50.000    24771666.570 8  99745227.986 8     -1662.808          51.000
E26  22382734.508 8 117622178.507 8       643.898          51.000    22382738.375 8  90126042.967 8       493.365          51.000
E33  26463161.938 7 139064947.369 7      2601.535          44.000    26463166.516 7 106556213.931 7      1993.429          42.000
> 2020 05 05 13 45  0.0000000  0 19        .000000000000
G18  20342279.070 8 106899476.149 8       163.137          49.000    20342278.203 8  83298305.171 8       127.120          49.000
G20  23903180.172 5 125612078.051 5      3305.770          35.000
G21  20669285.883 8 108617852.265 8      -112.711          51.000    20669284.633 8  84637266.715 8       -87.827          50.000
G25  24400845.328 7 128227255.687 7     -3504.781          43.000    24400850.227 7  99917364.143 7     -2731.001          43.000
G26  20551465.117 5 107998706.701 5      1230.938          32.000    20551469.461 5  84154828.693 5       959.169          32.000
G31  22448591.477 7 117968140.267 7     -2664.180          47.000    22448591.609 7  91923233.312 7     -2075.984          47.000
R12  21883521.242 7 116897834.637 7     -4083.004          47.000    21883523.406 6  90920534.229 6     -3175.679          36.000
R13  19322059.406 7 103178705.572 7      -765.254          42.000    19322061.180 7  80250122.346 7      -595.197          44.000
R23  19293348.875 7 103206478.837 7       300.867          42.000    19293355.086 5  80271661.850 5       234.011          34.000
R24  21243472.969 8 113598438.553 8      2778.324          49.000    21243475.492 6  88354300.149 6      2160.922          39.000
C05  39619489.805 6 206309079.948 6        13.730          36.000    39619492.008 6 159531275.702 6        10.599          37.000
C11  21769150.844 8 113357784.339 8       -66.023          51.000    21769150.289 8  87655432.183 8       -50.924          51.000
C12  23744489.992 4 123643722.760 4     -2420.961          29.000    23744480.422 4  95609188.119 4     -1871.956          27.000
C25  23109043.062 8 120334856.026 8     -2381.391          50.000
E01  23714468.016 7 124620388.043 7       476.086          47.000    23714470.203 8  95488335.733 8       364.745          50.000
E13  24651896.273 7 129546592.790 7     -1998.617          44.000    24651899.555 7  99262979.946 7     -1531.381          44.000
E21  24784084.438 8 130241220.272 8     -2178.500          51.000    24784089.586 8  99795249.254 8     -1669.258          51.000
E26  22379098.125 8 117603068.183 8       633.695          51.000    22379101.508 8  90111399.988 8       485.589          51.000
E33  26448333.500 7 138987030.267 7      2596.633          45.000    26448337.914 7 106496511.298 7      1989.673          42.000
> 2020 05 05 13 45 30.0000000  0 18        .000000000000
G18  20341400.312 8 106894858.599 8       146.438          49.000    20341399.805 8  83294707.071 8       114.107          49.000
G21  20669973.742 8 108621466.775 8      -126.500          51.000    20669972.359 8  84640083.231 8       -98.571          50.000
G25  24420863.883 7 128332453.417 7     -3506.832          44.000    24420869.047 7  99999336.310 7     -2732.599          44.000
G26  20544475.492 5 107961974.465 5      1218.547          31.000    20544477.852 5  84126206.129 5       949.514          30.000
G31  22463832.625 7 118048234.274 7     -2673.484          47.000    22463832.641 7  91985644.221 7     -2083.235          47.000
R12  21906482.320 8 117020480.204 8     -4091.457          49.000    21906483.969 6  91015925.112 6     -3182.247          40.000
R13  19326430.484 7 103202049.115 7      -789.340          42.000    19326432.430 7  80268278.403 7      -613.931          44.000
R22  21699252.484 5 115832031.997 5     -3376.184          34.000    21699259.289 4  90091589.841 4     -2625.924          29.000
R23  19291709.656 7 103197710.832 7       285.395          42.000    19291715.688 5  80264842.340 5       221.974          33.000
R24  21227919.367 8 113515269.278 8      2767.910          49.000    21227921.383 6  88289612.993 6      2152.819          40.000
C05  39619409.336 5 206308660.898 5        16.293          35.000    39619411.602 6 159530951.656 6        12.457          37.000
C11  21769558.227 8 113359904.407 8       -73.527          51.000    21769557.609 8  87657071.558 8       -56.841          51.000
C25  23122794.984 7 120406468.605 7     -2391.035          47.000
E01  23711783.984 8 124606284.325 8       466.117          48.000    23711786.352 8  95477528.977 8       357.128          50.000
E13  24663322.852 7 129606639.062 7     -2002.691          45.000    24663326.102 7  99308989.424 7     -1534.482          44.000
E21  24796547.836 8 130306710.371 8     -2185.637          51.000    24796551.773 8  99845429.944 8     -1674.700          51.000
E26  22375511.031 8 117584217.406 8       624.906          51.000    22375514.609 8  90096955.914 8       478.818          51.000
E33  26433525.359 7 138909215.919 7      2592.848          45.000    26433529.898 7 106436887.386 7      1986.769          42.000
> 2020 05 05 13 46  0.0000000  0 18        .000000000000
G18  20340626.719 8 106890792.852 8       124.141          50.000    20340626.492 8  83291538.962 8        96.733          50.000
G21  20670749.125 8 108625541.098 8      -145.539          51.000    20670747.641 8  84643258.028 8      -113.407          50.000
G25  24440901.820 7 128437754.790 7     -3513.883          42.000    24440907.484 7 100081389.277 7     -2738.094          42.000
G26  20537564.984 6 107925658.326 6      1201.148          37.000    20537568.281 6  84097907.877 6       935.963          36.000
G31  22479136.133 8 118128652.654 8     -2688.023          48.000    22479135.508 8  92048307.859 8     -2094.564          48.000
R12  21929499.750 8 117143428.755 8     -4105.469          50.000    21929502.281 7  91111551.702 7     -3193.145          43.000
R13  19330946.664 6 103226168.300 6      -819.141          41.000    19330949.281 7  80287037.753 7      -637.109          44.000
R23  19290166.289 7 103189455.723 7       264.461          43.000    19290171.188 5  80258421.663 5       205.689          33.000
R24  21212434.305 8 113432465.949 8      2751.758          49.000    21212437.289 6  88225210.446 6      2140.256          41.000
C05                                                                  39619328.391 6 159530616.201 6         9.663          37.000
C11  21770018.219 8 113362298.779 8       -86.426          51.000    21770017.445 8  87658923.038 8       -66.921          51.000
C23  22936149.195 5 119434549.414 5       628.387          35.000
C25  23136611.281 7 120478419.405 7     -2406.188          46.000
E01  23709165.812 8 124592526.435 8       450.648          49.000    23709168.172 8  95466987.209 8       345.341          51.000
E13  24674781.539 7 129666852.611 7     -2011.863          45.000    24674784.359 7  99355127.074 7     -1541.644          44.000
E21  24809060.414 8 130372459.997 8     -2198.133          51.000    24809063.352 8  99895809.475 8     -1684.302          51.000
E26  22371983.133 8 117565678.054 8       610.645          51.000    22371986.445 8  90082750.448 8       467.873          51.000
E33  26418747.516 7 138831557.208 7      2583.961          45.000    26418752.539 7 106377382.730 7      1979.816          42.000
> 2020 05 05 13 46 30.0000000  0 20        .000000000000
G18  20339968.406 8 106887332.398 8       107.164          50.000    20339968.305 8  83288842.508 8        83.504          50.000
G20  23846637.047 5 125314949.627 5      3298.652          35.000    23846629.914 5  97647961.953 5      2570.378          32.000
G21  20671622.086 8 108630128.074 8      -159.477          50.000    20671620.648 8  84646832.307 8      -124.264          50.000
G25  24460969.094 6 128543212.390 6     -3515.691          40.000    24460975.281 6 100163563.958 6     -2739.500          40.000
G26  20530744.031 5 107889813.960 5      1188.871          33.000    20530745.867 5  84069977.162 5       926.393          34.000
G29  22140576.430 5 116349528.887 5     -2428.848          34.000    22140576.328 5  90661938.998 5     -1892.612          35.000
G31  22494511.586 8 118209446.469 8     -2697.488          49.000    22494510.031 8  92111264.005 8     -2101.942          49.000
R12  21952583.352 8 117266732.044 8     -4114.027          50.000    21952586.203 7  91207454.216 7     -3199.802          43.000
R13  19335618.109 6 103251117.609 6      -843.656          40.000    19335621.703 7  80306442.747 7      -656.177          44.000
R23  19288728.680 6 103181767.467 6       248.773          40.000    19288733.898 5  80252441.929 5       193.493          33.000
R24  21197029.070 8 113350084.156 8      2740.898          50.000    21197031.281 6  88161135.724 6      2131.810          41.000
C05  39619250.117 5 206307831.883 5        13.816          35.000    39619252.586 6 159530310.589 6        11.236          37.000
C11  21770540.789 8 113365020.085 8       -94.336          51.000    21770540.328 8  87661027.344 8       -72.953          51.000
C23  22932567.695 5 119415909.954 5       614.637          31.000
C25  23150502.891 7 120550760.087 7     -2415.938          47.000
E01  23706624.008 8 124579169.210 8       440.418          49.000    23706626.164 8  95456752.450 8       337.466          51.000
E13  24686282.195 7 129727285.958 7     -2016.152          44.000    24686284.008 7  99401433.135 7     -1544.880          44.000
E21  24821632.039 8 130438522.262 8     -2205.410          51.000    24821634.125 8  99946428.571 8     -1689.860          51.000
E26  22368524.555 8 117547503.680 8       601.555          51.000    22368526.852 8  90068824.614 8       460.994          51.000
E33  26404010.031 7 138754108.811 7      2579.871          42.000    26404015.531 7 106318039.172 7      1976.913          43.000
> 2020 05 05 13 47  0.0000000  0 19        .000000000000
G18  20339417.070 8 106884434.187 8        87.375          51.000    20339416.945 8  83286584.168 8        68.084          51.000
G20  23827818.891 6 125216072.429 6      3294.551          38.000    23827823.672 5  97570952.129 5      2567.189          31.000
G21  20672584.383 8 108635184.666 8      -176.230          50.000    20672582.836 8  84650772.512 8      -137.322          50.000
G25  24481057.383 5 128648782.365 5     -3520.906          35.000    24481063.961 5 100245826.212 5     -2743.566          35.000
G29  22154464.328 6 116422513.644 6     -2435.078          38.000    22154469.391 6  90718810.266 6     -1897.463          38.000
G31  22509949.992 8 118290570.674 8     -2709.387          49.000    22509947.953 8  92174477.617 8     -2111.210          49.000
R12  21975724.430 8 117390343.273 8     -4125.320          51.000    21975727.148 7  91303596.214 7     -3208.586          43.000
R13  19340437.289 6 103276853.687 6      -870.793          40.000    19340441.445 7  80326459.696 7      -677.283          44.000
R23  19287388.992 7 103174601.366 7       230.168          43.000    19287393.250 5  80246868.297 5       179.020          31.000
R24  21181694.945 8 113268081.550 8      2727.340          49.000    21181695.883 6  88097355.956 6      2121.264          41.000
C05                                                                  39619176.078 6 159530002.229 6        10.563          37.000
C11  21771118.188 8 113368025.514 8      -104.672          51.000    21771117.867 8  87663351.334 8       -80.909          51.000
C23  22929083.367 4 119397760.155 4       597.281          29.000
C25  23164461.695 8 120623446.702 8     -2428.480          48.000
E01  23704150.633 8 124566171.021 8       427.453          49.000    23704152.664 8  95446792.790 8       327.529          51.000
E13  24697816.133 7 129787895.138 7     -2023.020          42.000    24697817.117 7  99447873.937 7     -1550.037          44.000
E21  24834254.602 8 130504853.911 8     -2215.348          51.000    24834256.320 8  99997254.071 8     -1697.462          51.000
E26  22365127.117 8 117529651.386 8       589.953          51.000    22365128.977 8  90055145.589 8       452.006          51.000
E33  26389303.672 6 138676828.842 6      2573.332          38.000    26389309.727 7 106258824.692 7      1971.792          42.000
> 2020 05 05 13 47 30.0000000  0 20        .000000000000
G18  20338971.453 8 106882091.593 8        69.285          51.000    20338971.312 8  83284758.786 8        53.988          51.000
G20  23809015.891 6 125117266.344 6      3293.230          39.000    23809018.195 4  97493960.432 4      2566.160          26.000
G21  20673634.594 8 108640703.035 8      -191.129          51.000    20673632.773 8  84655072.546 8      -148.932          51.000
G25  24501165.320 5 128754457.131 5     -3523.660          32.000    24501172.617 5 100328170.146 5     -2745.712          33.000
G26  20517345.406 5 107819366.009 5      1160.016          33.000    20517347.469 5  84015086.362 5       903.908          33.000
G29  22168380.820 6 116495645.676 6     -2439.293          37.000    22168388.367 6  90775796.233 6     -1900.748          36.000
G31  22525448.836 8 118372016.390 8     -2719.578          48.000    22525447.422 8  92237941.769 8     -2119.152          48.000
R12  21998921.023 8 117514252.700 8     -4134.676          49.000    21998923.703 6  91399970.159 6     -3215.859          41.000
R13  19345403.000 6 103303369.422 6      -896.305          39.000    19345407.305 7  80347083.021 7      -697.126          45.000
R23  19286145.289 6 103167949.945 6       213.816          41.000    19286149.367 5  80241694.983 5       166.302          33.000
R24  21166429.820 7 113186452.602 7      2715.301          46.000    21166430.539 6  88033866.772 6      2111.901          41.000
C05  39619095.070 5 206307024.676 5        14.605          35.000    39619097.727 6 159529686.455 6        11.013          37.000
C11  21771748.539 8 113371308.134 8      -113.500          50.000    21771748.344 8  87665889.658 8       -87.750          51.000
C12  23814462.891 4 124008145.881 4     -2437.387          29.000    23814452.367 5  95890933.731 5     -1884.392          32.000
C25  23178486.109 8 120696471.278 8     -2439.211          50.000
E01  23701744.609 8 124553526.569 8       416.152          49.000    23701746.477 8  95437104.173 8       318.873          51.000
E13  24709381.875 7 129848672.645 7     -2027.852          42.000    24709382.586 7  99494443.732 7     -1554.045          43.000
E21  24846926.828 8 130571447.935 8     -2223.613          51.000    24846928.641 8 100048280.628 8     -1703.793          51.000
E26  22361789.766 8 117512114.629 8       579.816          51.000    22361791.758 8  90041708.344 8       444.317          51.000
E33  26374627.875 6 138599711.750 6      2568.457          38.000    26374632.805 6 106199735.049 6      1968.056          40.000
> 2020 05 05 13 48  0.0000000  0 20        .000000000000
G18  20338643.367 8 106880366.854 8        48.719          51.000    20338643.375 8  83283414.848 8        37.963          51.000
G20  23790239.578 6 125018596.974 6      3288.172          39.000    23790241.836 4  97417075.277 4      2562.221          29.000
G21  20674784.484 8 108646745.136 8      -208.652          51.000    20674782.711 8  84659780.680 8      -162.586          51.000
G25  24521306.242 6 128860298.105 6     -3529.004          36.000    24521313.258 6 100410643.594 6     -2749.876          36.000
G26  20510780.891 5 107784869.168 5      1143.309          33.000    20510783.258 5  83988205.674 5       890.887          33.000
G29  22182336.594 6 116568987.256 6     -2447.148          36.000    22182344.977 6  90832945.385 6     -1906.869          36.000
G31  22541019.820 8 118453843.355 8     -2732.410          50.000    22541019.539 8  92301703.001 8     -2129.154          50.000
R12  22022184.289 7 117638520.749 7     -4146.723          47.000    22022187.859 6  91496623.049 6     -3225.229          39.000
R13  19350526.711 6 103330728.308 6      -924.371          38.000    19350530.773 7  80368362.151 7      -718.955          44.000
R23  19285009.164 7 103161875.890 7       194.551          42.000    19285015.086 5  80236970.728 5       151.314          33.000
R24  21151246.508 7 113105262.348 7      2700.605          46.000    21151248.086 7  87970718.803 7      2100.471          42.000
C05  39619026.727 5 206306668.869 5        12.566          34.000    39619029.422 6 159529411.249 6         9.744          37.000
C11  21772443.852 8 113374929.386 8      -124.762          51.000    21772443.750 8  87668689.838 8       -96.516          51.000
C12                                                                  23828514.812 5  95947563.613 5     -1888.669          35.000
C25  23192587.328 8 120769894.189 8     -2452.578          51.000
E01  23699418.031 8 124541299.507 8       402.129          50.000    23699419.562 8  95427735.376 8       308.152          51.000
E13  24720991.281 7 129909679.892 7     -2035.793          42.000    24720991.984 7  99541189.518 7     -1559.908          43.000
E21  24859660.625 8 130638366.280 8     -2234.418          51.000    24859662.961 8 100099555.716 8     -1712.089          51.000
E26  22358524.289 8 117494955.756 8       567.230          51.000    22358526.234 8  90028560.653 8       434.586          51.000
E33  26359996.062 7 138522820.939 7      2560.953          42.000    26359997.500 6 106140818.878 6      1961.971          40.000
> 2020 05 05 13 48 30.0000000  0 21        .000000000000
G18  20338413.531 8 106879158.380 8        31.125          51.000    20338413.711 8  83282473.186 8        24.253          51.000
G20  23771470.578 6 124919965.876 6      3286.766          40.000    23771473.508 3  97340219.890 3      2561.110          23.000
G21  20676014.562 8 108653208.868 8      -223.012          51.000    20676012.867 8  84664817.371 8      -173.775          51.000
G25  24541460.086 6 128966202.907 6     -3532.102          39.000    24541466.008 6 100493166.712 6     -2752.293          38.000
G26  20504291.805 6 107750763.233 6      1129.926          37.000    20504292.180 6  83961629.617 6       880.459          36.000
G29  22196313.398 6 116642435.819 6     -2450.934          37.000    22196316.867 6  90890177.996 6     -1909.815          37.000
G31  22556643.609 8 118535947.960 8     -2742.027          50.000    22556644.133 8  92365680.595 8     -2136.645          50.000
R12  22045494.352 7 117763041.501 7     -4155.504          45.000    22045499.961 5  91593472.531 5     -3232.059          35.000
R13  19355788.938 6 103358827.155 6      -949.398          39.000    19355792.531 7  80390216.830 7      -738.421          45.000
R22  21813598.766 5 116442445.602 5     -3404.039          32.000
R23  19283962.047 6 103156274.817 6       178.316          41.000    19283967.828 5  80232614.300 5       138.691          31.000
R24  21136126.242 8 113024408.401 8      2688.906          48.000    21136128.445 6  87907832.467 6      2091.375          40.000
C05  39618949.258 5 206306265.448 5        13.934          35.000    39618952.016 6 159529099.336 6        10.430          37.000
C11  21773185.102 8 113378788.382 8      -133.195          51.000    21773185.062 8  87671673.854 8      -103.068          51.000
C12                                                                  23842586.836 5  96004227.909 5     -1890.218          33.000
C25  23206745.453 8 120843613.452 8     -2462.891          51.000
E01  23697151.766 8 124529389.624 8       390.945          51.000    23697153.039 8  95418609.619 8       299.585          51.000
E13  24732624.695 6 129970814.306 6     -2040.555          41.000    24732625.492 7  99588032.751 7     -1563.551          43.000
E21  24872436.727 8 130705507.118 8     -2242.391          51.000    24872439.719 8 100151001.273 8     -1718.210          51.000
E26  22355311.336 8 117478073.315 8       557.414          51.000    22355312.836 8  90015624.751 8       427.112          51.000
E33  26345388.859 7 138446056.048 7      2555.910          45.000    26345387.984 6 106081999.099 6      1958.437          41.000
> 2020 05 05 13 49  0.0000000  0 21        .000000000000
G18  20338289.594 8 106878506.068 8        12.332          51.000    20338289.703 8  83281964.911 8         9.609          51.000
G20  23752717.312 6 124821416.594 6      3283.695          40.000    23752720.016 4  97263428.402 4      2558.745          25.000
G21  20677332.344 8 108660133.619 8      -238.645          51.000    20677330.461 8  84670213.287 8      -185.957          51.000
G25  24561634.008 6 129072210.464 6     -3535.387          41.000    24561638.320 6 100575769.895 6     -2754.850          41.000
G26  20497885.445 6 107717090.279 6      1114.645          39.000    20497885.289 6  83935390.958 6       868.551          39.000
G29  22210318.164 5 116716030.920 5     -2455.941          34.000    22210316.492 5  90947524.818 5     -1913.721          33.000
G31  22572327.336 8 118618367.834 8     -2752.777          50.000    22572328.023 8  92429903.820 8     -2145.021          51.000
R12  22068857.906 7 117887852.456 7     -4165.363          43.000    22068866.656 4  91690547.857 4     -3239.721          29.000
R13  19361197.641 6 103387706.347 6      -975.785          40.000    19361200.500 7  80412678.450 7      -758.941          45.000
R22  21832758.344 5 116544700.148 5     -3407.293          31.000    21832762.875 5  90645883.169 5     -2650.120          31.000
R23  19283010.836 7 103151186.699 7       160.918          42.000    19283016.922 5  80228656.877 5       125.158          32.000
R24  21121076.977 8 112943932.867 8      2676.012          48.000    21121078.906 6  87845240.448 6      2081.345          40.000
C05                                                                  39618873.047 6 159528781.541 6        10.756          37.000
C11  21773979.148 8 113382924.456 8      -142.699          50.000    21773979.414 8  87674872.139 8      -110.269          51.000
C12                                                                  23856675.148 4  96060944.406 4     -1892.345          29.000
C25  23220967.539 8 120917667.227 8     -2474.172          51.000
E01  23694953.578 8 124517838.230 8       378.836          51.000    23694954.789 8  95409758.548 8       290.331          51.000
E13  24744289.500 6 130032115.018 6     -2046.324          38.000    24744290.672 7  99635003.431 7     -1567.957          43.000
E21  24885262.953 8 130772910.083 8     -2251.312          51.000    24885265.992 8 100202647.691 8     -1725.029          51.000
E26  22352158.680 8 117461507.334 8       546.734          51.000    22352160.414 8  90002931.345 8       418.950          51.000
E33  26330813.844 7 138369458.078 7      2550.230          45.000    26330812.766 7 106023307.255 7      1954.201          43.000
> 2020 05 05 13 49 30.0000000  0 21        .000000000000
G18  20338274.922 8 106878428.420 8        -6.438          51.000    20338275.016 8  83281904.416 8        -5.016          51.000
G20  23733983.844 6 124722971.102 6      3280.195          41.000
G21  20678741.320 8 108667537.666 8      -254.320          51.000    20678739.430 8  84675982.682 8      -198.172          51.000
G25  24581830.828 7 129178338.522 7     -3538.883          44.000    24581833.133 7 100658466.974 7     -2757.577          44.000
G26  20491565.242 6 107683870.855 6      1100.145          40.000    20491564.250 6  83909505.674 6       857.255          41.000
G29  22224354.234 5 116789790.967 5     -2460.621          35.000    22224350.805 5  91005000.118 5     -1917.364          35.000
G31  22588074.281 8 118701119.478 8     -2763.410          50.000    22588074.414 8  92494385.568 8     -2153.310          50.000
R12  22092279.242 6 118012969.695 6     -4175.223          40.000    22092289.664 6  91787861.381 6     -3247.395          36.000
R13  19366755.891 6 103417384.563 6     -1002.117          41.000    19366758.133 7  80435761.491 7      -779.424          45.000
R22  21851919.523 5 116646986.075 5     -3410.949          33.000    21851924.352 5  90725438.865 5     -2652.954          30.000
R23  19282159.406 6 103146629.930 6       143.613          41.000    19282165.492 5  80225112.796 5       111.702          30.000
R24  21106102.852 8 112863856.061 8      2663.121          49.000    21106104.539 6  87782958.522 6      2071.319          40.000
C05  39618793.805 5 206305455.986 5        13.641          34.000    39618796.391 6 159528472.606 6        10.502          37.000
C11  21774830.008 8 113387355.712 8      -152.125          50.000    21774830.102 8  87678298.667 8      -117.609          51.000
C12                                                                  23870783.406 5  96117752.323 5     -1894.411          30.000
C25  23235256.719 8 120992072.587 8     -2485.512          51.000
E01  23692827.430 8 124506665.239 8       366.590          51.000    23692828.633 8  95401197.432 8       280.914          51.000
E13  24755989.109 6 130093599.618 6     -2051.918          38.000    24755991.000 7  99682115.013 7     -1572.333          43.000
E21  24898142.289 8 130840593.434 8     -2260.254          50.000    24898145.672 8 100254508.940 8     -1731.874          51.000
E26  22349069.922 8 117445276.464 8       535.938          51.000    22349072.305 8  89990494.738 8       410.612          51.000
E33  26316274.602 7 138293046.896 7      2544.340          46.000    26316274.320 7 105964758.490 7      1949.673          45.000
> 2020 05 05 13 50  0.0000000  0 20        .000000000000
G18  20338370.109 8 106878928.208 8       -25.875          51.000    20338370.094 8  83282293.879 8       -20.162          51.000
G20  23715271.367 6 124624635.548 6      3276.559          41.000
G21  20680241.797 8 108675423.157 8      -270.367          51.000    20680240.250 8  84682127.241 8      -210.676          51.000
G25  24602050.703 7 129284589.135 7     -3543.293          46.000    24602050.008 7 100741259.527 7     -2761.011          43.000
G26  20485332.062 7 107651109.894 7      1084.715          42.000    20485329.211 7  83883977.691 7       845.235          42.000
G29  22238422.359 6 116863718.414 6     -2466.328          40.000    22238418.766 5  91062605.928 5     -1921.811          32.000
G31  22603884.492 8 118784203.595 8     -2774.664          50.000    22603884.047 8  92559126.395 8     -2162.079          50.000
R12  22115758.000 6 118138393.230 6     -4185.445          40.000    22115769.203 6  91885413.054 6     -3255.346          39.000
R13  19372464.375 6 103447864.767 6     -1028.988          41.000    19372465.844 7  80459468.309 7      -800.324          45.000
R23  19281407.266 6 103142606.490 6       125.453          39.000    19281411.703 4  80221985.413 4        97.575          27.000
R24  21091204.406 8 112784181.979 8      2649.539          49.000    21091205.977 6  87720989.852 6      2060.756          41.000
C05                                                                  39618722.492 6 159528175.089 6        10.013          37.000
C11  21775738.195 8 113392084.900 8      -162.191          50.000    21775738.008 8  87681955.562 8      -125.341          51.000
C12  23884947.133 5 124375171.969 5     -2454.008          33.000    23884911.664 5  96174640.135 5     -1897.507          30.000
C25  23249613.148 8 121066831.034 8     -2497.355          51.000
E01  23690774.195 8 124495874.914 8       353.707          51.000    23690775.414 8  95392929.514 8       271.052          51.000
E13  24767724.164 6 130155270.190 6     -2058.281          40.000    24767726.797 7  99729369.103 7     -1577.286          42.000
E21  24911075.164 8 130908559.751 8     -2269.797          49.000    24911079.234 8 100306586.996 8     -1739.195          51.000
E26  22346045.664 8 117429383.690 8       524.531          51.000    22346048.188 8  89978317.175 8       401.923          51.000
E33  26301771.250 7 138216826.476 7      2537.984          46.000    26301772.242 7 105906355.874 7      1944.719          46.000
> 2020 05 05 13 50 30.0000000  0 20        .000000000000
G18  20338570.227 8 106879979.875 8       -44.480          51.000    20338570.406 8  83283113.373 8       -34.660          51.000
G20  23696575.695 7 124526388.008 7      3273.121          42.000    23696577.656 5  97033530.409 5      2550.493          32.000
G21  20681829.000 8 108683764.076 8      -285.789          51.000    20681827.555 8  84688626.662 8      -222.696          51.000
G25  24622288.258 7 129390935.865 7     -3546.867          45.000    24622284.594 7 100824126.961 7     -2763.799          42.000
G26  20479181.031 6 107618783.951 6      1069.852          39.000    20479178.008 6  83858788.674 6       833.651          39.000
G29  22252517.102 5 116937787.567 5     -2471.516          32.000    22252514.812 5  91120322.155 5     -1925.850          31.000
G31  22619752.859 8 118867592.471 8     -2784.875          51.000    22619752.227 8  92624104.682 8     -2170.036          51.000
R12  22139289.531 6 118264094.418 6     -4194.785          40.000    22139300.352 6  91983180.593 6     -3262.611          39.000
R13  19378317.391 7 103479120.821 7     -1055.016          42.000    19378319.016 7  80483778.564 7      -820.568          45.000
R23  19280749.594 6 103139089.518 6       108.508          41.000    19280754.961 4  80219250.042 4        84.398          28.000
R24  21076375.430 7 112704886.163 7      2636.699          47.000    21076376.609 6  87659315.386 6      2050.766          40.000
C05                                                                  39618646.766 6 159527871.794 6        10.197          37.000
C11  21776698.391 8 113397086.305 8      -171.453          50.000    21776698.336 8  87685822.973 8      -132.581          51.000
C12  23899084.898 5 124448818.589 5     -2456.305          34.000    23899090.086 5  96231727.208 5     -1899.044          30.000
C25  23264032.062 8 121141915.871 8     -2508.477          51.000
E01  23688789.133 8 124485443.107 8       341.422          51.000    23688790.562 8  95384936.298 8       261.633          51.000
E13  24779489.758 6 130217100.388 6     -2064.047          41.000    24779492.867 6  99776745.483 6     -1581.468          41.000
E21  24924056.984 8 130976783.139 8     -2278.551          48.000    24924061.844 8 100358862.071 8     -1745.971          51.000
E26  22343080.773 8 117413803.623 8       513.852          51.000    22343083.742 8  89966379.206 8       393.718          51.000
E33  26287298.648 7 138140772.447 7      2532.059          45.000    26287301.164 7 105848080.762 7      1940.116          45.000
> 2020 05 05 13 51  0.0000000  0 19        .000000000000
G18  20338880.141 8 106881609.734 8       -63.691          51.000    20338880.570 8  83284383.405 8       -49.630          51.000
G20  23677902.508 7 124428258.221 7      3269.391          43.000    23677904.000 5  96957065.688 5      2547.577          32.000
G21  20683507.711 8 108692586.447 8      -301.703          51.000    20683506.281 8  84695501.237 8      -235.093          51.000
G25  24642548.414 7 129497404.249 7     -3550.660          44.000    24642544.539 6 100907089.186 6     -2766.751          41.000
G26  20473117.375 6 107586921.442 6      1054.637          38.000    20473115.953 6  83833960.765 6       821.795          39.000
G31  22635684.047 8 118951310.187 8     -2795.758          51.000    22635683.102 8  92689339.216 8     -2178.513          51.000
R12  22162878.852 6 118390097.199 6     -4204.719          36.000    22162887.609 6  92081182.730 6     -3270.337          38.000
R13  19384320.734 6 103511179.659 6     -1081.797          41.000    19384322.688 7  80508713.201 7      -841.398          44.000
R23  19280192.531 6 103136105.174 6        90.957          40.000    19280197.820 4  80216928.941 4        70.744          27.000
R24  21061621.016 7 112625996.986 7      2623.195          46.000    21061622.727 6  87597957.161 6      2040.263          40.000
C05  39618571.375 5 206304297.347 5        12.082          35.000    39618574.195 6 159527580.429 6         9.675          36.000
C11  21777716.164 8 113402386.032 8      -181.430          51.000    21777716.023 8  87689921.060 8      -140.245          51.000
C12                                                                  23913261.523 4  96288794.282 4     -1901.962          27.000
C25  23278518.375 8 121217351.966 8     -2520.098          51.000
E01  23686877.609 8 124475397.562 8       328.598          51.000    23686879.297 8  95377239.049 8       251.860          51.000
E13  24791290.703 6 130279115.772 6     -2069.773          40.000    24791293.805 6  99824263.764 6     -1586.131          40.000
E21  24937092.758 7 131045289.739 7     -2288.004          47.000    24937098.141 8 100411354.157 8     -1753.134          51.000
E26  22340180.391 8 117398562.761 8       502.598          51.000    22340184.375 8  89954701.148 8       385.164          51.000
E33  26272862.328 7 138064912.384 7      2525.680          45.000    26272865.805 7 105789954.246 7      1935.297          45.000
> 2020 05 05 13 51 30.0000000  0 17        .000000000000
G18  20339298.023 8 106883807.442 8       -82.863          51.000    20339298.617 8  83286095.895 8       -64.569          50.000
G20  23659250.586 7 124330239.370 7      3265.336          43.000    23659251.602 6  96880687.444 6      2544.421          37.000
G21  20685275.945 8 108701879.325 8      -317.684          51.000    20685274.969 8  84702742.455 8      -247.546          51.000
G25  24662829.023 6 129603983.245 6     -3554.539          41.000    24662826.984 6 100990137.624 6     -2769.774          41.000
G26  20467138.977 5 107555514.340 5      1039.102          34.000    20467140.273 5  83809487.677 5       809.690          33.000
G31  22651675.453 8 119035344.162 8     -2806.395          51.000    22651673.883 8  92754820.187 8     -2186.801          51.000
R13  19390472.297 7 103544030.677 7     -1108.520          43.000    19390474.742 7  80534263.973 7      -862.182          44.000
R23  19279732.602 6 103133642.666 6        73.191          40.000    19279737.289 4  80215013.620 4        56.924          29.000
R24  21046942.453 8 112547505.161 8      2609.629          48.000    21046944.508 7  87536907.970 7      2029.714          42.000
C05  39618500.102 5 206303926.317 5        12.902          35.000    39618503.023 6 159527293.570 6         9.445          37.000
C11  21778789.211 8 113407973.661 8      -191.121          51.000    21778789.000 8  87694241.778 8      -147.742          51.000
C25  23293069.742 8 121293127.794 8     -2531.695          50.000
E01  23685037.859 8 124465729.442 8       315.898          51.000    23685039.664 8  95369831.018 8       242.070          51.000
E13  24803124.859 6 130341305.301 6     -2075.945          38.000    24803127.617 6  99871915.440 6     -1590.620          40.000
E21  24950181.070 8 131114069.067 8     -2297.223          48.000    24950186.844 8 100464055.206 8     -1760.192          51.000
E26  22337342.867 8 117383650.982 8       491.594          51.000    22337347.367 8  89943275.253 8       376.634          51.000
E33  26258461.094 7 137989237.295 7      2519.414          44.000    26258464.828 7 105731969.472 7      1930.424          45.000
> 2020 05 05 13 52  0.0000000  0 20        .000000000000
G18  20339811.414 8 106886507.524 8      -109.410          50.000    20339812.609 8  83288199.848 8       -85.255          50.000
G20  23640608.047 7 124232269.475 7      3253.754          43.000    23640608.617 6  96804347.340 6      2535.396          38.000
G21  20687121.305 8 108711576.688 8      -340.992          51.000    20687120.500 8  84710298.845 8      -265.708          51.000
G25  24683117.539 6 129710606.670 6     -3565.895          41.000    24683118.055 6 101073220.705 6     -2778.622          41.000
G26  20461235.164 6 107524499.239 6      1016.059          39.000    20461238.227 6  83785319.997 6       791.737          40.000
G29  22295001.805 5 117161010.322 5     -2495.336          33.000    22294968.969 5  91294176.487 5     -1944.418          33.000
G31  22667714.062 8 119119627.000 8     -2824.559          50.000    22667711.781 8  92820495.094 8     -2200.955          50.000
R12  22210205.391 6 118642893.912 6     -4232.090          39.000    22210210.570 5  92277838.632 5     -3291.625          35.000
R13  19396760.016 7 103577607.146 7     -1142.391          42.000    19396762.508 7  80560378.972 7      -888.526          43.000
R23  19279357.484 6 103131634.501 6        48.121          40.000    19279363.305 5  80213451.710 5        37.424          31.000
R24  21032326.938 7 112469345.553 7      2588.441          47.000    21032329.000 6  87476117.170 6      2013.232          41.000
C05  39618417.961 5 206303498.335 5         3.949          35.000    39618420.891 6 159526962.540 6         3.456          37.000
C11  21779905.047 8 113413784.208 8      -208.332          51.000    21779904.703 8  87698734.863 8      -161.071          51.000
C12  23941603.953 5 124670136.436 5     -2473.320          32.000    23941613.688 4  96402955.265 4     -1913.791          27.000
C25  23307673.312 8 121369177.291 8     -2550.484          50.000
E01  23683257.648 8 124456374.781 8       295.555          51.000    23683259.305 8  95362663.155 8       226.488          51.000
E13  24814979.953 6 130403602.749 6     -2089.309          39.000    24814982.008 6  99919649.840 6     -1600.938          40.000
E21  24963309.094 8 131183055.515 8     -2314.016          49.000    24963314.977 8 100516914.917 8     -1773.086          51.000
E26  22334555.781 8 117369003.078 8       472.867          51.000    22334560.039 8  89932051.541 8       362.303          51.000
E33  26244082.812 7 137913682.958 7      2505.266          43.000    26244086.555 7 105674077.246 7      1919.727          46.000
> 2020 05 05 13 52 30.0000000  0 19        .000000000000
G18  20340453.680 8 106889884.103 8      -119.281          49.000    20340455.133 8  83290830.956 8       -92.946          49.000
G20  23622008.570 6 124134526.372 6      3258.926          41.000    23622008.828 6  96728183.961 6      2539.429          41.000
G21  20689076.641 8 108721852.502 8      -347.621          51.000    20689075.789 8  84718305.977 8      -270.874          51.000
G25  24703448.211 7 129817447.951 7     -3560.367          42.000    24703450.602 7 101156473.523 7     -2774.315          42.000
G26  20455440.656 6 107494052.277 6      1009.957          39.000    20455443.469 6  83761595.128 6       786.980          39.000
G31  22683832.281 8 119204330.815 8     -2825.902          49.000    22683830.000 8  92886498.055 8     -2202.002          49.000
R12  22233966.305 7 118769797.241 7     -4231.930          42.000    22233965.891 5  92376541.148 5     -3291.504          30.000
R13  19403216.867 7 103612085.938 7     -1159.863          43.000    19403219.016 7  80587195.773 7      -902.116          43.000
R23  19279100.922 6 103130257.000 6        39.922          39.000    19279105.477 5  80212380.300 5        31.050          30.000
R24  21017806.180 7 112391696.700 7      2584.227          45.000    21017808.555 6  87415723.632 6      2009.954          40.000
C05  39618358.102 5 206303186.364 5        12.836          35.000    39618361.047 6 159526721.319 6        10.149          37.000
C11  21781097.211 8 113419990.197 8      -208.938          51.000    21781096.438 8  87703533.727 8      -161.688          51.000
C12  23955829.406 5 124744208.971 5     -2467.648          32.000    23955851.867 4  96460261.216 4     -1908.831          29.000
C25  23322362.383 8 121445671.712 8     -2552.711          50.000
E01  23681570.602 8 124447509.153 8       291.844          51.000    23681571.977 8  95355870.022 8       223.609          51.000
E13  24826888.805 6 130466181.576 6     -2086.168          41.000    24826890.438 6  99967599.855 6     -1598.429          40.000
E21  24976509.750 8 131252422.984 8     -2314.145          50.000    24976514.953 8 100570066.572 8     -1773.140          50.000
E26  22331852.094 8 117354793.388 8       470.789          51.000    22331856.227 8  89921163.608 8       360.746          51.000
E33  26229761.148 7 137838424.828 7      2508.051          43.000    26229764.672 7 105616411.996 7      1921.840          46.000
> 2020 05 05 13 53  0.0000000  0 19        .000000000000
G18  20341188.047 8 106893743.703 8      -136.531          51.000    20341189.305 8  83293838.434 8      -106.388          51.000
G20  23603415.734 6 124036820.239 6      3256.402          38.000    23603415.773 6  96652049.384 6      2537.459          37.000
G21  20691105.211 8 108732512.826 8      -361.500          51.000    20691104.539 8  84726612.731 8      -281.688          51.000
G25  24723784.047 6 129924312.956 6     -3562.336          41.000    24723788.055 6 101239744.860 6     -2775.846          41.000
G26  20449718.297 6 107463982.407 6       995.781          37.000    20449720.734 6  83738164.076 6       775.933          38.000
G31  22699993.336 8 119289260.081 8     -2834.414          50.000    22699991.906 8  92952676.669 8     -2208.637          50.000
R12  22257759.477 7 118896894.634 7     -4239.703          43.000
R13  19409805.906 7 103647269.743 7     -1184.230          42.000    19409807.586 7  80614560.931 7      -921.071          42.000
R22  21986636.750 5 117366119.491 5     -3434.160          30.000
R23  19278925.086 6 103129313.048 6        24.355          40.000    19278929.219 5  80211646.117 5        18.943          32.000
R24  21003344.992 8 112314363.325 8      2572.738          48.000    21003346.266 6  87355575.498 6      2001.022          39.000
C05  39618283.789 5 206302799.552 5        14.039          35.000    39618286.852 6 159526422.199 6        11.085          37.000
C11  21782328.352 8 113426399.910 8      -216.902          51.000    21782327.531 8  87708490.124 8      -167.695          51.000
C25  23337100.758 8 121522418.163 8     -2562.066          51.000
E01  23679940.008 8 124438940.654 8       280.828          51.000    23679941.391 8  95349304.540 8       215.189          51.000
E13  24838814.258 7 130528847.759 7     -2090.289          42.000    24838815.758 6 100015616.786 6     -1601.461          40.000
E21  24989745.953 8 131321977.823 8     -2321.320          51.000    24989750.391 8 100623361.774 8     -1778.719          49.000
E26  22329194.914 8 117340828.691 8       461.621          51.000    22329199.156 8  89910463.407 8       353.752          51.000
E33  26215459.594 7 137763270.762 7      2503.598          42.000    26215462.891 7 105558826.450 7      1918.407          47.000
> 2020 05 05 13 53 30.0000000  0 20        .000000000000
G18  20342029.336 8 106898164.643 8      -158.125          50.000    20342030.570 8  83297283.325 8      -123.211          50.000
G20  23584845.469 6 123939232.826 6      3249.781          36.000    23584845.125 6  96576007.260 6      2532.294          37.000
G21  20693221.711 8 108743635.427 8      -379.730          50.000    20693221.383 8  84735279.698 8      -295.894          50.000
G25  24744139.344 7 130031279.329 7     -3568.664          42.000    24744144.484 7 101323095.172 7     -2780.780          42.000
G26  20444083.312 6 107434369.990 6       978.516          36.000    20444086.469 6  83715089.454 6       762.477          36.000
G29  22337721.531 5 117385506.679 5     -2502.570          31.000    22337702.977 4  91469190.360 4     -1950.052          29.000
G31  22716212.156 8 119374491.147 8     -2847.473          51.000    22716212.016 8  93019090.425 8     -2218.810          51.000
R12  22281603.039 7 119024262.960 7     -4251.402          43.000
R13  19416541.805 6 103683238.848 6     -1213.281          41.000    19416543.125 6  80642536.890 6      -943.666          40.000
R22  22005944.250 4 117469224.007 4     -3440.957          29.000
R23  19278844.258 6 103128881.087 6         4.496          39.000    19278848.711 4  80211310.227 4         3.500          29.000
R24  20988958.500 8 112237426.356 8      2556.480          49.000    20988958.117 6  87295735.678 6      1988.374          38.000
C05                                                                  39618213.234 6 159526126.766 6         8.642          37.000
C11  21783613.289 8 113433090.851 8      -229.105          51.000    21783612.531 8  87713664.013 8      -177.168          51.000
C25  23351902.781 8 121599493.028 8     -2575.984          51.000
E01  23678381.039 8 124430749.067 8       265.344          51.000    23678382.586 8  95343027.866 8       203.261          51.000
E13  24850770.797 7 130591678.905 7     -2098.633          42.000    24850772.453 6 100063760.101 6     -1607.900          40.000
E21  25003032.742 8 131391798.220 8     -2333.188          51.000    25003035.734 8 100676860.433 8     -1787.731          48.000
E26  22326599.430 8 117327187.586 8       447.910          51.000    22326603.320 8  89900011.148 8       343.222          51.000
E33  26201193.188 7 137688300.427 7      2494.551          43.000    26201196.336 8 105501381.685 8      1911.421          48.000
> 2020 05 05 13 54  0.0000000  0 19        .000000000000
G18  20342972.773 8 106903121.814 8      -172.230          51.000    20342973.797 8  83301146.070 8      -134.206          51.000
G20  23566293.289 6 123841742.825 6      3249.523          39.000    23566292.859 6  96500041.033 6      2532.096          40.000
G21  20695421.195 8 108755194.883 8      -390.617          50.000    20695420.852 8  84744287.067 8      -304.377          50.000
G25  24764509.172 7 130138321.258 7     -3567.336          42.000    24764514.867 7 101406504.375 7     -2779.745          42.000
G26  20438531.492 6 107405192.231 6       966.875          39.000    20438534.875 6  83692353.502 6       753.409          38.000
G31  22732483.445 8 119459996.789 8     -2852.785          51.000    22732484.547 8  93085718.134 8     -2222.949          51.000
R12  22305492.070 7 119151874.020 7     -4255.625          42.000    22305498.078 4  92673753.100 4     -3309.934          29.000
R13  19423419.414 6 103719966.617 6     -1235.152          39.000    19423420.406 6  80671102.938 6      -960.677          39.000
R23  19278854.633 6 103128935.393 6        -7.809          39.000    19278858.797 4  80211352.412 4        -6.076          29.000
R24  20974640.719 7 112160861.983 7      2547.844          45.000    20974639.250 6  87236185.588 6      1981.656          38.000
C05                                                                  39618135.742 6 159525814.378 6        12.131          37.000
C11  21784947.461 8 113440038.069 8      -233.949          51.000    21784946.453 8  87719036.047 8      -180.986          51.000
C12  23998546.383 5 124966679.159 5     -2473.629          31.000    23998540.312 4  96632178.483 4     -1912.900          28.000
C25  23366762.742 8 121676870.258 8     -2582.402          50.000
E01  23676889.523 8 124422910.843 8       257.207          51.000    23676890.969 8  95337021.958 8       197.063          51.000
E13  24862753.430 7 130654649.328 7     -2099.602          42.000    24862755.469 6 100112010.145 6     -1608.759          39.000
E21  25016365.367 8 131461858.930 8     -2337.512          51.000    25016366.820 8 100730543.258 8     -1791.095          49.000
E26  22324060.805 8 117313845.254 8       441.594          51.000    22324064.273 8  89889787.810 8       338.376          51.000
E33  26186957.594 7 137613490.055 7      2492.727          44.000    26186960.383 8 105444059.474 8      1910.134          48.000
> 2020 05 05 13 54 30.0000000  0 19        .000000000000
G18  20344031.594 8 106908684.816 8      -199.184          51.000    20344032.305 8  83305480.866 8      -155.208          51.000
G20  23547773.586 6 123744423.366 6      3237.473          40.000    23547773.062 6  96424207.758 6      2522.709          38.000
G21  20697717.031 8 108767260.013 8      -414.191          49.000    20697716.516 8  84753688.463 8      -322.747          50.000
G25  24784906.469 7 130245507.788 7     -3579.141          42.000    24784912.305 7 101490026.225 7     -2788.944          42.000
G26  20433076.008 7 107376520.766 7       943.668          42.000    20433079.297 7  83670012.102 7       735.326          42.000
G31  22748819.938 8 119545844.383 8     -2870.840          51.000    22748821.859 8  93152612.313 8     -2237.018          51.000
R12  22329439.148 6 119279795.798 6     -4272.918          41.000    22329446.234 5  92773247.674 5     -3323.384          33.000
R13  19430452.234 6 103757524.105 6     -1269.406          37.000    19430453.711 6  80700314.285 6      -987.316          39.000
R23  19278967.961 6 103129546.007 6       -33.547          36.000    19278973.617 4  80211827.421 4       -26.089          27.000
R24  20960404.711 6 112084742.326 6      2526.379          41.000    20960403.328 6  87176981.446 6      1964.961          36.000
C05  39618064.375 5 206301657.341 5         7.359          34.000    39618067.570 6 159525539.945 6         5.658          37.000
C11  21786344.164 8 113447310.583 8      -251.453          51.000    21786343.102 8  87724659.622 8      -194.533          51.000
C12  24012836.602 5 125041036.364 5     -2484.430          33.000
C25  23381693.461 8 121754617.638 8     -2601.418          50.000
E01  23675478.852 8 124415497.081 8       236.375          51.000    23675480.344 8  95331341.287 8       181.092          51.000
E13  24874775.562 6 130717827.951 6     -2113.020          40.000    24874777.969 6 100160419.734 6     -1619.088          39.000
E21  25029757.109 8 131532229.449 8     -2354.531          51.000    25029757.828 8 100784463.484 8     -1804.091          51.000
E26  22321592.125 8 117300871.556 8       422.691          51.000    22321595.656 8  89879846.935 8       323.839          51.000
E33  26172766.344 7 137538910.543 7      2478.484          46.000    26172768.742 8 105386914.185 8      1899.060          49.000
> 2020 05 05 13 55  0.0000000  0 20        .000000000000
G18  20345175.836 8 106914696.425 8      -200.473          51.000    20345176.133 8  83310165.243 8      -156.212          51.000
G20  23529256.297 6 123647121.021 6      3250.484          39.000    23529256.773 6  96348387.772 6      2532.842          39.000
G21  20700079.023 8 108779673.403 8      -412.238          49.000    20700078.711 8  84763361.242 8      -321.222          49.000
G25  24805301.156 7 130352681.014 7     -3565.066          43.000    24805306.891 7 101573537.699 7     -2777.980          43.000
G26  20427687.328 7 107348200.735 7       945.734          42.000    20427690.492 7  83647944.548 7       736.936          43.000
G29  22380677.539 6 117611197.607 6     -2504.332          37.000    22380654.852 6  91645069.220 6     -1951.421          37.000
G31  22765191.328 8 119631874.835 8     -2863.289          51.000    22765193.531 8  93219648.981 8     -2231.134          51.000
R12  22353414.180 6 119407866.057 6     -4263.922          38.000    22353419.812 5  92872857.772 5     -3316.387          35.000
R13  19437609.984 5 103795751.246 5     -1277.961          35.000    19437611.242 6  80730046.498 6      -993.970          38.000
R23  19279155.930 6 103130552.754 6       -32.566          37.000    19279160.594 4  80212618.374 4       -25.332          25.000
R24  20946221.789 6 112008908.921 6      2530.664          39.000    20946221.781 6  87118000.029 6      1968.297          38.000
C05  39617975.867 5 206301196.519 5        24.793          35.000    39617979.148 6 159525183.629 6        18.942          37.000
C11  21787773.461 8 113454752.727 8      -243.535          50.000    21787772.633 8  87730414.360 8      -188.275          51.000
C12  24027117.703 4 125115506.843 4     -2468.789          26.000
C25  23396665.008 8 121832578.223 8     -2594.969          49.000
E01  23674119.234 8 124408352.198 8       241.223          51.000    23674120.961 8  95325866.625 8       184.812          51.000
E13  24886807.695 6 130781057.067 6     -2101.238          37.000    24886810.273 6 100208868.015 6     -1609.710          39.000
E21  25043177.680 8 131602752.477 8     -2345.832          51.000    25043178.555 8 100838500.582 8     -1797.480          51.000
E26  22319163.578 8 117288109.587 8       429.410          51.000    22319167.227 8  89870068.284 8       328.909          51.000
E33  26158589.633 7 137464406.169 7      2489.672          47.000    26158591.477 8 105329826.451 8      1907.551          49.000
> 2020 05 05 13 55 30.0000000  0 18        .000000000000
G18  20346465.414 8 106921471.923 8      -231.422          51.000    20346465.383 8  83315444.870 8      -180.329          51.000
G20  23510801.977 6 123550154.688 6      3233.816          39.000    23510804.570 6  96272829.598 6      2519.857          39.000
G21  20702567.203 8 108792750.004 8      -439.703          48.000    20702566.852 8  84773550.810 8      -342.626          48.000
G25  24825752.891 6 130460155.583 6     -3580.477          41.000    24825757.906 6 101657283.969 6     -2789.985          41.000
G26  20422425.648 6 107320549.603 6       918.016          40.000    20422428.844 6  83626398.234 6       715.337          39.000
G31  22781657.281 8 119718401.548 8     -2885.332          51.000    22781659.180 8  93287072.349 8     -2248.314          51.000
R12  22377476.812 5 119536402.570 5     -4284.883          35.000    22377481.398 6  92972830.417 6     -3332.693          36.000
R13  19444953.758 6 103834968.229 6     -1316.234          37.000    19444955.531 6  80760548.604 6     -1023.738          41.000
R23  19279477.414 5 103132275.469 5       -61.980          32.000    19279481.539 4  80213950.322 4       -48.201          25.000
R24  20932152.547 6 111933684.029 6      2504.789          39.000    20932156.367 6  87059491.822 6      1948.169          40.000
C05                                                                  39617930.508 6 159524987.528 6         9.693          37.000
C11  21789294.820 8 113462676.782 8      -265.082          49.000    21789294.523 8  87736541.746 8      -204.936          51.000
C25  23411737.305 8 121911063.175 8     -2617.754          49.000
E01  23672870.977 8 124401792.942 8       216.141          51.000    23672872.758 8  95320840.689 8       165.542          51.000
E13  24898909.609 6 130844651.343 6     -2118.777          40.000    24898912.430 6 100257596.142 6     -1623.293          38.000
E21  25056686.648 8 131673743.189 8     -2366.930          51.000    25056688.375 8 100892896.028 8     -1813.618          51.000
E26  22316835.359 8 117275874.933 8       406.285          51.000    22316838.961 8  89860693.673 8       311.306          51.000
E33  26144487.500 7 137390293.493 7      2471.031          47.000    26144488.664 8 105273038.854 8      1893.447          49.000
> 2020 05 05 13 56  0.0000000  0 19        .000000000000
G18  20347833.586 8 106928661.125 8      -247.004          51.000    20347833.281 8  83321046.855 8      -192.471          51.000
G20  23492346.867 7 123453177.881 7      3232.098          43.000    23492350.289 6  96197263.311 6      2518.521          40.000
G21  20705114.969 8 108806139.306 8      -452.199          48.000    20705114.344 8  84783984.036 8      -352.360          48.000
G25  24846195.078 6 130567580.783 6     -3580.820          40.000    24846198.859 6 101740991.763 6     -2790.256          40.000
G26  20417224.633 6 107293219.526 6       905.262          40.000    20417228.305 6  83605102.032 6       705.399          40.000
G29  22409463.938 6 117762535.393 6     -2523.012          37.000    22409467.688 6  91763016.641 6     -1965.983          36.000
G31  22798150.727 8 119805072.203 8     -2892.094          51.000    22798151.781 8  93354607.869 8     -2253.583          51.000
R12  22401560.922 5 119665046.675 5     -4289.988          35.000    22401563.734 6  93072886.787 6     -3336.661          36.000
R13  19452416.820 6 103874818.699 6     -1339.305          39.000    19452419.117 7  80791543.392 7     -1041.681          43.000
R23  19279866.578 5 103134356.932 5       -75.832          35.000    19279870.039 4  80215569.176 4       -58.987          25.000
R24  20918132.602 6 111858713.146 6      2494.098          40.000    20918137.398 6  87001181.028 6      1939.851          39.000
C05  39617851.859 5 206300550.518 5        14.984          35.000    39617855.156 6 159524684.075 6        11.499          37.000
C11  21790842.203 8 113470735.933 8      -271.410          50.000    21790842.180 8  87742773.610 8      -210.010          51.000
C25  23426843.773 8 121989724.458 8     -2625.629          49.000
E01  23671667.945 8 124395470.752 8       206.055          51.000    23671669.578 8  95315996.402 8       157.880          51.000
E13  24911014.125 7 130908260.299 7     -2121.316          43.000    24911017.664 6 100306335.420 6     -1625.197          37.000
E21  25070217.727 8 131744851.307 8     -2372.840          51.000    25070220.789 8 100947381.441 8     -1818.186          51.000
E26  22314540.859 8 117263817.775 8       398.215          51.000    22314544.453 8  89851455.073 8       305.186          51.000
E33  26130393.250 7 137316223.799 7      2467.555          47.000    26130394.070 8 105216284.224 8      1890.697          50.000
> 2020 05 05 13 56 30.0000000  0 20        .000000000000
G18  20349306.969 8 106936403.226 8      -267.852          51.000    20349306.461 8  83327079.662 8      -208.716          51.000
G20  23473918.172 7 123356333.775 7      3225.242          45.000    23473921.141 6  96121800.473 6      2513.179          40.000
G21  20707748.641 8 108819980.451 8      -469.406          48.000    20707748.148 8  84794769.360 8      -365.771          48.000
G25  24866653.016 6 130675095.111 6     -3585.664          36.000    24866657.289 6 101824769.036 6     -2794.027          36.000
G26  20412111.664 6 107266351.803 6       887.098          41.000    20412115.664 6  83584166.115 6       691.245          41.000
G29  22423912.414 5 117838395.607 5     -2529.930          34.000    22423885.602 5  91822098.859 5     -1971.371          34.000
G31  22814697.742 8 119892024.194 8     -2903.699          51.000    22814697.328 8  93422362.609 8     -2262.623          51.000
R12  22425690.031 5 119793937.501 5     -4300.926          32.000    22425692.930 6  93173134.998 6     -3345.168          36.000
R13  19460025.102 6 103915444.432 6     -1367.867          40.000    19460027.953 7  80823141.176 7     -1063.897          44.000
R23  19280349.609 6 103136938.561 6       -95.113          37.000    19280355.016 4  80217571.625 4       -73.980          24.000
R24  20904188.805 7 111784138.810 7      2478.488          42.000    20904191.281 6  86943178.773 6      1927.713          38.000
C05  39617776.422 5 206300157.932 5        12.461          34.000    39617779.711 6 159524381.495 6        10.028          37.000
C11  21792442.375 8 113479068.171 8      -282.930          50.000    21792442.453 8  87749216.605 8      -218.695          51.000
C12  24070079.922 5 125339204.826 5     -2489.551          31.000    24070067.938 5  96920225.270 5     -1925.556          33.000
C25  23442010.219 8 122068698.748 8     -2638.227          49.000
E01  23670536.930 8 124389526.357 8       191.266          51.000    23670538.312 8  95311441.598 8       146.563          51.000
E13  24923147.664 7 130972022.430 7     -2128.582          43.000    24923151.930 6 100355192.099 6     -1631.006          36.000
E21  25083797.750 8 131816215.912 8     -2383.637          51.000    25083802.031 8 101002063.384 8     -1826.375          51.000
E26  22312306.555 8 117252077.595 8       385.539          51.000    22312310.078 8  89842459.360 8       295.446          51.000
E33  26116333.625 7 137242337.705 7      2459.199          46.000    26116334.477 8 105159670.251 8      1884.417          50.000
> 2020 05 05 13 57  0.0000000  0 21        .000000000000
G18  20350895.172 8 106944749.180 8      -289.297          51.000    20350894.609 8  83333583.008 8      -225.426          50.000
G20  23455525.523 7 123259676.904 7      3217.621          47.000    23455528.023 6  96046483.519 6      2507.240          38.000
G21  20710477.891 8 108834323.365 8      -487.645          49.000    20710477.492 8  84805945.670 8      -379.983          48.000
G25  24887137.578 6 130782749.011 6     -3591.824          37.000    24887143.969 6 101908655.109 6     -2798.827          38.000
G26  20407097.000 7 107239999.665 7       868.898          43.000    20407100.953 7  83563631.974 7       677.064          43.000
G31  22831307.391 8 119979306.510 8     -2915.902          49.000    22831305.172 8  93490374.749 8     -2272.135          50.000
R12  22449872.359 6 119923124.070 6     -4311.863          36.000    22449876.430 5  93273613.335 5     -3353.671          33.000
R13  19467787.961 6 103956896.351 6     -1396.766          40.000    19467791.258 7  80855381.543 7     -1086.373          45.000
R22  22141662.812 5 118193669.061 5     -3461.961          35.000
R23  19280936.156 6 103140071.479 6      -114.883          39.000
R24  20890327.867 6 111710014.678 6      2462.066          38.000    20890328.984 6  86885526.729 6      1914.944          37.000
C05  39617710.734 5 206299815.560 5         9.844          35.000    39617714.156 6 159524116.576 6         7.228          37.000
C11  21794104.250 8 113487723.910 8      -294.914          50.000    21794104.922 8  87755909.795 8      -228.046          51.000
C12                                                                  24084424.133 4  96977994.206 4     -1929.893          29.000
C23  22879533.852 6 119139746.161 6       258.922          36.000
C25  23457245.719 8 122148035.490 8     -2651.668          48.000
E01  23669487.750 8 124384012.337 8       175.570          51.000    23669488.773 8  95307216.566 8       134.525          51.000
E13  24935319.750 6 131035988.311 6     -2136.820          41.000    24935324.469 5 100404204.848 5     -1636.825          35.000
E21  25097436.367 8 131887887.914 8     -2395.152          51.000    25097441.453 8 101056980.886 8     -1835.283          51.000
E26  22310142.250 8 117240705.737 8       371.879          51.000    22310145.805 8  89833745.872 8       284.919          51.000
E33  26102317.898 7 137168687.629 7      2449.930          44.000    26102319.602 8 105103237.117 8      1877.282          49.000
> 2020 05 05 13 57 30.0000000  0 21        .000000000000
G18  20352576.227 8 106953583.331 8      -306.059          50.000    20352575.430 8  83340466.772 8      -238.487          50.000
G20  23437147.195 7 123163095.205 7      3214.676          47.000    23437149.109 6  95971225.168 6      2504.945          38.000
G21  20713280.797 8 108849052.116 8      -500.883          49.000    20713279.953 8  84817422.625 8      -390.298          49.000
G26  20402158.938 7 107214049.813 7       854.719          43.000    20402162.234 7  83543411.296 7       666.015          43.000
G31  22847956.734 7 120066801.559 7     -2923.473          46.000    22847953.141 7  93558552.664 7     -2278.034          46.000
R12  22474087.195 5 120052486.227 5     -4318.840          35.000    22474092.078 5  93374228.289 5     -3359.101          30.000
R13  19475683.172 6 103999056.478 6     -1420.738          41.000    19475686.883 7  80888172.730 7     -1105.019          46.000
R22  22161107.477 5 118297454.094 5     -3462.859          34.000
R23  19281602.859 6 103143637.489 6      -129.688          39.000
R24  20876527.953 6 111636224.563 6      2450.832          41.000    20876530.523 6  86828134.487 6      1906.203          38.000
C05  39617633.312 5 206299412.782 5        11.133          35.000    39617636.547 6 159523804.311 6         8.482          36.000
C11  21795806.336 8 113496588.819 8      -302.453          49.000    21795807.328 8  87762764.708 8      -233.927          51.000
C12                                                                  24098784.867 4  97035818.761 4     -1930.576          29.000
C23  22878065.406 6 119132100.214 6       243.879          36.000
C25  23472528.500 8 122227618.905 8     -2660.402          48.000
C28  25639453.172 6 133511364.751 6      2725.789          38.000
E01  23668498.648 8 124378814.642 8       164.488          51.000    23668499.547 8  95303233.907 8       126.030          51.000
E13  24947508.422 6 131100041.733 6     -2140.031          38.000    24947513.016 6 100453284.760 6     -1639.896          36.000
E21  25111111.633 8 131959751.651 8     -2402.180          51.000    25111116.766 8 101112045.294 8     -1840.628          51.000
E26  22308026.195 8 117229586.928 8       362.977          51.000    22308029.812 8  89825226.268 8       278.113          51.000
E33  26088323.953 7 137095159.398 7      2445.488          43.000    26088327.211 8 105046897.310 8      1873.795          49.000
> 2020 05 05 13 58  0.0000000  0 21        .000000000000
G18  20354374.711 8 106963035.030 8      -323.492          50.000    20354373.898 8  83347831.741 8      -252.072          50.000
G20  23418808.352 7 123066722.214 7      3210.812          46.000    23418808.859 6  95896129.465 6      2501.935          36.000
G21  20716181.758 8 108864295.924 8      -514.855          49.000    20716180.625 8  84829300.937 8      -401.186          49.000
G26  20397322.555 7 107188633.757 7       840.262          45.000    20397325.141 7  83523606.597 7       654.749          44.000
G31  22864669.836 7 120154636.637 7     -2931.633          44.000    22864666.188 7  93626995.529 7     -2284.389          45.000
R12  22498360.070 5 120182153.098 5     -4325.406          35.000    22498366.766 4  93475080.221 4     -3364.211          29.000
R13  19483735.719 6 104042056.259 6     -1445.398          41.000    19483739.305 7  80921616.980 7     -1124.199          46.000
R22  22180576.422 5 118401382.716 5     -3464.961          32.000
R23  19282375.531 6 103147767.764 6      -145.141          40.000    19282380.195 4  80226001.953 4      -112.887          25.000
R24  20862817.688 7 111562901.710 7      2438.199          44.000    20862820.047 6  86771105.636 6      1896.380          38.000
C05  39617568.586 5 206299075.561 5        12.125          35.000    39617571.672 6 159523543.548 6         9.364          37.000
C11  21797573.477 8 113505791.242 8      -310.520          49.000    21797574.430 8  87769880.583 8      -240.062          51.000
C12                                                                  24113172.086 5  97093746.042 5     -1931.340          33.000
C23  22876706.461 5 119125027.091 5       228.113          35.000
C25  23487883.547 8 122307576.125 8     -2669.660          48.000
C28  25623754.953 6 133429635.313 6      2723.352          40.000
E01  23667594.555 8 124374064.208 8       152.832          51.000    23667595.758 8  95299593.954 8       117.075          51.000
E13  24959738.891 5 131164312.646 5     -2144.008          32.000    24959742.422 6 100502530.526 6     -1643.063          36.000
E21  25124848.148 8 132031936.450 8     -2409.594          51.000    25124852.734 8 101167355.708 8     -1846.291          51.000
E26  22305983.102 8 117218850.909 8       353.414          51.000    22305986.453 8  89816999.965 8       270.801          51.000
E33  26074379.062 7 137021883.784 7      2440.270          45.000    26074382.227 8 104990751.087 8      1869.814          49.000
> 2020 05 05 13 58 30.0000000  0 21        .000000000000
G18  20356274.664 8 106973020.496 8      -342.145          49.000    20356274.273 8  83355612.633 8      -266.606          49.000
G20  23400493.594 7 122970477.876 7      3205.629          45.000    23400491.836 6  95821133.979 6      2497.896          36.000
G21  20719164.711 8 108879970.530 8      -530.141          50.000    20719163.500 8  84841514.926 8      -413.097          50.000
G26  20392572.281 7 107163670.047 7       824.203          45.000    20392574.656 7  83504154.359 7       642.236          44.000
G31  22881431.508 7 120242726.247 7     -2940.926          43.000    22881428.789 7  93695636.738 7     -2291.634          43.000
R12  22522674.945 5 120312037.072 5     -4333.602          32.000    22522682.977 5  93576101.007 5     -3370.585          32.000
R13  19491929.672 7 104085810.056 7     -1471.555          42.000    19491932.867 7  80955647.691 7     -1144.543          45.000
R22  22200058.141 5 118505368.576 5     -3468.207          31.000
R23  19283236.805 6 103152376.282 6      -161.734          39.000    19283239.969 4  80229586.313 4      -125.796          26.000
R24  20849179.141 6 111489962.250 6      2424.594          41.000    20849179.922 5  86714374.997 5      1885.798          35.000
C05                                                                  39617503.867 6 159523270.806 6         9.122          37.000
C11  21799389.328 8 113515248.154 8      -319.809          49.000    21799390.562 8  87777193.265 8      -247.345          51.000
C12                                                                  24127568.750 4  97151720.987 4     -1933.183          29.000
C23  22875439.594 4 119118417.644 4       211.332          28.000
C25  23503294.477 8 122387823.013 8     -2680.113          50.000
C28  25608075.516 6 133347995.197 6      2719.199          37.000
E01  23666759.953 8 124369678.866 8       139.711          51.000    23666761.406 8  95296233.748 8       107.051          51.000
E13  24971995.461 5 131228719.810 5     -2149.449          34.000    24971996.922 5 100551877.675 5     -1646.927          35.000
E21  25138629.875 8 132104358.460 8     -2418.422          51.000    25138633.680 8 101222847.868 8     -1853.065          51.000
E26  22303996.898 8 117208414.185 8       342.500          51.000    22303999.875 8  89809003.015 8       262.435          51.000
E33  26060467.609 7 136948778.440 7      2433.543          47.000    26060469.617 8 104934735.356 8      1864.687          49.000
> 2020 05 05 13 59  0.0000000  0 18        .000000000000
G18  20358285.055 8 106983586.378 8      -360.277          51.000    20358285.117 8  83363845.808 8      -280.736          50.000
G20  23382212.656 7 122874412.911 7      3200.621          45.000    23382209.508 6  95746278.267 6      2493.994          36.000
G21  20722238.500 8 108896122.343 8      -544.734          50.000    20722237.211 8  84854100.760 8      -424.468          50.000
G26  20387917.414 7 107139207.641 7       808.633          46.000    20387919.805 7  83485092.742 7       630.103          46.000
G31  22898250.867 7 120331115.223 7     -2949.789          43.000    22898249.477 7  93764511.223 7     -2298.537          43.000
R13  19500273.758 7 104130364.882 7     -1496.793          42.000    19500276.156 7  80990301.453 7     -1164.169          44.000
R23  19284196.109 6 103157510.169 6      -178.312          39.000    19284200.914 4  80233579.312 4      -138.688          28.000
R24  20835620.719 6 111417455.489 6      2411.273          39.000    20835620.672 5  86657980.902 5      1875.432          35.000
C05  39617439.219 5 206298401.747 5        11.777          34.000    39617442.312 6 159523022.530 6         9.140          36.000
C11  21801263.203 8 113525006.019 8      -328.656          50.000    21801264.500 8  87784738.676 8      -254.129          51.000
C12                                                                  24141985.938 5  97209773.416 5     -1935.022          32.000
C25  23518769.914 8 122468404.799 8     -2690.059          51.000
C28  25592421.367 6 133266492.023 6      2716.047          38.000
E01  23666004.180 8 124365706.941 8       127.109          51.000    23666005.555 8  95293190.328 8        97.398          51.000
E13  24984283.805 6 131293300.689 6     -2154.152          38.000    24984285.352 5 100601361.713 5     -1650.438          34.000
E21  25152465.398 8 132177064.395 8     -2426.652          51.000    25152468.672 8 101278557.570 8     -1859.368          51.000
E26  22302076.773 8 117198323.955 8       332.121          51.000    22302079.484 8  89801271.556 8       254.518          51.000
E33  26046597.742 7 136875891.555 7      2427.512          47.000    26046599.195 8 104878887.026 8      1860.050          49.000
> 2020 05 05 13 59 30.0000000  0 20        .000000000000
G18  20360394.562 8 106994672.373 8      -378.637          51.000    20360394.727 8  83372484.244 8      -295.042          50.000
G20  23363955.266 7 122778470.466 7      3195.508          46.000    23363952.219 6  95671518.037 6      2490.009          39.000
G21  20725391.492 8 108912690.688 8      -559.691          51.000    20725390.156 8  84867011.162 8      -436.123          51.000
G26  20383346.750 7 107115188.534 7       792.855          47.000    20383349.312 7  83466376.555 7       617.809          46.000
G31  22915115.852 7 120419741.306 7     -2958.648          44.000    22915115.922 7  93833570.491 7     -2305.443          44.000
R12  22571444.992 5 120572599.000 5     -4348.492          34.000    22571447.273 5  93778695.918 5     -3382.158          33.000
R13  19508756.188 6 104175659.053 6     -1522.684          41.000    19508758.328 7  81025530.252 7     -1184.309          43.000
R23  19285241.742 6 103163107.549 6      -194.551          37.000
R24  20822130.008 6 111345321.219 6      2397.523          36.000    20822131.844 5  86601876.460 5      1864.740          35.000
C05                                                                  39617375.508 6 159522753.266 6         9.059          36.000
C11  21803183.914 8 113535005.326 8      -337.828          51.000    21803184.695 8  87792470.766 8      -261.200          51.000
C12                                                                  24156413.312 4  97267859.957 4     -1937.620          28.000
C23  22873211.641 5 119106809.690 5       176.926          34.000
C25  23534298.008 8 122549260.549 8     -2700.266          51.000
C28  25576782.844 6 133185067.525 6      2712.270          40.000
E01  23665315.805 8 124362089.750 8       114.172          51.000    23665317.281 8  95290418.716 8        87.494          51.000
E13  24996594.141 6 131357999.495 6     -2159.129          39.000    24996596.133 5 100650936.119 5     -1654.299          33.000
E21  25166343.367 8 132249993.921 8     -2435.152          51.000    25166346.422 8 101334438.592 8     -1865.905          51.000
E26  22300211.133 8 117188520.266 8       321.590          51.000    22300213.719 8  89793759.650 8       246.404          51.000
E33  26032758.023 7 136803164.304 7      2421.188          47.000    26032759.938 8 104823161.010 8      1855.136          49.000
