     3.02           OBSERVATION DATA    M (MIXED)           RINEX VERSION / TYPE
SAVERINEX           SC600               20200516 145930 LCL PGM / RUN BY / DATE
       G = GPS       R = GLONASS       C = COMPASS          COMMENT
       S = SBAS      J = QZSS          E = GALILEO          COMMENT
BEAN                                                        MARKER NAME
1                                                           MARKER NUMBER
GEODETIC                                                    MARKER TYPE
Unige DICCA         GTER                                    OBSERVER / AGENCY
SC60291900056       SC600               2.12(191202)        REC # / TYPE / VERS
                    HEMA45          NONE                    ANT # / TYPE
  4509407.8091   693652.4678  4442337.6214                  APPROX POSITION XYZ
        0.0000        0.0000        0.0000                  ANTENNA: DELTA H/E/N
G    8 C1C L1C D1C S1C C2Y L2Y D2Y S2Y                      SYS / # / OBS TYPES
R    8 C1C L1C D1C S1C C2P L2P D2P S2P                      SYS / # / OBS TYPES
C    8 C1I L1I D1I S1I C7I L7I D7I S7I                      SYS / # / OBS TYPES
E    8 C1C L1C D1C S1C C7Q L7Q D7Q S7Q                      SYS / # / OBS TYPES
DBHZ                                                        COMMENT
     30.000                                                 INTERVAL
  2020    05    16    12    00    0.0000000     GPS         TIME OF FIRST OBS
  2020    05    16    12    59   30.0000000     GPS         TIME OF LAST OBS
     0                                                      RCV CLOCK OFFS APPL
G L1C  0.00000                                              SYS / PHASE SHIFT
G L2Y  0.00000                                              SYS / PHASE SHIFT
R L1C  0.00000                                              SYS / PHASE SHIFT
R L2P  0.25000                                              SYS / PHASE SHIFT
C L1I  0.00000                                              SYS / PHASE SHIFT
C L7I  0.00000                                              SYS / PHASE SHIFT
E L1C  0.50000                                              SYS / PHASE SHIFT
E L7Q -0.25000                                              SYS / PHASE SHIFT
 14 R02 -4 R03  5 R04  6 R05  1 R10 -5 R12 -1 R13 -2 R14 -7 GLONASS SLOT / FRQ #
    R15  0 R16 -1 R17  4 R18 -3 R19  3 R23  3               GLONASS SLOT / FRQ #
 C1C   71.950 C2C   71.950 C2P   71.950                     GLONASS COD/PHS/BIS
    18                                                      LEAP SECONDS
*** Above antenna height is from mark to ANTENNA BOTTOM.    COMMENT
    17     4        0.0000        ANT MEASURE TYPE/HEIGT    COMMENT
    0.0000    0.0000    0.0458    0.0405    0.0000          COMMENT
                    BASE STATION                            COMMENT
                                                            END OF HEADER
> 2020 05 16 12 00  0.0000000  0 14        .000000000000
G18  21338083.242 8 112132413.077 8      2505.270          51.000    21338083.797 7  87375928.447 7      1952.158          46.000
G21  21516551.148 8 113070301.324 8      2193.102          51.000    21516550.500 7  88106747.655 7      1708.910          46.000
G25  22283510.430 6 117100618.985 6     -2749.898          39.000    22283509.242 6  91247226.891 6     -2142.784          38.000
G29  20746543.305 8 109023826.633 8     -1511.824          51.000    20746542.023 8  84953637.053 8     -1178.045          51.000
G31  21221105.547 7 111517661.633 7      -798.117          47.000    21221104.289 7  86896874.458 7      -621.909          47.000
R15  19718176.641 8 105367940.006 8     -2082.852          51.000    19718177.906 7  81952844.492 7     -1619.996          47.000
R17  19877394.867 6 106368033.134 6     -2347.605          39.000    19877399.023 6  82730676.738 6     -1825.915          38.000
R18  19520020.883 8 104199317.872 8      1424.445          51.000    19520024.562 7  81043887.224 7      1107.902          46.000
C05  39642447.172 6 206428624.025 6        22.211          36.000    39642445.469 6 159623696.657 6        17.552          38.000
C27  22074729.875 8 114948882.210 8     -1552.129          51.000
C30  22046316.367 8 114801069.215 8      1427.578          50.000
E02  25259286.648 8 132738405.095 8     -2244.887          51.000    25259287.211 8 101708679.954 8     -1720.090          50.000
E15  25300474.742 8 132954879.866 8      2653.117          51.000    25300480.164 8 101874593.385 8      2032.860          51.000
E30  22060081.812 8 115926515.836 8        76.672          51.000    22060084.039 8  88826814.758 8        58.761          51.000
> 2020 05 16 12 00 30.0000000  0 14        .000000000000
G18  21323823.727 8 112057477.934 8      2490.684          51.000    21323823.250 7  87317537.475 7      1940.792          45.000
G21  21504073.414 8 113004727.896 8      2178.863          51.000    21504071.766 7  88055651.535 7      1697.819          46.000
G25  22299233.094 6 117183237.125 6     -2758.031          39.000    22299231.609 6  91311604.569 6     -2149.115          38.000
G29  20755203.898 8 109069338.463 8     -1521.891          51.000    20755202.656 8  84989100.815 8     -1185.889          51.000
G31  21225715.523 7 111541886.805 7      -816.574          45.000    21225714.203 7  86915751.200 7      -636.292          46.000
R15  19729929.594 8 105430745.382 8     -2103.762          51.000    19729930.688 7  82001693.156 7     -1636.259          46.000
R17  19890599.516 6 106438691.434 6     -2362.613          39.000    19890603.359 6  82785633.127 6     -1837.591          37.000
R18  19512075.508 8 104156900.250 8      1403.785          51.000    19512078.219 7  81010895.756 7      1091.833          47.000
C05  39642317.578 6 206427949.362 6        23.414          36.000    39642315.953 6 159623175.008 6        17.528          38.000
C27  22083699.703 8 114995590.596 8     -1561.543          51.000
C30  22038124.148 8 114758412.829 8      1416.609          51.000
E02  25272123.156 8 132805862.058 8     -2251.859          51.000    25272122.930 8 101760367.720 8     -1725.463          50.000
E15  25285349.984 8 132875396.583 8      2646.094          51.000    25285354.461 8 101813690.651 8      2027.511          51.000
E30  22059674.422 8 115924375.487 8        66.461          51.000    22059676.805 8  88825174.750 8        50.862          51.000
> 2020 05 16 12 01  0.0000000  0 14        .000000000000
G18  21309650.297 8 111982996.725 8      2474.613          51.000    21309649.156 7  87259500.199 7      1928.270          45.000
G21  21491679.008 8 112939593.717 8      2163.234          51.000    21491677.180 7  88004897.666 7      1685.640          47.000
G25  22315003.344 5 117266115.901 5     -2767.504          35.000    22315003.734 5  91376185.551 5     -2156.487          35.000
G29  20763924.430 8 109115165.218 8     -1533.297          51.000    20763923.320 8  85024809.962 8     -1194.777          51.000
G31  21230434.422 7 111566686.711 7      -836.543          45.000    21230433.336 7  86935075.757 7      -651.852          46.000
R15  19741801.922 8 105494189.876 8     -2125.949          51.000    19741803.109 7  82051038.841 7     -1653.519          46.000
R17  19903890.211 5 106509815.044 5     -2379.109          35.000    19903894.461 5  82840951.584 5     -1850.412          35.000
R18  19504249.203 8 104115118.176 8      1381.578          51.000    19504250.344 7  80978398.614 7      1074.561          45.000
C05  39642190.047 6 206427285.247 6        21.809          36.000    39642188.406 6 159622661.457 6        16.722          38.000
C27  22092726.438 8 115042594.634 8     -1572.262          51.000
C30  22029998.461 8 114716099.260 8      1404.152          51.000
E02  25285002.227 8 132873544.098 8     -2260.355          50.000    25285002.359 8 101812227.964 8     -1731.970          50.000
E15  25270267.883 8 132796138.049 8      2637.656          51.000    25270271.602 8 101752960.131 8      2021.025          51.000
E30  22059328.438 8 115922557.676 8        54.586          51.000    22059330.992 8  88823781.868 8        41.873          51.000
> 2020 05 16 12 01 30.0000000  0 14        .000000000000
G18  21295561.625 8 111908961.322 8      2461.062          51.000    21295560.547 7  87201810.291 7      1917.711          45.000
G21  21479366.312 8 112874890.113 8      2150.262          51.000    21479364.797 8  87954479.312 8      1675.529          48.000
G25  22330821.289 6 117349244.694 6     -2774.570          37.000    22330823.453 6  91440961.258 6     -2162.003          37.000
G29  20772702.680 8 109161295.223 8     -1542.098          51.000    20772701.680 8  85060755.421 8     -1201.635          51.000
G31  21235260.641 7 111592050.235 7      -854.207          46.000    21235259.797 7  86954839.550 7      -665.616          46.000
R15  19753792.117 8 105558261.758 8     -2145.523          51.000    19753793.508 7  82100872.469 7     -1668.743          46.000
R17  19917266.133 6 106581390.676 6     -2392.688          39.000    19917269.570 5  82896621.471 5     -1860.982          34.000
R18  19496539.703 8 104073961.245 8      1362.176          51.000    19496539.445 7  80946387.682 7      1059.470          46.000
C05  39642062.602 6 206426621.591 6        22.828          36.000    39642060.961 6 159622148.262 6        17.625          38.000
C27  22101807.586 8 115089882.750 8     -1580.371          51.000
C30  22021937.109 8 114674118.422 8      1394.430          51.000
E02  25297921.898 8 132941440.534 8     -2266.234          50.000    25297923.391 8 101864252.484 8     -1736.450          50.000
E15  25255226.602 8 132717095.113 8      2631.660          51.000    25255229.945 8 101692394.812 8      2016.485          51.000
E30  22059042.023 8 115921052.862 8        45.453          51.000    22059044.688 8  88822628.827 8        34.867          51.000
> 2020 05 16 12 02  0.0000000  0 14        .000000000000
G18  21281557.148 8 111835368.417 8      2446.109          50.000    21281556.773 7  87144465.174 7      1906.059          47.000
G21  21467134.594 8 112810613.031 8      2135.836          50.000    21467133.500 8  87904393.299 8      1664.288          48.000
G25  22346686.734 6 117432616.938 6     -2782.598          41.000    22346689.242 7  91505926.621 7     -2168.261          42.000
G29  20781537.383 8 109207721.763 8     -1552.012          51.000    20781536.469 8  85096931.937 8     -1209.360          51.000
G31  21240193.172 7 111617971.179 7      -872.832          47.000    21240192.320 7  86975037.683 7      -680.129          47.000
R15  19765898.586 8 105622953.997 8     -2166.238          51.000    19765900.125 7  82151188.608 7     -1684.855          47.000
R17  19930725.109 5 106653409.149 5     -2407.512          35.000    19930729.922 5  82952635.893 5     -1872.503          32.000
R18  19488945.508 8 104033424.090 8      1341.383          51.000    19488945.727 7  80914858.814 7      1043.301          47.000
C05  39641934.141 6 206425952.885 6        22.977          36.000    39641932.523 6 159621631.186 6        17.571          38.000
C27  22110941.828 8 115137447.963 8     -1589.629          51.000
C30  22013938.562 8 114632464.915 8      1383.441          51.000
E02  25310881.414 8 133009545.360 8     -2273.188          51.000    25310883.961 8 101916436.684 8     -1741.763          51.000
E15  25240225.359 8 132638263.279 8      2624.648          51.000    25240228.414 8 101631991.230 8      2011.061          51.000
E30  22058814.227 8 115919856.331 8        35.176          51.000    22058816.977 8  88821712.006 8        26.944          51.000
> 2020 05 16 12 02 30.0000000  0 14        .000000000000
G18  21267637.609 8 111762222.947 8      2429.762          49.000    21267638.266 7  87087468.698 7      1893.321          47.000
G21  21454984.688 8 112746767.070 8      2120.184          50.000    21454984.148 8  87854643.203 8      1652.091          48.000
G25  22362599.211 6 117516234.626 6     -2792.094          41.000    22362602.055 6  91571083.179 6     -2175.664          41.000
G29  20790428.789 8 109254446.125 8     -1563.301          51.000    20790427.945 8  85133340.531 8     -1218.153          51.000
G31  21245232.312 7 111644451.449 7      -892.785          47.000    21245231.375 7  86995671.659 7      -695.680          47.000
R15  19778121.656 8 105688268.214 8     -2188.391          51.000    19778123.531 8  82201988.554 8     -1702.082          49.000
R17  19944265.320 6 106725870.227 6     -2423.750          38.000    19944272.031 4  83008994.486 4     -1885.142          27.000
R18  19481467.633 8 103993509.748 8      1319.258          51.000    19481469.086 8  80883814.332 8      1026.086          48.000
C05  39641805.320 6 206425282.534 6        20.996          36.000    39641803.711 6 159621112.395 6        16.797          38.000
C27  22120129.773 8 115185291.652 8     -1600.262          51.000
C30  22006003.312 8 114591141.695 8      1371.047          51.000
E02  25323881.297 8 133077860.983 8     -2281.555          51.000    25323884.578 8 101968782.407 8     -1748.210          51.000
E15  25225265.148 8 132559646.476 8      2616.137          51.000    25225267.711 8 101571752.418 8      2004.536          50.000
E30  22058645.750 8 115918971.676 8        23.414          51.000    22058648.641 8  88821034.156 8        17.953          51.000
> 2020 05 16 12 03  0.0000000  0 14        .000000000000
G18  21253804.742 7 111689535.068 7      2416.203          46.000    21253806.750 7  87030828.786 7      1882.756          47.000
G21  21442918.703 8 112683361.341 8      2107.020          50.000    21442918.430 7  87805236.126 7      1641.830          47.000
G25  22378559.500 7 117600105.061 7     -2799.016          42.000    22378562.406 6  91636436.651 6     -2181.051          41.000
G29  20799378.117 8 109301474.977 8     -1571.684          51.000    20799377.305 8  85169986.388 8     -1224.689          51.000
G31  21250379.320 8 111671498.322 8      -909.977          49.000    21250378.102 8  87016747.114 8      -709.073          49.000
R15  19790462.367 8 105754211.285 8     -2207.684          51.000    19790464.461 8  82253277.623 8     -1717.087          50.000
R17  19957890.625 6 106798779.040 6     -2436.367          36.000    19957894.773 4  83065701.263 4     -1894.949          29.000
R18  19474107.953 8 103954226.367 8      1299.918          51.000    19474110.547 8  80853260.573 8      1011.047          49.000
C05  39641677.508 6 206424616.996 6        23.324          36.000    39641675.984 6 159620598.202 6        17.710          38.000
C27  22129372.453 8 115233420.408 8     -1608.082          51.000
C30  21998133.156 8 114550156.909 8      1361.453          51.000
E02  25336922.484 8 133146395.072 8     -2287.234          51.000    25336926.016 8 102021295.521 8     -1752.499          49.000
E15  25210347.805 8 132481253.835 8      2610.223          51.000    25210349.781 8 101511685.369 8      2000.059          50.000
E30  22058538.305 8 115918407.804 8        14.387          51.000    22058541.531 8  88820602.088 8        11.018          51.000
> 2020 05 16 12 03 30.0000000  0 14        .000000000000
G18  21240057.195 7 111617294.542 7      2399.996          47.000    21240060.141 7  86974537.477 7      1870.127          47.000
G21  21430934.859 8 112620385.189 8      2091.453          51.000    21430934.484 7  87756163.801 7      1629.704          47.000
G25  22394565.133 6 117684214.942 6     -2808.273          39.000    22394567.922 6  91701976.788 6     -2188.268          40.000
G29  20808382.828 8 109348794.788 8     -1582.758          51.000    20808381.953 8  85206858.962 8     -1233.318          51.000
G31  21255631.656 8 111699098.535 8      -929.707          49.000    21255629.703 8  87038253.772 8      -724.447          49.000
R15  19802917.883 8 105820769.317 8     -2229.375          51.000    19802920.406 8  82305044.977 8     -1733.958          50.000
R17  19971595.781 6 106872119.625 6     -2452.191          40.000    19971599.625 5  83122743.946 5     -1907.263          30.000
R18  19466863.938 8 103915561.602 8      1277.965          50.000    19466867.836 8  80823188.010 8       993.973          49.000
C05  39641548.562 6 206423945.244 6        21.902          36.000    39641547.102 6 159620079.114 6        16.988          38.000
C27  22138666.992 8 115281820.480 8     -1618.457          51.000
C30  21990325.164 8 114509498.357 8      1349.277          51.000
E02  25350002.750 8 133215134.731 8     -2295.289          50.000    25350005.797 8 102073966.151 8     -1758.779          49.000
E15  25195470.945 8 132403074.046 8      2601.820          50.000    25195472.547 8 101451781.422 8      1993.624          50.000
E30  22058489.758 8 115918153.040 8         2.781          51.000    22058493.203 8  88820406.877 8         2.095          51.000
> 2020 05 16 12 04  0.0000000  0 14        .000000000000
G18  21226399.406 8 111545523.197 8      2384.656          48.000    21226402.500 7  86918611.778 7      1858.174          47.000
G21  21419036.781 8 112557859.671 8      2076.812          51.000    21419036.414 7  87707442.638 7      1618.295          46.000
G25  22410619.055 6 117768583.210 6     -2816.246          37.000    22410622.750 6  91767718.319 6     -2194.477          36.000
G29  20817446.375 8 109396423.761 8     -1592.543          51.000    20817445.453 8  85243972.444 8     -1240.943          51.000
G31  21260992.750 8 111727270.955 8      -948.406          49.000    21260990.164 8  87060206.303 8      -739.018          49.000
R15  19815491.969 8 105887960.785 8     -2250.141          51.000    19815494.672 8  82357305.001 8     -1750.109          50.000
R17  19985385.938 6 106945908.792 6     -2466.766          36.000    19985388.336 5  83180135.476 5     -1918.592          30.000
R18  19459740.070 8 103877535.638 8      1257.129          50.000    19459744.742 8  80793612.283 8       977.767          49.000
C05  39641422.234 5 206423287.758 5        21.777          35.000    39641420.773 6 159619570.307 6        16.879          38.000
C27  22148017.281 8 115330509.991 8     -1627.660          51.000
C30  21982583.094 8 114469185.659 8      1338.180          51.000
E02  25363126.055 8 133284099.261 8     -2302.355          51.000    25363128.164 8 102126809.067 8     -1764.148          48.000
E15  25180637.938 8 132325127.904 8      2594.523          48.000    25180640.156 8 101392056.498 8      1987.961          51.000
E30  22058504.016 8 115918227.891 8        -7.816          51.000    22058507.289 8  88820464.225 8        -5.986          51.000
> 2020 05 16 12 04 30.0000000  0 15        .000000000000
G18  21212826.258 8 111474195.344 8      2367.395          48.000    21212828.609 7  86863031.648 7      1844.723          46.000
G21  21407219.383 8 112495758.597 8      2060.199          51.000    21407218.758 7  87659052.215 7      1605.353          46.000
G25  22426716.867 6 117853181.147 6     -2826.555          37.000    22426722.305 6  91833638.821 6     -2202.510          37.000
G26  21737834.461 5 114233090.545 5      2451.844          33.000
G29  20826563.086 8 109444332.578 8     -1604.430          51.000    20826562.352 8  85281303.989 8     -1250.205          51.000
G31  21266457.164 8 111755986.667 8      -968.980          49.000    21266454.211 8  87082582.177 8      -755.050          49.000
R15  19828179.055 8 105955756.102 8     -2272.652          51.000    19828181.859 8  82410034.671 8     -1767.622          49.000
R17  19999252.188 6 107020115.177 6     -2483.160          39.000    19999255.555 5  83237851.545 5     -1931.350          30.000
R18  19452730.656 8 103840119.976 8      1234.266          49.000    19452735.961 8  80764511.222 8       959.984          49.000
C05  39641293.125 6 206422615.492 6        20.398          36.000    39641291.742 6 159619050.495 6        15.453          38.000
C27  22157417.719 8 115379459.946 8     -1638.703          51.000
C30  21974902.539 8 114429191.328 8      1325.102          51.000
E02  25376287.344 8 133353260.354 8     -2311.461          51.000    25376288.672 8 102179802.595 8     -1771.113          48.000
E15  25165843.180 7 132247388.668 7      2585.039          46.000    25165847.438 8 101332490.070 8      1980.714          51.000
E30  22058575.930 8 115918605.306 8       -20.445          51.000    22058578.844 8  88820753.421 8       -15.663          51.000
> 2020 05 16 12 05  0.0000000  0 14        .000000000000
G18  21199345.203 8 111403351.656 8      2353.445          48.000    21199346.648 7  86807828.789 7      1833.857          45.000
G21  21395490.180 8 112434122.260 8      2046.742          51.000    21395488.641 7  87611023.927 7      1594.867          43.000
G25  22442866.203 6 117938046.578 6     -2833.371          38.000    22442872.016 6  91899767.768 6     -2207.822          39.000
G29  20835740.250 8 109492559.088 8     -1612.730          51.000    20835739.719 8  85318883.068 8     -1256.673          51.000
G31  21272032.211 8 111785283.837 8      -986.160          49.000    21272029.438 8  87105411.130 8      -768.436          49.000
R15  19840985.867 8 106024192.955 8     -2291.793          51.000    19840989.094 8  82463263.264 8     -1782.509          49.000
R17  20013205.172 6 107094775.046 6     -2495.918          38.000    20013208.227 5  83295920.273 5     -1941.270          32.000
R18  19445843.094 8 103803354.380 8      1214.836          49.000    19445848.586 8  80735915.751 8       944.872          49.000
C05  39641168.672 6 206421966.387 6        20.852          36.000    39641167.219 6 159618549.299 6        16.544          38.000
C27  22166875.070 8 115428707.147 8     -1646.473          51.000
C30  21967290.484 8 114389553.723 8      1315.430          51.000
E02  25389493.602 8 133422656.187 8     -2316.996          51.000    25389494.523 8 102232975.968 8     -1775.385          49.000
E15  25151095.422 7 132169895.960 7      2579.047          47.000    25151101.664 8 101273112.548 8      1976.207          51.000
E30  22058712.969 8 115919324.666 8       -29.613          51.000    22058715.648 8  88821304.625 8       -22.646          51.000
> 2020 05 16 12 05 30.0000000  0 14        .000000000000
G18  21185948.516 7 111332951.583 7      2339.129          47.000    21185949.219 7  86752971.617 7      1822.701          45.000
G21  21383841.492 8 112372909.293 8      2033.301          51.000    21383838.852 7  87563325.563 7      1584.393          44.000
G25  22459058.758 6 118023136.094 6     -2840.023          38.000    22459063.422 6  91966071.300 6     -2213.005          38.000
G29  20844969.484 8 109541059.008 8     -1621.223          51.000    20844968.992 8  85356675.193 8     -1263.290          51.000
G31  21277709.578 8 111815118.605 8     -1003.562          49.000    21277707.203 8  87128658.984 8      -781.997          49.000
R15  19853904.586 8 106093226.760 8     -2311.195          51.000    19853907.508 8  82516956.172 8     -1797.596          48.000
R17  20027233.266 6 107169841.451 6     -2509.367          38.000    20027234.734 4  83354305.241 4     -1951.733          29.000
R18  19439069.789 8 103767195.283 8      1195.195          51.000    19439074.453 8  80707792.006 8       929.596          48.000
C05  39641040.781 6 206421301.261 6        22.402          36.000    39641039.273 6 159618034.226 6        17.501          38.000
C27  22176381.117 8 115478207.968 8     -1654.340          51.000
C30  21959738.281 8 114350230.727 8      1305.500          50.000
E02  25402736.594 8 133492243.728 8     -2322.734          51.000    25402737.609 8 102286296.231 8     -1779.811          50.000
E15  25136387.672 8 132092608.206 8      2572.820          48.000    25136394.742 8 101213892.101 8      1971.400          51.000
E30  22058907.078 8 115920344.171 8       -39.051          51.000    22058909.773 8  88822085.804 8       -29.886          51.000
> 2020 05 16 12 06  0.0000000  0 14        .000000000000
G18  21172640.914 7 111263018.998 7      2323.273          46.000    21172641.148 7  86698478.722 7      1810.343          46.000
G21  21372277.977 8 112312142.757 8      2018.250          51.000    21372274.711 7  87515975.087 7      1572.665          43.000
G25  22475297.898 6 118108470.703 6     -2848.578          37.000    22475300.258 6  92032565.774 6     -2219.674          37.000
G29  20854254.625 8 109589852.739 8     -1631.320          51.000    20854254.102 8  85394696.266 8     -1271.159          51.000
G31  21283493.195 8 111845511.744 8     -1022.414          49.000    21283491.258 8  87152341.941 8      -796.686          49.000
R15  19866938.570 8 106162877.858 8     -2331.949          50.000    19866941.281 8  82571129.222 8     -1813.738          48.000
R17  20041342.031 6 107245333.701 6     -2523.543          38.000    20041341.656 5  83413021.355 5     -1962.759          33.000
R18  19432414.305 8 103731664.722 8      1173.859          51.000    19432417.789 8  80680157.150 8       913.002          48.000
C05  39640913.695 6 206420638.785 6        21.840          36.000    39640912.094 6 159617521.935 6        17.151          38.000
C27  22185939.953 8 115527982.598 8     -1663.691          51.000
C30  21952250.695 8 114311244.007 8      1293.871          51.000
E02  25416020.094 8 133562044.273 8     -2330.125          51.000    25416021.086 8 102339779.720 8     -1785.453          51.000
E15  25121723.883 8 132015548.296 8      2564.926          49.000    25121731.141 8 101154846.230 8      1965.342          51.000
E30  22059162.508 8 115921686.343 8       -50.062          51.000    22059165.352 8  88823114.219 8       -38.300          51.000
> 2020 05 16 12 06 30.0000000  0 14        .000000000000
G18  21159424.023 8 111193562.288 8      2307.137          49.000    21159424.141 7  86644356.660 7      1797.769          46.000
G21  21360801.188 8 112251830.597 8      2002.602          51.000    21360798.008 7  87468978.649 7      1560.469          45.000
G25  22491584.180 6 118194055.958 6     -2857.059          39.000    22491584.938 6  92099255.488 6     -2226.279          39.000
G29  20863596.750 8 109638945.480 8     -1641.605          51.000    20863596.133 8  85432950.326 8     -1279.176          51.000
G31  21289384.109 8 111876468.681 8     -1041.504          49.000    21289382.398 8  87176464.219 8      -811.561          49.000
R15  19880088.320 7 106233151.440 7     -2352.883          47.000    19880091.969 8  82625786.483 8     -1830.017          49.000
R17  20055530.281 5 107321254.665 5     -2537.820          35.000    20055531.523 5  83472071.106 5     -1973.854          32.000
R18  19425877.602 8 103696769.154 8      1152.504          51.000    19425880.844 8  80653016.157 8       896.392          48.000
C05  39640788.398 6 206419986.349 6        21.176          36.000    39640786.750 6 159617017.448 6        16.184          38.000
C27  22195552.344 8 115578035.954 8     -1673.207          51.000
C30  21944829.484 8 114272599.931 8      1282.332          51.000
E02  25429344.914 8 133632063.746 8     -2337.855          51.000    25429346.133 8 102393430.957 8     -1791.278          51.000
E15  25107105.227 8 131938723.673 8      2556.703          50.000    25107112.234 8 101095980.640 8      1959.044          51.000
E30  22059480.836 8 115923358.355 8       -61.469          51.000    22059483.602 8  88824395.370 8       -47.067          51.000
> 2020 05 16 12 07  0.0000000  0 14        .000000000000
G18  21146297.422 8 111124579.697 8      2291.797          50.000    21146297.438 7  86590604.012 7      1785.816          47.000
G21  21349410.477 8 112191970.529 8      1988.090          51.000    21349407.805 7  87422334.470 7      1549.161          46.000
G25  22507917.883 6 118279886.945 6     -2864.621          41.000    22507918.273 6  92166136.770 6     -2232.172          41.000
G29  20872994.781 8 109688331.793 8     -1650.711          51.000    20872993.930 8  85471433.146 8     -1286.268          51.000
G31  21295381.211 8 111907984.735 8     -1059.484          49.000    21295379.477 8  87201022.180 8      -825.572          49.000
R15  19893353.875 8 106304042.052 8     -2372.867          50.000    19893358.141 8  82680923.688 8     -1845.563          48.000
R17  20069795.719 6 107397597.618 6     -2551.211          40.000    20069796.711 5  83531448.928 5     -1984.278          30.000
R18  19419458.844 8 103662504.607 8      1132.020          51.000    19419462.227 8  80626365.950 8       880.460          48.000
C05  39640664.273 6 206419340.170 6        21.672          36.000    39640662.594 6 159616517.768 6        16.900          38.000
C27  22205217.109 8 115628362.721 8     -1681.762          51.000
C30  21937473.695 8 114234294.722 8      1271.520          51.000
E02  25442710.188 8 133702297.718 8     -2344.285          51.000    25442712.047 8 102447246.579 8     -1796.327          51.000
E15  25092531.188 8 131862131.459 8      2549.539          50.000    25092537.336 8 101037293.122 8      1953.549          51.000
E30  22059861.359 8 115925356.995 8       -71.688          51.000    22059863.930 8  88825926.789 8       -54.941          51.000
> 2020 05 16 12 07 30.0000000  0 14        .000000000000
G18  21133259.867 8 111056065.019 8      2276.148          51.000    21133259.578 7  86537215.959 7      1773.622          47.000
G21  21338104.062 8 112132555.219 8      1973.219          51.000    21338101.984 7  87376036.838 7      1537.576          46.000
G25  22524296.336 6 118365954.930 6     -2872.922          39.000    22524297.320 6  92233202.646 6     -2238.643          39.000
G29  20882446.820 8 109738002.360 8     -1660.195          51.000    20882445.750 8  85510137.471 8     -1293.659          51.000
G31  21301482.906 8 111940050.461 8     -1077.770          50.000    21301481.320 8  87226008.436 8      -839.823          50.000
R15  19906733.719 8 106375539.924 8     -2393.141          51.000    19906737.898 7  82736533.106 7     -1861.335          46.000
R17  20084141.273 5 107474350.976 5     -2565.293          33.000    20084139.281 5  83591145.885 5     -1995.228          33.000
R18  19413156.594 8 103628862.714 8      1111.227          50.000    19413159.266 7  80600200.067 7       864.287          47.000
C05  39640539.875 6 206418692.204 6        21.727          36.000    39640538.203 6 159616016.712 6        16.936          38.000
C27  22214932.617 8 115678953.389 8     -1690.574          51.000
C30  21930181.305 8 114196320.376 8      1260.492          51.000
E02  25456113.797 8 133772737.587 8     -2351.156          48.000    25456117.062 8 102501219.978 8     -1801.562          51.000
E15  25078000.227 8 131785764.496 8      2542.090          51.000    25078005.109 8 100978778.201 8      1947.757          51.000
E30  22060302.477 8 115927674.905 8       -82.363          51.000    22060304.977 8  88827702.850 8       -63.101          51.000
> 2020 05 16 12 08  0.0000000  0 15        .000000000000
G18  21120312.266 8 110988022.753 8      2259.430          51.000    21120311.445 7  86484196.006 7      1760.595          47.000
G21  21326882.586 8 112073588.774 8      1957.332          49.000    21326881.172 7  87330088.949 7      1525.191          46.000
G25  22540720.047 6 118452261.313 6     -2881.938          39.000    22540721.617 6  92300454.355 6     -2245.669          40.000
G29  20891953.070 8 109787958.131 8     -1670.641          51.000    20891951.922 8  85549064.032 8     -1301.798          51.000
G31  21307689.633 8 111972667.599 8     -1097.207          49.000    21307688.492 8  87251424.365 8      -854.967          49.000
R15  19920227.734 8 106447645.749 8     -2414.367          51.000    19920230.656 7  82792615.364 7     -1877.841          43.000
R17  20098560.094 6 107551513.752 6     -2579.582          36.000    20098559.758 5  83651161.558 5     -2006.342          34.000
R18  19406971.305 8 103595846.066 8      1089.367          50.000    19406973.438 7  80574520.488 7       847.286          47.000
C05  39640415.547 5 206418045.100 5        20.777          35.000    39640413.953 6 159615516.332 6        15.946          38.000
C27  22224699.000 8 115729809.044 8     -1700.344          51.000
C30  21922952.875 8 114158679.377 8      1248.430          51.000
E02  25469555.695 7 133843385.365 7     -2359.078          45.000    25469561.398 8 102555352.686 8     -1807.596          51.000
E15  25063512.750 8 131709626.342 8      2533.398          51.000    25063516.328 8 100920438.601 8      1941.166          51.000
E30  22060804.852 8 115930315.316 8       -94.105          51.000    22060807.289 8  88829726.013 8       -72.125          51.000
E36  25610974.875 6 134586583.788 6     -2392.934          37.000    25610978.461 5 103124793.814 5     -1833.427          33.000
> 2020 05 16 12 08 30.0000000  0 15        .000000000000
G18  21107457.102 8 110920466.296 8      2244.121          51.000    21107455.898 7  86431554.614 7      1748.669          47.000
G21  21315748.867 8 112015084.115 8      1942.840          49.000    21315747.961 7  87284500.867 7      1513.901          46.000
G25  22557191.086 6 118538816.709 6     -2889.141          38.000    22557193.219 6  92367900.073 6     -2251.278          37.000
G29  20901515.484 8 109838209.279 8     -1679.602          51.000    20901514.508 8  85588220.759 8     -1308.780          51.000
G31  21314003.289 8 112005846.576 8     -1114.949          50.000    21314002.852 8  87277278.088 8      -868.792          50.000
R15  19933837.789 8 106520369.690 8     -2434.074          51.000    19933839.141 7  82849178.317 7     -1893.175          42.000
R17  20113057.984 6 107629094.776 6     -2593.016          39.000    20113057.094 5  83711502.342 5     -2016.793          34.000
R18  19400904.812 8 103563465.854 8      1069.070          49.000    19400907.766 8  80549335.899 8       831.499          48.000
C05  39640293.531 6 206417410.145 6        20.969          36.000    39640292.086 6 159615025.328 6        16.532          38.000
C27  22234518.141 8 115780939.533 8     -1708.621          51.000
C30  21915790.812 8 114121383.070 8      1237.828          51.000
E02  25483039.133 7 133914251.984 7     -2365.500          44.000    25483047.266 8 102609653.063 8     -1812.532          51.000
E15  25049070.734 8 131633729.386 8      2526.262          50.000    25049073.266 8 100862283.838 8      1935.671          51.000
E30  22061370.977 8 115933290.359 8      -104.367          51.000    22061373.219 8  88832005.571 8       -79.952          51.000
E36  25624647.922 6 134658450.165 6     -2398.129          37.000    25624657.234 5 103179872.270 5     -1837.713          32.000
> 2020 05 16 12 09  0.0000000  0 15        .000000000000
G18  21094691.078 8 110853379.253 8      2227.965          51.000    21094689.414 7  86379279.026 7      1736.077          46.000
G21  21304700.234 8 111957024.251 8      1927.426          50.000    21304699.336 7  87239259.409 7      1501.890          46.000
G25  22573705.555 6 118625601.934 6     -2897.168          38.000    22573707.391 6  92435524.913 6     -2257.533          38.000
G29  20911130.414 8 109888736.376 8     -1689.363          51.000    20911129.648 8  85627592.515 8     -1316.384          51.000
G31  21320420.328 8 112039567.782 8     -1133.500          50.000    21320420.906 8  87303554.352 8      -883.247          50.000
R15  19947559.281 8 106593691.324 8     -2454.578          51.000    19947560.328 7  82906206.185 7     -1909.116          45.000
R17  20127628.703 6 107707071.958 6     -2606.305          37.000    20127627.898 5  83772151.270 5     -2027.123          34.000
R18  19394954.430 8 103531703.412 8      1047.961          49.000    19394957.914 8  80524631.782 8       815.081          49.000
C05  39640170.438 6 206416769.288 6        20.793          36.000    39640169.086 6 159614529.787 6        16.030          38.000
C27  22244386.258 8 115832325.309 8     -1717.605          51.000
C30  21908691.375 8 114084413.378 8      1226.379          51.000
E02  25496561.719 7 133985318.636 7     -2372.578          45.000    25496571.297 8 102664106.701 8     -1818.003          51.000
E15  25034670.727 8 131558056.373 8      2518.309          48.000    25034672.594 8 100804300.659 8      1929.604          50.000
E30  22061997.492 8 115936582.426 8      -115.516          51.000    22061999.562 8  88834528.052 8       -88.428          51.000
E36  25638353.797 6 134730486.111 6     -2404.727          37.000    25638369.289 5 103235073.605 5     -1842.502          32.000
> 2020 05 16 12 09 30.0000000  0 15        .000000000000
G18  21082017.164 8 110786776.533 8      2212.621          51.000    21082014.695 7  86327380.835 7      1724.123          47.000
G21  21293739.367 8 111899423.238 8      1913.020          50.000    21293738.352 7  87194375.534 7      1490.668          46.000
G25  22590266.164 6 118712629.088 6     -2904.594          38.000    22590267.211 6  92503338.272 6     -2263.323          38.000
G29  20920799.977 8 109939550.775 8     -1697.992          51.000    20920799.383 8  85667188.149 8     -1323.111          51.000
G31  21326942.648 8 112073842.704 8     -1151.035          49.000    21326943.992 8  87330262.082 8      -896.911          49.000
R15  19961394.320 8 106667622.011 8     -2473.941          50.000    19961396.391 8  82963707.827 8     -1924.180          49.000
R17  20142275.758 6 107785455.503 6     -2618.891          40.000    20142277.500 6  83833116.208 6     -2036.915          37.000
R18  19389122.383 8 103500571.526 8      1027.844          49.000    19389126.258 8  80500418.081 8       799.434          49.000
C05  39640048.766 6 206416135.347 6        21.641          36.000    39640047.320 6 159614039.580 6        16.770          38.000
C27  22254305.492 8 115883977.724 8     -1725.602          51.000
C30  21901656.789 8 114047783.081 8      1215.879          51.000
E02  25510125.648 7 134056597.721 7     -2378.941          47.000    25510135.141 8 102718723.138 8     -1822.789          51.000
E15  25020314.828 7 131482621.226 7      2511.195          46.000    25020316.688 8 100746499.726 8      1924.121          49.000
E30  22062686.867 8 115940205.126 8      -125.645          51.000    22062688.836 8  88837303.882 8       -96.273          51.000
E36  25652095.039 6 134802702.887 6     -2409.465          39.000
> 2020 05 16 12 10  0.0000000  0 16        .000000000000
G18  21069433.906 8 110720650.710 8      2196.605          51.000    21069430.922 7  86275854.252 7      1711.644          47.000
G21  21282864.297 8 111842273.028 8      1897.727          51.000    21282862.938 7  87149842.951 7      1478.751          45.000
G25  22606871.305 7 118799887.810 7     -2912.059          42.000    22606871.945 7  92571332.020 7     -2269.137          42.000
G29  20930522.156 8 109990641.706 8     -1707.281          51.000    20930521.688 8  85706999.253 8     -1330.349          51.000
G31  21333568.359 8 112108661.392 8     -1169.273          49.000    21333569.344 8  87357393.512 8      -911.122          49.000
R15  19975341.164 8 106742150.884 8     -2493.871          51.000    19975344.398 8  83021674.746 8     -1939.678          50.000
R17  20156998.375 5 107864232.447 5     -2631.844          35.000    20156999.844 6  83894387.187 6     -2046.984          36.000
R18  19383406.164 8 103470060.503 8      1006.957          48.000    19383410.719 8  80476687.281 8       783.186          48.000
C05  39639926.570 6 206415499.229 6        21.934          36.000    39639925.164 6 159613547.699 6        16.525          38.000
C27  22264273.953 8 115935886.083 8     -1734.203          51.000
C29  25812597.078 6 134412964.705 6      2942.801          37.000
C30  21894685.445 8 114011482.886 8      1204.902          51.000
E02  25523728.859 8 134128079.300 8     -2385.836          49.000    25523737.453 8 102773494.733 8     -1828.039          51.000
E15  25006001.633 7 131407415.565 7      2503.234          45.000    25006004.008 8 100688874.622 8      1918.212          48.000
E30  22063437.477 8 115944149.821 8      -136.566          51.000    22063439.500 8  88840326.416 8      -104.612          51.000
E36  25665869.422 6 134875089.687 6     -2415.496          39.000
> 2020 05 16 12 10 30.0000000  0 16        .000000000000
G18  21056943.469 8 110655013.257 8      2179.438          51.000    21056940.812 7  86224708.244 7      1698.266          47.000
G21  21272076.945 8 111785584.610 8      1881.648          51.000    21272075.125 7  87105670.204 7      1466.223          43.000
G25  22623522.086 6 118887386.933 6     -2920.852          41.000    22623522.508 6  92639513.108 6     -2275.988          41.000
G29  20940298.562 8 110042017.665 8     -1717.535          51.000    20940298.211 8  85747032.472 8     -1338.339          51.000
G31  21340299.102 8 112144032.314 8     -1188.480          48.000    21340298.930 8  87384955.260 8      -926.092          48.000
R15  19989401.844 8 106817285.727 8     -2514.852          51.000    19989405.414 8  83080112.986 8     -1955.996          50.000
R17  20171793.719 6 107943409.521 6     -2646.316          37.000    20171795.031 5  83955969.336 5     -2058.252          35.000
R18  19377808.688 8 103440179.808 8       985.285          51.000    19377812.805 8  80453446.744 8       766.333          49.000
C05  39639805.789 6 206414870.918 6        20.707          36.000    39639804.445 6 159613061.432 6        15.825          38.000
C27  22274293.117 8 115988058.454 8     -1743.742          51.000
C29  25795660.375 6 134324762.901 6      2937.641          37.000
C30  21887779.703 8 113975522.338 8      1192.766          51.000
E02  25537372.484 8 134199772.500 8     -2393.633          51.000    25537379.852 8 102828428.477 8     -1834.031          51.000
E15  24991734.570 7 131332449.938 7      2494.535          47.000    24991737.055 8 100631433.458 8      1911.367          48.000
E30  22064251.258 8 115948426.794 8      -148.414          51.000    22064253.289 8  88843603.569 8      -113.729          51.000
E36  25679678.359 6 134947654.547 6     -2421.945          38.000
> 2020 05 16 12 11  0.0000000  0 16        .000000000000
G18  21044537.102 8 110589818.276 8      2163.676          51.000    21044535.008 8  86173906.992 8      1685.981          48.000
G21  21261368.422 8 111729311.232 8      1866.867          51.000    21261366.508 7  87061820.855 7      1454.702          44.000
G25  22640209.109 6 118975077.661 6     -2928.633          41.000    22640209.594 6  92707843.517 6     -2282.052          41.000
G29  20950119.953 8 110093629.298 8     -1726.391          51.000    20950119.516 8  85787249.333 8     -1345.239          51.000
G31  21347125.586 8 112179906.168 8     -1206.262          49.000    21347124.188 8  87412908.873 8      -939.944          49.000
R15  20003566.531 8 106892976.147 8     -2534.414          51.000    20003569.875 8  83138983.305 8     -1971.211          49.000
R17  20186655.062 5 108022934.772 5     -2659.219          35.000    20186656.617 6  84017822.284 6     -2068.284          36.000
R18  19372320.648 8 103410880.701 8       964.832          51.000    19372324.422 8  80430658.559 8       750.425          50.000
C05  39639677.305 6 206414201.497 6        20.676          36.000    39639676.070 6 159612544.138 6        16.196          38.000
C27  22284353.508 8 116040445.942 8     -1751.910          51.000
C29  25778737.805 6 134236636.357 6      2934.105          39.000
C30  21880930.148 8 113939853.961 8      1182.004          51.000
E02  25551047.211 8 134271628.905 8     -2399.973          50.000    25551053.609 8 102883487.258 8     -1838.973          51.000
E15  24977505.078 8 131257677.432 8      2487.059          48.000    24977507.609 8 100574140.256 8      1905.683          48.000
E30  22065119.391 8 115952988.842 8      -158.922          51.000    22065121.250 8  88847099.151 8      -121.777          51.000
E36  25693511.906 6 135020348.097 6     -2427.176          38.000
> 2020 05 16 12 11 30.0000000  0 16        .000000000000
G18  21032230.828 8 110525149.430 8      2148.004          51.000    21032229.453 8  86123515.698 8      1673.769          49.000
G21  21250754.664 8 111673536.167 8      1851.945          51.000    21250753.336 7  87018359.797 7      1443.074          45.000
G25  22656947.633 6 119063040.883 6     -2935.488          40.000    22656948.266 6  92776386.300 6     -2287.390          41.000
G29  20960001.594 8 110145557.182 8     -1734.969          51.000    20960000.945 8  85827712.602 8     -1351.924          51.000
G31  21354063.344 8 112216363.695 8     -1223.688          50.000    21354061.727 8  87441317.305 8      -953.526          50.000
R15  20017850.305 8 106969303.629 8     -2553.578          51.000    20017852.797 7  83198349.079 7     -1986.116          46.000
R17  20201595.359 5 108102888.228 5     -2670.699          34.000    20201599.836 5  84080008.391 5     -2077.207          35.000
R18  19366956.609 8 103382245.861 8       944.684          51.000    19366960.383 8  80408387.020 8       734.751          50.000
C05  39639556.641 5 206413572.766 5        21.125          35.000    39639555.516 6 159612058.747 6        16.680          38.000
C27  22294470.594 8 116093128.339 8     -1759.766          51.000
C29  25761843.984 6 134148667.011 6      2930.926          38.000
C30  21874151.562 8 113904558.915 8      1171.430          51.000
E02  25564768.414 8 134343729.893 8     -2406.254          51.000    25564773.500 8 102938733.403 8     -1843.786          49.000
E15  24963328.859 8 131183180.964 8      2479.820          48.000    24963331.734 8 100517058.561 8      1900.050          49.000
E30  22066057.625 8 115957918.565 8      -169.316          51.000    22066059.422 8  88850876.462 8      -129.718          51.000
E36  25707384.344 5 135093217.765 5     -2432.316          34.000
> 2020 05 16 12 12  0.0000000  0 16        .000000000000
G18  21020013.953 8 110460950.707 8      2129.668          51.000    21020013.344 8  86073490.731 8      1659.482          49.000
G21  21240225.008 8 111618202.593 8      1834.785          51.000    21240224.336 7  86975242.738 7      1429.703          46.000
G25  22673726.547 6 119151217.931 6     -2945.430          40.000    22673727.938 6  92845095.658 6     -2295.140          40.000
G29  20969932.266 8 110197742.474 8     -1746.195          51.000    20969931.367 8  85868376.451 8     -1360.675          51.000
G31  21361101.000 8 112253345.620 8     -1243.805          50.000    21361100.266 8  87470134.367 8      -969.198          50.000
R15  20032242.008 8 107046207.556 8     -2575.484          51.000    20032243.492 7  83258163.180 7     -2003.158          46.000
R17  20216604.969 6 108183207.875 6     -2685.668          37.000    20216609.656 5  84142479.226 5     -2088.853          31.000
R18  19361705.820 8 103354216.300 8       921.777          51.000    19361709.297 8  80386586.234 8       716.938          50.000
C05  39639432.680 5 206412927.904 5        19.617          35.000    39639431.750 6 159611560.892 6        14.991          38.000
C27  22304633.078 8 116146046.836 8     -1770.293          51.000
C29  25744967.180 5 134060798.297 5      2924.586          34.000
C30  21867433.516 8 113869579.768 8      1158.293          51.000
E02  25578525.203 8 134416016.958 8     -2415.059          51.000    25578527.648 7 102994122.141 7     -1850.559          47.000
E15  24949194.859 8 131108903.531 8      2469.867          49.000    24949198.234 8 100460144.702 8      1892.481          50.000
E30  22067054.906 8 115963158.701 8      -182.277          51.000    22067056.906 8  88854891.626 8      -139.679          51.000
E36  25721285.281 5 135166260.046 5     -2439.766          34.000
> 2020 05 16 12 12 30.0000000  0 16        .000000000000
G18  21007900.195 8 110397293.514 8      2114.609          51.000    21007900.039 8  86023887.733 8      1647.748          49.000
G21  21229792.891 8 111563381.371 8      1820.590          51.000    21229792.375 7  86932524.922 7      1418.641          47.000
G25  22690559.445 6 119239677.351 6     -2951.688          40.000    22690560.992 6  92914025.038 6     -2300.016          40.000
G29  20979924.758 8 110250253.128 8     -1753.957          51.000    20979923.820 8  85909293.836 8     -1366.720          51.000
G31  21368251.484 8 112290920.383 8     -1260.562          51.000    21368251.852 8  87499413.386 8      -982.256          51.000
R15  20046754.539 8 107123756.787 8     -2593.887          51.000    20046756.008 7  83318479.204 7     -2017.467          47.000
R17  20231696.703 5 108263961.506 5     -2697.125          35.000    20231697.406 5  84205287.406 5     -2097.770          31.000
R18  19356581.336 8 103326862.372 8       902.379          51.000    19356584.930 8  80365310.987 8       701.853          50.000
C05  39639319.133 6 206412335.909 6        20.562          36.000    39639318.117 6 159611103.896 6        15.749          38.000
C27  22314853.672 8 116199268.910 8     -1777.348          51.000
C29  25728121.836 5 133973099.918 5      2922.328          34.000
C30  21860790.133 8 113834985.462 8      1148.371          51.000
E02  25592330.484 8 134488559.125 8     -2420.586          50.000    25592330.016 8 103049706.376 8     -1854.810          48.000
E15  24935116.289 8 131034915.693 8      2463.066          51.000    24935120.102 8 100403452.741 8      1887.312          51.000
E30  22068124.438 8 115968779.543 8      -192.027          51.000    22068126.680 8  88859198.494 8      -147.102          51.000
E36  25735229.875 6 135239530.020 6     -2444.402          36.000
> 2020 05 16 12 13  0.0000000  0 15        .000000000000
G18  20995874.453 8 110334098.256 8      2098.938          51.000    20995874.508 8  85974644.689 8      1635.536          49.000
G21  21219442.914 8 111508992.190 8      1805.961          51.000    21219442.273 7  86890143.743 7      1407.239          47.000
G25  22707430.070 6 119328336.846 6     -2958.770          37.000    22707431.500 6  92983110.289 6     -2305.535          37.000
G29  20989963.352 8 110303006.336 8     -1762.336          51.000    20989962.555 8  85950400.236 8     -1373.249          51.000
G31  21375499.023 8 112329005.270 8     -1277.938          50.000    21375500.016 8  87529089.927 8      -995.795          51.000
R15  20061371.766 8 107201866.657 8     -2612.781          51.000    20061373.977 8  83379231.303 8     -2032.163          49.000
R18  19351568.008 8 103300100.862 8       882.277          51.000    19351571.523 8  80344496.490 8       686.216          50.000
C05  39639200.266 6 206411717.142 6        21.039          36.000    39639199.273 6 159610625.389 6        16.580          38.000
C27  22325116.773 8 116252712.433 8     -1784.938          51.000
C29  25711296.328 6 133885491.943 6      2919.094          37.000
C30  21854205.062 8 113800695.245 8      1138.043          51.000
E02  25606168.289 8 134561274.418 8     -2426.617          49.000    25606166.398 8 103105423.250 8     -1859.371          49.000
E15  24921077.484 8 130961136.958 8      2455.863          51.000    24921081.727 8 100346920.997 8      1881.828          51.000
E30  22069250.961 8 115974700.259 8      -202.227          51.000    22069253.469 8  88863735.145 8      -154.956          51.000
E36  25749200.008 5 135312955.628 5     -2448.570          33.000
> 2020 05 16 12 13 30.0000000  0 15        .000000000000
G18  20983939.117 8 110271378.217 8      2082.254          51.000    20983939.359 8  85925771.935 8      1622.536          49.000
G21  21209177.555 8 111455047.562 8      1790.293          51.000    21209176.867 8  86848108.984 8      1395.033          48.000
G25  22724340.945 6 119417207.027 6     -2966.176          38.000    22724343.789 6  93052359.664 6     -2311.312          38.000
G29  21000050.047 8 110356012.349 8     -1771.465          51.000    21000049.312 8  85991703.615 8     -1380.362          51.000
G31  21382845.375 8 112367610.518 8     -1295.922          50.000    21382846.508 8  87559171.933 8     -1009.812          50.000
R15  20076095.055 8 107280546.889 8     -2632.645          51.000    20076098.492 8  83440427.032 8     -2047.612          51.000
R17  20262075.062 5 108426441.866 5     -2722.141          34.000    20262070.766 5  84331665.705 5     -2117.227          33.000
R18  19346667.469 8 103273942.784 8       861.324          51.000    19346671.359 8  80324151.332 8       669.919          50.000
C05  39639078.234 6 206411080.974 6        21.223          36.000    39639077.320 6 159610134.271 6        15.967          37.000
C27  22335424.383 8 116306387.345 8     -1793.469          51.000
C29  25694492.000 6 133797986.410 6      2914.555          40.000
C30  21847679.953 8 113766720.390 8      1126.820          51.000
E02  25620040.727 8 134634173.705 8     -2433.570          48.000    25620039.039 8 103161281.134 8     -1864.666          50.000
E15  24907080.578 8 130887579.686 8      2447.746          51.000    24907085.133 8 100290558.959 8      1875.468          51.000
E30  22070437.078 8 115980932.968 8      -213.426          51.000    22070439.555 8  88868510.854 8      -163.552          51.000
> 2020 05 16 12 14  0.0000000  0 15        .000000000000
G18  20972098.211 8 110209154.663 8      2065.355          51.000    20972098.516 8  85877286.054 8      1609.371          49.000
G21  21199000.844 8 111401568.062 8      1774.492          51.000    21199000.000 7  86806436.666 7      1382.721          47.000
G25  22741296.805 7 119506306.338 7     -2974.148          43.000    22741300.242 7  93121787.709 7     -2317.515          43.000
G29  21010188.359 8 110409289.382 8     -1780.770          51.000    21010187.391 8  86033218.170 8     -1387.613          51.000
G31  21390294.234 8 112406754.551 8     -1314.156          51.000    21390294.484 8  87589673.763 8     -1024.018          51.000
R15  20090928.453 8 107359815.512 8     -2652.547          50.000    20090933.078 8  83502080.434 8     -2063.092          51.000
R17  20277365.320 4 108508288.837 4     -2733.855          29.000    20277367.148 5  84395311.288 5     -2126.323          35.000
R18  19341883.711 8 103248407.753 8       840.422          51.000    19341887.586 8  80304290.754 8       653.661          49.000
C05  39638956.742 5 206410448.869 5        20.648          35.000    39638956.023 6 159609645.446 6        16.157          38.000
C27  22345779.914 8 116360311.535 8     -1801.973          51.000
C29  25677711.625 7 133710603.439 7      2910.203          42.000
C30  21841219.609 8 113733080.183 8      1115.344          51.000
E02  25633951.125 7 134707275.987 7     -2440.469          47.000    25633951.125 8 103217294.523 8     -1870.005          50.000
E15  24893129.242 8 130814264.387 8      2439.391          50.000    24893133.984 8 100234382.300 8      1869.170          51.000
E30  22071686.406 8 115987497.795 8      -224.723          51.000    22071688.891 8  88873541.048 8      -172.172          51.000
> 2020 05 16 12 14 30.0000000  0 15        .000000000000
G18  20960353.508 8 110147436.863 8      2049.059          50.000    20960354.148 8  85829194.263 8      1596.669          49.000
G21  21188914.531 8 111348562.623 8      1759.145          51.000    21188913.289 8  86765133.749 8      1370.762          48.000
G25  22758297.820 7 119595641.471 7     -2981.441          43.000    22758301.656 7  93191399.483 7     -2323.201          43.000
G29  21020379.398 8 110462843.641 8     -1789.492          51.000    21020378.234 8  86074948.749 8     -1394.409          51.000
G31  21397846.820 8 112446443.320 8     -1331.762          50.000    21397845.477 8  87620600.071 8     -1037.736          50.000
R15  20105873.617 8 107439678.078 8     -2671.719          51.000    20105878.203 8  83564195.798 8     -2078.003          50.000
R17  20292724.461 6 108590496.505 6     -2746.492          37.000    20292732.859 6  84459250.612 6     -2136.164          36.000
R18  19337218.328 8 103223502.809 8       819.961          51.000    19337221.547 8  80284920.273 8       637.750          49.000
C05  39638837.281 6 206409826.260 6        21.141          36.000    39638836.570 6 159609164.784 6        16.124          37.000
C27  22356184.633 8 116414491.021 8     -1809.992          51.000
C29  25660956.188 7 133623351.262 7      2906.398          42.000
C30  21834825.781 8 113699781.988 8      1104.500          51.000
E02  25647901.320 8 134780588.156 8     -2446.867          48.000    25647903.211 8 103273468.711 8     -1874.929          50.000
E15  24879225.172 8 130741199.465 8      2431.613          50.000    24879229.945 8 100178397.483 8      1863.187          51.000
E30  22073000.398 8 115994402.901 8      -235.531          51.000    22073003.047 8  88878831.972 8      -180.457          51.000
> 2020 05 16 12 15  0.0000000  0 15        .000000000000
G18  20948703.891 8 110086219.033 8      2031.785          49.000    20948705.070 8  85781492.072 8      1583.212          49.000
G21  21178917.281 8 111296024.844 8      1742.992          51.000    21178915.656 8  86724195.240 8      1358.176          48.000
G25  22775341.594 7 119685203.921 7     -2989.516          42.000    22775345.312 6  93261188.377 6     -2329.493          41.000
G29  21030621.453 8 110516666.058 8     -1798.945          51.000    21030620.344 8  86116888.283 8     -1401.776          51.000
G31  21405501.234 8 112486668.232 8     -1350.125          50.000    21405498.930 8  87651944.139 8     -1052.045          50.000
R15  20120928.625 8 107520125.080 8     -2691.672          51.000    20120932.648 8  83626765.694 8     -2093.523          49.000
R17  20308156.242 5 108673070.653 5     -2758.945          31.000    20308161.875 5  84523474.881 5     -2145.846          35.000
R18  19332669.281 8 103199219.829 8       798.645          51.000    19332672.102 8  80266033.547 8       621.168          49.000
C05  39638718.562 5 206409208.716 5        20.020          35.000    39638717.727 6 159608686.476 6        15.502          37.000
C27  22366636.758 8 116468916.933 8     -1818.680          51.000
C29  25644224.250 7 133536223.149 7      2901.965          43.000
C30  21828495.945 8 113666818.262 8      1092.766          51.000
E02  25661890.086 8 134854102.115 8     -2454.262          49.000    25661893.344 8 103329797.490 8     -1880.541          49.000
E15  24865367.602 8 130668378.265 8      2422.793          50.000    24865372.016 8 100122599.432 8      1856.471          51.000
E30  22074377.680 8 116001641.353 8      -247.270          51.000    22074380.742 8  88884378.311 8      -189.463          51.000
> 2020 05 16 12 15 30.0000000  0 15        .000000000000
G18  20937148.859 8 110025497.945 8      2015.797          49.000    20937150.602 8  85734176.967 8      1570.754          49.000
G21  21169007.984 8 111243950.437 8      1728.148          51.000    21169006.305 8  86683617.801 8      1346.609          48.000
G25  22792427.055 6 119774987.734 6     -2995.965          41.000    22792430.984 6  93331149.784 6     -2334.518          40.000
G29  21040913.406 8 110570750.277 8     -1806.980          51.000    21040912.492 8  86159031.818 8     -1408.037          51.000
G31  21413256.336 8 112527422.279 8     -1367.090          51.000    21413254.109 8  87683700.526 8     -1065.265          50.000
R15  20136091.297 8 107601149.519 8     -2710.297          51.000    20136095.133 8  83689784.680 8     -2108.009          48.000
R17  20323656.266 6 108755987.755 6     -2769.836          36.000    20323656.141 5  84587981.699 5     -2154.317          35.000
R18  19328235.891 8 103175553.315 8       778.754          51.000    19328238.484 8  80247626.260 8       605.697          50.000
C05  39638599.430 5 206408588.422 5        20.500          35.000    39638598.625 6 159608206.817 6        16.097          37.000
C27  22377134.953 8 116523582.929 8     -1826.027          51.000
C29  25627515.227 7 133449214.986 7      2898.562          44.000
C30  21822229.008 8 113634184.008 8      1082.477          51.000
E02  25675916.656 8 134927812.267 8     -2460.176          50.000    25675920.398 8 103386276.617 8     -1885.133          48.000
E15  24851555.867 8 130595796.736 8      2415.426          51.000    24851559.734 8 100066985.034 8      1850.778          51.000
E30  22075817.688 8 116009208.851 8      -257.652          51.000    22075820.992 8  88890176.769 8      -197.461          51.000
> 2020 05 16 12 16  0.0000000  0 15        .000000000000
G18  20925688.172 8 109965271.705 8      1998.480          50.000    20925689.758 8  85687247.437 8      1557.258          48.000
G21  21159186.133 8 111192337.185 8      1711.879          51.000    21159184.617 8  86643399.691 8      1333.932          48.000
G25  22809553.320 6 119864988.409 6     -3004.750          40.000    22809557.781 6  93401280.178 6     -2341.361          40.000
G29  21051254.273 8 110625091.534 8     -1816.531          51.000    21051253.617 8  86201375.645 8     -1415.479          51.000
G31  21421111.375 8 112568700.729 8     -1385.539          51.000    21421109.859 8  87715865.562 8     -1079.638          51.000
R15  20151360.555 8 107682745.781 8     -2730.230          51.000    20151364.656 7  83753248.367 7     -2123.513          47.000
R17  20339228.117 5 108839271.501 5     -2782.609          35.000    20339224.656 6  84652757.868 6     -2164.252          37.000
R18  19323917.180 8 103152498.927 8       757.461          51.000    19323919.883 8  80229695.067 8       589.136          51.000
C05  39638479.297 6 206407962.775 6        20.293          36.000    39638478.445 6 159607723.013 6        15.816          37.000
C27  22387678.234 8 116578483.954 8     -1834.812          51.000
C29  25610828.914 7 133362323.849 7      2893.551          46.000
C30  21816024.828 8 113601875.574 8      1070.637          51.000
E02  25689980.312 8 135001714.367 8     -2467.383          51.000    25689983.992 8 103442902.835 8     -1890.550          49.000
E15  24837789.398 8 130523452.141 8      2406.773          51.000    24837792.492 8 100011552.196 8      1844.160          51.000
E30  22077319.852 8 116017102.320 8      -269.328          51.000    22077323.266 8  88896224.999 8      -206.395          51.000
> 2020 05 16 12 16 30.0000000  0 15        .000000000000
G18  20914325.766 8 109905561.106 8      1982.184          50.000    20914326.883 7  85640719.719 7      1544.559          47.000
G21  21149455.656 8 111141205.095 8      1696.723          49.000    21149454.328 8  86603556.504 8      1322.122          48.000
G25  22826724.750 7 119955223.919 7     -3011.625          42.000    22826729.297 7  93471593.600 7     -2346.721          42.000
G29  21061647.414 8 110679707.918 8     -1824.688          51.000    21061646.852 8  86243933.862 8     -1421.834          51.000
G31  21429069.711 8 112610521.400 8     -1402.711          51.000    21429068.898 8  87748453.107 8     -1093.018          51.000
R15  20166739.727 8 107764931.053 8     -2748.879          48.000    20166744.281 7  83817170.178 7     -2138.017          47.000
R17  20354857.266 6 108922922.810 6     -2793.750          36.000    20354861.586 6  84717820.111 6     -2172.914          36.000
R18  19319716.625 8 103130075.715 8       737.270          51.000    19319719.266 8  80212254.788 8       573.429          51.000
C05  39638361.812 6 206407350.812 6        20.445          36.000    39638360.938 6 159607249.809 6        16.027          37.000
C27  22398269.922 8 116633637.533 8     -1842.227          51.000
C29  25594169.094 7 133275569.415 7      2889.902          47.000
C30  21809886.672 8 113569911.772 8      1060.066          51.000
E02  25704084.320 8 135075826.961 8     -2473.492          51.000    25704087.516 8 103499690.368 8     -1895.294          50.000
E15  24824071.766 8 130451364.514 8      2399.113          51.000    24824074.219 8  99956316.263 8      1838.273          51.000
E30  22078887.898 8 116025341.492 8      -280.004          51.000    22078891.102 8  88902538.125 8      -214.522          51.000
> 2020 05 16 12 17  0.0000000  0 15        .000000000000
G18  20903057.680 8 109846346.183 8      1965.457          50.000    20903058.172 7  85594578.249 7      1531.525          46.000
G21  21139812.812 8 111090533.633 8      1681.230          48.000    21139811.719 7  86564072.238 7      1310.050          47.000
G25  22843936.555 6 120045671.888 6     -3018.438          41.000    22843940.820 6  93542072.525 6     -2352.026          40.000
G29  21072088.477 8 110734576.098 8     -1833.297          51.000    21072087.789 8  86286688.284 8     -1428.543          51.000
G31  21437126.906 8 112652861.297 8     -1420.188          51.000    21437126.570 8  87781445.235 8     -1106.640          51.000
R15  20182223.914 7 107847681.308 7     -2767.848          46.000    20182230.000 7  83881531.479 7     -2152.773          47.000
R17  20370555.555 6 109006916.755 6     -2805.574          36.000    20370557.570 5  84783148.691 5     -2182.119          32.000
R18  19315629.961 8 103108260.872 8       716.816          51.000    19315632.562 8  80195287.694 8       557.527          51.000
C05  39638242.750 6 206406731.122 6        20.672          36.000    39638241.938 6 159606770.651 6        15.692          37.000
C27  22408905.539 8 116689020.837 8     -1850.113          51.000
C29  25577531.406 7 133188931.016 7      2885.965          46.000
C30  21803809.977 8 113538271.050 8      1049.125          51.000
E02  25718224.297 8 135150127.790 8     -2479.969          51.000    25718226.164 8 103556622.150 8     -1900.299          50.000
E15  24810399.047 8 130379513.094 8      2390.902          51.000    24810401.258 8  99901261.314 8      1832.014          51.000
E30  22080517.773 8 116033905.367 8      -291.070          51.000    22080520.680 8  88909100.046 8      -223.013          51.000
> 2020 05 16 12 17 30.0000000  0 14        .000000000000
G18  20891888.281 8 109787649.354 8      1947.754          51.000    20891888.141 7  85548840.486 7      1517.733          47.000
G21  21130261.805 8 111040344.539 8      1664.668          48.000    21130260.820 7  86524963.869 7      1297.144          46.000
G25  22861192.484 6 120136352.021 6     -3026.395          38.000    22861192.328 6  93612732.223 6     -2358.239          36.000
G29  21082581.234 8 110789715.735 8     -1842.602          51.000    21082580.344 8  86329654.219 8     -1435.793          51.000
G31  21445286.633 8 112695739.639 8     -1438.305          51.000    21445286.062 8  87814856.900 8     -1120.757          51.000
R15  20197818.164 8 107931015.545 8     -2787.555          49.000    20197824.648 7  83946346.996 7     -2168.095          46.000
R18  19311661.055 8 103087075.058 8       695.598          51.000    19311663.977 8  80178809.865 8       541.020          51.000
C05  39638126.219 6 206406124.370 6        19.766          36.000    39638125.328 6 159606301.418 6        15.562          38.000
C27  22419588.930 8 116744652.963 8     -1858.590          51.000
C29  25560919.227 7 133102429.936 7      2881.012          45.000
C30  21797799.008 8 113506973.827 8      1037.398          51.000
E02  25732403.594 8 135224636.967 8     -2487.137          49.000    25732403.750 8 103613713.589 8     -1905.761          51.000
E15  24796775.484 8 130307919.517 8      2382.051          51.000    24796777.922 8  99846403.922 8      1825.241          51.000
E30  22082213.469 8 116042815.218 8      -302.855          51.000    22082216.156 8  88915927.069 8      -232.025          51.000
> 2020 05 16 12 18  0.0000000  0 14        .000000000000
G18  20880816.484 8 109729464.475 8      1931.199          51.000    20880816.031 7  85503501.639 7      1504.834          47.000
G21  21120801.758 8 110990631.073 8      1649.477          50.000    21120800.047 7  86486226.125 7      1285.309          46.000
G25  22878490.406 6 120227255.505 6     -3033.840          38.000    22878486.508 6  93683565.919 6     -2364.037          38.000
G29  21093123.969 8 110845117.878 8     -1850.773          51.000    21093122.758 8  86372824.704 8     -1442.161          51.000
G31  21453546.891 8 112739147.220 8     -1455.480          51.000    21453545.625 8  87848680.963 8     -1134.141          51.000
R15  20213521.055 8 108014924.151 8     -2806.219          51.000    20213526.500 7  84011609.205 7     -2182.618          46.000
R18  19307808.406 8 103066509.562 8       675.473          51.000    19307811.602 8  80162814.469 8       525.368          51.000
C05  39638010.695 6 206405522.781 6        20.516          36.000    39638009.734 6 159605836.251 6        15.556          37.000
C27  22430318.641 8 116800524.804 8     -1866.113          51.000
C29  25544331.477 7 133016059.144 7      2877.133          44.000
C30  21791853.219 8 113476012.281 8      1026.777          51.000
E02  25746619.297 7 135299346.020 7     -2493.195          44.000    25746619.758 8 103670958.206 8     -1910.502          51.000
E15  24783199.492 8 130236576.830 8      2374.215          51.000    24783202.672 8  99791738.781 8      1819.159          51.000
E30  22083973.617 8 116052063.873 8      -313.684          51.000    22083976.273 8  88923013.693 8      -240.346          51.000
> 2020 05 16 12 18 30.0000000  0 14        .000000000000
G18  20869840.133 8 109671781.564 8      1913.598          50.000    20869839.570 7  85458553.959 7      1491.115          47.000
G21  21111430.453 8 110941382.448 8      1632.996          51.000    21111427.805 7  86447850.583 7      1272.464          46.000
G25  22895827.625 5 120318369.753 5     -3041.855          33.000    22895828.453 5  93754564.044 5     -2370.277          33.000
G29  21103714.180 8 110900769.186 8     -1860.035          51.000    21103712.797 8  86416189.348 8     -1449.378          51.000
G31  21461905.031 8 112783070.987 8     -1473.617          50.000    21461903.695 8  87882907.227 8     -1148.273          51.000
R15  20229329.328 8 108099393.020 8     -2825.785          51.000    20229333.289 7  84077307.182 7     -2197.833          46.000
R18  19304069.383 8 103046552.002 8       654.207          51.000    19304073.062 8  80147291.926 8       508.831          50.000
C05  39637893.953 6 206404915.059 6        19.383          36.000    39637893.031 6 159605366.322 6        15.061          37.000
C27  22441091.906 8 116856623.448 8     -1874.625          51.000
C29  25527766.961 7 132929807.918 7      2872.273          44.000
C30  21785969.609 8 113445374.801 8      1015.062          51.000
E02  25760868.703 7 135374242.749 7     -2500.504          43.000    25760871.852 8 103728346.677 8     -1916.027          51.000
E15  24769669.070 8 130165474.352 8      2365.191          51.000    24769673.195 8  99737257.686 8      1812.251          51.000
E30  22085796.164 8 116061640.280 8      -325.605          51.000    22085798.766 8  88930351.453 8      -249.502          51.000
> 2020 05 16 12 19  0.0000000  0 15        .000000000000
G18  20858962.891 8 109614621.869 8      1898.422          48.000    20858962.078 7  85414013.974 7      1479.293          46.000
G21  21102151.336 8 110892619.552 8      1619.125          51.000    21102148.406 7  86409853.532 7      1261.656          47.000
G25  22913209.703 5 120409728.498 5     -3047.262          34.000    22913212.906 5  93825741.052 5     -2374.484          34.000
G29  21114355.305 8 110956688.285 8     -1866.719          51.000    21114353.891 8  86459762.660 8     -1454.586          51.000
G31  21470364.727 8 112827528.882 8     -1489.094          50.000    21470363.742 8  87917549.713 8     -1160.336          50.000
R15  20245245.680 8 108184439.815 8     -2842.816          51.000    20245248.672 7  84143454.675 7     -2211.079          46.000
R17  20433996.484 5 109346417.064 5     -2850.316          34.000
R18  19300448.125 8 103027221.841 8       635.605          51.000    19300451.812 8  80132257.361 8       494.360          50.000
C05  39637779.703 6 206404319.613 6        21.488          36.000    39637778.930 6 159604906.670 6        16.329          37.000
C27  22451912.016 8 116912966.946 8     -1880.512          51.000
C29  25511229.750 7 132843696.418 7      2869.844          44.000
C30  21780151.547 8 113415080.710 8      1005.766          51.000
E02  25775159.359 7 135449346.333 7     -2505.145          46.000    25775163.648 8 103785893.568 8     -1919.523          51.000
E15  24756188.102 8 130094632.553 8      2358.781          51.000    24756193.281 8  99682976.323 8      1807.396          51.000
E30  22087684.820 8 116071564.648 8      -334.852          51.000    22087687.375 8  88937955.825 8      -256.584          51.000
> 2020 05 16 12 19 30.0000000  0 15        .000000000000
G18  20848178.922 8 109557952.890 8      1880.191          49.000    20848177.781 7  85369856.338 7      1465.084          45.000
G21  21092958.211 8 110844309.088 8      1602.320          51.000    21092955.578 8  86372209.036 8      1248.564          48.000
G25  22930629.898 5 120501266.546 5     -3054.781          33.000    22930633.203 5  93897069.551 5     -2380.346          30.000
G29  21125040.508 8 111012839.761 8     -1876.148          51.000    21125039.297 8  86503517.046 8     -1461.934          51.000
G31  21478919.383 8 112872485.121 8     -1507.430          50.000    21478919.078 8  87952580.542 8     -1174.617          50.000
R15  20261262.359 8 108270027.597 8     -2862.395          50.000    20261265.438 7  84210022.948 7     -2226.307          45.000
R17  20450017.039 5 109432120.031 5     -2862.586          31.000    20450011.016 5  85113855.469 5     -2226.459          30.000
R18  19296937.734 8 103008483.268 8       614.219          51.000    19296941.383 8  80117682.929 8       477.729          50.000
C05  39637661.602 6 206403704.737 6        19.715          36.000    39637660.852 6 159604431.161 6        15.574          38.000
C27  22462772.414 8 116969520.078 8     -1889.133          51.000
C29  25494713.352 7 132757691.543 7      2864.711          42.000
C30  21774393.492 8 113385096.080 8       993.738          51.000
E02  25789484.266 8 135524621.880 8     -2512.594          50.000    25789488.555 8 103843572.236 8     -1925.207          51.000
E15  24742750.500 8 130024018.161 8      2349.434          51.000    24742756.328 8  99628869.211 8      1800.251          51.000
E30  22089633.211 8 116081803.407 8      -347.051          51.000    22089635.820 8  88945801.102 8      -265.916          51.000
> 2020 05 16 12 20  0.0000000  0 14        .000000000000
G18  20837496.898 8 109501819.928 8      1862.574          49.000    20837495.562 7  85326116.354 7      1451.357          45.000
G21  21083859.805 8 110796495.552 8      1585.840          51.000    21083857.477 8  86334951.759 8      1235.719          48.000
G25  22948095.742 5 120593041.886 5     -3063.402          33.000    22948099.289 5  93968582.831 5     -2387.067          34.000
G29  21135778.000 8 111069266.233 8     -1885.090          51.000    21135777.297 8  86547485.708 8     -1468.901          51.000
G31  21487577.109 8 112917982.394 8     -1525.199          50.000    21487577.297 8  87988032.945 8     -1188.467          50.000
R15  20277387.273 8 108356198.990 8     -2881.684          48.000    20277390.930 7  84277045.112 7     -2241.312          45.000
R18  19293546.312 8 102990380.238 8       593.125          51.000    19293550.062 8  80103602.800 8       461.319          50.000
C05  39637547.953 6 206403112.718 6        19.707          36.000    39637547.141 6 159603973.391 6        15.039          37.000
C27  22473681.164 8 117026324.777 8     -1897.359          51.000
C29  25478225.867 7 132671837.351 7      2859.457          42.000
C30  21768703.383 8 113355464.057 8       982.195          51.000
E02  25803850.500 8 135600112.495 8     -2519.586          50.000    25803854.859 8 103901415.684 8     -1930.586          51.000
E15  24729364.500 8 129953675.785 8      2340.508          50.000    24729370.703 8  99574970.513 8      1793.409          51.000
E30  22091649.836 8 116092400.863 8      -358.887          51.000    22091652.406 8  88953921.223 8      -275.048          51.000
> 2020 05 16 12 20 30.0000000  0 14        .000000000000
G18  20826910.812 8 109446190.605 8      1845.613          50.000    20826909.234 7  85282768.811 7      1438.140          45.000
G21  21074849.828 8 110749146.476 8      1570.273          51.000    21074847.562 8  86298056.400 8      1223.590          48.000
G25  22965598.516 6 120685019.533 6     -3069.176          36.000    22965602.938 6  94040253.615 6     -2391.569          36.000
G29  21146561.102 8 111125932.248 8     -1893.207          51.000    21146560.758 8  86591641.030 8     -1475.226          51.000
G31  21496331.070 8 112963984.859 8     -1542.117          50.000    21496331.312 8  88023879.021 8     -1201.650          50.000
R15  20293615.117 8 108442917.177 8     -2900.043          49.000    20293618.727 7  84344492.532 7     -2255.592          44.000
R18  19290267.484 8 102972877.445 8       573.070          51.000    19290271.203 8  80089989.528 8       445.724          50.000
C05  39637432.359 5 206402511.168 5        19.973          35.000    39637431.430 6 159603507.440 6        15.495          37.000
C27  22484631.445 8 117083346.004 8     -1904.617          51.000
C29  25461761.078 7 132586100.873 7      2855.426          42.000
C30  21763074.164 8 113326150.920 8       971.453          51.000
E02  25818250.797 8 135675783.633 8     -2525.648          50.000    25818256.234 8 103959397.435 8     -1935.237          51.000
E15  24716023.641 8 129883572.319 8      2332.566          49.000    24716030.133 8  99521254.888 8      1787.276          50.000
E30  22093728.422 8 116103323.624 8      -369.797          51.000    22093730.680 8  88962290.593 8      -283.312          51.000
> 2020 05 16 12 21  0.0000000  0 15        .000000000000
G18  20816419.477 8 109391058.806 8      1828.887          50.000    20816417.773 7  85239808.994 7      1425.110          45.000
G21  21065926.539 8 110702254.335 8      1554.914          51.000    21065924.492 7  86261517.093 7      1211.621          47.000
G25  22983138.242 6 120777190.751 6     -3076.219          38.000    22983142.508 6  94112075.311 6     -2397.060          38.000
G29  21157388.203 8 111182829.012 8     -1900.914          51.000    21157387.867 8  86635976.157 8     -1481.229          51.000
G31  21505179.570 8 113010483.491 8     -1558.781          51.000    21505179.461 8  88060111.724 8     -1214.635          51.000
R15  20309944.258 8 108530172.111 8     -2917.906          51.000    20309947.375 7  84412357.418 7     -2269.486          45.000
R17  20498457.344 5 109691278.757 5     -2895.148          31.000
R18  19287099.609 8 102955966.629 8       553.301          51.000    19287102.969 8  80076836.678 8       430.345          49.000
C05  39637313.141 6 206401890.560 6        20.438          36.000    39637312.266 6 159603027.535 6        16.033          38.000
C27  22495621.680 8 117140574.865 8     -1911.621          51.000
C29  25445317.773 7 132500475.317 7      2851.918          42.000
C30  21757504.719 8 113297148.972 8       961.082          51.000
E02  25832683.820 8 135751627.040 8     -2531.379          50.000    25832690.367 8 104017511.177 8     -1939.625          51.000
E15  24702726.836 8 129813701.041 8      2324.754          49.000    24702733.023 8  99467717.164 8      1781.302          49.000
E30  22095867.508 8 116114564.630 8      -380.441          51.000    22095869.328 8  88970903.828 8      -291.498          51.000
> 2020 05 16 12 21 30.0000000  0 14        .000000000000
G18  20806035.812 8 109336491.329 8      1810.430          51.000    20806033.953 7  85197288.934 7      1410.727          46.000
G21  21057102.555 8 110655885.619 8      1537.836          50.000    21057100.812 7  86225385.657 7      1198.317          47.000
G25  23000727.164 6 120869619.853 6     -3084.570          37.000    23000730.305 6  94184097.820 6     -2403.567          38.000
G29  21168271.398 8 111240020.574 8     -1910.379          51.000    21168270.930 8  86680540.994 8     -1488.607          51.000
G31  21514134.703 8 113057541.875 8     -1576.949          51.000    21514134.148 8  88096780.592 8     -1228.792          51.000
R15  20326386.367 8 108618028.045 8     -2937.566          51.000    20326389.391 7  84480689.739 7     -2284.774          46.000
R18  19284054.883 8 102939712.913 8       531.820          51.000    19284058.016 8  80064194.918 8       413.641          49.000
C05  39637203.031 6 206401316.556 6        19.184          36.000    39637202.109 6 159602583.686 6        14.855          38.000
C27  22506664.000 8 117198074.629 8     -1920.281          51.000
C29  25428908.414 7 132415026.071 7      2846.477          42.000
C30  21752007.703 8 113268522.726 8       948.914          51.000
E02  25847161.648 8 135827707.311 8     -2539.039          51.000    25847169.055 8 104075806.397 8     -1945.521          51.000
E15  24689487.164 8 129744127.969 8      2314.973          50.000    24689492.117 8  99414407.962 8      1773.825          49.000
E30  22098079.672 8 116126189.676 8      -393.070          51.000    22098081.148 8  88979811.321 8      -301.142          51.000
> 2020 05 16 12 22  0.0000000  0 15        .000000000000
G18  20795743.820 8 109282404.708 8      1794.684          51.000    20795741.805 7  85155143.537 7      1398.455          46.000
G21  21048362.172 8 110609956.165 8      1523.543          50.000    21048360.586 7  86189596.482 7      1187.176          47.000
G25  23018349.328 5 120962220.888 5     -3089.988          35.000    23018351.438 5  94256254.245 5     -2407.789          35.000
G29  21179194.266 8 111297420.628 8     -1916.922          51.000    21179193.680 8  86725268.290 8     -1493.705          51.000
G31  21523179.891 8 113105073.568 8     -1592.355          51.000    21523179.312 8  88133818.265 8     -1240.796          51.000
R15  20342924.359 8 108706396.169 8     -2954.262          51.000    20342926.820 7  84549420.466 7     -2297.759          47.000
R17  20531045.852 5 109865723.140 5     -2915.766          34.000    20531025.758 5  85451072.428 5     -2267.824          30.000
R18  19281116.742 8 102924029.234 8       513.188          51.000    19281119.875 8  80051996.511 8       399.146          48.000
C05  39637085.516 6 206400704.939 6        20.629          36.000    39637084.672 6 159602110.731 6        16.311          38.000
C27  22517741.836 8 117255759.647 8     -1925.965          51.000
C29  25412516.617 7 132329669.592 7      2843.746          42.000
C30  21746566.578 8 113240187.743 8       939.500          51.000
E02  25861668.086 8 135903938.754 8     -2543.680          51.000    25861675.242 8 104134217.436 8     -1949.044          50.000
E15  24676288.812 8 129674768.924 8      2308.242          51.000    24676292.234 8  99361262.769 8      1768.644          50.000
E30  22100348.828 8 116138114.270 8      -402.645          51.000    22100350.055 8  88988948.348 8      -308.523          51.000
> 2020 05 16 12 22 30.0000000  0 14        .000000000000
G18  20785553.852 8 109228855.758 8      1774.543          51.000    20785552.297 8  85113417.104 8      1382.761          48.000
G21  21039716.359 8 110564522.303 8      1504.730          50.000    21039714.758 8  86154193.462 8      1172.517          48.000
G25  23036013.789 5 121055048.013 5     -3099.227          34.000    23036016.305 5  94328587.068 5     -2414.982          34.000
G29  21190167.086 8 111355083.306 8     -1927.871          51.000    21190166.414 8  86770200.235 8     -1502.237          51.000
G31  21532325.070 8 113153132.022 8     -1612.129          50.000    21532325.008 8  88171266.397 8     -1256.204          50.000
R15  20359567.945 8 108795330.618 8     -2975.363          51.000    20359569.719 8  84618591.676 8     -2314.171          48.000
R18  19278296.148 8 102908971.136 8       490.105          51.000    19278298.961 8  80040284.655 8       381.193          49.000
C05  39636971.250 6 206400110.762 6        17.906          36.000    39636970.523 6 159601651.282 6        13.976          38.000
C27  22528865.375 8 117313683.373 8     -1936.133          51.000
C29  25396153.000 6 132244461.499 6      2836.461          41.000
C30  21741191.633 8 113212198.718 8       925.809          51.000
E02  25876213.336 8 135980376.073 8     -2552.719          49.000    25876218.086 7 104192786.183 7     -1955.952          45.000
E15  24663142.297 8 129605680.113 8      2297.031          51.000    24663144.836 8  99308324.618 8      1760.090          51.000
E30  22102685.539 8 116150394.298 8      -416.637          51.000    22102686.695 8  88998357.722 8      -319.247          51.000
> 2020 05 16 12 23  0.0000000  0 15        .000000000000
G18  20775469.789 8 109175864.337 8      1758.223          51.000    20775469.148 8  85072125.122 8      1370.047          48.000
G21  21031168.648 8 110519603.317 8      1489.836          50.000    21031166.914 8  86119191.666 8      1160.911          48.000
G25  23053723.094 5 121148118.789 5     -3104.746          31.000    23053726.617 5  94401109.836 5     -2419.286          31.000
G29  21201193.125 8 111413025.751 8     -1935.008          51.000    21201192.344 8  86815350.175 8     -1507.798          51.000
G31  21541573.555 8 113201733.972 8     -1627.980          50.000    21541573.945 8  88209138.040 8     -1268.556          50.000
R15  20376320.031 8 108884847.713 8     -2992.449          51.000    20376321.594 8  84688216.081 8     -2327.461          50.000
R17  20563853.461 5 110041333.057 5     -2938.504          32.000
R18  19275595.977 8 102894556.190 8       470.938          51.000    19275598.594 8  80029073.066 8       366.285          48.000
C05  39636863.914 6 206399551.734 6        19.270          36.000    39636863.336 6 159601219.397 6        14.931          37.000
C27  22540037.977 8 117371862.662 8     -1942.422          51.000
C29  25379821.766 7 132159420.669 7      2833.297          42.000
C30  21735886.617 8 113184573.713 8       915.871          51.000
E02  25890800.898 8 136057036.995 8     -2558.102          49.000    25890800.984 7 104251526.244 7     -1959.972          43.000
E15  24650050.797 8 129536880.730 8      2289.621          51.000    24650053.703 8  99255608.251 8      1754.403          51.000
E30  22105093.359 8 116163048.688 8      -426.922          51.000    22105094.766 8  89008053.923 8      -327.119          51.000
> 2020 05 16 12 23 30.0000000  0 15        .000000000000
G18  20765475.656 8 109123344.727 8      1741.703          51.000    20765475.789 8  85031200.759 8      1357.174          49.000
G21  21022702.414 8 110475112.493 8      1474.766          51.000    21022700.133 8  86084523.520 8      1149.168          48.000
G25  23071463.062 6 121241345.030 6     -3111.004          39.000    23071466.203 6  94473753.594 6     -2424.159          39.000
G29  21212255.648 8 111471159.460 8     -1941.980          51.000    21212254.805 8  86860649.155 8     -1513.232          51.000
G31  21550908.523 8 113250790.739 8     -1643.883          50.000    21550908.906 8  88247364.072 8     -1280.948          50.000
R15  20393163.438 8 108974856.345 8     -3009.598          50.000    20393165.625 8  84758222.805 8     -2340.795          50.000
R17  20580370.352 6 110129712.279 6     -2947.516          37.000    20580341.789 4  85656349.479 4     -2292.515          29.000
R18  19272999.570 8 102880695.190 8       451.812          51.000    19273001.750 8  80018292.293 8       351.410          49.000
C05  39636746.891 6 206398942.049 6        20.059          36.000    39636746.344 6 159600748.326 6        15.598          37.000
C27  22551243.008 8 117430209.707 8     -1948.746          51.000
C29  25363506.719 7 132074461.310 7      2829.703          43.000
C30  21730634.930 8 113157226.121 8       905.926          51.000
E02  25905414.352 8 136133833.572 8     -2563.293          49.000    25905413.438 7 104310370.333 7     -1964.103          45.000
E15  24636997.844 8 129468284.363 8      2282.055          51.000    24637001.656 8  99203047.424 8      1748.611          51.000
E30  22107556.039 8 116175990.693 8      -437.258          51.000    22107557.688 8  89017970.512 8      -335.027          51.000
> 2020 05 16 12 24  0.0000000  0 15        .000000000000
G18  20755584.828 8 109071368.216 8      1723.406          50.000    20755585.273 8  84990699.605 8      1342.914          49.000
G21  21014331.078 8 110431120.482 8      1458.051          51.000    21014328.141 7  86050244.045 7      1136.143          47.000
G25  23089246.586 6 121334795.585 6     -3119.027          37.000    23089246.734 6  94546572.187 6     -2430.414          37.000
G29  21223367.648 8 111529553.160 8     -1950.762          51.000    21223366.883 8  86906150.724 8     -1520.074          51.000
G31  21560343.023 8 113300370.431 8     -1661.348          50.000    21560342.719 8  88285997.578 8     -1294.557          50.000
R15  20410111.328 8 109065425.428 8     -3028.332          48.000    20410114.656 8  84828665.480 8     -2355.369          50.000
R17  20596920.180 4 110218307.694 4     -2959.086          29.000    20596899.383 4  85725256.953 4     -2301.511          28.000
R18  19270519.750 8 102867458.124 8       430.793          51.000    19270522.227 8  80007996.807 8       335.061          49.000
C05  39636633.484 6 206398350.501 6        19.141          36.000    39636632.883 6 159600291.674 6        14.943          37.000
C27  22562493.391 8 117488792.464 8     -1956.715          51.000
C29  25347221.039 7 131989653.403 7      2824.242          44.000
C30  21725449.586 8 113130225.022 8       894.289          51.000
E02  25920067.367 8 136210835.132 8     -2570.191          50.000    25920067.625 7 104369371.495 7     -1969.290          47.000
E15  24623996.523 8 129399961.730 8      2272.836          50.000    24624001.430 8  99150696.310 8      1741.476          51.000
E30  22110086.992 8 116189290.700 8      -449.371          51.000    22110088.523 8  89028161.427 8      -344.326          51.000
> 2020 05 16 12 24 30.0000000  0 14        .000000000000
G18  20745797.844 8 109019939.062 8      1707.023          49.000    20745798.305 8  84950624.962 8      1330.148          48.000
G21  21006055.281 8 110387631.099 8      1443.105          51.000    21006051.961 8  86016356.228 8      1124.498          48.000
G29  21234529.422 8 111588208.498 8     -1957.660          51.000    21234528.750 8  86951856.174 8     -1525.449          51.000
G31  21569877.367 8 113350474.112 8     -1676.848          50.000    21569876.078 8  88325039.392 8     -1306.635          50.000
R15  20427164.461 8 109156555.494 8     -3045.035          50.000    20427168.836 8  84899544.416 8     -2368.361          50.000
R18  19268157.289 8 102854846.816 8       411.828          51.000    19268159.992 8  79998188.008 8       320.311          50.000
R19  21891062.539 6 117102414.189 6      3355.184          37.000    21891061.211 6  91079653.354 6      2609.590          40.000
C05  39636524.148 6 206397781.427 6        20.551          36.000    39636523.703 6 159599851.638 6        15.728          38.000
C27  22573789.203 8 117547612.302 8     -1962.754          51.000
C29  25330964.844 7 131905000.458 7      2820.914          42.000
C30  21720331.109 8 113103573.002 8       884.469          51.000
E02  25934760.445 8 136288043.807 8     -2575.199          51.000    25934761.391 8 104428531.371 8     -1973.235          48.000
E15  24611047.016 8 129331916.469 8      2265.410          48.000    24611053.547 8  99098557.726 8      1735.840          51.000
E30  22112686.492 8 116202952.081 8      -459.578          51.000    22112688.062 8  89038629.224 8      -352.111          51.000
> 2020 05 16 12 25  0.0000000  0 16        .000000000000
G18  20736105.203 8 108969007.060 8      1689.316          48.000    20736105.703 8  84910937.694 8      1316.347          48.000
G21  20997865.781 8 110344594.022 8      1427.031          51.000    20997861.977 8  85982820.851 8      1111.972          48.000
G25  23124929.602 5 121522315.527 5     -3131.129          31.000    23124935.375 5  94692729.893 5     -2439.841          32.000
G29  21245730.891 8 111647072.480 8     -1965.617          51.000    21245730.164 8  86997724.208 8     -1531.650          51.000
G31  21579501.508 8 113401048.579 8     -1693.664          51.000    21579499.727 8  88364448.035 8     -1319.741          51.000
R15  20444313.141 8 109248191.709 8     -3062.973          51.000    20444317.586 8  84970817.004 8     -2382.312          49.000
R17  20630212.984 5 110396334.696 5     -2977.707          33.000    20630217.172 4  85863905.700 4     -2315.997          25.000
R18  19265901.938 8 102842807.979 8       391.762          51.000    19265904.633 8  79988824.472 8       304.704          49.000
R19  21872281.070 6 117001947.137 6      3343.637          37.000    21872281.836 6  91001512.388 6      2600.609          40.000
C05  39636409.117 6 206397182.839 6        20.910          36.000    39636408.672 6 159599388.795 6        15.683          38.000
C27  22585120.398 8 117606616.759 8     -1969.770          51.000
C29  25314728.477 7 131820452.015 7      2816.719          42.000
C30  21715269.836 8 113077218.802 8       873.477          51.000
E02  25949482.766 8 136365407.359 8     -2581.430          50.000    25949483.828 8 104487809.917 8     -1977.973          48.000
E15  24598140.422 8 129264097.799 8      2256.781          48.000    24598148.180 8  99046592.767 8      1729.228          51.000
E30  22115344.867 8 116216923.722 8      -470.914          51.000    22115346.883 8  89049334.757 8      -360.830          51.000
> 2020 05 16 12 25 30.0000000  0 16        .000000000000
G18  20726516.227 8 108918619.358 8      1671.281          48.000    20726517.102 8  84871674.553 8      1302.297          48.000
G21  20989771.016 8 110302054.892 8      1410.469          51.000    20989766.836 8  85949673.491 8      1099.067          48.000
G25  23142830.406 6 121616383.846 6     -3138.184          36.000    23142835.719 5  94766029.886 5     -2445.338          35.000
G29  21256980.523 8 111706189.700 8     -1973.949          51.000    21256979.742 8  87043789.574 8     -1538.142          51.000
G31  21589223.969 8 113452138.036 8     -1710.754          51.000    21589221.844 8  88404257.992 8     -1333.055          51.000
R15  20461565.094 8 109340378.234 8     -3081.273          51.000    20461569.117 8  85042517.606 8     -2396.549          48.000
R17  20646936.609 4 110485812.654 4     -2988.719          28.000    20646937.141 4  85933515.055 4     -2324.562          29.000
R18  19263762.266 8 102831387.149 8       371.203          50.000    19263765.078 8  79979941.605 8       288.714          50.000
R19  21853568.000 6 116901852.746 6      3330.938          36.000    21853568.586 6  90923661.207 6      2590.729          39.000
C05  39636297.141 6 206396599.127 6        19.512          36.000    39636296.797 6 159598938.159 6        15.683          38.000
C27  22596495.406 8 117665849.773 8     -1977.434          51.000
C29  25298521.062 7 131736054.114 7      2811.457          43.000
C30  21710274.281 8 113051207.466 8       862.070          51.000
E02  25964242.586 8 136442970.766 8     -2588.004          49.000    25964243.789 8 104547241.574 8     -1983.064          48.000
E15  24585286.586 8 129196552.170 8      2247.785          50.000    24585293.844 8  98994837.023 8      1722.305          51.000
E30  22118071.391 8 116231251.817 8      -482.840          51.000    22118073.602 8  89060313.408 8      -369.920          51.000
> 2020 05 16 12 26  0.0000000  0 15        .000000000000
G18  20717031.344 8 108868777.068 8      1653.238          48.000    20717032.812 8  84832836.397 8      1288.238          48.000
G21  20981770.781 8 110260014.321 8      1394.012          51.000    20981766.758 8  85916914.638 8      1086.243          48.000
G25  23160774.438 6 121710669.230 6     -3145.352          40.000    23160777.195 6  94839499.052 6     -2450.923          40.000
G29  21268278.141 8 111765558.815 8     -1982.262          51.000    21268277.422 8  87090051.214 8     -1544.620          51.000
G31  21599044.094 8 113503740.606 8     -1727.707          51.000    21599041.703 8  88444467.771 8     -1346.265          51.000
R15  20478919.055 8 109433112.232 8     -3099.230          51.000    20478922.672 7  85114644.006 7     -2410.513          47.000
R18  19261738.164 8 102820583.192 8       350.758          51.000    19261741.234 8  79971538.545 8       272.812          49.000
R19  21834924.789 6 116802132.562 6      3318.605          36.000    21834925.727 6  90846101.075 6      2581.141          39.000
C05  39636188.312 6 206396032.041 6        19.570          36.000    39636187.867 6 159598499.669 6        15.027          38.000
C27  22607913.961 8 117725309.736 8     -1984.836          51.000
C29  25282342.797 7 131651807.184 7      2806.617          45.000
C30  21705344.625 8 113025538.564 8       850.824          51.000
E02  25979039.758 8 136520733.147 8     -2594.441          49.000    25979041.984 8 104606825.676 8     -1988.005          49.000
E15  24572485.656 8 129129280.157 8      2238.715          51.000    24572491.305 8  98943290.950 8      1715.346          51.000
E30  22120865.969 8 116245936.601 8      -494.547          51.000    22120868.086 8  89071565.383 8      -378.936          51.000
> 2020 05 16 12 26 30.0000000  0 15        .000000000000
G18  20707643.922 8 108819446.598 8      1635.352          48.000    20707645.781 7  84794397.088 7      1274.300          47.000
G21  20973858.898 8 110218438.263 8      1377.766          51.000    20973855.570 7  85884517.728 7      1073.584          47.000
G25  23178751.875 6 121805135.716 6     -3152.230          40.000    23178753.633 6  94913109.325 6     -2456.283          40.000
G29  21279616.805 8 111825143.627 8     -1990.094          50.000    21279616.000 8  87136480.922 8     -1550.722          50.000
G31  21608954.539 8 113555819.216 8     -1744.258          49.000    21608952.172 8  88485048.500 8     -1359.162          49.000
R15  20496367.984 8 109526356.059 8     -3116.957          51.000    20496371.273 7  85187166.924 7     -2424.303          45.000
R18  19259822.656 8 102810359.308 8       330.730          50.000    19259825.734 8  79963586.640 8       257.235          49.000
R19  21816345.312 6 116702752.703 6      3306.188          36.000    21816348.617 6  90768805.665 6      2571.479          39.000
C05  39636075.773 6 206395447.165 6        19.512          36.000    39636075.250 6 159598046.627 6        15.124          38.000
C27  22619369.133 8 117784960.760 8     -1991.887          51.000
C29  25266187.000 7 131567677.355 7      2801.891          45.000
C30  21700474.422 8 113000177.347 8       839.855          51.000
E02  25993868.289 8 136598658.849 8     -2600.625          49.000    25993871.133 8 104666534.910 8     -1992.669          48.000
E15  24559730.648 8 129062247.617 8      2230.051          51.000    24559734.688 8  98891928.390 8      1708.731          50.000
E30  22123721.898 8 116260943.668 8      -505.945          51.000    22123723.805 8  89083064.301 8      -387.660          51.000
> 2020 05 16 12 27  0.0000000  0 16        .000000000000
G18  20698360.234 8 108770659.578 8      1617.465          49.000    20698361.992 8  84756381.234 8      1260.362          49.000
G21  20966041.492 8 110177357.778 8      1361.328          51.000    20966039.180 8  85852506.980 8      1060.778          48.000
G25  23196768.648 6 121899812.542 6     -3159.230          38.000    23196770.453 6  94986883.411 6     -2461.741          37.000
G29  21291002.023 8 111884973.150 8     -1998.051          49.000    21291000.906 8  87183101.326 8     -1556.923          48.000
G31  21618960.516 8 113608402.284 8     -1760.953          48.000    21618958.406 8  88526022.305 8     -1372.171          48.000
R15  20513917.430 8 109620137.972 8     -3134.859          50.000    20513920.547 7  85260108.338 7     -2438.227          44.000
R16  19425520.906 5 103767632.945 5       982.191          35.000    19425521.062 4  80708175.621 4       763.924          29.000
R18  19258021.523 8 102800745.599 8       310.578          50.000    19258024.844 8  79956109.316 8       241.561          49.000
R19  21797836.477 6 116603745.884 6      3294.508          37.000    21797841.570 6  90691800.359 6      2562.395          40.000
C05  39635965.453 6 206394872.559 6        19.008          36.000    39635964.773 6 159597602.306 6        14.834          38.000
C27  22630866.695 8 117844831.491 8     -1999.047          51.000
C29  25250058.961 7 131483695.326 7      2797.242          43.000
C30  21695668.789 8 112975153.601 8       828.758          51.000
E02  26008733.719 8 136676777.525 8     -2606.844          49.000    26008736.273 8 104726392.012 8     -1997.473          48.000
E15  24547026.945 8 128995485.658 8      2221.195          51.000    24547029.383 8  98840773.156 8      1701.979          50.000
E30  22126644.984 8 116276303.803 8      -517.598          51.000    22126646.820 8  89094833.742 8      -396.601          51.000
> 2020 05 16 12 27 30.0000000  0 17        .000000000000
G18  20689179.141 8 108722410.403 8      1603.590          50.000    20689180.672 8  84718784.478 8      1249.551          50.000
G21  20958317.297 8 110136766.678 8      1349.172          51.000    20958315.844 8  85820877.572 8      1051.303          48.000
G25  23214822.789 6 121994691.630 6     -3161.789          36.000    23214824.938 6  95060815.102 6     -2463.735          37.000
G29  21302432.156 8 111945039.301 8     -2001.793          49.000    21302430.703 8  87229906.127 8     -1559.839          49.000
G31  21629060.898 8 113661481.221 8     -1773.301          49.000    21629058.836 8  88567382.524 8     -1381.793          49.000
R15  20531565.820 8 109714448.266 8     -3148.102          49.000    20531568.922 7  85333460.757 7     -2448.523          44.000
R16  19420069.812 5 103738523.855 5       962.902          34.000    19420071.750 5  80685535.205 5       748.924          30.000
R18  19256333.250 8 102791733.877 8       294.754          51.000    19256336.531 8  79949100.207 8       229.253          48.000
R19  21779397.141 6 116505106.230 6      3286.320          37.000    21779402.305 6  90615080.616 6      2556.027          40.000
C05  39635855.945 6 206394302.887 6        23.324          36.000    39635855.234 6 159597161.421 6        18.090          37.000
C27  22642405.086 8 117904913.729 8     -2001.980          51.000
C29  25233957.320 6 131399854.867 6      2796.531          41.000
C30  21690926.484 8 112950460.239 8       821.930          51.000
E02  26023634.664 8 136755081.510 8     -2608.805          50.000    26023636.531 8 104786391.122 8     -1999.011          49.000
E15  24534373.172 8 128928988.059 8      2216.551          51.000    24534374.281 8  98789820.484 8      1698.357          49.000
E30  22129633.984 8 116292010.468 8      -524.938          51.000    22129635.797 8  89106868.703 8      -402.291          51.000
E36  26166531.008 5 137505986.948 5     -2581.281          35.000
> 2020 05 16 12 28  0.0000000  0 17        .000000000000
G18  20680103.703 8 108674717.117 8      1581.250          50.000    20680105.109 8  84681620.883 8      1232.146          50.000
G21  20950689.477 8 110096682.225 8      1328.457          51.000    20950688.516 8  85789642.953 8      1035.161          49.000
G25  23232917.078 5 122089788.794 5     -3172.570          33.000    23232921.156 5  95134916.718 5     -2472.136          33.000
G29  21313910.328 8 112005357.702 8     -2013.984          48.000    21313908.531 8  87276907.450 8     -1569.342          48.000
G31  21639258.805 8 113715071.044 8     -1794.094          50.000    21639256.453 8  88609140.830 8     -1397.995          50.000
R15  20549315.383 7 109809301.645 7     -3169.980          46.000    20549319.234 7  85407235.609 7     -2465.540          45.000
R16  19414757.953 5 103710152.390 5       933.855          35.000    19414762.133 5  80663468.494 5       726.332          32.000
R18  19254760.883 8 102783339.927 8       270.270          51.000    19254763.789 8  79942571.586 8       210.210          48.000
R19  21761030.117 6 116406852.731 6      3269.648          38.000    21761035.352 6  90538661.254 6      2543.063          40.000
C05  39635750.414 6 206393753.356 6        19.285          36.000    39635749.734 6 159596736.897 6        14.496          37.000
C27  22653987.039 8 117965222.744 8     -2013.258          51.000
C29  25217886.320 7 131316173.219 7      2787.637          42.000
C30  21686251.055 8 112926113.628 8       806.582          51.000
E02  26038573.992 8 136833586.888 8     -2619.359          49.000    26038575.250 8 104846544.558 8     -2007.042          50.000
E15  24521772.398 8 128862772.390 8      2203.270          50.000    24521772.812 8  98739083.840 8      1688.246          49.000
E30  22132692.109 8 116308080.926 8      -540.980          51.000    22132693.789 8  89119182.416 8      -414.497          51.000
E36  26181304.773 5 137583626.310 5     -2589.301          33.000
> 2020 05 16 12 28 30.0000000  0 17        .000000000000
G18  20671126.570 8 108627540.760 8      1563.652          50.000    20671127.852 8  84644860.097 8      1218.430          50.000
G21  20943150.516 8 110057064.933 8      1312.422          51.000    20943149.805 8  85758772.370 8      1022.666          49.000
G25  23251046.328 6 122185062.792 6     -3179.070          38.000    23251050.766 6  95209156.118 6     -2477.201          38.000
G29  21325428.664 7 112065886.981 7     -2021.508          47.000    21325426.719 7  87324073.092 7     -1575.201          47.000
G31  21649545.883 8 113769129.727 8     -1810.086          49.000    21649543.438 8  88651264.473 8     -1410.457          50.000
R15  20567158.477 7 109904654.628 7     -3186.977          46.000    20567162.969 7  85481399.110 7     -2478.760          45.000
R16  19409577.469 6 103682479.589 6       910.449          36.000    19409582.445 5  80641945.164 5       708.127          33.000
R18  19253296.578 8 102775521.946 8       250.684          51.000    19253299.195 8  79936490.946 8       194.976          49.000
R19  21742728.344 6 116308946.109 6      3257.453          38.000    21742732.195 6  90462511.729 6      2533.578          39.000
C05  39635641.422 6 206393184.816 6        19.020          36.000    39635640.664 6 159596298.029 6        14.468          38.000
C27  22665604.539 8 118025717.363 8     -2019.887          51.000
C29  25201839.219 7 131232611.237 7      2783.105          44.000
C30  21681634.734 8 112902073.708 8       795.902          51.000
E02  26053543.750 7 136912252.734 7     -2625.184          47.000    26053544.664 8 104906820.966 8     -2011.528          50.000
E15  24509217.273 8 128796799.169 8      2194.840          49.000    24509217.555 8  98688532.974 8      1681.769          50.000
E30  22135811.930 8 116324475.369 8      -552.152          51.000    22135813.492 8  89131744.390 8      -423.102          51.000
E36  26196097.586 5 137661421.383 5     -2592.871          31.000
> 2020 05 16 12 29  0.0000000  0 16        .000000000000
G18  20662251.523 8 108580900.401 8      1545.719          50.000    20662252.539 8  84608516.964 8      1204.456          50.000
G21  20935703.914 8 110017933.106 8      1296.281          51.000    20935702.984 8  85728280.043 8      1010.089          48.000
G25  23269212.891 6 122280530.378 6     -3185.426          39.000    23269216.469 6  95283546.404 6     -2482.150          40.000
G29  21336990.289 7 112126643.825 7     -2029.020          47.000    21336988.414 7  87371416.063 7     -1581.054          47.000
G31  21659924.883 8 113823673.180 8     -1826.309          48.000    21659922.836 8  88693765.849 8     -1423.098          48.000
R15  20585099.219 8 110000523.012 8     -3204.238          48.000    20585103.234 7  85555963.390 7     -2492.188          44.000
R16  19404531.305 6 103655525.992 6       886.359          37.000    19404535.953 5  80620981.208 5       689.391          33.000
R18  19251943.234 8 102768297.080 8       230.902          51.000    19251945.828 8  79930871.599 8       179.591          49.000
R19  21724494.945 6 116211405.909 6      3245.164          39.000    21724496.414 6  90386647.202 6      2524.020          38.000
C05  39635532.117 6 206392616.321 6        19.105          36.000    39635531.383 6 159595858.437 6        14.653          38.000
C27  22677260.578 8 118086413.862 8     -2026.535          50.000
C29  25185819.203 7 131149187.267 7      2778.324          45.000
C30  21677080.188 8 112878357.870 8       785.035          51.000
E02  26068546.641 7 136991096.112 7     -2631.039          45.000    26068548.555 8 104967233.403 8     -2016.036          50.000
E15  24496711.820 8 128731086.936 8      2186.051          49.000    24496712.992 8  98638182.072 8      1674.981          50.000
E30  22138996.758 8 116341212.036 8      -563.543          51.000    22138998.523 8  89144568.584 8      -431.869          51.000
> 2020 05 16 12 29 30.0000000  0 16        .000000000000
G18  20653479.539 8 108534802.806 8      1527.410          50.000    20653480.383 8  84572596.763 8      1190.190          50.000
G21  20928350.617 8 109979292.987 8      1279.766          50.000    20928349.438 7  85698170.868 7       997.220          47.000
G25  23287417.078 6 122376196.081 6     -3191.973          38.000    23287420.391 6  95358091.088 6     -2487.254          39.000
G29  21348596.023 7 112187632.294 7     -2036.801          47.000    21348594.438 7  87418939.534 7     -1587.121          47.000
G31  21670396.625 7 113878705.233 7     -1842.625          47.000    21670395.594 7  88736647.942 7     -1435.812          47.000
R15  20603137.508 8 110096909.975 8     -3221.535          51.000    20603140.461 7  85630930.889 7     -2505.645          43.000
R16  19399621.531 6 103629299.007 6       861.598          37.000    19399625.102 5  80600582.479 5       670.128          33.000
R18  19250701.719 8 102761669.626 8       210.836          50.000    19250704.398 8  79925716.907 8       163.984          49.000
R19  21706331.305 6 116114239.511 6      3232.520          37.000    21706331.000 6  90311073.402 6      2514.185          36.000
C05  39635423.703 5 206392052.617 5        18.461          35.000    39635423.133 6 159595422.526 6        14.224          37.000
C27  22688956.031 8 118147316.424 8     -2033.562          48.000
C29  25169826.578 7 131065907.422 7      2773.469          44.000
C30  21672588.828 8 112854971.388 8       773.953          51.000
E02  26083583.016 7 137070121.861 7     -2637.340          42.000    26083587.406 8 105027785.587 8     -2020.807          49.000
E15  24484257.516 8 128665641.987 8      2176.914          49.000    24484260.578 8  98588035.963 8      1668.022          51.000
E30  22142247.734 8 116358296.908 8      -575.441          51.000    22142249.672 8  89157659.578 8      -440.914          51.000
> 2020 05 16 12 30  0.0000000  0 16        .000000000000
G18  20644810.711 8 108489249.144 8      1509.535          49.000    20644811.516 8  84537100.408 8      1176.261          48.000
G21  20921091.070 8 109941145.360 8      1263.480          50.000    20921089.867 8  85668445.454 8       984.530          48.000
G25  23305658.492 6 122472058.805 6     -3198.715          37.000    23305662.992 6  95432789.288 6     -2492.508          38.000
G29  21360245.695 7 112248851.435 7     -2044.227          46.000    21360244.648 7  87466642.739 7     -1592.904          47.000
G31  21680961.156 8 113934224.423 8     -1858.438          48.000    21680961.195 8  88779909.617 8     -1448.133          49.000
R15  20621272.758 8 110193812.758 8     -3238.453          51.000    20621275.148 7  85706299.613 7     -2518.800          46.000
R16  19394848.820 6 103603800.878 6       838.117          38.000    19394851.898 5  80580750.609 5       651.866          34.000
R18  19249571.734 8 102755638.289 8       191.426          50.000    19249574.688 8  79921025.865 8       148.887          49.000
R19  21688237.539 6 116017448.483 6      3220.109          36.000    21688236.453 6  90235791.556 6      2504.533          37.000
C05  39635316.242 6 206391491.497 6        18.848          36.000    39635315.680 6 159594990.194 6        14.647          37.000
C27  22700690.766 8 118208423.664 8     -2039.980          48.000
C29  25153861.266 7 130982772.285 7      2768.988          43.000
C30  21668161.125 8 112831913.930 8       763.336          51.000
E02  26098654.430 7 137149329.199 7     -2642.691          44.000    26098660.812 8 105088476.879 8     -2025.210          49.000
E15  24471854.828 8 128600464.970 8      2168.512          50.000    24471859.586 8  98538095.128 8      1661.533          51.000
E30  22145565.086 8 116375730.298 8      -586.590          51.000    22145567.031 8  89171017.630 8      -449.477          51.000
> 2020 05 16 12 30 30.0000000  0 17        .000000000000
G18  20636240.781 8 108444216.084 8      1492.250          48.000    20636241.523 8  84502009.716 8      1162.795          48.000
G21  20913920.984 8 109903466.394 8      1248.039          50.000    20913919.898 8  85639085.255 8       972.501          48.000
G25  23323933.492 6 122568092.888 6     -3204.004          41.000    23323938.617 6  95507621.017 6     -2496.626          41.000
G29  21371934.281 7 112310275.520 7     -2051.184          45.000    21371933.711 7  87514505.656 7     -1598.325          44.000
G31  21691613.484 8 113990203.340 8     -1873.824          49.000    21691614.133 8  88823529.555 8     -1460.123          49.000
R15  20639499.336 8 110291203.725 8     -3254.660          51.000    20639501.789 8  85782048.096 8     -2531.402          48.000
R16  19390208.141 6 103579008.649 6       814.371          39.000    19390211.398 6  80561467.748 6       633.400          36.000
R17  20817145.688 5 111396715.067 5     -3081.113          33.000    20817122.695 4  86641848.260 4     -2396.431          26.000
R18  19248548.453 8 102750177.081 8       172.430          50.000    19248551.711 8  79916778.257 8       134.112          49.000
R19  21670209.391 6 115921009.272 6      3208.543          37.000    21670209.211 6  90160783.346 6      2495.533          39.000
C05  39635205.047 6 206390912.959 6        19.480          36.000    39635204.602 6 159594542.833 6        15.230          37.000
C27  22712460.031 7 118269709.975 7     -2045.945          47.000
C29  25137918.734 6 130899758.207 6      2764.668          41.000
C30  21663791.805 8 112809160.975 8       753.195          51.000
E02  26113756.977 7 137228692.883 7     -2648.191          47.000    26113763.320 7 105149287.989 7     -2029.101          47.000
E15  24459499.141 8 128535532.115 8      2160.145          51.000    24459504.711 8  98488341.364 8      1655.233          51.000
E30  22148944.328 8 116393488.169 8      -597.484          51.000    22148946.383 8  89184624.299 8      -457.810          51.000
> 2020 05 16 12 31  0.0000000  0 17        .000000000000
G18  20627777.469 8 108399742.755 8      1473.074          49.000    20627778.336 8  84467355.194 8      1147.847          48.000
G21  20906847.172 8 109866293.656 8      1230.594          50.000    20906845.867 7  85610119.525 7       958.907          47.000
G25  23342248.609 7 122664335.447 7     -3211.832          42.000    23342253.469 7  95582615.177 7     -2502.729          42.000
G29  21383668.750 7 112371941.437 7     -2059.488          43.000    21383668.461 7  87562557.004 7     -1604.796          43.000
G31  21702360.453 8 114046678.326 8     -1890.820          50.000    21702361.359 8  88867536.028 8     -1473.366          50.000
R15  20657823.828 8 110389119.217 8     -3272.629          51.000    20657825.617 7  85858204.621 7     -2545.378          47.000
R16  19385707.109 6 103554962.796 6       789.121          39.000    19385710.602 6  80542765.397 6       613.761          37.000
R17  20834449.516 6 111489302.274 6     -3091.121          36.000
R18  19247638.883 8 102745323.508 8       151.633          50.000    19247642.391 8  79913003.270 8       117.937          49.000
R19  21652255.070 6 115824962.354 6      3194.957          36.000    21652256.438 6  90086080.254 6      2484.970          41.000
C05  39635097.422 6 206390352.660 6        18.184          36.000    39635097.008 6 159594109.577 6        14.465          38.000
C27  22724270.852 7 118331211.738 7     -2053.672          47.000
C29  25122005.914 7 130816903.499 7      2759.145          42.000
C30  21659487.938 8 112786749.922 8       741.320          51.000
E02  26128897.016 8 137308250.214 8     -2655.109          49.000    26128903.109 7 105210247.438 7     -2034.399          47.000
E15  24447197.594 8 128470882.108 8      2150.316          51.000    24447202.883 8  98438804.356 8      1647.576          51.000
E30  22152392.594 8 116411608.914 8      -610.074          51.000    22152394.656 8  89198509.012 8      -467.489          51.000
> 2020 05 16 12 31 30.0000000  0 17        .000000000000
G18  20619420.039 8 108355823.806 8      1455.109          50.000    20619420.602 8  84433132.641 8      1133.851          48.000
G21  20899868.719 8 109829621.779 8      1214.508          51.000    20899866.898 7  85581544.026 7       946.370          47.000
G25  23360601.867 7 122760778.757 7     -3217.633          42.000    23360606.367 7  95657765.755 7     -2507.249          42.000
G29  21395447.656 6 112433841.206 6     -2066.707          41.000    21395447.523 6  87610790.628 6     -1610.421          41.000
G31  21713200.500 8 114103641.268 8     -1906.348          51.000    21713201.359 8  88911922.694 8     -1485.469          51.000
R15  20676244.164 8 110487549.822 8     -3289.078          51.000    20676245.344 7  85934761.803 7     -2558.172          47.000
R16  19381345.078 6 103531658.976 6       764.910          39.000    19381348.344 6  80524640.194 6       594.930          36.000
R17  20851802.781 4 111582207.824 4     -3099.156          29.000
R18  19246842.086 8 102741069.560 8       132.352          50.000    19246845.742 8  79909694.644 8       102.940          48.000
R19  21634372.016 5 115729302.444 5      3182.465          35.000    21634375.812 7  90011678.149 7      2475.250          42.000
C05  39634991.875 6 206389803.660 6        18.238          36.000    39634991.641 6 159593685.459 6        14.345          37.000
C27  22736121.695 8 118392921.086 8     -2059.848          48.000
C29  25106122.930 7 130734202.381 7      2754.867          43.000
C30  21655248.664 8 112764674.012 8       730.734          51.000
E02  26144072.406 8 137387993.858 8     -2660.699          48.000    26144078.898 8 105271349.662 8     -2038.685          48.000
E15  24434948.922 8 128406509.119 8      2141.656          51.000    24434953.469 8  98389479.602 8      1641.033          51.000
E30  22155908.797 8 116430086.350 8      -621.352          51.000    22155910.266 8  89212667.028 8      -476.074          51.000
> 2020 05 16 12 32  0.0000000  0 17        .000000000000
G18  20611163.312 8 108312434.482 8      1437.375          50.000    20611163.633 8  84399322.810 8      1120.032          49.000
G21  20892980.906 8 109793425.464 8      1198.449          50.000    20892979.352 8  85553339.094 8       933.857          48.000
G25  23378987.867 7 122857395.964 7     -3223.762          43.000    23378992.266 7  95733051.807 7     -2512.025          43.000
G29  21407266.359 6 112495948.261 6     -2073.488          40.000    21407265.953 6  87659185.715 6     -1615.705          40.000
G31  21724128.328 8 114161064.147 8     -1921.938          51.000    21724128.305 8  88956667.757 8     -1497.617          51.000
R15  20694754.875 8 110586466.733 8     -3305.414          51.000    20694756.648 7  86011697.190 7     -2570.878          47.000
R16  19377117.219 6 103509072.794 6       740.891          40.000    19377120.031 6  80507073.178 6       576.248          37.000
R17  20869203.586 5 111675310.150 5     -3107.445          33.000
R18  19246152.062 8 102737387.740 8       113.031          49.000    19246155.922 7  79906831.002 7        87.913          47.000
R19  21616556.219 5 115634004.938 5      3170.434          35.000    21616561.945 7  89937557.885 7      2465.896          42.000
C05  39634883.914 6 206389240.004 6        18.742          36.000    39634883.711 6 159593250.763 6        14.728          37.000
C27  22748007.195 7 118454811.177 7     -2065.980          47.000
C29  25090265.211 7 130651629.872 7      2750.141          43.000
C30  21651068.773 8 112742907.391 8       720.215          51.000
E02  26159277.789 8 137467897.288 8     -2666.215          48.000    26159284.953 8 105332574.330 8     -2042.929          48.000
E15  24422748.016 8 128342388.043 8      2133.082          51.000    24422751.500 8  98340347.898 8      1634.428          51.000
E30  22159488.250 8 116448895.056 8      -632.598          51.000    22159489.031 8  89227078.897 8      -484.694          51.000
> 2020 05 16 12 32 30.0000000  0 17        .000000000000
G18  20603012.680 8 108269600.960 8      1420.055          51.000    20603012.539 8  84365946.067 8      1106.536          49.000
G21  20886188.281 8 109757730.040 8      1183.051          49.000    20886187.336 8  85525524.498 8       921.858          49.000
G25  23397411.773 7 122954210.947 7     -3228.836          44.000    23397415.391 7  95808491.986 7     -2515.979          44.000
G29  21419129.156 6 112558286.291 6     -2080.305          41.000    21419128.352 6  87707760.804 6     -1621.017          41.000
G31  21735148.109 8 114218970.298 8     -1936.750          51.000    21735146.398 8  89001789.415 8     -1509.156          51.000
R15  20713359.828 8 110685892.698 8     -3321.086          49.000    20713363.422 7  86089028.454 7     -2583.070          44.000
R16  19373028.734 6 103487231.564 6       717.336          41.000    19373031.820 6  80490085.544 6       557.925          38.000
R17  20886649.461 4 111768680.230 4     -3114.852          29.000
R18  19245574.188 8 102734302.332 8        94.449          50.000    19245577.898 7  79904431.250 7        73.461          47.000
R19  21598813.133 5 115539096.716 5      3158.766          34.000    21598819.789 7  89863740.387 7      2456.818          42.000
C05  39634778.062 6 206388688.978 6        20.547          36.000    39634777.891 6 159592824.713 6        15.317          37.000
C27  22759931.727 7 118516905.511 7     -2071.641          45.000
C29  25074437.898 7 130569211.392 7      2746.121          42.000
C30  21646952.695 8 112721474.581 8       710.359          51.000
E02  26174517.727 7 137547984.735 7     -2671.105          46.000    26174525.289 8 105393940.010 8     -2046.730          49.000
E15  24410599.406 8 128278544.594 8      2125.039          51.000    24410601.703 8  98291428.929 8      1628.304          50.000
E30  22163135.508 8 116468060.425 8      -643.223          51.000    22163136.375 8  89241764.038 8      -492.886          51.000
> 2020 05 16 12 33  0.0000000  0 17        .000000000000
G18  20594965.102 8 108227308.329 8      1400.324          51.000    20594964.516 8  84332990.769 8      1091.162          49.000
G21  20879488.078 8 109722520.017 8      1165.066          51.000    20879487.414 8  85498088.128 8       907.844          50.000
G25  23415869.992 7 123051206.719 7     -3236.426          44.000    23415872.750 7  95884073.037 7     -2521.893          44.000
G29  21431032.609 6 112620838.148 6     -2088.988          40.000    21431031.648 7  87756502.485 7     -1627.783          42.000
G31  21746256.070 8 114277341.370 8     -1953.852          51.000    21746253.188 8  89047273.325 8     -1522.482          51.000
R15  20732056.422 8 110785808.878 8     -3339.234          48.000    20732059.883 6  86166740.916 6     -2597.188          40.000
R16  19369077.273 7 103466120.827 7       690.973          42.000    19369080.078 6  80473666.092 6       537.423          38.000
R17  20904142.430 5 111862294.792 5     -3124.316          31.000
R18  19245104.492 8 102731795.741 8        73.371          49.000    19245108.102 7  79902481.700 7        57.066          46.000
R19  21581140.008 5 115444563.291 5      3144.805          32.000    21581146.688 7  89790214.365 7      2445.959          42.000
C05  39634671.398 6 206388133.469 6        18.332          36.000    39634671.195 6 159592395.131 6        13.910          37.000
C27  22771892.125 7 118579186.853 7     -2079.562          45.000
C29  25058637.266 7 130486931.632 7      2740.043          43.000
C30  21642897.594 8 112700359.409 8       698.148          51.000
E02  26189789.477 7 137628239.462 7     -2678.430          47.000    26189796.461 8 105455433.882 8     -2052.252          49.000
E15  24398500.000 8 128214963.433 8      2114.605          51.000    24398501.195 8  98242710.953 8      1620.309          49.000
E30  22166847.578 8 116487566.791 8      -656.281          51.000    22166848.766 8  89256710.446 8      -502.847          51.000
> 2020 05 16 12 33 30.0000000  0 17        .000000000000
G18  20587022.617 8 108185569.748 8      1382.035          51.000    20587021.953 8  84300467.219 8      1076.914          49.000
G21  20872883.062 8 109687808.150 8      1148.625          51.000    20872882.219 8  85471039.912 8       895.032          50.000
G25  23434364.852 7 123148394.312 7     -3242.984          46.000    23434366.875 7  95959803.573 7     -2527.004          46.000
G29  21442978.781 6 112683614.704 6     -2096.250          37.000    21442977.484 6  87805419.310 6     -1633.442          37.000
G31  21757454.031 8 114336187.649 8     -1969.555          51.000    21757450.953 8  89093127.531 8     -1534.718          51.000
R15  20750846.766 8 110886224.862 8     -3355.496          49.000    20750850.125 7  86244842.168 7     -2609.830          43.000
R16  19365265.086 7 103445754.954 7       666.375          42.000    19365267.695 6  80457825.959 6       518.289          38.000
R17  20921683.914 4 111956165.316 4     -3134.008          28.000
R18  19244745.461 8 102729879.179 8        54.043          49.000    19244748.914 7  79900991.045 7        42.033          46.000
R19  21563540.102 5 115350417.987 5      3131.570          32.000    21563545.273 6  89716990.297 6      2435.669          40.000
C05  39634566.094 5 206387585.925 5        18.102          35.000    39634565.953 6 159591971.364 6        13.816          37.000
C27  22783890.602 7 118641665.998 7     -2085.938          44.000
C29  25042865.648 7 130404803.393 7      2735.051          43.000
C30  21638905.734 8 112679573.688 8       687.277          51.000
E02  26205095.742 8 137708672.858 8     -2684.188          48.000    26205101.719 8 105517064.672 8     -2056.703          50.000
E15  24386452.219 8 128151657.457 8      2105.434          51.000    24386452.430 8  98194203.840 8      1613.188          49.000
E30  22170626.812 8 116507426.724 8      -668.082          51.000    22170628.055 8  89271927.788 8      -511.868          51.000
> 2020 05 16 12 34  0.0000000  0 17        .000000000000
G18  20579184.000 8 108144376.595 8      1364.184          51.000    20579183.211 8  84268368.666 8      1063.000          49.000
G21  20866371.016 8 109653585.121 8      1132.723          50.000    20866370.016 8  85444372.617 8       882.641          50.000
G25  23452893.781 7 123245762.881 7     -3248.434          44.000    23452895.523 7  96035675.135 7     -2531.250          44.000
G29  21454965.531 5 112746605.208 5     -2103.172          35.000    21454964.195 5  87854502.859 5     -1638.835          35.000
G31  21768740.102 8 114395497.601 8     -1984.590          51.000    21768737.805 8  89139343.044 8     -1546.437          51.000
R15  20769729.766 8 110987128.112 8     -3371.402          51.000    20769734.258 7  86323322.445 7     -2622.202          46.000
R16  19361590.797 7 103426125.529 7       642.160          43.000    19361592.609 6  80442558.649 6       499.458          38.000
R17  20939273.734 5 112050278.800 5     -3141.164          33.000
R18  19244494.742 8 102728541.258 8        35.023          49.000    19244498.320 7  79899950.452 7        27.240          46.000
R19  21546012.461 5 115256652.632 5      3119.305          34.000    21546015.172 6  89644061.736 6      2426.129          40.000
C05  39634460.367 6 206387035.351 6        18.410          36.000    39634460.242 6 159591545.975 6        14.565          37.000
C27  22795924.773 7 118704331.979 7     -2091.758          44.000
C29  25027120.992 7 130322817.612 7      2730.570          43.000
C30  21634975.336 8 112659107.425 8       676.980          51.000
E02  26220434.523 8 137789274.453 8     -2689.352          49.000    26220439.148 8 105578824.309 8     -2060.723          49.000
E15  24374454.555 8 128088617.559 8      2096.973          50.000    24374454.930 8  98145900.565 8      1606.801          50.000
E30  22174471.469 8 116527630.778 8      -679.062          51.000    22174472.664 8  89287408.824 8      -520.357          51.000
> 2020 05 16 12 34 30.0000000  0 17        .000000000000
G18  20571457.031 8 108103770.733 8      1345.383          51.000    20571456.258 8  84236727.725 8      1048.350          49.000
G21  20859959.312 8 109619892.010 8      1115.871          50.000    20859958.406 8  85418118.272 8       869.510          50.000
G25  23471464.070 7 123343352.210 7     -3255.062          43.000    23471465.898 7  96111718.722 7     -2536.412          43.000
G29  21467000.141 5 112809849.131 5     -2110.789          34.000    21466999.281 5  87903783.770 5     -1644.771          34.000
G31  21780121.984 8 114455310.181 8     -2000.461          51.000    21780120.445 8  89185950.213 8     -1558.801          51.000
R15  20788712.070 8 111088557.586 8     -3387.934          51.000    20788716.672 7  86402212.008 7     -2635.059          47.000
R16  19358062.281 7 103407276.118 7       616.840          43.000    19358063.539 6  80427897.981 6       479.764          38.000
R17  20956884.781 5 112144499.674 5     -3149.531          34.000
R18  19244360.336 8 102727822.243 8        15.238          49.000    19244363.672 7  79899391.195 7        11.849          46.000
R19  21528563.922 5 115163310.265 5      3105.559          34.000    21528565.633 6  89571462.175 6      2415.434          41.000
C05  39634362.047 6 206386522.779 6        18.273          36.000    39634361.852 6 159591150.420 6        13.970          37.000
C27  22808002.180 7 118767224.018 7     -2098.750          43.000
C29  25011411.750 7 130241015.295 7      2725.328          45.000
C30  21631114.141 8 112639000.784 8       665.816          51.000
E02  26235813.258 8 137870084.320 8     -2695.504          50.000    26235815.945 8 105640743.487 8     -2065.350          49.000
E15  24362516.047 8 128025885.245 8      2087.574          51.000    24362517.805 8  98097832.966 8      1599.561          51.000
E30  22178389.484 8 116548220.151 8      -691.035          51.000    22178391.133 8  89303185.099 8      -529.533          51.000
> 2020 05 16 12 35  0.0000000  0 16        .000000000000
G18  20563822.812 8 108063654.796 8      1332.629          49.000    20563822.500 8  84205468.565 8      1038.415          49.000
G21  20853629.953 8 109586630.943 8      1105.074          51.000    20853628.805 8  85392200.546 8       861.097          50.000
G25  23490057.359 7 123441062.813 7     -3255.367          43.000    23490059.156 7  96187856.822 7     -2536.650          43.000
G31  21791580.398 8 114515524.410 8     -2010.184          51.000    21791579.469 8  89232870.363 8     -1566.380          51.000
R15  20807773.492 8 111190410.490 8     -3398.453          51.000    20807777.641 7  86481430.913 7     -2643.241          47.000
R16  19354661.047 7 103389108.471 7       597.910          43.000    19354662.141 6  80413767.567 6       465.041          39.000
R17  20974589.062 6 112239123.594 6     -3151.664          36.000
R18  19244322.570 8 102727620.856 8         1.812          48.000    19244325.812 7  79899234.573 7         1.410          45.000
R19  21511174.469 5 115070292.249 5      3099.102          33.000    21511177.086 6  89499114.838 6      2410.412          41.000
C05  39634252.477 5 206385952.376 5        23.531          35.000    39634252.266 6 159590709.358 6        18.326          37.000
C27  22820104.508 7 118830243.312 7     -2099.227          43.000
C29  24995719.516 7 130159299.694 7      2726.023          46.000
C30  21627303.297 8 112619156.052 8       660.680          51.000
E02  26251212.812 8 137951003.304 8     -2695.527          51.000    26251212.891 8 105702746.285 8     -2065.464          48.000
E15  24350618.711 8 127963362.775 8      2084.203          51.000    24350621.984 8  98049926.158 8      1596.972          51.000
E30  22182362.109 8 116569096.806 8      -697.062          51.000    22182364.578 8  89319181.489 8      -534.092          51.000
> 2020 05 16 12 35 30.0000000  0 16        .000000000000
G18  20556304.695 8 108024149.279 8      1306.148          49.000    20556304.805 8  84174685.085 8      1017.781          49.000
G21  20847405.750 8 109553922.152 8      1080.605          51.000    20847404.273 8  85366713.198 8       842.030          50.000
G25  23508696.297 7 123539013.238 7     -3269.496          42.000    23508698.359 7  96264181.779 7     -2547.662          42.000
G31  21803137.664 8 114576258.294 8     -2033.566          51.000    21803137.172 8  89280195.464 8     -1584.597          51.000
R15  20826935.070 7 111292805.537 7     -3422.648          47.000    20826939.445 7  86561071.466 7     -2662.063          45.000
R16  19351410.469 7 103371745.559 7       564.984          43.000    19351411.578 6  80400263.078 6       439.432          39.000
R17  20992323.141 5 112333995.747 5     -3167.547          35.000
R18  19244404.492 8 102728057.129 8       -25.539          48.000    19244407.414 7  79899573.916 7       -19.864          45.000
R19  21493869.352 6 114977721.773 6      3077.758          36.000    21493871.742 6  89427115.559 6      2393.812          41.000
C05  39634154.422 6 206385441.601 6        15.543          36.000    39634154.227 6 159590314.385 6        12.091          37.000
C27  22832254.258 7 118893507.096 7     -2113.391          44.000
C29  24980066.867 7 130077789.846 7      2713.090          45.000
C30  21623565.055 8 112599691.371 8       642.031          51.000
E02  26266655.289 8 138032150.151 8     -2709.090          51.000    26266653.531 7 105764923.647 7     -2075.838          47.000
E15  24338784.844 8 127901170.359 8      2067.109          51.000    24338789.430 8  98002272.233 8      1583.910          51.000
E30  22186412.219 8 116590380.649 8      -716.676          51.000    22186415.125 8  89335489.868 8      -549.168          51.000
> 2020 05 16 12 36  0.0000000  0 17        .000000000000
G18  20548868.172 8 107985070.721 8      1291.363          50.000    20548868.352 8  84144234.279 8      1006.257          48.000
G21  20841251.188 8 109521581.224 8      1067.812          51.000    20841249.359 8  85341512.525 8       832.062          48.000
G25  23527345.789 7 123637017.823 7     -3271.656          42.000    23527348.398 7  96340548.938 7     -2549.346          42.000
G29  21503321.477 5 113000716.718 5     -2131.293          35.000
G31  21814758.133 8 114637325.142 8     -2045.230          51.000    21814758.000 8  89327780.025 8     -1593.686          51.000
R15  20846161.383 7 111395552.409 7     -3434.988          47.000    20846166.250 7  86640985.684 7     -2671.658          43.000
R16  19348275.625 7 103355001.931 7       543.461          44.000    19348277.125 6  80387240.235 6       422.692          40.000
R17  21010069.672 5 112428975.124 5     -3172.090          30.000    21010079.484 4  87444889.693 4     -2467.187          25.000
R18  19244570.336 8 102728942.265 8       -41.242          48.000    19244573.008 7  79900262.370 7       -32.077          45.000
R19  21476614.805 6 114885412.492 6      3068.277          39.000    21476615.406 6  89355319.497 6      2386.438          41.000
C05  39634032.555 6 206384807.345 6        18.555          36.000    39634032.305 6 159589824.325 6        14.465          37.000
C27  22844415.914 7 118956831.310 7     -2115.852          44.000
C29  24964418.438 7 129996303.606 7      2711.512          45.000
C30  21619864.492 8 112580423.623 8       634.855          51.000
E02  26282105.203 8 138113339.653 8     -2711.125          51.000    26282102.195 7 105827133.701 7     -2077.335          46.000
E15  24326978.938 8 127839124.194 8      2061.637          51.000    24326984.234 8  97954730.376 8      1579.702          51.000
E30  22190504.852 8 116611887.528 8      -724.773          51.000    22190507.492 8  89351969.158 8      -555.301          51.000
> 2020 05 16 12 36 30.0000000  0 17        .000000000000
G18  20541569.383 8 107946715.918 8      1273.719          50.000    20541569.469 8  84114347.423 8       992.508          49.000
G21  20835223.148 8 109489904.281 8      1052.094          51.000    20835220.531 8  85316829.203 8       819.813          48.000
G25  23546061.859 7 123735371.500 7     -3276.820          42.000    23546064.891 7  96417188.095 7     -2553.370          42.000
G29  21515519.617 5 113064856.489 5     -2136.648          34.000    21515517.469 5  88102450.956 5     -1664.921          35.000
G31  21826498.094 8 114699018.828 8     -2059.625          51.000    21826497.891 8  89375853.030 8     -1604.903          51.000
R15  20865510.852 8 111498949.417 8     -3449.957          51.000    20865514.969 7  86721405.518 7     -2683.303          44.000
R16  19345313.531 7 103339179.983 7       519.312          44.000    19345315.320 6  80374934.268 6       403.910          40.000
R17  21027891.766 5 112524359.908 5     -3178.500          32.000
R18  19244876.336 8 102730575.294 8       -59.531          48.000    19244878.789 7  79901532.510 7       -46.302          45.000
R19  21459465.234 6 114793666.651 6      3056.320          39.000    21459464.820 7  89283961.683 7      2377.138          43.000
C05  39633943.242 5 206384342.309 5        19.609          35.000    39633942.984 6 159589465.866 6        15.589          36.000
C27  22856645.008 7 119020507.853 7     -2121.023          44.000
C29  24948830.289 7 129915134.772 7      2707.367          44.000
C30  21616258.602 8 112561645.711 8       624.977          51.000
E02  26297619.352 8 138194866.905 8     -2715.941          51.000    26297615.602 7 105889602.567 7     -2081.019          45.000
E15  24315256.789 8 127777520.812 8      2053.418          51.000    24315262.328 8  97907527.794 8      1573.389          51.000
E30  22194696.500 8 116633913.650 8      -735.574          51.000    22194698.578 8  89368846.314 8      -563.619          51.000
> 2020 05 16 12 37  0.0000000  0 16        .000000000000
G18  20534365.461 8 107908859.122 8      1253.211          50.000    20534365.789 8  84084848.646 8       976.528          49.000
G21  20829278.477 8 109458665.071 8      1033.648          51.000    20829275.664 8  85292486.975 8       805.440          49.000
G25  23564800.852 7 123833846.375 7     -3284.680          42.000    23564804.156 7  96493921.709 7     -2559.494          42.000
G29  21527753.898 6 113129150.162 6     -2146.164          37.000    21527752.523 6  88152549.932 6     -1672.333          38.000
G31  21838314.078 8 114761110.502 8     -2076.793          51.000    21838313.250 8  89424236.154 8     -1618.280          51.000
R15  20884939.422 8 111602763.150 8     -3467.758          51.000    20884942.484 7  86802149.447 7     -2697.148          46.000
R16  19342481.109 7 103324051.159 7       492.223          44.000    19342483.461 6  80363167.383 6       382.840          41.000
R18  19245279.133 7 102732724.899 7       -80.488          47.000    19245281.586 7  79903204.425 7       -62.602          45.000
R19  21442376.742 6 114702255.334 6      3040.941          37.000    21442377.102 7  89212864.041 7      2365.180          43.000
C05  39633843.609 5 206383823.536 5        17.598          35.000    39633843.438 6 159589062.500 6        13.792          36.000
C27  22868897.594 7 119084310.866 7     -2129.230          43.000
C29  24933259.727 7 129834059.324 7      2700.699          44.000
C30  21612703.555 8 112543132.701 8       612.324          51.000
E02  26313154.539 8 138276504.440 8     -2723.375          51.000    26313150.609 7 105952155.928 7     -2086.664          45.000
E15  24303575.086 8 127716134.179 8      2042.305          51.000    24303580.656 8  97860491.283 8      1564.880          51.000
E30  22198943.828 8 116656232.627 8      -749.156          51.000    22198945.664 8  89385947.844 8      -574.020          51.000
> 2020 05 16 12 37 30.0000000  0 16        .000000000000
G18  20527265.102 8 107871546.207 8      1234.043          50.000    20527265.688 8  84055773.681 8       961.592          50.000
G21  20823425.680 8 109427908.921 8      1016.418          51.000    20823423.211 8  85268521.170 8       792.014          49.000
G25  23583571.289 6 123932486.308 6     -3291.391          41.000    23583575.164 6  96570783.935 6     -2564.720          41.000
G29  21540025.469 5 113193596.778 5     -2153.562          33.000    21540025.086 5  88202803.062 5     -1678.107          34.000
G31  21850213.820 8 114823643.187 8     -2092.500          50.000    21850212.359 8  89472962.917 8     -1630.519          50.000
R15  20904453.633 8 111707036.790 8     -3484.160          50.000    20904456.156 8  86883251.109 8     -2709.902          48.000
R16  19339787.320 7 103309662.094 7       466.645          45.000    19339789.969 6  80351975.894 6       362.946          41.000
R18  19245786.750 7 102735435.188 7      -100.473          47.000    19245789.336 7  79905312.427 7       -78.145          44.000
R19  21425357.289 5 114611225.623 5      3027.344          35.000    21425360.320 7  89142063.128 7      2354.598          43.000
C05  39633742.609 6 206383296.130 6        17.312          36.000    39633742.398 6 159588654.684 6        13.321          38.000
C27  22881182.344 7 119148283.623 7     -2135.680          43.000
C29  24917716.133 7 129753122.391 7      2695.055          43.000
C30  21609207.570 8 112524928.800 8       600.918          51.000
E02  26328719.141 8 138358296.419 8     -2729.730          51.000    26328715.734 7 106014827.632 7     -2091.591          45.000
E15  24291942.492 8 127655009.903 8      2032.402          51.000    24291948.000 8  97813655.783 8      1557.295          51.000
E30  22203255.219 8 116678889.728 8      -761.566          51.000    22203256.977 8  89403308.443 8      -583.517          51.000
> 2020 05 16 12 38  0.0000000  0 16        .000000000000
G18  20520270.570 8 107834789.382 8      1216.258          50.000    20520270.984 8  84027132.005 8       947.733          50.000
G21  20817667.047 8 109397647.466 8      1000.852          51.000    20817664.891 8  85244940.818 8       779.884          50.000
G25  23602374.766 7 124031301.546 7     -3296.406          42.000    23602378.719 7  96647782.748 7     -2568.631          42.000
G29  21552337.477 5 113258296.125 5     -2160.285          33.000    21552337.688 5  88253218.302 5     -1683.330          33.000
G31  21862198.859 8 114886626.219 8     -2106.652          49.000    21862197.250 8  89522040.594 8     -1641.547          49.000
R15  20924054.211 7 111811778.586 7     -3498.879          46.000    20924057.398 7  86964716.960 7     -2721.347          47.000
R16  19337234.766 7 103296026.333 7       442.426          44.000    19337237.594 7  80341370.314 7       344.109          42.000
R18  19246401.375 7 102738716.221 7      -118.629          46.000    19246403.500 7  79907864.346 7       -92.267          43.000
R19  21408413.461 6 114520590.538 6      3014.988          38.000    21408416.633 7  89071569.177 7      2344.991          42.000
C05  39633642.000 6 206382773.355 6        17.699          36.000    39633641.805 6 159588248.127 6        13.822          37.000
C27  22893501.547 7 119212436.058 7     -2141.242          43.000
C29  24902201.766 7 129672335.834 7      2690.645          44.000
C30  21605773.336 8 112507044.915 8       591.074          51.000
E02  26344314.852 8 138440253.362 8     -2734.332          50.000    26344312.570 7 106077625.740 7     -2095.090          45.000
E15  24280361.914 8 127594159.889 8      2024.117          51.000    24280366.984 8  97767030.448 8      1550.944          51.000
E30  22207633.148 8 116701896.532 8      -772.473          51.000    22207634.391 8  89420937.016 8      -591.850          51.000
> 2020 05 16 12 38 30.0000000  0 17        .000000000000
G18  20513380.273 8 107798580.143 8      1197.578          51.000    20513380.672 8  83998917.017 8       933.178          50.000
G21  20812000.922 8 109367871.745 8       984.199          51.000    20811999.102 8  85221738.953 8       766.908          50.000
G25  23621209.852 7 124130281.583 7     -3302.457          43.000    23621212.953 7  96724910.016 7     -2573.343          43.000
G29  21564687.555 5 113323205.371 5     -2166.258          31.000    21564688.078 5  88303777.661 5     -1687.990          32.000
G31  21874267.375 8 114950047.420 8     -2121.691          49.000    21874265.938 8  89571459.688 8     -1653.266          49.000
R15  20943738.875 7 111916976.438 7     -3514.449          47.000    20943743.688 7  87046537.579 7     -2733.457          46.000
R16  19334821.570 7 103283135.941 7       417.113          44.000    19334824.898 7  80331344.442 7       324.421          42.000
R17  21099535.641 5 112907876.435 5     -3210.527          31.000
R18  19247120.867 7 102742556.794 7      -137.617          47.000    19247123.008 7  79910851.464 7      -107.039          43.000
R19  21391543.703 6 114430341.482 6      3001.605          39.000    21391544.859 7  89001375.497 7      2334.582          42.000
C05  39633539.914 6 206382240.058 6        17.754          36.000    39633539.602 6 159587835.750 6        13.671          38.000
C27  22905853.633 7 119276757.692 7     -2147.125          45.000
C29  24886714.797 7 129591690.913 7      2685.562          44.000
C30  21602398.539 8 112489471.445 8       580.363          51.000
E02  26359939.727 8 138522365.113 8     -2739.898          48.000    26359939.297 7 106140542.514 7     -2099.475          46.000
E15  24268833.039 8 127533575.417 8      2014.668          51.000    24268836.734 8  97720608.607 8      1543.707          51.000
E30  22212075.961 8 116725243.949 8      -784.289          51.000    22212076.734 8  89438826.591 8      -600.916          51.000
> 2020 05 16 12 39  0.0000000  0 16        .000000000000
G18  20506598.398 8 107762940.271 8      1179.102          51.000    20506598.773 8  83971145.687 8       918.780          51.000
G21  20806431.320 8 109338602.986 8       967.773          51.000    20806429.633 8  85198932.148 8       754.109          49.000
G25  23640080.422 7 124229446.279 7     -3307.988          44.000    23640082.469 7  96802181.137 7     -2577.653          44.000
G29  21577078.742 5 113388326.315 5     -2173.297          32.000    21577080.359 5  88354525.544 5     -1693.478          33.000
G31  21886423.266 8 115013925.899 8     -2136.285          51.000    21886421.547 8  89621235.104 8     -1664.638          51.000
R15  20963514.516 8 112022648.959 8     -3529.590          51.000    20963518.750 7  87128727.329 7     -2745.240          44.000
R16  19332552.117 7 103271013.402 7       391.918          45.000    19332555.344 7  80321915.792 7       304.825          42.000
R18  19247948.883 7 102746976.915 7      -156.379          46.000    19247951.008 7  79914289.334 7      -121.628          42.000
R19  21374749.555 6 114340501.293 6      2988.609          38.000    21374750.820 7  88931499.836 7      2324.477          44.000
C05  39633440.203 6 206381722.113 6        17.449          36.000    39633439.914 6 159587433.675 6        13.635          37.000
C27  22918242.188 7 119341268.007 7     -2152.895          44.000
C29  24871259.266 7 129511209.005 7      2680.836          44.000
C30  21599087.133 8 112472228.762 8       569.875          51.000
E02  26375597.609 7 138604651.776 7     -2745.066          47.000    26375599.383 8 106203593.320 8     -2103.312          48.000
E15  24257359.547 8 127473277.942 8      2005.793          51.000    24257361.969 8  97674406.693 8      1536.960          51.000
E30  22216587.508 8 116748953.227 8      -795.609          51.000    22216588.594 8  89456993.419 8      -609.650          51.000
> 2020 05 16 12 39 30.0000000  0 16        .000000000000
G18  20499920.789 8 107727848.397 8      1160.234          50.000    20499920.945 8  83943801.361 8       904.079          50.000
G21  20800953.891 8 109309818.778 8       951.043          50.000    20800952.156 8  85176502.909 8       741.072          50.000
G25  23658981.930 7 124328772.325 7     -3313.941          45.000    23658983.805 7  96879577.994 7     -2582.292          45.000
G29  21589506.336 5 113453635.287 5     -2180.141          34.000    21589506.531 5  88405415.670 5     -1698.811          34.000
G31  21898661.648 8 115078237.539 8     -2151.238          51.000    21898659.820 8  89671348.028 8     -1676.290          51.000
R15  20983374.844 8 112128770.639 8     -3545.273          51.000    20983377.922 7  87211266.345 7     -2757.438          44.000
R16  19330422.539 7 103259637.876 7       366.297          45.000    19330425.484 7  80313068.154 7       284.898          42.000
R18  19248880.969 7 102751952.411 7      -175.555          47.000    19248883.203 7  79918159.178 7      -136.539          42.000
R19  21358027.406 6 114251049.065 6      2974.883          38.000    21358029.672 7  88861925.898 7      2313.798          44.000
C05  39633338.625 6 206381193.492 6        17.613          36.000    39633338.477 6 159587024.938 6        13.460          37.000
C27  22930662.609 7 119405943.717 7     -2158.945          42.000
C29  24855830.852 7 129430868.696 7      2675.371          44.000
C30  21595835.297 8 112455294.585 8       558.949          51.000
E02  26391284.164 7 138687090.332 7     -2750.961          46.000    26391288.453 8 106266760.546 8     -2107.870          50.000
E15  24245936.805 8 127413245.915 8      1996.215          51.000    24245938.594 8  97628408.188 8      1529.552          51.000
E30  22221163.602 8 116773002.420 8      -807.766          51.000    22221165.344 8  89475420.687 8      -618.904          51.000
> 2020 05 16 12 40  0.0000000  0 16        .000000000000
G18  20493350.109 8 107693318.957 8      1141.777          50.000    20493350.133 8  83916895.322 8       889.697          50.000
G21  20795571.250 8 109281533.637 8       934.766          50.000    20795569.648 8  85154462.563 8       728.392          50.000
G25  23677916.633 7 124428272.267 7     -3319.320          46.000    23677918.914 7  96957110.359 7     -2586.483          46.000
G29  21601973.328 6 113519151.267 6     -2187.285          37.000    21601972.883 6  88456467.055 6     -1704.381          37.000
G31  21910984.500 8 115142993.753 8     -2165.746          51.000    21910982.422 8  89721807.390 8     -1687.597          51.000
R15  21003321.047 8 112235352.537 8     -3560.184          51.000    21003323.141 7  87294163.296 7     -2769.032          45.000
R16  19328435.602 7 103249024.205 7       341.320          45.000    19328438.703 7  80304813.071 7       265.471          43.000
R18  19249919.523 7 102757495.697 7      -193.965          47.000    19249921.836 7  79922470.634 7      -150.862          42.000
R19  21341380.414 6 114161999.662 6      2961.910          38.000    21341383.172 7  88792665.297 7      2303.711          44.000
C05  39633238.070 6 206380670.020 6        17.484          36.000    39633238.000 6 159586620.136 6        13.559          37.000
C27  22943117.188 6 119470797.228 6     -2164.738          40.000
C29  24840432.344 7 129350684.150 7      2670.449          43.000
C30  21592645.195 8 112438682.121 8       548.543          51.000
E02  26407002.391 7 138769693.701 7     -2755.965          46.000    26407008.227 8 106330054.052 8     -2111.890          51.000
E15  24234567.031 8 127353493.645 8      1987.188          51.000    24234568.789 8  97582624.008 8      1522.644          51.000
E30  22225807.164 8 116797405.406 8      -819.199          51.000    22225808.953 8  89494119.069 8      -627.710          51.000
> 2020 05 16 12 40 30.0000000  0 16        .000000000000
G18  20486887.617 8 107659358.152 8      1123.082          51.000    20486887.516 8  83890432.379 8       875.129          49.000
G21  20790284.672 8 109253752.835 8       918.047          51.000    20790283.141 8  85132815.235 8       715.361          50.000
G25  23696885.266 7 124527950.352 7     -3325.008          47.000    23696887.828 7  97034781.534 7     -2590.918          47.000
G29  21614480.219 5 113584878.289 5     -2194.246          34.000    21614478.742 5  88507682.921 5     -1709.799          35.000
G31  21923392.297 8 115208197.853 8     -2180.371          51.000    21923390.258 8  89772615.747 8     -1698.990          51.000
R15  21023353.695 8 112342397.357 8     -3575.281          51.000    21023356.039 7  87377420.300 7     -2780.774          47.000
R16  19326592.836 7 103239179.778 7       315.891          45.000    19326595.867 7  80297156.294 7       245.693          43.000
R18  19251065.070 7 102763610.827 7      -212.742          47.000    19251067.531 7  79927226.839 7      -165.466          44.000
R19  21324809.969 6 114073360.312 6      2948.195          38.000    21324811.609 7  88723723.626 7      2293.044          42.000
C05  39633139.555 6 206380156.993 6        17.363          36.000    39633139.406 6 159586223.423 6        13.641          37.000
C27  22955606.125 6 119535832.633 6     -2170.141          39.000
C29  24825064.508 7 129270661.277 7      2665.246          43.000
C30  21589517.680 8 112422396.298 8       537.934          51.000
E02  26422753.328 7 138852466.496 7     -2761.355          46.000    26422759.766 8 106393477.323 8     -2115.796          51.000
E15  24223250.773 8 127294027.068 8      1978.043          50.000    24223253.359 8  97537058.719 8      1515.616          51.000
E30  22230519.328 8 116822167.854 8      -830.820          51.000    22230520.727 8  89513092.897 8      -636.615          51.000
> 2020 05 16 12 41  0.0000000  0 16        .000000000000
G18  20480530.211 8 107625949.659 8      1104.082          50.000    20480529.852 8  83864399.787 8       860.324          49.000
G21  20785090.906 8 109226459.148 8       901.309          51.000    20785089.266 8  85111547.449 8       702.318          49.000
G25  23715884.070 7 124627788.367 7     -3330.965          45.000    23715886.812 7  97112577.339 7     -2595.560          45.000
G29  21627024.406 6 113650798.437 6     -2200.980          37.000    21627022.781 6  88559049.203 6     -1715.047          36.000
G31  21935881.445 8 115273830.359 8     -2195.195          50.000    21935879.641 8  89823757.946 8     -1710.545          50.000
R15  21043468.969 8 112449884.631 8     -3590.559          51.000    21043471.516 7  87461021.443 7     -2792.657          46.000
R16  19324891.117 7 103230088.291 7       290.133          45.000    19324894.219 7  80290085.134 7       225.659          44.000
R18  19252314.117 7 102770278.780 7      -231.602          46.000    19252317.391 7  79932413.039 7      -180.135          43.000
R19  21308312.906 6 113985114.392 6      2934.320          38.000    21308314.539 7  88655087.948 7      2282.249          43.000
C05  39633039.812 6 206379637.583 6        17.297          36.000    39633039.586 6 159585821.808 6        13.155          37.000
C27  22968126.773 6 119601031.728 6     -2176.695          38.000
C29  24809724.906 7 129190783.726 7      2659.645          44.000
C30  21586449.766 8 112406419.873 8       527.070          51.000
E02  26438533.656 7 138935390.758 7     -2766.957          47.000    26438539.930 8 106457016.657 8     -2120.121          51.000
E15  24211984.672 8 127234829.732 8      1968.379          48.000    24211988.977 8  97491699.696 8      1508.259          51.000
E30  22235296.688 8 116847272.906 8      -842.871          51.000    22235298.297 8  89532329.239 8      -645.842          51.000
> 2020 05 16 12 41 30.0000000  0 16        .000000000000
G18  20474279.938 8 107593106.080 8      1085.746          49.000    20474279.820 8  83838807.418 8       846.039          49.000
G21  20779992.227 8 109199665.121 8       885.152          51.000    20779990.578 8  85090669.000 8       689.729          49.000
G25  23734914.836 7 124727797.042 7     -3336.082          44.000    23734917.984 7  97190506.119 7     -2599.547          44.000
G29  21639607.219 6 113716922.418 6     -2207.082          37.000    21639605.820 6  88610565.336 6     -1719.838          36.000
G31  21948454.109 8 115339901.482 8     -2209.340          51.000    21948452.891 8  89875241.939 8     -1721.564          51.000
R15  21063668.414 8 112557823.779 8     -3605.156          51.000    21063670.711 7  87544974.038 7     -2804.010          45.000
R16  19323332.500 7 103221763.286 7       264.965          45.000    19323335.766 7  80283610.111 7       206.084          44.000
R18  19253668.773 7 102777509.881 7      -250.168          46.000    19253671.648 7  79938037.211 7      -194.575          43.000
R19  21291892.539 6 113897275.435 6      2921.477          38.000    21291894.297 7  88586768.777 7      2272.260          43.000
C05  39632941.219 6 206379123.710 6        17.645          36.000    39632940.781 6 159585424.435 6        13.496          37.000
C27  22980680.375 5 119666405.074 5     -2181.398          34.000
C29  24794415.781 7 129111063.831 7      2654.953          44.000
C30  21583443.484 8 112390764.299 8       516.809          51.000
E02  26454345.234 8 139018477.539 8     -2771.941          49.000    26454351.172 8 106520680.546 8     -2123.958          51.000
E15  24200771.758 8 127175914.085 8      1959.383          48.000    24200777.930 8  97446556.506 8      1501.387          51.000
E30  22240141.516 8 116872732.729 8      -854.293          51.000    22240143.734 8  89551837.396 8      -654.567          51.000
> 2020 05 16 12 42  0.0000000  0 16        .000000000000
G18  20468137.305 8 107560827.291 8      1066.609          50.000    20468137.523 8  83813655.113 8       831.124          50.000
G21  20774988.383 8 109173369.729 8       868.281          51.000    20774986.844 8  85070179.109 8       676.583          50.000
G25  23753977.305 7 124827974.419 7     -3341.941          44.000    23753980.633 7  97268566.337 7     -2604.110          44.000
G29  21652228.438 6 113783248.304 6     -2214.059          39.000
G31  21961109.539 8 115406407.425 8     -2223.934          50.000    21961109.219 8  89927064.742 8     -1732.935          50.000
R15  21083951.039 8 112666210.853 8     -3620.297          51.000    21083953.516 7  87629275.008 7     -2815.789          44.000
R16  19321917.586 7 103214205.178 7       238.926          46.000    19321920.789 7  80277731.579 7       185.831          44.000
R18  19255128.461 7 102785302.110 7      -269.051          46.000    19255131.555 7  79944097.848 7      -209.262          43.000
R19  21275548.289 6 113809843.968 6      2907.582          39.000    21275549.875 7  88518766.554 7      2261.453          42.000
C05  39632843.328 6 206378614.519 6        17.215          36.000    39632842.953 6 159585030.700 6        13.142          37.000
C27  22993266.961 5 119731950.495 5     -2187.238          33.000
C29  24779137.258 7 129031501.293 7      2649.320          45.000
C30  21580498.227 8 112375428.309 8       505.941          51.000
E02  26470187.094 7 139101725.119 7     -2777.555          47.000    26470193.094 8 106584467.614 8     -2128.214          51.000
E15  24189613.438 8 127117279.728 8      1949.848          50.000    24189620.039 8  97401628.863 8      1494.030          51.000
E30  22245053.719 8 116898546.610 8      -866.316          51.000    22245056.453 8  89571616.832 8      -663.759          51.000
> 2020 05 16 12 42 30.0000000  0 17        .000000000000
G18  20462100.336 8 107529102.896 8      1048.539          50.000    20462100.586 8  83788934.795 8       817.043          50.000
G21  20770077.477 8 109147562.158 8       852.477          51.000    20770075.672 8  85050069.325 8       664.267          50.000
G25  23773070.172 7 124928308.242 7     -3346.531          45.000    23773072.953 7  97346748.475 7     -2607.690          45.000
G29  21664886.172 6 113849764.144 6     -2219.895          37.000    21664885.617 5  88714099.421 5     -1729.791          35.000
G31  21973845.172 8 115473334.907 8     -2237.488          49.000    21973845.367 8  89979216.023 8     -1743.497          49.000
R15  21104314.008 8 112775031.721 8     -3634.320          49.000    21104317.703 7  87713913.398 7     -2826.694          45.000
R16  19320644.430 7 103207404.052 7       214.449          46.000    19320647.430 7  80272441.814 7       166.794          44.000
R17  21244796.500 4 113685196.740 4     -3265.262          29.000
R18  19256690.578 7 102793642.442 7      -286.898          45.000    19256694.203 7  79950584.761 7      -223.146          43.000
R19  21259277.742 6 113722809.875 6      2894.652          38.000    21259279.312 7  88451073.417 7      2251.396          42.000
C05  39632744.336 6 206378099.201 6        17.262          36.000    39632743.930 6 159584632.216 6        13.680          37.000
C27  23005885.555 6 119797656.076 6     -2192.664          37.000
C29  24763887.023 7 128952085.743 7      2645.109          45.000
C30  21577612.156 8 112360400.539 8       496.172          51.000
E02  26486056.656 7 139185121.631 7     -2781.984          45.000    26486063.117 8 106648368.778 8     -2131.605          51.000
E15  24178507.586 8 127058916.145 8      1941.352          51.000    24178513.398 8  97356908.738 8      1487.538          51.000
E30  22250031.484 8 116924703.701 8      -877.195          51.000    22250034.227 8  89591659.262 8      -672.167          51.000
> 2020 05 16 12 43  0.0000000  0 16        .000000000000
G18  20456170.805 8 107497943.469 8      1029.395          51.000    20456171.188 8  83764654.734 8       802.126          51.000
G21  20765261.305 8 109122252.632 8       835.367          51.000    20765259.188 8  85030347.610 8       650.935          50.000
G25  23792194.805 7 125028807.400 7     -3352.586          47.000    23792196.969 7  97425059.453 7     -2612.405          47.000
G29  21677581.656 5 113916478.669 5     -2227.309          34.000    21677580.281 5  88766084.727 5     -1735.568          33.000
G31  21986662.758 8 115540691.971 8     -2252.312          50.000    21986663.133 8  90031702.033 8     -1755.052          50.000
R15  21124760.117 8 112884293.582 8     -3649.246          50.000    21124764.828 7  87798894.864 7     -2838.303          47.000
R16  19319515.031 7 103201370.706 7       188.273          47.000    19319518.023 7  80267749.206 7       146.435          44.000
R18  19258357.297 7 102802539.187 7      -305.590          44.000    19258360.711 7  79957504.441 7      -237.681          43.000
R19  21243082.969 5 113636184.556 5      2880.602          35.000    21243085.633 7  88383698.201 7      2240.468          43.000
C05  39632645.953 5 206377586.680 5        17.402          35.000    39632645.719 6 159584236.681 6        13.327          37.000
C27  23018537.352 6 119863530.302 6     -2198.559          38.000
C29  24748666.836 7 128872827.591 7      2639.453          46.000
C30  21574787.406 8 112345690.531 8       485.148          51.000
E02  26501956.102 7 139268676.172 7     -2787.680          45.000    26501962.961 8 106712391.047 8     -2136.026          51.000
E15  24167455.648 8 127000833.913 8      1931.484          51.000    24167460.086 8  97312404.218 8      1479.963          51.000
E30  22255076.633 8 116951214.172 8      -889.477          51.000    22255079.094 8  89611972.470 8      -681.577          51.000
> 2020 05 16 12 43 30.0000000  0 16        .000000000000
G18  20450348.375 8 107467345.068 8      1010.785          51.000    20450348.719 8  83740811.828 8       787.625          51.000
G21  20760538.852 8 109097436.448 8       819.227          51.000    20760536.805 8  85011010.336 8       638.358          51.000
G25  23811349.773 7 125129466.065 7     -3357.656          46.000    23811352.391 7  97503494.701 7     -2616.359          46.000
G29  21690313.945 5 113983386.299 5     -2232.980          32.000    21690311.703 5  88818220.529 5     -1739.976          31.000
G31  21999561.008 8 115608471.731 8     -2266.051          51.000    21999561.109 8  90084517.389 8     -1765.754          51.000
R15  21145288.102 8 112993988.789 8     -3663.410          51.000    21145293.281 8  87884213.365 8     -2849.319          48.000
R16  19318528.914 7 103196102.210 7       163.145          47.000    19318531.820 7  80263651.483 7       126.890          44.000
R18  19260126.477 7 102811986.103 7      -323.824          44.000    19260130.391 7  79964852.068 7      -251.863          43.000
R19  21226964.273 6 113549964.754 6      2867.504          36.000    21226967.984 7  88316638.341 7      2230.281          43.000
C05  39632547.469 6 206377073.459 6        17.660          36.000    39632547.359 6 159583840.612 6        13.420          37.000
C27  23031220.391 6 119929567.503 6     -2203.609          38.000
C29  24733476.570 8 128793722.806 8      2634.578          48.000
C30  21572022.555 8 112331293.297 8       475.062          51.000
E02  26517884.039 7 139352383.209 7     -2792.484          45.000    26517891.602 8 106776530.190 8     -2139.711          51.000
E15  24156456.367 8 126943028.895 8      1922.484          51.000    24156459.109 8  97268112.118 8      1473.054          51.000
E30  22260187.961 8 116978073.556 8      -900.867          51.000    22260190.359 8  89632553.018 8      -690.284          51.000
> 2020 05 16 12 44  0.0000000  0 16        .000000000000
G18  20444633.922 8 107437313.905 8       991.363          51.000    20444634.125 8  83717410.928 8       772.491          51.000
G21  20755911.523 8 109073119.238 8       802.109          51.000    20755909.359 8  84992061.857 8       625.020          50.000
G25  23830535.609 7 125230288.652 7     -3363.637          46.000    23830539.102 7  97582057.694 7     -2621.019          46.000
G29  21703084.023 5 114050491.567 5     -2239.957          35.000    21703082.094 5  88870510.326 5     -1745.424          35.000
G31  22012540.539 8 115676677.524 8     -2280.824          51.000    22012540.055 8  90137664.716 8     -1777.266          51.000
R15  21165898.312 8 113104120.048 8     -3678.434          51.000    21165903.117 8  87969871.004 8     -2861.004          48.000
R16  19317687.297 8 103191605.146 8       136.945          48.000    19317689.977 7  80260153.760 7       106.513          44.000
R18  19262000.156 7 102821987.541 7      -342.891          44.000    19262003.641 7  79972630.914 7      -266.693          42.000
R19  21210924.086 6 113464157.066 6      2853.066          37.000    21210926.930 7  88249899.037 7      2219.055          42.000
C05  39632450.039 6 206376566.252 6        16.652          36.000    39632449.977 6 159583448.382 6        12.771          37.000
C27  23043934.375 5 119995771.780 5     -2209.867          35.000
C29  24718316.875 7 128714777.486 7      2628.711          47.000
C30  21569318.625 8 112317214.014 8       463.828          51.000
E02  26533842.219 7 139436247.550 7     -2798.504          45.000    26533849.867 8 106840789.838 8     -2144.197          50.000
E15  24145510.648 8 126885507.228 8      1912.504          51.000    24145512.742 8  97224037.141 8      1465.344          51.000
E30  22265366.562 8 117005287.679 8      -913.297          51.000    22265369.109 8  89653405.366 8      -699.781          51.000
> 2020 05 16 12 44 30.0000000  0 16        .000000000000
G18  20439026.477 8 107407845.714 8       972.770          51.000    20439026.477 8  83694448.719 8       758.002          51.000
G21  20751378.023 8 109049296.122 8       785.719          51.000    20751375.977 8  84973498.394 8       612.248          50.000
G25  23849751.477 7 125331269.173 7     -3368.828          45.000    23849755.602 7  97660743.783 7     -2625.061          45.000
G29  21715890.711 5 114117774.868 5     -2247.055          30.000    21715889.242 4  88922949.667 4     -1750.964          29.000
G31  22025599.797 8 115745302.345 8     -2294.672          51.000    22025598.719 8  90191138.568 8     -1788.056          51.000
R15  21186588.250 8 113214679.457 8     -3692.645          51.000    21186592.758 7  88055861.635 7     -2872.057          47.000
R16  19316989.188 7 103187875.895 7       111.262          47.000    19316991.766 7  80257253.218 7        86.534          43.000
R18  19263976.086 7 102832536.325 7      -361.012          44.000    19263979.898 7  79980835.535 7      -280.790          42.000
R19  21194959.867 5 113378757.699 5      2839.801          35.000    21194961.633 6  88183477.367 6      2208.737          41.000
C05  39632352.711 5 206376060.199 5        16.594          35.000    39632352.648 6 159583056.285 6        13.031          37.000
C27  23056677.672 5 120062137.353 5     -2214.512          31.000
C29  24703186.703 7 128635987.370 7      2623.566          46.000
C30  21566674.906 8 112303447.461 8       453.453          51.000
E02  26549829.984 7 139520263.438 7     -2803.121          47.000    26549836.203 7 106905165.584 7     -2147.819          47.000
E15  24134617.539 8 126828264.642 8      1903.293          51.000    24134620.336 8  97180175.951 8      1458.361          51.000
E30  22270611.805 8 117032851.800 8      -924.785          51.000    22270614.445 8  89674525.904 8      -708.569          51.000
> 2020 05 16 12 45  0.0000000  0 16        .000000000000
G18  20433522.031 8 107378918.791 8       949.680          51.000    20433521.805 8  83671908.266 8       740.013          50.000
G21  20746934.312 8 109025945.090 8       764.984          51.000    20746932.500 8  84955302.792 8       596.092          49.000
G25  23868993.062 7 125432384.145 7     -3378.109          47.000    23868997.477 7  97739534.627 7     -2632.296          46.000
G29  21728729.312 5 114185245.418 5     -2256.676          32.000    21728727.117 5  88975510.308 5     -1758.449          32.000
G31  22038733.844 8 115814321.262 8     -2312.719          51.000    22038732.453 8  90244919.523 8     -1802.119          51.000
R15  21207353.219 8 113325641.444 8     -3711.000          49.000    21207357.812 7  88142165.381 7     -2886.336          46.000
R16  19316430.820 8 103184892.285 8        81.340          48.000    19316433.062 7  80254932.622 7        63.264          44.000
R18  19266050.680 7 102843608.593 7      -383.297          45.000    19266054.531 7  79989447.302 7      -298.117          42.000
R19  21179066.891 5 113293745.476 5      2821.988          35.000    21179069.641 7  88117356.767 7      2194.880          43.000
C05  39632251.141 6 206375531.365 6        12.430          36.000    39632251.156 6 159582647.345 6         9.889          36.000
C27  23069447.570 5 120128640.761 5     -2224.105          32.000
C29  24688081.578 7 128557330.941 7      2614.055          45.000
C30  21564086.836 8 112289971.145 8       438.984          51.000
E02  26565842.625 7 139604407.748 7     -2812.406          47.000    26565846.117 7 106969639.709 7     -2154.970          45.000
E15  24123773.086 8 126771279.312 8      1889.762          51.000    24123777.172 8  97136511.842 8      1447.996          51.000
E30  22275919.367 8 117060743.745 8      -940.707          51.000    22275922.016 8  89695897.650 8      -720.798          51.000
> 2020 05 16 12 45 30.0000000  0 15        .000000000000
G18  20428138.289 8 107350626.819 8       935.273          51.000    20428138.125 8  83649862.599 8       728.788          50.000
G21  20742598.234 8 109003159.023 8       752.875          51.000    20742596.531 8  84937547.437 8       586.659          49.000
G25  23888277.977 8 125533725.549 8     -3378.887          48.000    23888282.328 8  97818501.887 8     -2632.899          48.000
G31  22051960.031 8 115883825.003 8     -2322.176          51.000    22051958.430 8  90299078.254 8     -1809.488          51.000
R15  21228209.969 7 113437097.574 7     -3720.703          47.000    21228214.859 7  88228853.447 7     -2893.883          44.000
R16  19316030.008 8 103182750.614 8        60.184          48.000    19316031.859 7  80253266.872 7        46.809          43.000
R18  19268240.297 7 102855296.887 7      -397.031          46.000    19268243.961 6  79998538.207 6      -308.802          41.000
R19  21163265.453 6 113209216.327 6      2812.328          37.000    21163268.844 7  88051611.894 7      2187.366          44.000
C05  39632163.078 6 206375073.082 6        16.828          36.000    39632163.055 6 159582293.017 6        12.967          37.000
C27  23082263.602 5 120195373.189 5     -2225.367          32.000
C29  24673018.773 7 128478900.950 7      2613.250          44.000
C30  21561572.047 8 112276876.934 8       432.879          51.000
E02  26581897.156 7 139688772.709 7     -2813.062          47.000    26581898.070 7 107034282.902 7     -2155.520          44.000
E15  24112996.172 8 126714644.818 8      1884.664          51.000    24113000.516 8  97093116.566 8      1444.153          51.000
E30  22281306.875 8 117089056.831 8      -948.062          51.000    22281309.805 8  89717592.082 8      -726.408          51.000
> 2020 05 16 12 46  0.0000000  0 16        .000000000000
G18  20422850.539 8 107322840.573 8       916.285          51.000    20422850.352 8  83628211.005 8       713.988          48.000
G21  20738345.023 8 108980808.400 8       736.215          51.000    20738343.430 8  84920131.391 8       573.674          48.000
G25  23907581.023 7 125635162.447 7     -3384.262          47.000    23907585.180 7  97897543.555 7     -2637.090          47.000
G29  21754531.023 5 114320834.630 5     -2266.109          33.000
G31  22065253.359 8 115953681.729 8     -2335.945          50.000    22065251.656 8  90353512.040 8     -1820.217          51.000
R15  21249134.430 8 113548913.036 8     -3734.730          48.000    21249138.195 7  88315820.911 7     -2904.793          42.000
R16  19315762.258 8 103181319.838 8        34.211          48.000    19315763.648 7  80252154.028 7        26.609          43.000
R18  19270520.438 7 102867467.963 7      -415.336          46.000    19270524.211 7  80008004.604 7      -323.039          43.000
R19  21147530.000 6 113125038.982 6      2798.359          39.000    21147533.336 7  87986140.663 7      2176.505          43.000
C05  39632063.914 6 206374555.862 6        17.055          36.000    39632063.852 6 159581896.853 6        12.880          37.000
C27  23095098.852 5 120262204.876 5     -2230.715          34.000
C29  24657974.406 7 128400569.408 7      2607.797          44.000
C30  21559105.859 8 112264035.874 8       422.301          51.000
E02  26597968.273 7 139773227.644 7     -2818.105          45.000    26597969.047 7 107098995.064 7     -2159.331          46.000
E15  24102261.695 8 126658231.883 8      1875.262          51.000    24102265.148 8  97049891.086 8      1436.922          51.000
E30  22286749.922 8 117117661.442 8      -959.891          51.000    22286753.086 8  89739509.888 8      -735.501          51.000
> 2020 05 16 12 46 30.0000000  0 15        .000000000000
G18  20417675.539 8 107295646.437 8       897.805          51.000    20417674.883 8  83607020.779 8       699.591          48.000
G21  20734191.016 8 108958979.075 8       720.102          51.000    20734189.664 8  84903121.550 8       561.121          49.000
G25  23926918.039 7 125736779.535 7     -3389.164          45.000    23926922.016 7  97976725.652 7     -2640.907          46.000
G31  22078629.594 8 116023974.905 8     -2349.090          49.000    22078628.109 8  90408285.942 8     -1830.460          49.000
R15  21270142.391 8 113661172.002 8     -3748.051          49.000    21270145.055 7  88403133.337 7     -2915.154          44.000
R16  19315644.062 8 103180687.839 8         9.039          48.000    19315645.109 7  80251662.467 7         7.030          43.000
R18  19272907.172 7 102880207.301 7      -432.848          47.000    19272911.141 7  80017913.007 7      -336.662          43.000
R19  21131876.898 6 113041302.187 6      2785.145          38.000    21131879.234 7  87921012.079 7      2166.224          42.000
C05  39631970.109 6 206374067.893 6        16.668          36.000    39631969.906 6 159581518.708 6        13.318          37.000
C27  23107969.305 5 120329219.750 5     -2235.789          33.000
C29  24642965.492 7 128322421.868 7      2603.090          44.000
C30  21556704.578 8 112251532.642 8       412.328          51.000
E02  26614071.805 7 139857857.650 7     -2822.633          44.000    26614074.648 7 107163841.375 7     -2162.806          47.000
E15  24091585.594 8 126602126.905 8      1866.293          51.000    24091587.633 8  97006901.591 8      1430.014          51.000
E30  22292264.953 8 117146643.550 8      -971.137          51.000    22292268.023 8  89761716.960 8      -744.109          51.000
> 2020 05 16 12 47  0.0000000  0 15        .000000000000
G18  20412608.562 8 107269019.280 8       878.973          51.000    20412607.812 8  83586272.361 8       684.914          49.000
G21  20730131.250 8 108937645.142 8       703.750          50.000    20730130.391 8  84886497.746 8       548.377          50.000
G25  23946283.883 7 125838549.947 7     -3394.090          43.000    23946288.180 7  98056027.242 7     -2644.748          44.000
G31  22092083.367 8 116094676.681 8     -2362.676          48.000    22092082.180 8  90463378.257 8     -1841.046          48.000
R15  21291227.945 8 113773845.511 8     -3761.828          49.000    21291230.977 7  88490768.256 7     -2925.866          46.000
R16  19315670.781 8 103180830.042 8       -16.809          48.000    19315672.031 7  80251773.057 7       -13.076          44.000
R18  19275395.102 7 102893487.030 7      -450.734          46.000    19275398.438 7  80028241.689 7      -350.568          43.000
R19  21116301.266 6 112957980.902 6      2771.375          38.000    21116302.789 7  87856206.635 7      2155.514          42.000
C05  39631876.523 6 206373580.808 6        16.898          36.000    39631876.414 6 159581142.096 6        13.040          37.000
C27  23120870.188 4 120396435.988 4     -2240.789          29.000
C29  24627987.953 7 128244433.537 7      2597.859          43.000
C30  21554363.312 8 112239341.446 8       402.000          51.000
E02  26630203.719 7 139942636.187 7     -2827.500          44.000    26630209.234 8 107228801.495 8     -2166.517          48.000
E15  24080962.922 8 126546304.773 8      1856.883          51.000    24080963.664 8  96964128.810 8      1422.839          51.000
E30  22297847.258 8 117175977.661 8      -982.781          51.000    22297849.766 8  89784193.754 8      -753.019          51.000
> 2020 05 16 12 47 30.0000000  0 14        .000000000000
G18  20407656.258 8 107242994.864 8       859.617          51.000    20407655.828 8  83565993.635 8       669.832          50.000
G21  20726172.594 8 108916841.822 8       686.766          51.000    20726171.969 8  84870287.401 8       535.145          50.000
G25  23965685.320 7 125940507.953 7     -3399.457          43.000    23965690.156 7  98135474.987 7     -2648.928          43.000
G31  22105621.508 8 116165819.949 8     -2376.543          50.000    22105620.445 8  90518814.569 8     -1851.852          50.000
R15  21312397.117 8 113886966.312 8     -3775.895          50.000    21312400.672 7  88578751.083 7     -2936.804          46.000
R16  19315849.000 8 103181782.939 8       -42.918          48.000    19315850.516 7  80252514.184 7       -33.381          44.000
R18  19277990.633 7 102907341.363 7      -469.055          46.000    19277993.922 7  80039017.270 7      -364.820          43.000
R19  21100810.148 6 112875112.277 6      2756.941          37.000    21100811.898 7  87791753.282 7      2144.288          43.000
C05  39631790.047 5 206373130.804 5        16.617          35.000    39631789.938 6 159580794.115 6        12.765          36.000
C29  24613048.602 7 128166639.943 7      2592.035          43.000
C30  21552088.664 8 112227496.869 8       391.230          51.000
E02  26646371.641 7 140027597.671 7     -2832.742          46.000    26646378.609 8 107293901.813 8     -2170.564          48.000
E15  24070400.375 8 126490801.260 8      1847.105          51.000    24070400.938 8  96921600.186 8      1415.276          51.000
E30  22303503.430 8 117205699.225 8      -994.961          51.000    22303505.438 8  89806967.419 8      -762.355          51.000
> 2020 05 16 12 48  0.0000000  0 15        .000000000000
G18  20402800.984 8 107217479.714 8       845.223          51.000    20402800.398 8  83546111.716 8       658.618          50.000
G21  20722297.023 8 108896475.252 8       674.844          50.000    20722296.383 8  84854417.366 8       525.855          50.000
G25  23985104.562 7 126042558.379 7     -3400.070          42.000    23985110.133 7  98214994.723 7     -2649.405          42.000
G31  22119225.609 8 116237308.189 8     -2385.395          51.000    22119224.531 8  90574519.663 8     -1858.749          51.000
R15  21333631.758 8 114000435.975 8     -3784.715          51.000    21333635.102 7  88667005.204 7     -2943.667          44.000
R16  19316161.336 8 103183451.663 8       -64.141          48.000    19316162.984 7  80253812.069 7       -49.887          44.000
R18  19280675.297 7 102921673.051 7      -482.418          44.000    19280678.648 7  80050164.155 7      -375.214          43.000
R19  21085385.297 6 112792601.587 6      2747.391          37.000    21085387.578 7  87727578.313 7      2136.859          42.000
C05  39631692.836 6 206372624.848 6        20.820          36.000    39631692.766 6 159580402.860 6        16.305          36.000
C27  23146761.219 4 120531238.589 4     -2245.750          29.000
C29  24598129.023 7 128088948.478 7      2591.277          43.000
C30  21549862.766 8 112215905.373 8       385.492          51.000
E02  26662557.102 7 140112647.334 7     -2833.227          47.000    26662564.008 7 107359069.669 7     -2170.857          47.000
E15  24059880.469 8 126435522.929 8      1842.152          50.000    24059881.852 8  96879244.067 8      1411.498          51.000
E30  22309215.375 8 117235714.400 8     -1002.109          51.000    22309216.984 8  89829966.043 8      -767.835          51.000
> 2020 05 16 12 48 30.0000000  0 15        .000000000000
G18  20398048.023 8 107192502.646 8       822.285          51.000    20398047.234 8  83526649.057 8       640.742          51.000
G21  20718509.875 8 108876573.883 8       654.277          51.000    20718509.398 8  84838909.816 8       509.827          50.000
G25  24004546.906 7 126144728.351 7     -3408.840          43.000    24004552.570 7  98294607.640 7     -2656.239          44.000
G31  22132900.375 8 116309167.907 8     -2402.812          51.000    22132898.664 8  90630514.197 8     -1872.321          51.000
R15  21354936.742 8 114114280.135 8     -3802.344          51.000    21354939.312 7  88755550.574 7     -2957.382          44.000
R16  19316612.953 7 103185866.038 7       -94.305          47.000    19316614.906 7  80255689.908 7       -73.348          44.000
R18  19283454.766 7 102936509.048 7      -504.270          45.000    19283457.711 7  80061703.246 7      -392.210          43.000
R19  21070032.867 6 112710479.047 6      2729.398          36.000    21070035.227 6  87663705.265 6      2122.868          41.000
C05  39631590.289 5 206372090.147 5        16.527          35.000    39631590.289 6 159579990.133 6        13.194          36.000
C27  23159743.953 4 120598861.709 4     -2255.160          29.000
C29  24583234.562 7 128011387.817 7      2581.816          43.000
C30  21547690.930 8 112204594.688 8       371.023          51.000
E02  26678764.727 7 140197812.591 7     -2842.125          47.000    26678770.172 7 107424326.096 7     -2177.618          45.000
E15  24049409.250 8 126380498.556 8      1828.656          51.000    24049411.594 8  96837082.547 8      1401.145          51.000
E30  22314988.602 8 117266051.671 8     -1017.918          51.000    22314989.578 8  89853211.478 8      -779.978          51.000
> 2020 05 16 12 49  0.0000000  0 15        .000000000000
G18  20393415.938 8 107168160.972 8       801.105          51.000    20393415.297 8  83507681.532 8       624.238          51.000
G21  20714829.750 8 108857234.072 8       635.469          51.000    20714829.305 8  84823839.844 8       495.170          51.000
G25  24024030.375 7 126247113.685 7     -3416.129          43.000    24024035.836 7  98374388.346 7     -2661.922          43.000
G31  22146663.672 8 116381493.161 8     -2418.164          51.000    22146661.148 8  90686871.499 8     -1884.284          51.000
R15  21376329.281 8 114228594.347 8     -3817.887          51.000    21376332.258 7  88844461.545 7     -2969.470          45.000
R16  19317222.867 8 103189125.534 8      -122.402          48.000    19317225.000 7  80258225.064 7       -95.205          44.000
R18  19286346.539 7 102951946.110 7      -524.031          44.000    19286349.852 7  80073709.861 7      -407.577          43.000
R19  21054771.836 6 112628844.503 6      2713.438          38.000    21054774.602 6  87600211.782 6      2110.454          41.000
C05  39631500.859 5 206371623.800 5        14.086          35.000    39631501.016 6 159579630.290 6        11.466          36.000
C27  23172759.133 5 120666660.789 5     -2262.566          32.000
C29  24568383.453 7 127934054.524 7      2574.156          42.000
C30  21545591.422 8 112193660.416 8       358.645          51.000
E02  26695012.461 7 140283189.500 7     -2849.055          47.000    26695015.500 7 107489744.696 7     -2183.075          43.000
E15  24039005.445 8 126325825.549 8      1816.934          51.000    24039008.555 8  96795190.255 8      1392.190          51.000
E30  22320841.648 8 117296808.018 8     -1031.867          51.000    22320842.023 8  89876778.024 8      -790.651          51.000
> 2020 05 16 12 49 30.0000000  0 16        .000000000000
G18  20388865.859 8 107144249.794 8       784.980          51.000    20388865.086 8  83489049.447 8       611.673          51.000
G21  20711217.570 8 108838250.919 8       621.918          51.000    20711216.898 8  84809047.776 8       484.611          51.000
G25  24043515.641 7 126349507.797 7     -3417.789          45.000    24043520.203 7  98454175.884 7     -2663.215          45.000
G29  21845944.172 5 114801210.659 5     -2307.180          34.000
G31  22160475.922 8 116454076.827 8     -2428.602          51.000    22160473.570 8  90743430.186 8     -1892.417          51.000
R15  21397769.750 8 114343166.760 8     -3828.301          50.000    21397774.031 7  88933573.396 7     -2977.567          46.000
R16  19317952.055 7 103193022.280 7      -145.379          47.000    19317954.453 7  80261255.854 7      -113.072          44.000
R18  19289311.703 7 102967774.070 7      -538.902          45.000    19289314.992 7  80086020.483 7      -419.149          43.000
R19  21039563.805 6 112547489.711 6      2702.320          39.000    21039567.203 7  87536935.849 7      2101.805          42.000
C05  39631385.555 5 206371023.457 5        17.426          35.000    39631385.695 6 159579166.096 6        13.451          37.000
C29  24553536.758 6 127856745.619 6      2571.699          41.000
C30  21543524.820 8 112182898.734 8       351.066          51.000
E02  26711260.969 7 140368571.846 7     -2851.062          47.000    26711261.250 6 107555167.426 6     -2184.577          41.000
E15  24028629.984 8 126271299.065 8      1810.215          51.000    24028633.578 8  96753410.239 8      1387.072          51.000
E30  22326735.211 8 117327778.251 8     -1040.762          51.000    22326735.164 8  89900508.465 8      -797.512          51.000
E36  26833945.445 6 141013328.495 6     -2712.855          37.000    26833952.773 6 108049205.554 6     -2078.499          36.000
> 2020 05 16 12 50  0.0000000  0 16        .000000000000
G18  20384450.531 8 107121047.499 8       765.500          51.000    20384449.828 8  83470969.732 8       596.494          51.000
G21  20707725.906 8 108819902.175 8       604.871          51.000    20707724.969 8  84794750.049 8       471.325          51.000
G25  24063055.273 7 126452187.660 7     -3423.727          44.000    24063058.609 7  98534186.056 7     -2667.842          45.000
G31  22174389.352 8 116527193.930 8     -2442.285          51.000    22174387.844 8  90800404.543 8     -1903.079          51.000
R15  21419310.555 8 114458277.086 8     -3841.938          48.000    21419315.906 7  89023103.680 7     -2988.174          46.000
R16  19318853.445 7 103197839.105 7      -171.914          46.000    19318855.914 7  80265002.259 7      -133.714          44.000
R17  21523292.148 5 115175449.410 5     -3353.086          31.000    21523303.031 4  89580952.765 4     -2607.956          28.000
R18  19292402.617 7 102984273.415 7      -557.324          44.000    19292406.125 7  80098853.272 7      -433.474          43.000
R19  21024460.773 6 112466698.696 6      2687.469          37.000    21024464.375 6  87474098.417 6      2090.257          41.000
C05  39631297.180 6 206370563.766 6        16.609          36.000
C29  24538747.789 6 127779737.205 6      2565.887          40.000
C30  21541544.164 8 112172584.667 8       340.156          51.000
E02  26727562.594 7 140454236.717 7     -2856.551          46.000    26727560.812 7 107620806.621 7     -2188.624          42.000
E15  24018335.625 8 126217197.561 8      1800.055          51.000    24018339.609 8  96711955.856 8      1379.278          51.000
E30  22332722.055 8 117359240.464 8     -1053.117          51.000    22332722.008 8  89924615.875 8      -806.955          51.000
E36  26849448.844 6 141094801.336 6     -2715.223          37.000    26849455.930 5 108111632.770 5     -2080.385          35.000
> 2020 05 16 12 50 30.0000000  0 16        .000000000000
G18  20380139.305 8 107098392.302 8       744.719          51.000    20380138.781 8  83453316.356 8       580.300          50.000
G21  20704324.141 8 108802025.511 8       586.723          51.000    20704322.781 8  84780820.182 8       457.186          51.000
G25  24082618.016 7 126554989.814 7     -3430.402          43.000    24082620.562 7  98614291.544 7     -2673.044          42.000
G31  22188372.836 8 116600680.043 8     -2457.008          51.000    22188372.750 8  90857666.461 8     -1914.552          51.000
R15  21440921.609 8 114573757.247 8     -3856.914          49.000    21440926.984 7  89112921.603 7     -2999.822          46.000
R16  19319896.656 7 103203411.920 7      -199.781          47.000    19319899.070 7  80269336.673 7      -155.385          45.000
R17  21542107.820 4 115276145.003 4     -3360.332          27.000
R18  19295587.633 7 103001277.432 7      -576.523          45.000    19295591.633 7  80112078.627 7      -448.407          43.000
R19  21009431.953 6 112386307.742 6      2671.746          36.000    21009434.711 6  87411572.162 6      2078.028          39.000
C05                                                                  39631205.297 6 159578439.687 6        11.532          36.000
C29  24523985.312 6 127702869.080 6      2558.574          41.000
C30  21539618.602 8 112162557.140 8       328.094          51.000
E02  26743886.812 7 140540021.076 7     -2862.738          47.000    26743885.680 7 107686537.427 7     -2193.527          44.000
E15  24008091.180 8 126163359.361 8      1788.820          51.000    24008095.523 8  96670703.219 8      1370.720          51.000
E30  22338771.344 8 117391032.557 8     -1066.523          51.000    22338771.961 8  89948976.057 8      -817.245          51.000
E36  26864959.258 6 141176308.966 6     -2718.953          37.000    26864965.594 5 108174086.608 5     -2083.177          34.000
> 2020 05 16 12 51  0.0000000  0 15        .000000000000
G18  20375940.211 8 107076326.041 8       727.176          51.000    20375939.797 8  83436121.873 8       566.630          50.000
G21  20701020.023 8 108784662.194 8       571.742          51.000    20701018.391 8  84767290.316 8       445.513          51.000
G25  24102211.203 7 126657954.562 7     -3433.531          42.000    24102213.922 7  98694523.759 7     -2675.479          42.000
G31  22202434.055 8 116674574.417 8     -2468.461          50.000    22202435.469 8  90915246.487 8     -1923.476          50.000
R15  21462609.016 8 114689646.498 8     -3868.250          49.000    21462614.484 7  89203057.671 7     -3008.639          45.000
R16  19321089.562 7 103209783.765 7      -224.211          46.000    19321092.125 7  80274292.542 7      -174.386          45.000
R18  19298875.523 7 103018826.663 7      -592.570          46.000    19298878.992 7  80125728.023 7      -460.888          43.000
R19  20994486.805 6 112306360.079 6      2658.891          37.000    20994488.109 6  87349390.697 6      2068.029          40.000
C05  39631116.977 5 206369624.669 5        16.043          35.000    39631117.305 6 159578085.198 6        12.988          36.000
C29  24509258.414 7 127626182.891 7      2554.668          42.000
C30  21537755.797 8 112152856.847 8       319.434          51.000
E02  26760241.766 7 140625965.580 7     -2866.008          47.000    26760243.039 7 107752390.927 7     -2195.984          45.000
E15  23997904.156 8 126109826.387 8      1780.832          51.000    23997908.992 8  96629684.450 8      1364.537          51.000
E30  22344891.414 8 117423196.129 8     -1076.863          51.000    22344893.148 8  89973620.855 8      -825.072          51.000
E36  26880484.125 6 141257891.629 6     -2719.152          36.000    26880489.680 5 108236598.006 5     -2083.638          34.000
> 2020 05 16 12 51 30.0000000  0 17        .000000000000
G18  20371853.430 8 107054850.486 8       706.512          50.000    20371853.148 8  83419387.693 8       550.532          50.000
G21  20697813.617 8 108767813.586 8       553.648          50.000    20697811.852 8  84754161.530 8       431.414          50.000
G25  24121835.383 7 126761082.273 7     -3440.012          43.000    24121838.688 7  98774882.950 7     -2680.529          42.000
G29  21898935.273 5 115079693.738 5     -2334.293          32.000
G31  22216573.125 8 116748875.993 8     -2482.816          51.000    22216575.062 8  90973143.812 8     -1934.665          51.000
R15  21484372.164 8 114805942.992 8     -3882.703          49.000    21484376.828 6  89293510.463 6     -3019.883          40.000
R16  19322432.312 7 103216956.378 7      -251.875          45.000    19322435.148 7  80279871.239 7      -195.903          45.000
R18  19302265.242 7 103036920.873 7      -611.688          46.000    19302268.914 7  80139801.334 7      -475.757          43.000
R19  20979625.086 6 112226857.855 6      2643.355          36.000    20979626.422 6  87287555.632 6      2055.943          41.000
C05  39631033.305 5 206369189.105 5        14.969          35.000    39631033.711 6 159577748.430 6        11.270          36.000
C27  23238261.602 4 121007717.901 4     -2288.090          29.000
C29  24494566.797 6 127549680.613 6      2547.551          41.000
C30  21535955.859 8 112143484.830 8       307.562          51.000
E02  26776627.312 7 140712070.816 7     -2872.082          46.000    26776630.914 7 107818367.578 7     -2200.617          47.000
E15  23987774.859 8 126056600.583 8      1769.785          50.000    23987780.297 8  96588901.022 8      1356.078          51.000
E30  22351082.805 8 117455732.671 8     -1090.062          51.000    22351085.516 8  89998551.446 8      -835.240          51.000
E36  26896022.977 5 141339554.741 5     -2722.547          34.000    26896028.281 5 108299167.168 5     -2085.883          34.000
> 2020 05 16 12 52  0.0000000  0 17        .000000000000
G18  20367867.219 8 107033904.451 8       692.387          50.000    20367867.164 8  83403066.123 8       539.522          49.000
G21  20694693.414 8 108751418.080 8       542.012          50.000    20694691.742 8  84741385.808 8       422.347          50.000
G25  24141479.078 7 126864310.180 7     -3439.539          45.000    24141482.594 7  98855320.228 7     -2680.163          44.000
G31  22230777.898 8 116823520.949 8     -2490.746          51.000    22230778.812 8  91031308.675 8     -1940.844          51.000
R15  21506199.242 8 114922581.399 8     -3890.543          50.000    21506200.812 6  89384229.029 6     -3025.987          40.000
R16  19323913.695 7 103224868.381 7      -272.941          45.000    19323916.266 7  80286025.023 7      -212.288          45.000
R17  21598744.070 5 115579185.155 5     -3370.457          32.000
R18  19305745.188 7 103055495.593 7      -623.969          45.000    19305748.680 7  80154248.322 7      -485.312          43.000
R19  20964833.766 5 112147739.967 5      2633.621          34.000    20964836.641 6  87226019.470 6      2048.372          41.000
C05  39630942.492 5 206368716.612 5        19.336          35.000    39630942.820 6 159577382.229 6        15.115          36.000
C27  23251450.875 5 121076397.795 5     -2287.355          34.000
C29  24479899.242 6 127473301.805 6      2547.129          40.000
C30  21534207.219 8 112134379.723 8       302.027          51.000
E02  26793031.492 7 140798274.377 7     -2871.863          46.000    26793036.641 8 107884419.577 8     -2200.555          48.000
E15  23977692.344 8 126003620.839 8      1765.020          51.000    23977697.789 8  96548306.138 8      1352.424          51.000
E30  22357333.578 8 117488580.764 8     -1096.973          51.000    22357336.703 8  90023720.736 8      -840.555          51.000
E36  26911563.977 5 141421222.609 5     -2719.285          33.000    26911569.250 5 108361746.120 5     -2083.557          34.000
> 2020 05 16 12 52 30.0000000  0 17        .000000000000
G18  20363981.914 8 107013487.448 8       670.426          51.000    20363981.844 8  83387156.774 8       522.410          49.000
G21  20691659.266 8 108735474.464 8       522.426          50.000    20691657.750 8  84728962.213 8       407.085          50.000
G25  24161141.891 7 126967636.412 7     -3447.234          46.000    24161144.703 7  98935834.103 7     -2686.160          46.000
G31  22245047.516 8 116898505.935 8     -2506.473          51.000    22245045.828 8  91089738.468 8     -1953.099          51.000
R15  21528089.984 8 115039557.614 8     -3906.113          51.000    21528091.961 7  89475210.408 7     -3038.091          45.000
R16  19325533.203 7 103233519.271 7      -302.121          45.000    19325535.875 7  80292753.511 7      -234.983          45.000
R17  21617667.719 4 115680438.564 4     -3377.680          28.000
R18  19309314.234 7 103074548.130 7      -644.422          44.000    19309317.914 7  80169066.992 7      -501.214          43.000
R19  20950115.086 6 112069006.324 6      2616.359          36.000    20950118.625 6  87164782.203 6      2034.946          41.000
C05  39630844.172 5 206368204.411 5        16.961          35.000    39630844.469 6 159576986.200 6        12.970          37.000
C27  23264662.148 6 121145163.214 6     -2295.328          36.000
C29  24465255.039 6 127397046.232 6      2538.539          37.000
C30  21532509.750 8 112125540.362 8       288.914          51.000
E02  26809453.961 7 140884574.602 7     -2879.496          46.000    26809459.680 7 107950545.646 7     -2206.442          47.000
E15  23967657.398 8 125950886.838 8      1752.312          51.000    23967661.594 8  96507899.589 8      1342.690          51.000
E30  22363643.469 8 117521739.725 8     -1111.836          51.000    22363646.461 8  90049128.218 8      -851.920          51.000
E36  26927107.211 5 141502903.449 5     -2724.555          33.000    26927112.398 5 108424322.432 5     -2087.314          34.000
> 2020 05 16 12 53  0.0000000  0 17        .000000000000
G18  20360211.625 8 106993674.804 8       651.879          51.000    20360211.547 8  83371718.378 8       507.958          49.000
G21  20688725.438 8 108720057.607 8       506.633          50.000    20688724.055 8  84716949.089 8       394.779          50.000
G25  24180837.570 7 127071134.844 7     -3451.266          46.000    24180838.766 7  99016482.144 7     -2689.301          46.000
G31  22259395.562 8 116973903.701 8     -2518.551          50.000    22259391.625 8  91148489.886 8     -1962.510          50.000
R15  21550058.117 8 115156945.013 8     -3918.113          51.000    21550060.828 8  89566511.649 8     -3047.421          48.000
R16  19327305.406 7 103242985.775 7      -327.676          46.000    19327308.016 7  80300116.350 7      -254.859          44.000
R17  21636624.836 6 115781873.689 6     -3382.207          36.000
R18  19312987.188 7 103094153.088 7      -661.168          46.000    19312990.242 6  80184315.271 6      -514.242          41.000
R19  20935483.438 6 111990734.136 6      2602.789          36.000    20935486.805 6  87103903.867 6      2024.391          41.000
C05  39630752.703 6 206367728.231 6        16.488          36.000    39630753.078 6 159576617.972 6        12.916          36.000
C27  23277906.508 6 121214104.490 6     -2299.484          36.000
C29  24450648.945 6 127320988.833 6      2533.551          37.000
C30  21530877.375 8 112117040.706 8       279.188          51.000
E02  26825909.102 7 140971045.628 7     -2883.703          46.000    26825914.469 7 108016802.603 7     -2209.612          47.000
E15  23957683.945 8 125898474.059 8      1743.281          51.000    23957686.586 8  96467739.195 8      1335.752          51.000
E30  22370026.992 8 117555284.610 8     -1123.086          51.000    22370029.648 8  90074831.408 8      -860.478          51.000
E36  26942666.961 5 141584669.982 5     -2725.121          34.000    26942671.711 5 108486974.734 5     -2088.340          34.000
> 2020 05 16 12 53 30.0000000  0 18        .000000000000
G18  20356550.367 8 106974434.601 8       631.246          51.000    20356550.312 8  83356726.037 8       491.880          50.000
G21  20685885.789 8 108705135.449 8       488.625          50.000    20685884.586 8  84705321.456 8       380.747          51.000
G25  24200559.578 7 127174772.146 7     -3457.270          46.000    24200558.773 7  99097238.381 7     -2693.979          46.000
G29  21952464.391 5 115360981.584 5     -2356.531          35.000    21952471.578 5  89891689.187 5     -1836.258          32.000
G31  22273815.203 8 117049679.801 8     -2532.641          49.000    22273811.164 8  91207536.124 8     -1973.489          48.000
R15  21572096.234 8 115274707.535 8     -3932.070          51.000    21572099.414 8  89658104.673 8     -3058.277          49.000
R16  19329224.633 7 103253235.727 7      -355.129          47.000    19329226.820 7  80308088.519 7      -276.211          44.000
R17  21655609.227 5 115883448.865 5     -3388.531          32.000
R18  19316756.945 7 103114275.725 7      -679.809          45.000    19316759.836 7  80199966.221 7      -528.740          42.000
R19  20920932.125 5 111912892.018 5      2587.152          35.000    20920935.758 6  87043360.030 6      2012.233          41.000
C05  39630662.164 6 206367257.114 6        15.094          36.000    39630662.383 6 159576252.866 6        11.961          36.000
C27  23291176.336 5 121283188.633 5     -2305.535          33.000
C29  24436075.234 6 127245098.279 6      2526.414          38.000
C30  21529304.102 8 112108848.454 8       267.488          51.000
E02  26842390.359 7 141057654.368 7     -2889.562          45.000    26842395.266 7 108083165.091 7     -2214.236          47.000
E15  23947765.539 8 125846350.758 8      1732.164          51.000    23947766.930 8  96427800.597 8      1327.204          51.000
E30  22376477.961 8 117589183.273 8     -1136.277          51.000    22376480.375 8  90100805.676 8      -870.663          51.000
E36  26958236.758 6 141666488.146 6     -2728.566          36.000    26958240.523 5 108549666.552 5     -2090.839          34.000
> 2020 05 16 12 54  0.0000000  0 17        .000000000000
G18  20353003.328 8 106955794.512 8       612.824          51.000    20353003.203 8  83342201.297 8       477.525          50.000
G21  20683145.547 8 108690734.789 8       472.797          51.000    20683144.398 8  84694100.180 8       368.413          51.000
G25  24220312.680 7 127278574.531 7     -3461.363          45.000    24220311.469 7  99178123.260 7     -2697.169          45.000
G29  21965936.547 5 115431780.624 5     -2361.926          35.000    21965946.719 5  89946857.365 5     -1840.456          35.000
G31  22288311.211 7 117125859.005 7     -2544.559          47.000    22288308.141 7  91266896.512 7     -1982.773          47.000
R15  21594208.359 7 115392870.266 7     -3943.902          47.000    21594212.398 8  89750009.019 8     -3067.480          49.000
R16  19331295.750 7 103264297.260 7      -380.742          47.000    19331297.492 7  80316691.909 7      -296.136          44.000
R18  19320628.883 7 103134942.094 7      -696.477          46.000    19320632.008 6  80216040.086 6      -541.704          41.000
R19  20906466.258 6 111835508.803 6      2573.746          36.000    20906470.266 6  86983173.119 6      2001.803          40.000
C05  39630577.508 6 206366815.511 6        15.598          36.000    39630577.734 6 159575912.165 6        12.194          36.000
C27  23304474.016 5 121352441.671 5     -2309.559          32.000
C29  24421538.953 6 127169402.261 6      2521.438          39.000
C30  21527795.086 8 112100990.387 8       257.887          51.000
E02  26858902.680 7 141144427.428 7     -2893.570          45.000    26858907.703 7 108149653.443 7     -2217.038          47.000
E15  23937907.305 8 125794544.832 8      1723.188          51.000    23937908.484 8  96388105.176 8      1320.320          51.000
E30  22383001.477 8 117623463.219 8     -1147.422          51.000    22383003.633 8  90127072.096 8      -879.190          51.000
E36  26973821.555 6 141748384.153 6     -2729.660          37.000    26973824.188 5 108612418.036 5     -2091.725          34.000
> 2020 05 16 12 54 30.0000000  0 18        .000000000000
G18  20349570.023 8 106937752.357 8       592.859          51.000    20349569.836 8  83328142.475 8       461.968          51.000
G20  24101388.828 5 126653672.273 5      3322.574          35.000
G21  20680504.203 8 108676853.266 8       455.594          51.000    20680503.047 8  84683283.417 8       355.008          51.000
G25  24240096.016 7 127382538.423 7     -3466.699          43.000    24240096.484 7  99259133.995 7     -2701.327          43.000
G29  21979446.719 5 115502772.764 5     -2368.703          33.000    21979455.688 5  90002181.285 5     -1845.740          33.000
G31  22302882.992 7 117202436.795 7     -2557.605          47.000    22302880.773 7  91326567.492 7     -1992.942          47.000
R15  21616393.867 8 115511427.375 8     -3956.957          48.000    21616398.812 8  89842220.133 8     -3077.633          49.000
R16  19333518.141 7 103276168.791 7      -407.641          47.000    19333520.188 7  80325925.297 7      -317.054          45.000
R18  19324601.547 7 103156148.140 7      -714.293          43.000    19324604.945 7  80232533.665 7      -555.561          42.000
R19  20892086.211 6 111758583.042 6      2558.082          37.000    20892089.391 6  86923341.986 6      1989.622          39.000
C05  39630498.484 5 206366404.132 5        14.539          35.000    39630498.773 6 159575594.049 6        11.409          36.000
C27  23317800.914 4 121421921.258 4     -2315.238          28.000
C29  24407039.438 6 127093898.970 6      2515.070          39.000
C30  21526349.633 8 112093463.714 8       246.863          51.000
E02  26875445.867 7 141231361.464 7     -2898.871          46.000    26875450.836 8 108216265.194 8     -2221.195          48.000
E15  23928109.062 8 125743054.322 8      1712.613          51.000    23928110.625 8  96348651.418 8      1312.316          51.000
E30  22389597.094 8 117658122.108 8     -1160.070          51.000    22389598.852 8  90153628.883 8      -888.900          51.000
E36  26989420.484 6 141830354.555 6     -2732.086          37.000    26989422.477 5 108675226.518 5     -2093.291          35.000
> 2020 05 16 12 55  0.0000000  0 17        .000000000000
G18  20346233.297 8 106920217.673 8       576.016          50.000    20346233.242 8  83314479.093 8       448.843          50.000
G21  20677944.180 8 108663399.972 8       441.188          51.000    20677943.180 8  84672800.347 8       343.782          51.000
G25  24259892.797 7 127486571.996 7     -3468.992          44.000    24259894.875 7  99340199.037 7     -2703.114          44.000
G29  21992977.742 5 115573877.584 5     -2371.895          30.000    21992984.133 5  90057589.974 5     -1848.226          30.000
G31  22317513.258 8 117279319.573 8     -2567.828          49.000    22317511.688 8  91386476.128 8     -2000.908          49.000
R15  21638636.953 8 115630283.774 8     -3966.887          51.000    21638640.852 7  89934663.978 7     -3085.359          47.000
R16  19335874.703 7 103288757.975 7      -431.496          47.000    19335877.484 7  80335716.883 7      -335.605          45.000
R18  19328657.492 7 103177799.872 7      -729.055          43.000    19328661.055 6  80249373.925 6      -567.043          41.000
R19  20877774.375 6 111682023.236 6      2545.965          36.000    20877776.047 6  86863795.485 6      1980.195          39.000
C05                                                                  39630408.344 6 159575229.189 6        12.877          36.000
C27  23331144.914 5 121491414.517 5     -2317.707          34.000
C29  24392560.109 6 127018499.023 6      2511.281          40.000
C30  21524950.414 8 112086178.177 8       238.758          51.000
E02  26892002.578 8 141318364.988 8     -2901.305          48.000    26892007.234 8 108282930.191 8     -2223.102          48.000
E15  23918353.586 8 125691788.974 8      1705.062          51.000    23918355.672 8  96309370.178 8      1306.461          51.000
E30  22396247.422 8 117693069.274 8     -1169.750          51.000    22396248.961 8  90180406.566 8      -896.293          51.000
E36  27005016.000 6 141912307.636 6     -2731.547          38.000    27005018.117 5 108738021.716 5     -2092.698          35.000
> 2020 05 16 12 55 30.0000000  0 17        .000000000000
G18  20343006.266 8 106903259.797 8       560.117          50.000    20343006.234 8  83301265.146 8       436.455          50.000
G21  20675478.867 8 108650443.603 8       427.969          51.000    20675477.898 8  84662704.487 8       333.485          51.000
G25  24279716.070 7 127590743.213 7     -3470.246          45.000    24279719.008 7  99421371.340 7     -2704.091          45.000
G29  22006542.172 5 115645161.470 5     -2374.914          30.000    22006547.938 4  90113135.882 4     -1850.582          29.000
G31  22332214.586 8 117356574.298 8     -2576.898          51.000    22332213.688 8  91446674.581 8     -2007.973          51.000
R15  21660948.625 8 115749506.542 8     -3975.758          51.000    21660951.430 7  90027392.727 7     -3092.259          46.000
R16  19338378.773 7 103302135.626 7      -454.516          47.000    19338382.094 7  80346121.708 7      -353.512          45.000
R18  19332809.742 7 103199965.279 7      -742.898          43.000    19332812.688 6  80266613.660 6      -577.810          41.000
R19  20863544.023 6 111605900.822 6      2534.613          36.000    20863545.484 6  86804589.203 6      1971.366          39.000
C05  39630318.758 6 206365468.625 6        19.812          36.000    39630319.344 6 159574870.642 6        15.227          36.000
C27  23344520.992 4 121561042.783 4     -2319.438          28.000
C29  24378114.328 6 126943271.426 6      2509.090          41.000
C30  21523610.664 8 112079201.900 8       231.727          51.000
E02  26908585.680 8 141405506.216 8     -2902.605          49.000    26908589.898 8 108349700.707 8     -2224.077          49.000
E15  23908654.156 8 125640818.351 8      1698.539          51.000    23908656.742 8  96270314.751 8      1301.496          51.000
E30  22402965.867 8 117728373.901 8     -1178.348          51.000    22402967.344 8  90207458.136 8      -902.884          51.000
E36  27020620.930 6 141994311.489 6     -2729.762          38.000    27020623.578 5 108800855.824 5     -2091.591          34.000
> 2020 05 16 12 56  0.0000000  0 17        .000000000000
G18  20339888.812 8 106886878.114 8       537.418          49.000    20339888.664 8  83288500.168 8       418.767          49.000
G21  20673107.727 8 108637983.149 8       408.105          51.000    20673106.766 8  84652995.046 8       318.004          50.000
G25  24299565.461 7 127695050.161 7     -3478.254          46.000    24299568.359 7  99502649.397 7     -2710.331          46.000
G29  22020140.578 6 115716620.338 6     -2383.434          36.000    22020146.391 6  90168818.066 6     -1857.215          37.000
G31  22346986.250 8 117434197.859 8     -2592.570          51.000    22346985.844 8  91507160.441 8     -2020.185          51.000
R15  21683327.633 8 115869091.760 8     -3991.316          49.000    21683329.820 7  90120403.361 7     -3104.360          44.000
R16  19341030.789 8 103316301.602 8      -484.285          48.000    19341034.305 7  80357139.671 7      -376.669          44.000
R17  21750903.219 4 116393432.794 4     -3409.293          28.000    21750906.703 4  90528279.339 4     -2651.672          26.000
R18  19337057.805 7 103222642.145 7      -763.461          43.000    19337061.055 6  80284251.222 6      -593.803          41.000
R19  20849395.430 5 111530215.971 5      2516.395          35.000    20849397.258 6  86745723.236 6      1957.196          40.000
C05  39630231.180 6 206365012.539 6        16.051          36.000    39630231.758 6 159574517.952 6        12.617          36.000
C29  24363701.477 6 126868216.031 6      2499.820          41.000
C30  21522329.938 8 112072533.723 8       218.090          51.000
E02  26925194.594 8 141492783.526 8     -2910.508          48.000    26925198.391 8 108416575.484 8     -2230.090          48.000
E15  23899010.672 8 125590142.091 8      1685.273          51.000    23899013.727 8  96231484.887 8      1291.346          51.000
E30  22409752.031 8 117764035.238 8     -1193.699          51.000    22409753.555 8  90234783.043 8      -914.623          51.000
E36  27036235.117 6 142076364.268 6     -2734.781          37.000    27036238.328 5 108863727.435 5     -2095.533          34.000
> 2020 05 16 12 56 30.0000000  0 15        .000000000000
G18  20336871.352 8 106871022.025 8       518.969          49.000    20336871.367 8  83276144.764 8       404.391          49.000
G21  20670821.133 8 108625967.677 8       392.305          51.000    20670819.820 8  84643632.337 8       305.692          50.000
G25  24319430.852 7 127799440.901 7     -3481.977          47.000    24319433.094 7  99583992.740 7     -2713.232          47.000
G31  22361817.891 8 117512136.709 8     -2604.016          51.000    22361817.641 8  91567891.992 8     -2029.103          51.000
R15  21705762.656 7 115988984.737 7     -4002.367          45.000    21705765.773 7  90213653.395 7     -3112.952          43.000
R16  19343820.844 8 103331204.157 8      -509.863          48.000    19343823.883 7  80368730.531 7      -396.560          43.000
R18  19341391.789 7 103245776.594 7      -779.824          42.000    19341394.719 6  80302244.656 6      -606.530          39.000
R19  20835319.133 5 111454917.930 5      2502.914          35.000    20835321.266 6  86687158.099 6      1946.711          39.000
C05  39630135.562 6 206364514.953 6        16.641          36.000    39630135.914 6 159574133.437 6        12.566          36.000
C29  24349312.070 6 126793283.141 6      2494.820          41.000
C30  21521098.711 8 112066122.930 8       208.590          51.000
E02  26941819.117 7 141580145.291 7     -2914.277          47.000    26941822.852 8 108483514.955 8     -2233.012          48.000
E15  23889413.625 8 125539709.847 8      1676.113          51.000    23889417.109 8  96192842.011 8      1284.280          51.000
E30  22416596.234 8 117800002.572 8     -1204.855          51.000    22416597.906 8  90262342.409 8      -923.219          51.000
E36  27051848.594 6 142158414.205 6     -2735.594          36.000    27051852.547 5 108926596.811 5     -2096.128          33.000
> 2020 05 16 12 57  0.0000000  0 16        .000000000000
G18  20333971.672 8 106855784.175 8       498.207          50.000    20333971.750 8  83264271.114 8       388.213          50.000
G21  20668636.867 8 108614489.317 8       374.305          51.000    20668635.391 8  84634688.166 8       291.666          50.000
G25  24339329.445 7 127904006.744 7     -3487.801          45.000    24339331.109 7  99665472.533 7     -2717.767          46.000
G31  22376726.484 8 117590481.080 8     -2617.652          51.000    22376726.422 8  91628939.544 8     -2039.729          51.000
R15  21728271.109 7 116109276.093 7     -4015.602          44.000    21728276.406 6  90307213.290 6     -3123.249          41.000
R16  19346766.305 8 103346937.542 8      -537.793          48.000    19346769.047 7  80380967.572 7      -418.283          43.000
R18  19345828.141 7 103269460.866 7      -798.152          42.000    19345831.070 6  80320665.759 6      -620.785          39.000
R19  20821333.453 6 111380101.602 6      2485.980          37.000    20821335.500 6  86628967.612 6      1933.537          39.000
C05  39630049.367 6 206364065.682 6        14.570          36.000    39630049.656 6 159573786.022 6        11.149          36.000
C27  23384811.039 5 121770824.744 5     -2337.496          30.000
C29  24334963.070 6 126718564.852 6      2487.527          40.000
C30  21519934.742 8 112060060.804 8       196.730          51.000
E02  26958476.789 7 141667683.092 7     -2920.207          45.000    26958480.516 7 108550589.311 7     -2237.675          47.000
E15  23879880.859 8 125489614.571 8      1664.680          51.000    23879884.750 8  96154457.335 8      1275.564          51.000
E30  22423516.180 8 117836368.420 8     -1218.332          51.000    22423517.883 8  90290207.138 8      -933.533          51.000
E36  27067478.844 5 142240552.786 5     -2739.098          34.000    27067483.742 5 108989534.094 5     -2098.454          31.000
> 2020 05 16 12 57 30.0000000  0 17        .000000000000
G18  20331179.461 8 106841110.468 8       481.094          51.000    20331179.312 8  83252837.051 8       374.878          51.000
G21  20666544.438 8 108603493.466 8       359.820          51.000    20666542.727 8  84626119.979 8       280.379          50.000
G25  24359250.500 7 128008692.339 7     -3490.199          43.000    24359252.289 7  99747045.624 7     -2719.639          43.000
G26  20573547.016 5 108114735.331 5      1283.859          31.000
G31  22391701.281 8 117669174.407 8     -2627.496          51.000    22391701.383 8  91690258.990 8     -2047.400          51.000
R15  21750845.266 7 116229908.133 7     -4025.309          47.000    21750850.875 7  90401038.129 7     -3130.796          42.000
R16  19349856.875 8 103363446.960 8      -561.801          48.000    19349859.719 7  80393808.202 7      -436.956          43.000
R18  19350357.539 7 103293638.094 7      -812.938          43.000    19350359.867 6  80339470.231 6      -632.288          38.000
R19  20807427.367 6 111305712.761 6      2474.148          36.000    20807429.867 6  86571109.631 6      1924.338          39.000
C05  39629962.430 6 206363613.164 6        16.277          36.000    39629962.477 6 159573435.292 6        12.837          36.000
C27  23398277.281 5 121840986.543 5     -2339.508          30.000
C29  24320645.500 6 126644008.029 6      2484.016          39.000
C30  21518827.328 8 112054293.189 8       188.699          51.000
E02  26975157.180 7 141755341.782 7     -2922.504          44.000    26975160.781 7 108617756.316 7     -2239.456          45.000
E15  23870402.016 8 125439802.395 8      1657.062          51.000    23870405.977 8  96116289.601 8      1269.667          51.000
E30  22430501.578 8 117873078.528 8     -1228.016          51.000    22430503.555 8  90318335.650 8      -940.953          51.000
E36                                                                  27083121.555 5 109052505.910 5     -2097.894          31.000
> 2020 05 16 12 58  0.0000000  0 17        .000000000000
G18  20328490.961 8 106826981.875 8       462.320          51.000    20328490.859 8  83241827.767 8       360.250          51.000
G20  23968786.828 5 125956825.149 5      3313.887          34.000
G21  20664540.094 8 108592960.753 8       343.824          50.000    20664537.969 8  84617912.688 8       267.915          49.000
G25  24379190.352 7 128113477.441 7     -3493.945          42.000    24379192.727 7  99828696.269 7     -2722.555          43.000
G29  22074863.203 5 116004207.694 5     -2405.195          34.000    22074869.180 5  90392882.226 5     -1874.184          32.000
G31  22406738.344 8 117748194.863 8     -2638.918          51.000    22406737.891 8  91751833.357 8     -2056.300          51.000
R15  21773480.016 7 116350858.011 7     -4036.398          47.000    21773485.023 7  90495110.206 7     -3139.424          43.000
R16  19353089.219 7 103380713.307 7      -587.766          47.000    19353091.820 7  80407237.587 7      -457.151          44.000
R18  19354974.352 6 103318286.745 6      -829.188          41.000    19354977.039 6  80358641.430 6      -644.924          38.000
R19  20793597.688 5 111231732.726 5      2459.934          35.000    20793600.203 6  86513569.656 6      1913.285          38.000
C05  39629871.023 6 206363136.572 6        17.121          36.000    39629871.023 6 159573066.812 6        12.632          36.000
C29  24306355.438 6 126569594.227 6      2478.578          37.000
C30  21517772.633 8 112048800.775 8       178.996          51.000
E02  26991856.961 7 141843101.387 7     -2926.430          44.000    26991859.789 7 108685000.632 7     -2242.374          43.000
E15  23860973.477 8 125390254.652 8      1647.648          51.000    23860977.078 8  96078324.480 8      1262.499          51.000
E30  22437548.820 8 117910113.796 8     -1239.430          51.000    22437551.359 8  90346713.304 8      -949.687          51.000
E36                                                                  27098761.594 4 109115482.920 4     -2098.864          29.000
> 2020 05 16 12 58 30.0000000  0 16        .000000000000
G18  20325927.344 8 106813509.413 8       430.762          51.000    20325927.430 8  83231329.762 8       335.662          51.000
G20  23949900.352 6 125857573.658 6      3298.211          37.000
G21  20662644.883 8 108583001.689 8       314.957          50.000    20662642.742 8  84610152.400 8       245.421          50.000
G25  24399170.008 7 128218471.800 7     -3510.719          44.000    24399173.406 7  99910509.979 7     -2735.628          44.000
G26  20559079.477 4 108038717.233 4      1243.867          29.000    20559085.602 5  84185991.188 5       969.253          30.000
G31  22421858.344 8 117827651.158 8     -2663.090          50.000    22421857.328 8  91813747.337 8     -2075.135          50.000
R15  21796194.828 7 116472235.299 7     -4060.594          46.000    21796199.375 7  90589514.710 7     -3158.240          43.000
R16  19356484.266 7 103398849.059 7      -626.586          46.000    19356486.719 7  80421343.166 7      -487.345          45.000
R18  19359700.938 6 103343517.879 6      -858.410          41.000    19359703.672 6  80378265.641 6      -667.655          39.000
R19  20779865.266 5 111158275.890 5      2432.344          35.000    20779867.812 6  86456436.632 6      1891.823          37.000
C05  39629796.266 6 206362747.085 6         4.066          36.000    39629796.172 6 159572765.585 6         3.166          36.000
C27  23425296.492 4 121981665.497 4     -2360.324          29.000
C30  21516791.688 8 112043693.071 8       156.516          51.000
E02  27008597.477 7 141931071.997 7     -2943.270          45.000    27008598.484 6 108752406.630 6     -2255.391          40.000
E15  23851616.125 8 125341082.672 8      1625.441          51.000    23851619.625 8  96040647.288 8      1245.432          51.000
E30  22444678.883 8 117947585.142 8     -1263.719          50.000    22444682.141 8  90375425.112 8      -968.307          51.000
> 2020 05 16 12 59  0.0000000  0 16        .000000000000
G18  20323479.766 8 106800647.016 8       423.141          51.000    20323479.898 8  83221307.136 8       329.720          51.000
G20  23931034.297 6 125758426.517 6      3307.824          36.000
G21  20660849.961 8 108573569.926 8       310.191          49.000    20660848.102 8  84602802.975 8       241.708          49.000
G25  24419180.727 7 128323628.116 7     -3503.512          44.000    24419184.805 7  99992449.877 7     -2730.012          44.000
G26  20551983.461 5 108001400.572 5      1239.059          32.000    20551986.766 5  84156931.188 5       965.506          33.000
G31  22437051.797 8 117907494.271 8     -2663.336          48.000    22437051.102 8  91875962.718 8     -2075.327          48.000
R15  21818979.305 7 116593989.941 7     -4060.090          44.000    21818984.336 6  90684212.736 6     -3157.848          41.000
R16  19360033.391 7 103417807.845 7      -640.902          47.000    19360035.789 7  80436088.860 7      -498.483          44.000
R18  19364526.711 6 103369282.538 6      -862.988          40.000    19364530.391 6  80398304.863 6      -671.213          38.000
R19  20766221.734 5 111085295.546 5      2429.992          33.000    20766224.984 6  86399674.118 6      1889.994          37.000
C05  39629729.461 6 206362400.185 6        15.746          36.000    39629729.375 5 159572496.565 5        12.085          35.000
C29  24277907.797 5 126421442.264 5      2465.887          30.000
C30  21515875.820 8 112038923.964 8       157.793          51.000
E02  27025369.477 7 142019206.589 7     -2935.824          44.000    27025368.562 6 108819938.252 6     -2249.650          38.000
E15  23842321.180 8 125292240.745 8      1627.156          51.000    23842325.109 8  96003222.975 8      1246.812          51.000
E30  22451882.867 8 117985446.448 8     -1263.930          50.000    22451887.164 8  90404435.710 8      -968.445          51.000
> 2020 05 16 12 59 30.0000000  0 16        .000000000000
G18  20321113.711 8 106788213.153 8       416.648          51.000    20321114.055 8  83211618.424 8       324.661          51.000
G20  23912154.633 5 125659205.184 5      3318.000          35.000    23912155.000 4  97916262.306 4      2585.482          29.000
G21  20659120.469 8 108564483.452 8       306.449          49.000    20659119.156 8  84595722.615 8       238.792          49.000
G25  24439187.602 7 128428763.609 7     -3494.797          44.000    24439191.961 7 100074373.554 7     -2723.218          44.000
G31  22452283.844 7 117987540.662 7     -2662.293          46.000    22452283.805 7  91938336.495 7     -2074.514          47.000
R15  21841799.586 7 116715934.289 7     -4058.328          47.000    21841803.500 6  90779058.263 6     -3156.480          37.000
R16  19363702.125 7 103437404.901 7      -654.312          47.000    19363704.430 7  80451331.018 7      -508.910          45.000
R18  19369418.484 7 103395394.370 7      -866.656          42.000    19369421.047 6  80418613.982 6      -674.069          38.000
R19  20752632.953 5 111012608.153 5      2427.371          30.000    20752637.047 6  86343139.407 6      1887.955          37.000
C05  39629636.117 5 206361914.117 5        27.941          35.000    39629635.930 6 159572120.702 6        21.531          36.000
C27  23452439.008 5 122123003.300 5     -2346.043          30.000
C29  24263711.820 6 126347519.364 6      2472.914          36.000
C30  21514990.258 8 112034313.139 8       160.395          51.000
E02  27042137.992 7 142107322.710 7     -2927.551          43.000    27042135.484 6 108887455.687 6     -2243.086          37.000
E15  23833054.664 8 125243547.676 8      1629.941          51.000    23833059.133 8  95965912.699 8      1248.961          51.000
E30  22459126.797 8 118023516.111 8     -1263.113          51.000    22459131.945 8  90433605.965 8      -967.840          51.000
