     3.02           OBSERVATION DATA    M (MIXED)           RINEX VERSION / TYPE
SAVERINEX           SC600               20200519 035932 LCL PGM / RUN BY / DATE
       G = GPS       R = GLONASS       C = COMPASS          COMMENT
       S = SBAS      J = QZSS          E = GALILEO          COMMENT
BEAN                                                        MARKER NAME
1                                                           MARKER NUMBER
GEODETIC                                                    MARKER TYPE
Unige DICCA         GTER                                    OBSERVER / AGENCY
SC60291900056       SC600               2.12(191202)        REC # / TYPE / VERS
                    HEMA45          NONE                    ANT # / TYPE
  4509407.8091   693652.4678  4442337.6214                  APPROX POSITION XYZ
        0.0000        0.0000        0.0000                  ANTENNA: DELTA H/E/N
G    8 C1C L1C D1C S1C C2Y L2Y D2Y S2Y                      SYS / # / OBS TYPES
R    8 C1C L1C D1C S1C C2P L2P D2P S2P                      SYS / # / OBS TYPES
C    8 C1I L1I D1I S1I C7I L7I D7I S7I                      SYS / # / OBS TYPES
E    8 C1C L1C D1C S1C C7Q L7Q D7Q S7Q                      SYS / # / OBS TYPES
DBHZ                                                        COMMENT
     30.000                                                 INTERVAL
  2020    05    19    01    00    0.0000000     GPS         TIME OF FIRST OBS
  2020    05    19    01    59   30.0000000     GPS         TIME OF LAST OBS
     0                                                      RCV CLOCK OFFS APPL
G L1C  0.00000                                              SYS / PHASE SHIFT
G L2Y  0.00000                                              SYS / PHASE SHIFT
R L1C  0.00000                                              SYS / PHASE SHIFT
R L2P  0.25000                                              SYS / PHASE SHIFT
C L1I  0.00000                                              SYS / PHASE SHIFT
C L7I  0.00000                                              SYS / PHASE SHIFT
E L1C  0.50000                                              SYS / PHASE SHIFT
E L7Q -0.25000                                              SYS / PHASE SHIFT
 12 R01  1 R02 -4 R03  5 R08  6 R10 -5 R11  0 R12 -1 R13 -2 GLONASS SLOT / FRQ #
    R14 -7 R17  4 R18 -3 R23  3                             GLONASS SLOT / FRQ #
 C1C   71.950 C2C   71.950 C2P   71.950                     GLONASS COD/PHS/BIS
    18                                                      LEAP SECONDS
*** Above antenna height is from mark to ANTENNA BOTTOM.    COMMENT
    17     4        0.0000        ANT MEASURE TYPE/HEIGT    COMMENT
    0.0000    0.0000    0.0458    0.0405    0.0000          COMMENT
                    BASE STATION                            COMMENT
                                                            END OF HEADER
> 2020 05 19 01 00  0.0000000  0 16        .000000000000
G02  22582663.461 5 118672688.307 5     -1072.652          35.000    22582672.406 5  92472267.520 5      -835.833          30.000
G06  22895817.570 6 120318326.450 6     -3095.422          39.000    22895820.312 6  93754536.870 6     -2412.017          40.000
G07  20789144.594 8 109247685.645 8       151.496          51.000    20789142.039 8  85128070.712 8       118.049          51.000
G09  21513317.922 6 113053319.015 6     -2018.973          37.000    21513319.219 6  88093505.489 6     -1573.225          38.000
G30  21352028.734 8 112205658.631 8      2295.484          51.000    21352029.094 8  87433043.026 8      1788.689          51.000
R02  21527132.109 6 114872877.385 6     -2573.129          36.000    21527130.281 5  89345577.669 5     -2001.316          33.000
R03  19541794.438 7 104608838.373 7       312.184          42.000    19541797.609 6  81362390.670 6       242.809          40.000
R12  21255246.609 6 113541693.346 6     -2631.098          39.000
R13  19818152.586 7 105827804.940 7      1617.355          42.000    19818155.070 7  82310532.999 7      1257.946          43.000
R14  22591860.898 5 120427327.771 5      4419.188          30.000    22591865.609 4  93665702.287 4      3437.146          27.000
C05  39807644.031 5 207288847.267 5       -13.758          35.000    39807641.469 6 160288872.841 6       -10.838          39.000
C19  22125177.086 8 115211603.587 8     -1357.047          51.000
C22  22401587.117 5 116650928.228 5      1442.285          31.000
E05  23500512.680 8 123496017.806 8       284.766          51.000    23500514.125 8  94626814.088 8       218.209          51.000
E09  23320224.500 6 122548599.054 6     -1728.777          38.000
E24  23463873.312 8 123303499.905 8      2145.879          51.000    23463886.992 8  94479330.889 8      1644.296          51.000
> 2020 05 19 01 00 30.0000000  0 16        .000000000000
G02  22588839.289 6 118705188.176 6     -1090.402          37.000
G06  22913520.812 6 120411360.505 6     -3106.176          38.000    22913524.766 6  93827031.052 6     -2420.394          38.000
G07  20788333.375 8 109243422.870 8       133.652          51.000    20788330.812 8  85124749.088 8       104.148          51.000
G09  21524870.953 6 113114031.979 6     -2027.629          37.000    21524874.148 6  88140814.295 6     -1579.971          37.000
G30  21338970.953 8 112137038.288 8      2280.164          51.000    21338971.555 8  87379572.627 8      1776.751          51.000
R02  21541620.609 5 114950212.119 5     -2583.586          34.000    21541621.570 5  89405728.153 5     -2009.456          32.000
R03  19540088.203 7 104599705.399 7       297.625          43.000    19540091.820 6  81355287.248 6       231.486          41.000
R12  21270079.727 5 113620961.043 5     -2653.520          31.000
R13  19809147.727 7 105779715.105 7      1589.801          43.000    19809149.375 7  82273129.828 7      1236.515          43.000
R14  22567015.117 4 120294888.413 4      4411.363          29.000
C05  39807730.922 5 207289300.559 5       -15.410          35.000    39807728.375 6 160289222.568 6       -11.871          39.000
C19  22133030.961 8 115252499.204 8     -1368.414          51.000
C22  22393308.102 5 116607837.206 5      1431.969          32.000
E05  23498911.070 8 123487600.080 8       277.492          51.000    23498912.328 8  94620364.151 8       212.639          51.000
E09  23330113.117 5 122600565.776 5     -1734.246          35.000
E24  23451660.852 8 123239320.549 8      2133.660          51.000    23451674.469 8  94430154.492 8      1634.867          51.000
> 2020 05 19 01 01  0.0000000  0 14        .000000000000
G02  22595107.117 6 118738122.207 6     -1103.836          37.000
G06  22931275.680 6 120504663.806 6     -3112.863          38.000    22931284.875 6  93899735.163 6     -2425.596          38.000
G07  20787613.156 8 109239638.552 8       119.801          51.000    20787610.383 8  85121800.289 8        93.351          51.000
G09  21536464.328 6 113174957.598 6     -2032.781          37.000    21536468.328 6  88188288.783 6     -1583.982          36.000
G30  21325990.336 8 112068823.509 8      2268.812          51.000    21325991.055 8  87326418.261 8      1767.906          51.000
R03  19538453.031 7 104590951.075 7       287.199          43.000    19538456.477 6  81348478.297 6       223.377          40.000
R13  19800287.758 7 105732400.462 7      1565.898          44.000    19800288.875 7  82236329.596 7      1217.921          43.000
R14  22542204.172 5 120162639.447 5      4407.160          33.000
C05  39807816.242 5 207289744.930 5       -13.586          35.000    39807813.617 6 160289566.173 6        -9.971          39.000
C19  22140939.656 8 115293680.374 8     -1375.754          51.000
C22  22385076.406 4 116564966.829 4      1425.305          28.000
E05  23497340.391 8 123479345.431 8       274.086          51.000    23497341.578 8  94614039.161 8       209.996          51.000
E09  23340024.492 6 122652642.028 6     -1735.680          39.000
E24  23439507.625 8 123175454.994 8      2125.270          51.000    23439521.656 8  94381218.569 8      1628.456          51.000
> 2020 05 19 01 01 30.0000000  0 14        .000000000000
G02  22601459.844 5 118771498.639 5     -1120.547          35.000
G06  22949075.117 6 120598198.326 6     -3122.855          37.000    22949089.336 6  93972619.379 6     -2433.391          37.000
G07  20786977.273 8 109236297.085 8       103.230          51.000    20786974.148 8  85119196.557 8        80.439          51.000
G09  21548091.523 6 113236060.048 6     -2040.582          37.000    21548093.438 6  88235901.144 6     -1590.064          37.000
G30  21313080.352 8 112000980.745 8      2254.410          51.000    21313081.195 8  87273553.790 8      1756.683          51.000
R02  21570764.500 5 115105783.869 5     -2599.625          33.000    21570762.430 4  89526674.002 4     -2021.912          25.000
R03  19536882.820 7 104582540.947 7       273.879          44.000    19536884.734 6  81341937.068 6       213.020          40.000
R13  19791566.742 7 105685827.998 7      1539.262          44.000    19791567.562 7  82200106.601 7      1197.204          43.000
R14  22517423.000 5 120030549.251 5      4399.172          30.000    22517436.117 4  93357105.340 4      3421.581          28.000
C05  39807893.359 5 207290146.098 5       -13.645          35.000    39807890.812 6 160289876.808 6       -10.484          39.000
C19  22148896.102 8 115335112.466 8     -1385.980          51.000
E05  23495794.070 8 123471219.060 8       268.004          50.000    23495795.211 8  94607812.469 8       205.354          51.000
E09  23349949.367 5 122704792.677 5     -1740.281          35.000
E24  23427407.625 8 123111869.915 8      2114.059          51.000    23427421.766 8  94332497.542 8      1619.929          51.000
> 2020 05 19 01 02  0.0000000  0 14        .000000000000
G02  22607908.242 5 118805380.036 5     -1136.090          34.000
G06  22966930.555 6 120692025.042 6     -3130.758          38.000    22966945.383 6  94045731.203 6     -2439.548          38.000
G07  20786437.820 8 109233462.181 8        87.598          51.000    20786434.750 8  85116987.563 8        68.258          51.000
G09  21559764.578 6 113297402.657 6     -2047.027          37.000    21559766.078 6  88283700.587 6     -1595.092          36.000
G30  21300253.492 8 111933575.349 8      2241.074          51.000    21300254.680 8  87221030.143 8      1746.295          51.000
R03  19535389.461 7 104574541.537 7       261.328          45.000    19535390.195 6  81335715.281 6       203.255          40.000
R12  21315272.125 4 113862348.700 4     -2713.184          28.000
R13  19782996.805 7 105640064.423 7      1513.566          42.000    19782997.508 7  82164512.742 7      1177.218          43.000
R14  22492685.789 5 119898686.795 5      4392.430          32.000    22492699.414 5  93254545.750 5      3416.337          32.000
C05  39807974.555 5 207290569.188 5       -13.273          35.000    39807972.023 6 160290203.559 6       -10.077          39.000
C19  22156913.086 8 115376858.949 8     -1395.316          51.000
E05  23494284.266 8 123463285.296 8       262.797          50.000    23494285.398 8  94601733.349 8       201.370          51.000
E09                                                                  23359895.086 5  94060607.722 5     -1336.072          35.000
E24  23415373.555 8 123048631.033 8      2103.781          51.000    23415387.039 8  94284041.776 8      1611.985          51.000
> 2020 05 19 01 02 30.0000000  0 12        .000000000000
G06  22984832.492 6 120786095.634 6     -3139.480          40.000    22984844.633 6  94119033.090 6     -2446.342          41.000
G07  20785986.102 8 109231088.127 8        71.637          51.000    20785983.188 8  85115137.672 8        55.821          51.000
G09  21571474.680 6 113358939.276 6     -2054.367          41.000    21571476.688 6  88331651.208 6     -1600.809          39.000
G30  21287501.453 8 111866563.437 8      2227.281          51.000    21287502.516 8  87168813.090 8      1735.544          51.000
R03  19533964.109 7 104566907.925 7       248.469          46.000    19533964.211 6  81329778.041 6       193.253          41.000
R13  19774570.039 6 105595065.519 6      1487.113          41.000    19774570.664 7  82129513.590 7      1156.644          44.000
C05  39808051.195 5 207290967.622 5       -13.102          35.000    39808048.547 6 160290511.671 6        -9.772          39.000
C19  22164981.539 8 115418874.923 8     -1404.922          50.000
C22  22360652.781 5 116437762.582 5      1401.016          34.000
E05  23492802.500 8 123455499.047 8       257.254          50.000    23492803.617 8  94595767.273 8       197.102          51.000
E09  23369874.109 6 122809512.563 6     -1747.840          37.000    23369863.844 6  94100744.876 6     -1339.209          36.000
E24  23403397.070 8 122985694.673 8      2092.891          51.000    23403409.750 8  94235817.804 8      1603.629          51.000
> 2020 05 19 01 03  0.0000000  0 13        .000000000000
G06  23002785.320 6 120880435.204 6     -3148.762          41.000    23002793.922 6  94192544.545 6     -2453.578          41.000
G07  20785627.242 8 109229202.344 8        54.852          51.000    20785624.516 8  85113668.237 8        42.745          51.000
G09  21583227.109 6 113420697.508 6     -2062.508          41.000    21583228.766 6  88379774.481 6     -1607.149          41.000
G30  21274829.844 8 111799974.653 8      2212.652          51.000    21274830.547 8  87116925.734 8      1724.145          51.000
R02  21614845.766 6 115340939.911 6     -2626.344          36.000
R03  19532612.219 7 104559670.155 7       234.617          46.000    19532611.906 6  81324148.660 6       182.480          41.000
R13  19766291.969 6 105550862.016 6      1460.051          40.000    19766293.062 7  82095133.074 7      1135.595          43.000
C05  39808128.453 6 207291370.008 6       -13.523          36.000    39808125.781 6 160290822.821 6       -10.321          39.000
C19  22173106.633 8 115461188.407 8     -1415.312          48.000
C22  22352605.992 5 116395868.729 5      1392.113          32.000
E05  23491354.203 8 123447888.824 8       250.828          51.000    23491355.344 8  94589936.055 8       192.202          51.000
E09                                                                  23379854.125 6  94140975.150 6     -1342.415          36.000
E24  23391483.656 8 122923090.707 8      2081.340          51.000    23391496.125 8  94187848.559 8      1594.778          51.000
> 2020 05 19 01 03 30.0000000  0 14        .000000000000
G02  22627789.492 5 118909854.264 5     -1184.770          33.000    22627786.617 5  92657007.997 5      -923.197          33.000
G06  23020788.938 6 120975043.142 6     -3157.551          41.000    23020795.000 6  94266265.016 6     -2460.429          40.000
G07  20785361.695 8 109227806.909 8        38.652          51.000    20785359.086 8  85112580.885 8        30.119          51.000
G09  21595021.875 6 113482678.747 6     -2069.293          40.000    21595023.609 6  88428071.493 6     -1612.439          40.000
G30  21262239.305 8 111733812.601 8      2198.574          51.000    21262239.930 8  87065370.897 8      1713.175          51.000
R02  21629636.406 4 115419888.702 4     -2636.488          29.000    21629642.820 4  89771046.749 4     -2050.602          28.000
R03  19531334.461 7 104552831.757 7       221.719          46.000    19531333.688 6  81318829.923 6       172.451          41.000
R13  19758163.633 6 105507458.165 6      1433.766          41.000    19758164.703 7  82061374.513 7      1115.151          43.000
C05  39808206.805 6 207291778.587 6       -13.676          36.000    39808204.172 6 160291138.773 6       -10.303          40.000
C19  22181289.711 8 115503801.701 8     -1425.113          49.000
C22  22344609.195 5 116354234.126 5      1383.875          32.000
E05  23489939.953 8 123440457.157 8       245.039          51.000    23489941.109 8  94584241.667 8       187.745          51.000
E09  23389877.172 6 122914637.361 6     -1756.168          38.000    23389871.680 6  94181300.235 6     -1345.387          37.000
E24  23379634.234 8 122860823.096 8      2070.281          51.000    23379646.469 8  94140137.017 8      1586.277          51.000
> 2020 05 19 01 04  0.0000000  0 14        .000000000000
G02  22634596.703 6 118945629.845 6     -1199.656          36.000    22634595.805 6  92684885.089 6      -934.797          36.000
G06  23038839.617 6 121069897.389 6     -3165.262          41.000    23038843.625 6  94340177.386 6     -2466.438          40.000
G07  20785185.805 8 109226882.328 8        23.285          51.000    20785183.438 8  85111860.448 8        18.147          51.000
G09  21606855.320 6 113544863.676 6     -2075.836          39.000    21606857.203 6  88476527.137 6     -1617.541          39.000
G30  21249726.555 8 111668059.778 8      2185.270          51.000    21249727.430 8  87014134.931 8      1702.807          51.000
R02  21644498.203 5 115499168.886 5     -2644.250          33.000    21644491.188 4  89832672.598 4     -2056.627          28.000
R03  19530127.789 7 104546374.455 7       209.266          46.000    19530127.352 7  81313807.611 7       162.762          42.000
R13  19750181.484 6 105464836.331 6      1408.230          41.000    19750183.102 7  82028224.210 7      1095.290          44.000
C05  39808282.938 5 207292174.655 5       -12.227          35.000    39808280.328 6 160291445.051 6        -9.838          39.000
C19  22189527.625 8 115546696.119 8     -1434.133          51.000
C22  22336659.836 4 116312841.360 4      1375.852          27.000
E05  23488556.102 8 123433185.445 8       240.047          51.000    23488557.445 8  94578669.836 8       183.995          51.000
E09  23399912.023 6 122967369.856 6     -1759.121          36.000    23399907.930 6  94221705.675 6     -1347.784          36.000
E24  23367845.539 8 122798874.562 8      2059.980          51.000    23367857.672 8  94092669.954 8      1578.400          50.000
> 2020 05 19 01 04 30.0000000  0 14        .000000000000
G02  22641497.828 5 118981897.947 5     -1215.938          35.000    22641496.195 5  92713145.982 5      -947.490          34.000
G06  23056942.617 6 121165023.810 6     -3174.238          41.000    23056944.422 6  94414301.820 6     -2473.435          41.000
G07  20785104.797 8 109226456.844 8         6.797          51.000    20785102.820 8  85111528.907 8         5.296          51.000
G09  21618733.125 7 113607280.105 7     -2083.359          42.000    21618734.422 7  88525163.318 7     -1623.397          42.000
G30  21237297.391 8 111602746.397 8      2170.672          50.000    21237298.664 8  86963241.389 8      1691.433          50.000
R02  21659377.477 5 115578587.650 5     -2653.695          34.000
R03  19528997.609 7 104540329.251 7       195.590          46.000    19528997.672 7  81309105.773 7       152.125          42.000
R12  21392907.898 5 114277072.826 5     -2814.832          32.000
R13  19742351.633 7 105423027.637 7      1381.055          42.000    19742353.992 7  81995706.367 7      1074.154          44.000
C05  39808362.078 5 207292586.880 5       -13.293          35.000    39808359.500 6 160291763.792 6       -10.219          39.000
C19  22197825.242 8 115589900.335 8     -1444.391          51.000
E05  23487208.297 8 123426102.841 8       233.793          51.000    23487209.859 8  94573242.905 8       179.140          51.000
E09  23409968.211 6 123020236.286 6     -1763.328          37.000    23409967.719 5  94262213.657 5     -1351.544          34.000
E24  23356123.406 8 122737275.616 8      2048.301          51.000    23356134.828 8  94045470.744 8      1569.405          49.000
> 2020 05 19 01 05  0.0000000  0 15        .000000000000
G02  22648486.516 6 119018623.127 6     -1231.703          39.000    22648485.320 6  92741762.979 6      -959.769          37.000
G06  23075090.633 6 121260385.099 6     -3182.441          40.000    23075090.234 6  94488609.288 6     -2479.828          39.000
G07  20785112.062 8 109226495.634 8        -8.992          51.000    20785110.227 8  85111559.128 8        -7.007          51.000
G09  21630648.242 7 113669893.247 7     -2090.332          42.000    21630649.172 7  88573952.761 7     -1628.830          42.000
G30  21224945.891 8 111537839.558 8      2156.828          51.000    21224947.273 8  86912664.625 8      1680.645          51.000
R02  21674320.188 5 115658325.981 5     -2662.098          32.000
R03  19527938.539 7 104534662.306 7       182.383          46.000    19527939.445 7  81304698.134 7       141.850          44.000
R12  21408772.477 5 114361775.841 5     -2833.988          33.000
R13  19734668.242 7 105381998.647 7      1354.551          42.000    19734670.562 7  81963794.929 7      1053.539          45.000
R14  22345088.984 5 119111904.041 5      4349.043          31.000    22345102.023 6  92642627.704 6      3382.586          36.000
C05  39808437.922 6 207292981.351 6       -12.875          36.000    39808435.250 6 160292068.843 6        -9.923          39.000
C19  22206175.562 8 115633380.419 8     -1453.879          51.000
E05  23485890.000 8 123419175.400 8       228.402          50.000    23485891.812 8  94567934.870 8       174.974          51.000
E09  23420045.461 6 123073202.324 6     -1767.078          36.000    23420044.992 5  94302798.031 5     -1354.064          32.000
E24  23344461.703 8 122675993.628 8      2037.410          51.000    23344473.008 8  93998514.445 8      1561.109          49.000
> 2020 05 19 01 05 30.0000000  0 13        .000000000000
G02  22655564.852 6 119055820.069 6     -1249.785          40.000    22655564.070 6  92770747.559 6      -973.862          36.000
G06  23093286.211 6 121355994.596 6     -3193.320          38.000    23093283.500 6  94563110.135 6     -2488.302          38.000
G07  20785210.688 8 109227014.514 8       -27.449          51.000    20785209.031 8  85111963.455 8       -21.389          51.000
G09  21642603.586 6 113732718.685 6     -2099.879          40.000    21642604.523 6  88622907.626 6     -1636.269          40.000
G30  21212675.398 8 111473356.994 8      2140.047          51.000    21212676.656 8  86862418.461 8      1667.566          51.000
R02  21689312.352 5 115738330.845 5     -2673.832          34.000    21689333.148 4  90018788.343 4     -2079.647          26.000
R03  19526954.484 7 104529391.508 7       166.820          46.000    19526955.102 7  81300598.620 7       129.752          44.000
R13  19727134.250 7 105341767.721 7      1325.312          42.000    19727136.672 7  81932504.211 7      1030.799          45.000
C05  39808513.375 5 207293375.285 5       -15.250          35.000    39808510.570 6 160292372.703 6       -11.853          40.000
C19  22214581.797 8 115677152.576 8     -1466.156          51.000
E05  23484604.383 8 123412419.765 8       220.043          51.000    23484606.359 8  94562758.474 8       168.625          51.000
E09  23430146.133 6 123126284.295 6     -1773.605          38.000    23430145.945 6  94343471.207 6     -1359.095          36.000
E24  23332863.930 8 122615046.581 8      2023.727          51.000    23332875.141 8  93951814.793 8      1550.564          50.000
> 2020 05 19 01 06  0.0000000  0 14        .000000000000
G02  22662733.516 6 119093496.934 6     -1263.359          37.000    22662733.008 5  92800106.141 5      -984.436          35.000
G06  23111530.555 6 121451858.885 6     -3198.941          36.000    23111525.555 6  94637809.527 6     -2492.682          36.000
G07  20785402.305 8 109228022.783 8       -41.059          51.000    20785401.039 8  85112749.127 8       -31.994          51.000
G09  21654600.750 6 113795765.408 6     -2104.387          39.000    21654601.508 6  88672034.929 6     -1639.782          39.000
G30  21200487.891 8 111409309.648 8      2128.266          51.000    21200488.773 8  86812511.452 8      1658.392          51.000
R02  21704356.500 5 115818611.654 5     -2680.078          35.000    21704371.328 4  90081201.806 4     -2084.511          24.000
R03  19526046.344 7 104524527.706 7       155.906          47.000    19526046.781 7  81296815.660 7       121.260          45.000
R13  19719751.883 7 105302346.256 7      1301.227          42.000    19719754.125 7  81901843.053 7      1012.065          45.000
R14  22296248.867 5 118851574.863 5      4332.590          30.000    22296242.273 5  92440087.489 5      3369.792          35.000
C05  39808590.266 5 207293775.334 5       -13.367          35.000    39808587.578 6 160292682.787 6        -9.868          39.000
C19  22223045.953 8 115721226.438 8     -1473.520          51.000
E05  23483353.383 8 123405845.885 8       216.766          51.000    23483355.422 8  94557721.359 8       166.066          51.000
E09  23440270.961 5 123179491.973 5     -1775.312          32.000    23440274.156 6  94384240.557 6     -1359.700          36.000
E24  23321332.047 8 122554445.766 8      2014.938          51.000    23321343.953 8  93905380.455 8      1543.949          50.000
> 2020 05 19 01 06 30.0000000  0 13        .000000000000
G02  22669989.695 6 119131634.941 6     -1278.379          36.000    22669989.445 5  92829824.059 5      -996.130          35.000
G06  23129819.148 5 121547958.075 5     -3206.340          34.000    23129812.523 5  94712691.977 5     -2498.447          35.000
G07  20785683.711 8 109229502.861 8       -56.664          51.000    20785682.727 8  85113902.428 8       -44.154          51.000
G09  21666636.344 5 113859015.864 5     -2110.617          31.000    21666636.828 5  88721320.990 5     -1644.637          30.000
G30  21188380.164 8 111345682.007 8      2114.430          51.000    21188380.906 8  86762931.490 8      1647.608          51.000
R03  19525211.617 8 104520055.219 8       143.082          48.000    19525211.695 7  81293337.052 7       111.286          45.000
R13  19712518.336 6 105263719.517 6      1274.895          41.000    19712520.742 7  81871800.029 7       991.585          45.000
C05  39808665.570 5 207294166.776 5       -12.426          35.000    39808662.992 6 160292986.287 6        -9.732          40.000
C19  22231564.359 8 115765585.276 8     -1482.918          51.000
C22  22297658.766 5 116109747.900 5      1333.887          33.000
E05  23482133.820 8 123399437.220 8       211.359          51.000    23482135.883 8  94552810.829 8       161.852          51.000
E09  23450416.562 6 123232770.496 6     -1778.582          39.000    23450423.695 5  94425093.316 5     -1362.962          32.000
E24  23309862.953 8 122494176.021 8      2003.887          51.000    23309875.227 8  93859199.753 8      1535.449          50.000
> 2020 05 19 01 07  0.0000000  0 14        .000000000000
G02  22677341.602 6 119170269.928 6     -1294.527          37.000    22677340.805 5  92859929.328 5     -1008.726          35.000
G07  20786061.828 8 109231491.322 8       -73.477          51.000    20786061.234 8  85115451.866 8       -57.254          51.000
G09  21678718.016 5 113922430.769 5     -2118.730          35.000    21678718.266 5  88770793.317 5     -1650.956          34.000
G30  21176359.094 8 111282512.657 8      2099.246          48.000    21176360.477 8  86713708.627 8      1635.776          48.000
R02  21734606.805 4 115980007.630 4     -2699.520          29.000    21734605.359 4  90206680.631 4     -2099.614          27.000
R03  19524456.602 8 104516013.149 8       128.871          48.000    19524456.797 7  81290193.215 7       100.233          45.000
R12  21473327.266 4 114706621.699 4     -2911.461          29.000
R13  19705440.547 6 105225925.824 6      1247.055          41.000    19705443.281 7  81842404.953 7       969.934          44.000
C05  39808746.438 5 207294588.701 5       -13.094          35.000    39808743.836 6 160293311.764 6       -10.327          40.000
C19  22240144.664 8 115810266.054 8     -1493.539          51.000
C22  22290014.805 5 116069930.995 5      1323.707          34.000
E05  23480952.805 8 123393231.362 8       204.754          51.000    23480954.961 8  94548055.680 8       156.901          51.000
E09  23460591.016 6 123286233.154 6     -1783.215          36.000
E24  23298464.133 8 122434276.183 8      1991.695          50.000    23298477.109 8  93813302.457 8      1526.185          51.000
> 2020 05 19 01 07 30.0000000  0 14        .000000000000
G02  22684771.664 6 119209312.515 6     -1310.379          40.000    22684770.914 6  92890352.120 6     -1021.074          36.000
G07  20786519.750 8 109233899.560 8       -89.234          50.000    20786519.734 8  85117328.421 8       -69.533          50.000
G09  21690828.102 5 113986073.054 5     -2126.043          33.000    21690829.336 5  88820384.832 5     -1656.651          32.000
G30  21164407.836 7 111219714.858 7      2085.109          45.000    21164410.797 7  86664775.264 7      1624.761          45.000
R02  21749783.938 5 116061012.330 5     -2706.805          33.000    21749792.820 4  90269699.856 4     -2105.296          27.000
R03  19523765.016 8 104512313.090 8       115.590          48.000    19523765.102 7  81287315.395 7        89.903          45.000
R12  21489730.492 5 114794238.562 5     -2930.719          34.000    21489737.094 4  89284471.964 4     -2279.442          26.000
R13  19698502.523 6 105188878.178 6      1220.527          41.000    19698505.172 7  81813590.115 7       949.299          43.000
R14  22223286.898 5 118462635.976 5      4307.770          35.000    22223298.133 5  92137637.733 5      3350.490          31.000
C05  39808816.031 5 207294950.776 5       -13.078          35.000    39808813.375 6 160293591.736 6       -10.086          39.000
C19  22248769.977 8 115855181.550 8     -1503.016          51.000
E05  23479793.758 8 123387140.560 8       199.211          51.000    23479795.953 8  94543388.700 8       152.636          51.000
E09  23470775.461 6 123339754.112 6     -1787.199          36.000    23470782.828 5  94507115.879 5     -1369.275          33.000
E24  23287119.188 8 122374659.776 8      1980.574          49.000    23287132.969 8  93767622.328 8      1517.571          51.000
> 2020 05 19 01 08  0.0000000  0 14        .000000000000
G02  22692293.008 7 119248834.043 7     -1327.848          43.000    22692291.680 5  92921148.046 5     -1034.690          35.000
G06  23184949.500 5 121837697.586 5     -3232.941          31.000    23184952.125 4  94938498.452 4     -2519.178          29.000
G07  20787071.578 8 109236800.484 8      -107.438          50.000    20787071.867 8  85119588.867 8       -83.718          50.000
G09  21702981.195 5 114049936.694 5     -2135.180          34.000    21702983.422 5  88870150.961 5     -1663.776          33.000
G30  21152542.500 8 111157363.133 8      2068.508          49.000    21152545.789 8  86616189.495 8      1611.824          49.000
R03  19523151.234 7 104509030.798 7        99.914          47.000    19523151.547 7  81284762.495 7        77.708          45.000
R12  21506244.430 5 114882443.493 5     -2952.211          32.000    21506244.992 4  89353075.795 4     -2296.164          29.000
R13  19691718.094 6 105152651.741 6      1191.453          41.000    19691720.836 7  81785414.038 7       926.689          42.000
R14  22199065.336 6 118333506.364 6      4297.207          38.000    22199071.469 4  92037203.652 4      3342.275          26.000
C05  39808888.188 5 207295326.665 5       -15.328          35.000    39808885.594 6 160293882.435 6       -11.995          40.000
C19  22257454.281 8 115900404.354 8     -1515.008          51.000
E05  23478670.609 8 123381238.396 8       191.051          51.000    23478672.805 8  94538866.252 8       146.351          51.000
E09  23480986.141 5 123393406.456 5     -1793.473          33.000    23480994.422 5  94548226.047 5     -1373.875          32.000
E24  23275842.758 8 122315401.710 8      1966.723          50.000    23275857.531 8  93722216.801 8      1506.948          51.000
> 2020 05 19 01 08 30.0000000  0 14        .000000000000
G02  22699903.844 7 119288824.080 7     -1340.086          45.000    22699902.016 6  92952309.088 6     -1044.223          37.000
G06  23203413.961 5 121934728.483 5     -3237.422          32.000    23203418.320 5  95014106.955 5     -2522.666          32.000
G07  20787715.367 8 109240184.249 8      -120.113          49.000    20787715.812 8  85122225.568 8       -93.595          49.000
G09  21715175.641 6 114114017.918 6     -2139.117          36.000    21715177.570 6  88920084.366 6     -1666.845          37.000
G30  21140761.578 8 111095449.832 8      2057.160          51.000    21140763.914 8  86567945.382 8      1602.982          51.000
R03  19522613.922 8 104506158.513 8        89.594          48.000    19522614.938 7  81282528.480 7        69.681          45.000
R12  21522862.547 5 114971255.599 5     -2967.781          34.000    21522864.734 4  89422070.026 4     -2308.274          29.000
R13  19685086.562 7 105117239.445 7      1167.465          42.000    19685089.242 7  81757871.179 7       908.031          42.000
R14  22174891.516 6 118204639.000 6      4291.902          41.000    22174893.812 4  91936960.180 4      3338.155          27.000
C05  39808961.344 5 207295706.681 5       -11.914          35.000    39808958.734 6 160294177.060 6        -9.300          39.000
C19  22266196.078 8 115945925.670 8     -1521.727          51.000
E05  23477581.742 8 123375516.324 8       188.336          51.000    23477583.891 8  94534481.808 8       144.303          51.000
E09  23491219.164 5 123447189.599 5     -1793.625          33.000
E24  23264633.648 8 122256494.636 8      1958.355          51.000    23264648.414 8  93677080.203 8      1500.555          51.000
> 2020 05 19 01 09  0.0000000  0 14        .000000000000
G02  22707590.383 7 119329212.789 7     -1348.355          45.000    22707587.766 6  92983780.800 6     -1050.667          38.000
G06  23221911.156 5 122031924.665 5     -3237.816          33.000    23221915.242 5  95089844.218 5     -2522.971          33.000
G07  20788438.102 8 109243982.193 8      -128.930          50.000    20788438.656 8  85125185.016 8      -100.465          50.000
G09  21727397.586 6 114178244.900 6     -2138.707          37.000    21727399.688 6  88970131.403 6     -1666.522          37.000
G30  21129051.391 8 111033908.127 8      2049.746          51.000    21129052.664 8  86519990.829 8      1597.205          51.000
R03  19522140.953 8 104503628.104 8        83.195          48.000    19522142.195 7  81280560.372 7        64.707          45.000
R12  21539576.250 5 115060529.295 5     -2980.418          35.000    21539578.000 4  89491536.130 4     -2318.100          27.000
R13  19678594.414 6 105082573.189 6      1147.797          41.000    19678597.305 7  81730908.573 7       892.734          42.000
R14  22150755.242 7 118075968.768 7      4290.328          43.000    22150755.625 4  91836880.928 4      3336.922          28.000
C05  39809022.539 5 207296026.404 5        -5.551          35.000    39809019.922 6 160294423.497 6        -3.987          39.000
C19  22274982.227 8 115991677.987 8     -1524.445          51.000
C22  22259903.469 5 115913121.605 5      1296.543          30.000
E05  23476514.273 8 123369906.518 8       189.621          51.000    23476516.281 8  94530183.380 8       145.282          51.000
E24  23253478.797 8 122197872.031 8      1953.812          51.000    23253492.953 8  93632161.576 8      1497.089          51.000
> 2020 05 19 01 09 30.0000000  0 15        .000000000000
G02  22715389.672 7 119370195.505 7     -1369.984          46.000    22715386.000 6  93015715.399 6     -1067.520          37.000
G06  23240474.477 5 122129479.874 5     -3252.586          31.000    23240480.961 5  95165861.302 5     -2534.476          31.000
G07  20789277.234 8 109248390.600 8      -151.129          49.000    20789277.664 8  85128620.143 8      -117.763          50.000
G09  21739684.617 6 114242814.003 6     -2152.422          36.000    21739687.555 6  89020445.032 6     -1677.212          36.000
G30  21117449.242 8 110972936.206 8      2028.898          51.000    21117449.805 8  86472480.253 8      1580.960          51.000
R02  21811046.328 5 116387963.096 5     -2740.480          33.000
R03  19521769.844 8 104501641.425 8        63.168          48.000    19521771.094 7  81279015.165 7        49.131          45.000
R12  21556420.461 5 115150479.598 5     -3004.594          34.000
R13  19672279.961 6 105048854.424 6      1114.207          41.000    19672283.188 7  81704682.883 7       866.605          44.000
R14  22126693.352 7 117947699.310 7      4275.055          43.000    22126691.633 5  91737115.827 5      3325.046          31.000
C05  39809109.281 6 207296477.923 6       -11.254          36.000    39809106.586 6 160294772.674 6        -8.775          39.000
C19  22283850.492 8 116037856.453 8     -1540.480          51.000
E05  23475505.695 8 123364606.286 8       177.594          51.000    23475507.617 8  94526122.164 8       136.018          51.000
E09  23511754.625 5 123555103.551 5     -1800.285          32.000
E24  23242415.570 8 122139732.405 8      1935.949          51.000    23242429.008 8  93587613.035 8      1483.417          51.000
> 2020 05 19 01 10  0.0000000  0 16        .000000000000
G02  22723261.336 7 119411559.834 7     -1384.973          46.000    22723257.320 6  93047947.340 6     -1079.199          38.000
G06  23259064.406 6 122227180.236 6     -3258.703          36.000    23259079.695 5  95241991.360 5     -2539.249          35.000
G07  20790192.203 8 109253197.906 8      -166.605          50.000    20790192.344 8  85132366.111 8      -129.822          50.000
G09  21751996.641 5 114307513.715 5     -2158.211          35.000    21751999.797 5  89070860.392 5     -1681.726          35.000
G30  21105914.945 8 110912324.491 8      2014.723          51.000    21105915.711 8  86425250.353 8      1569.914          51.000
R02  21826484.109 5 116470344.462 5     -2748.801          32.000    21826500.125 4  90588057.856 4     -2137.962          29.000
R03  19521460.734 8 104499984.691 8        50.078          49.000    19521461.812 7  81277726.594 7        38.950          45.000
R12  21573353.109 5 115240916.601 5     -3022.750          34.000
R13  19666103.008 6 105015870.350 6      1087.555          41.000    19666106.383 7  81679028.630 7       845.876          44.000
R14  22102667.312 7 117819620.654 7      4266.262          42.000    22102665.891 5  91637499.132 5      3318.204          35.000
C05  39809181.352 6 207296853.441 6       -10.562          36.000    39809178.703 6 160295063.048 6        -8.445          39.000
C19  22292760.680 8 116084252.167 8     -1549.852          51.000
C22  22245148.828 5 115836317.718 5      1272.777          32.000
E05  23474515.938 8 123359405.084 8       172.129          51.000    23474517.773 8  94522136.821 8       131.897          51.000
E09  23522055.352 5 123609233.714 5     -1804.516          33.000
E24  23231404.328 8 122081866.487 8      1924.645          51.000    23231417.281 8  93543274.241 8      1474.782          51.000
> 2020 05 19 01 10 30.0000000  0 15        .000000000000
G02  22731215.859 7 119453360.631 7     -1401.152          45.000    22731211.469 6  93080519.406 6     -1091.807          39.000
G06  23277692.055 5 122325079.638 5     -3267.648          35.000    23277714.164 5  95318276.517 5     -2546.223          32.000
G07  20791193.953 8 109258460.495 8      -183.578          51.000    20791193.477 8  85136466.828 8      -143.048          51.000
G09  21764344.516 6 114372400.199 6     -2166.539          39.000    21764347.430 6  89121421.296 6     -1688.212          39.000
G30  21094460.055 8 110852130.967 8      1998.883          51.000    21094461.305 8  86378346.314 8      1557.571          51.000
R03  19521223.984 8 104498717.212 8        35.195          50.000    19521225.000 7  81276740.791 7        27.374          45.000
R12  21590389.242 5 115331916.125 5     -3042.594          30.000
R13  19660074.812 7 104983679.834 7      1059.188          42.000    19660078.109 7  81653991.559 7       823.816          45.000
R14  22078687.945 6 117691794.504 6      4256.145          40.000    22078687.984 5  91538078.792 5      3310.335          35.000
C05  39809249.680 5 207297208.270 5       -12.457          35.000    39809247.016 6 160295338.177 6        -9.382          40.000
C19  22301723.094 8 116130921.384 8     -1560.777          51.000
C22  22237849.539 5 115798300.632 5      1262.840          31.000
E05  23473555.844 8 123354360.039 8       165.020          51.000    23473557.602 8  94518271.140 8       126.372          51.000
E09  23532372.297 5 123663450.518 5     -1809.902          31.000    23532380.109 5  94755139.907 5     -1386.724          34.000
E24  23220456.289 8 122024332.642 8      1911.664          51.000    23220468.672 8  93499189.886 8      1464.785          51.000
> 2020 05 19 01 11  0.0000000  0 14        .000000000000
G02  22739265.555 7 119495664.098 7     -1416.676          43.000    22739260.953 6  93113483.158 6     -1103.900          38.000
G06  23296370.875 6 122423243.021 6     -3274.711          38.000    23296393.633 6  95394767.432 6     -2551.726          36.000
G07  20792295.156 8 109264245.638 8      -199.766          51.000    20792294.234 8  85140974.743 8      -155.662          51.000
G09  21776741.000 6 114437540.828 6     -2174.215          39.000    21776743.578 6  89172180.272 6     -1694.193          39.000
G30  21083098.305 8 110792424.973 8      1983.762          51.000    21083099.742 8  86331822.177 8      1545.788          51.000
R03  19521072.859 8 104497909.637 8        20.973          49.000    19521074.336 7  81276112.667 7        16.312          45.000
R13  19654208.672 7 104952353.260 7      1031.617          43.000    19654211.672 7  81629626.456 7       802.369          45.000
R14  22054768.633 6 117564293.854 6      4246.492          36.000    22054771.234 5  91438911.541 5      3302.824          34.000
C05  39809327.289 5 207297612.895 5       -12.324          35.000    39809324.570 6 160295650.308 6        -9.747          40.000
C19  22310751.070 8 116177931.580 8     -1571.020          51.000
C22  22230640.820 4 115760779.766 4      1252.840          27.000
E05  23472638.430 8 123349539.645 8       158.637          51.000    23472640.211 8  94514577.585 8       121.532          51.000
E09                                                                  23542728.617 5  94796811.883 5     -1390.119          35.000
E24  23209584.375 8 121967200.545 8      1899.383          51.000    23209596.094 8  93455413.356 8      1455.386          51.000
> 2020 05 19 01 11 30.0000000  0 12        .000000000000
G02  22747396.164 7 119538395.488 7     -1432.605          42.000    22747392.094 6  93146780.347 6     -1116.313          40.000
G06  23315085.867 6 122521594.066 6     -3282.820          39.000    23315106.219 5  95471404.522 5     -2558.042          34.000
G07  20793481.586 8 109270479.282 8      -216.391          51.000    20793480.281 8  85145832.145 8      -168.616          51.000
G09  21789171.719 6 114502861.773 6     -2181.824          37.000    21789172.562 6  89223079.610 6     -1700.126          38.000
G30  21071815.852 8 110733134.286 8      1968.324          51.000    21071817.469 8  86285621.664 8      1533.759          51.000
R03  19520993.938 8 104497488.267 8         6.449          50.000    19520995.797 7  81275784.929 7         5.016          46.000
R13  19648490.406 7 104921817.060 7      1003.438          42.000    19648493.102 7  81605876.099 7       780.451          45.000
R14  22030895.477 5 117437048.231 5      4235.816          34.000    22030902.680 4  91339942.660 4      3294.518          28.000
C05  39809400.047 5 207297991.767 5       -13.320          35.000    39809397.289 6 160295943.256 6       -10.216          39.000
C19  22319830.500 8 116225209.941 8     -1581.551          51.000
E05  23471749.914 8 123344870.815 8       151.992          51.000    23471751.891 8  94511000.168 8       116.471          51.000
E24  23198775.203 8 121910398.305 8      1886.754          51.000    23198786.922 8  93411889.605 8      1445.677          51.000
> 2020 05 19 01 12  0.0000000  0 14        .000000000000
G02  22755614.031 7 119581584.711 7     -1446.695          42.000    22755611.320 6  93180434.227 6     -1127.295          40.000
G06  23333842.750 6 122620161.655 6     -3288.637          40.000    23333856.297 6  95548210.302 6     -2562.577          38.000
G07  20794759.281 8 109277192.534 8      -231.176          51.000    20794757.430 8  85151063.260 8      -180.137          51.000
G09  21801642.547 6 114568394.067 6     -2186.961          39.000    21801641.977 6  89274143.743 6     -1704.128          38.000
G30  21060618.867 8 110674292.099 8      1954.457          51.000    21060620.570 8  86239770.639 8      1522.954          51.000
R03  19520993.641 8 104497486.866 8        -6.379          50.000    19520995.594 7  81275783.815 7        -4.961          46.000
R13  19642926.445 7 104892105.115 7       977.215          42.000    19642929.023 7  81582766.815 7       760.056          46.000
R14  22007079.500 6 117310093.964 6      4227.703          36.000    22007091.031 4  91241250.093 4      3288.214          26.000
C05  39809474.148 6 207298377.552 6       -12.230          36.000    39809471.445 6 160296241.595 6        -9.433          39.000
C19  22328967.023 8 116272788.257 8     -1590.355          51.000
C22  22216278.531 4 115685991.876 4      1234.141          29.000
E05  23470896.461 8 123340385.907 8       147.133          51.000    23470898.695 8  94507563.678 8       112.672          51.000
E09  23563481.000 6 123826938.174 6     -1821.613          36.000    23563472.164 5  94880337.348 5     -1395.431          30.000
E24  23188035.289 8 121853959.540 8      1875.832          51.000    23188047.430 8  93368644.331 8      1437.320          51.000
> 2020 05 19 01 12 30.0000000  0 13        .000000000000
G02  22763913.586 7 119625201.051 7     -1460.992          43.000    22763912.438 6  93214420.951 6     -1138.439          38.000
G06  23352634.766 6 122718913.417 6     -3294.816          36.000    23352641.305 6  95625159.704 6     -2567.392          36.000
G07  20796122.391 8 109284355.303 8      -246.344          51.000    20796120.383 8  85156644.659 8      -191.956          51.000
G09  21814147.656 6 114634107.916 6     -2193.906          38.000    21814146.484 6  89325349.358 6     -1709.537          38.000
G30  21049501.867 8 110615870.250 8      1940.383          51.000    21049503.273 8  86194247.147 8      1511.987          51.000
R03  19521066.844 8 104497876.619 8       -19.637          51.000    19521068.258 7  81276086.944 7       -15.273          45.000
R13  19637511.391 6 104863188.814 6       950.504          41.000    19637514.266 7  81560276.383 7       739.281          46.000
R14  21983315.727 6 117183405.159 6      4219.070          36.000    21983317.211 5  91142714.309 5      3281.499          35.000
C05  39809544.008 5 207298741.290 5       -11.820          35.000    39809541.297 6 160296522.860 6        -9.028          40.000
C19  22338155.648 8 116320637.283 8     -1599.543          51.000
E05  23470072.531 8 123336055.917 8       141.691          51.000    23470074.938 8  94504245.889 8       108.554          51.000
E09                                                                  23573883.672 5  94922249.848 5     -1398.122          33.000
E24  23177358.328 8 121797856.350 8      1864.438          49.000    23177371.461 8  93325656.186 8      1428.610          51.000
> 2020 05 19 01 13  0.0000000  0 12        .000000000000
G02  22772298.891 7 119669267.379 7     -1475.934          43.000    22772297.188 6  93248758.340 6     -1150.078          36.000
G07  20797575.609 8 109291991.860 8      -261.957          51.000    20797573.453 8  85162595.237 8      -204.122          51.000
G09  21826692.227 6 114700027.612 6     -2200.246          39.000    21826691.625 6  89376715.317 6     -1714.477          39.000
G30  21038469.602 8 110557894.867 8      1925.520          51.000    21038470.625 8  86149071.529 8      1500.405          51.000
R03  19521218.102 8 104498684.432 8       -33.461          51.000    19521219.242 7  81276715.237 7       -26.025          45.000
R13  19632250.023 6 104835094.439 6       923.484          40.000    19632252.820 7  81538425.204 7       718.263          45.000
R14  21959605.883 6 117057011.267 6      4208.551          37.000    21959604.664 6  91044408.044 6      3273.320          39.000
C05  39809614.398 5 207299107.690 5       -11.379          35.000    39809611.711 6 160296806.204 6        -9.031          40.000
C19  22347401.359 8 116368781.814 8     -1609.336          51.000
E05  23469282.906 8 123331906.142 8       135.707          51.000    23469285.312 8  94501066.182 8       104.004          51.000
E09                                                                  23584316.359 5  94964268.548 5     -1401.471          31.000
E24  23166749.727 8 121742115.191 8      1852.473          48.000    23166763.680 8  93282945.436 8      1419.370          50.000
> 2020 05 19 01 13 30.0000000  0 14        .000000000000
G02  22780769.266 6 119713782.012 6     -1490.914          41.000    22780765.227 6  93283445.015 6     -1161.754          37.000
G07  20799118.820 8 109300101.442 8      -277.754          51.000    20799116.297 8  85168914.390 8      -216.432          51.000
G09  21839275.695 6 114766152.583 6     -2207.008          38.000    21839276.133 6  89428241.214 6     -1719.749          38.000
G30  21027522.320 8 110500367.206 8      1910.566          51.000    21027523.023 8  86104244.757 8      1488.750          51.000
R02  21935935.383 5 117054373.125 5     -2810.992          32.000
R03  19521447.320 8 104499911.356 8       -47.523          51.000    19521448.117 7  81277669.511 7       -36.963          46.000
R13  19627142.727 6 104807823.170 6       895.977          39.000    19627145.844 7  81517214.211 7       696.871          46.000
R14  21935950.125 6 116930916.265 6      4198.527          39.000    21935949.320 6  90946334.206 6      3265.521          41.000
C05  39809685.297 5 207299477.090 5       -11.949          35.000    39809682.641 6 160297091.842 6        -9.176          40.000
C19  22356703.672 8 116417221.876 8     -1619.129          51.000
C22  22195174.898 4 115576099.892 4      1209.160          29.000
E05  23468527.602 8 123327937.033 8       129.715          51.000    23468529.984 8  94498024.917 8        99.410          51.000
E09                                                                  23594769.086 5  95006357.620 5     -1404.716          32.000
E24  23156211.148 8 121686737.735 8      1840.277          49.000    23156225.203 8  93240513.333 8      1410.071          50.000
> 2020 05 19 01 14  0.0000000  0 13        .000000000000
G02  22789321.859 6 119758729.798 6     -1505.234          40.000    22789316.633 6  93318469.268 6     -1172.913          37.000
G07  20800749.305 8 109308670.217 8      -293.168          51.000    20800746.812 8  85175591.369 8      -228.443          51.000
G09  21851895.305 5 114832468.855 5     -2213.957          34.000    21851895.492 5  89479916.275 5     -1725.155          33.000
G30  21016658.062 8 110443275.035 8      1895.836          51.000    21016658.453 8  86059757.313 8      1477.275          51.000
R02  21951767.055 6 117138837.849 6     -2819.270          36.000    21951773.930 4  91108012.494 4     -2192.765          26.000
R03  19521752.281 8 104501545.208 8       -61.211          51.000    19521753.156 7  81278940.281 7       -47.609          46.000
R13  19622186.953 6 104781362.792 6       868.598          38.000    19622190.781 7  81496633.909 7       675.576          46.000
R14  21912347.234 7 116805110.653 7      4188.906          42.000    21912347.953 7  90848485.423 7      3258.041          42.000
C05                                                                  39809751.625 6 160297369.483 6        -9.198          40.000
C19  22366060.266 8 116465944.187 8     -1628.715          51.000
E05  23467804.242 8 123324135.636 8       124.000          51.000    23467806.492 8  94495112.158 8        95.013          51.000
E09                                                                  23605246.547 5  95048536.730 5     -1406.904          35.000
E24  23145740.117 8 121631712.122 8      1828.328          49.000    23145754.570 8  93198350.837 8      1401.005          51.000
> 2020 05 19 01 14 30.0000000  0 12        .000000000000
G02  22797958.898 7 119804118.196 7     -1521.203          43.000    22797954.656 6  93353836.847 6     -1185.353          39.000
G07  20802468.742 8 109317706.504 8      -310.121          51.000    20802466.500 8  85182632.640 8      -241.653          51.000
G30  21005878.680 8 110386628.748 8      1879.750          51.000    21005879.008 8  86015617.350 8      1464.740          51.000
R03  19522135.602 8 104503596.454 8       -76.441          51.000    19522136.266 7  81280535.680 7       -59.454          47.000
R13  19617384.930 6 104755722.904 6       840.117          39.000    19617389.242 7  81476691.755 7       653.424          45.000
R14  21888801.469 7 116679607.861 7      4177.215          43.000    21888803.836 7  90750872.143 7      3248.948          44.000
C05  39809823.055 5 207300194.670 5       -12.625          35.000    39809820.422 6 160297646.366 6       -10.058          40.000
C19  22375473.070 8 116514957.943 8     -1639.676          51.000
C22  22181366.812 4 115504197.298 4      1187.852          29.000
E05  23467114.578 8 123320511.612 8       116.836          51.000    23467116.688 8  94492335.310 8        89.503          51.000
E09                                                                  23615747.227 5  95090804.249 5     -1411.121          34.000
E24  23135338.047 8 121577049.102 8      1814.965          49.000    23135352.938 8  93156466.213 8      1390.714          51.000
> 2020 05 19 01 15  0.0000000  0 13        .000000000000
G02  22806674.953 7 119849919.908 7     -1531.992          45.000    22806672.070 6  93389526.478 6     -1193.760          41.000
G07  20804272.078 8 109327184.166 8      -321.508          51.000    20804269.875 8  85190017.831 8      -250.526          51.000
G30  20995179.516 8 110330403.989 8      1868.719          51.000    20995179.820 8  85971805.854 8      1456.144          51.000
R02  21983573.906 5 117308561.427 5     -2834.387          31.000
R03  19522592.641 8 104506040.518 8       -86.363          51.000    19522593.062 7  81282436.606 7       -67.171          47.000
R12  21748275.023 5 116175374.491 5     -3199.098          32.000
R13  19612732.250 6 104730878.886 6       816.633          40.000    19612736.672 7  81457368.626 7       635.159          45.000
R14  21865308.383 7 116554385.759 7      4171.047          44.000    21865311.922 7  90653477.203 7      3244.148          44.000
C05  39809886.844 5 207300527.098 5        -8.762          35.000    39809884.133 6 160297903.026 6        -7.029          40.000
C19  22384936.883 8 116564237.835 8     -1645.457          51.000
C22  22174551.500 5 115468663.946 5      1181.793          32.000
E05  23466453.883 8 123317039.829 8       114.688          51.000    23466455.836 8  94489675.115 8        87.940          51.000
E24  23125000.492 8 121522724.688 8      1806.734          49.000    23125015.141 8  93114841.021 8      1384.168          49.000
> 2020 05 19 01 15 30.0000000  0 11        .000000000000
G02  22815474.922 7 119896161.087 7     -1553.219          45.000    22815472.438 7  93425558.604 7     -1210.297          42.000
G07  20806164.477 8 109337130.185 8      -343.973          50.000    20806162.461 8  85197767.973 8      -268.031          50.000
G30  20984566.062 8 110274629.770 8      1847.094          51.000    20984566.445 8  85928345.426 8      1439.294          51.000
R03  19523128.188 8 104508906.778 8      -107.262          51.000    19523128.344 7  81284665.924 7       -83.426          47.000
R12  21766300.891 4 116271672.538 4     -3223.832          27.000
R13  19608234.516 6 104706859.502 6       782.113          41.000    19608238.828 7  81438686.901 7       608.313          43.000
R14  21841874.789 7 116429476.706 7      4153.617          44.000    21841878.758 7  90556325.704 7      3230.591          44.000
C05  39809950.867 6 207300859.443 6       -15.777          36.000    39809948.164 6 160298160.784 6       -12.303          40.000
C19  22394457.117 8 116613811.362 8     -1661.879          51.000
E05  23465827.516 8 123313748.494 8       102.059          51.000    23465829.391 8  94487153.181 8        78.228          51.000
E24  23114733.164 8 121468768.206 8      1787.754          51.000    23114746.586 8  93073497.732 8      1369.825          49.000
> 2020 05 19 01 16  0.0000000  0 14        .000000000000
G02  22824367.484 7 119942889.232 7     -1560.965          45.000    22824365.227 7  93461970.177 7     -1216.333          43.000
G06  23485230.039 5 123415701.283 5     -3337.293          30.000
G07  20808155.297 8 109347593.266 8      -352.668          51.000    20808153.773 8  85205921.030 8      -274.806          51.000
G09  21902750.617 5 115099730.981 5     -2237.781          30.000
G30  20974047.781 8 110219356.581 8      1838.738          51.000    20974048.461 8  85885275.414 8      1432.783          51.000
R02  22015558.086 5 117479235.234 5     -2850.695          31.000
R03  19523752.109 8 104512246.978 8      -114.449          51.000    19523752.344 7  81287263.851 7       -89.019          47.000
R13  19603900.883 7 104683716.337 7       761.621          42.000    19603904.266 7  81420686.682 7       592.372          42.000
R14  21818510.711 7 116304934.740 7      4149.953          43.000    21818514.586 7  90459459.727 7      3227.741          43.000
C05  39810024.570 5 207301244.409 5        -8.738          35.000    39810021.906 6 160298457.704 6        -6.814          40.000
C19  22404043.023 8 116663727.513 8     -1664.910          51.000
E05  23465245.047 8 123310687.466 8       102.906          51.000    23465246.836 8  94484807.716 8        78.856          51.000
E09  23647366.344 5 124267749.249 5     -1849.484          33.000    23647373.266 5  95218174.600 5     -1417.215          34.000
E24  23104545.844 8 121415230.605 8      1782.309          51.000    23104558.336 8  93032475.421 8      1365.638          50.000
> 2020 05 19 01 16 30.0000000  0 13        .000000000000
G02  22833329.859 7 119989985.434 7     -1578.680          46.000    22833327.891 7  93498668.515 7     -1230.137          42.000
G06  23504302.523 5 123515944.146 5     -3345.809          32.000    23504308.094 5  96246220.199 5     -2607.121          31.000
G07  20810222.102 8 109358455.548 8      -371.508          50.000    20810220.922 8  85214385.125 8      -289.487          50.000
G30  20963602.664 8 110164468.472 8      1820.418          51.000    20963603.734 8  85842505.465 8      1418.511          51.000
R02  22031621.867 6 117564955.952 6     -2863.543          36.000
R03  19524442.297 8 104515942.877 8      -131.977          51.000    19524442.766 7  81290138.439 7      -102.648          47.000
R13  19599709.312 7 104661331.179 7       730.719          43.000    19599711.953 7  81403276.063 7       568.340          42.000
R14  21795194.359 7 116180645.002 7      4135.863          43.000    21795197.195 7  90362789.900 7      3216.783          42.000
C05                                                                  39810083.156 6 160298704.129 6        -9.608          40.000
C19  22413672.461 8 116713870.201 8     -1677.906          51.000
E05  23464684.234 8 123307740.074 8        93.703          51.000    23464685.938 8  94482549.323 8        71.798          51.000
E09  23657944.406 5 124323338.731 5     -1856.801          33.000
E24  23094416.234 8 121361996.306 8      1766.797          51.000    23094428.742 8  92991685.513 8      1353.794          50.000
> 2020 05 19 01 17  0.0000000  0 15        .000000000000
G02  22842385.852 7 120037574.279 7     -1591.914          44.000    22842383.812 7  93535750.723 7     -1240.456          42.000
G06  23523422.766 4 123616421.404 4     -3350.828          29.000    23523429.391 4  96324511.365 4     -2611.032          29.000
G07  20812388.906 8 109369842.789 8      -385.754          50.000    20812387.773 8  85223258.294 8      -300.587          50.000
G09  21928398.672 5 115234540.725 5     -2252.945          32.000    21928400.602 4  89793131.976 4     -1755.536          29.000
G30  20953255.297 8 110110093.242 8      1806.570          51.000    20953256.656 8  85800135.150 8      1407.717          51.000
R02  22047749.867 5 117650996.640 5     -2870.172          33.000
R03  19525223.211 8 104520124.807 8      -144.891          51.000    19525224.117 7  81293391.033 7      -112.693          47.000
R13  19595683.938 7 104639833.127 7       704.316          42.000    19595685.578 7  81386555.396 7       547.805          42.000
R14  21771950.766 6 116056740.278 6      4126.121          41.000    21771951.703 6  90266419.584 6      3209.205          41.000
C05  39810158.625 5 207301942.124 5       -11.102          35.000    39810155.914 6 160298997.215 6        -8.572          40.000
C19  22423369.281 8 116764364.989 8     -1686.445          50.000
C22  22147781.609 5 115329314.210 5      1142.121          30.000
E05  23464169.164 8 123305033.487 8        88.801          51.000    23464170.906 8  94480475.439 8        68.033          51.000
E09  23668557.883 6 124379108.829 6     -1859.555          36.000    23668556.703 5  95303465.760 5     -1424.901          32.000
E24  23084368.406 8 121309193.481 8      1755.477          51.000    23084381.039 8  92951226.223 8      1345.016          50.000
> 2020 05 19 01 17 30.0000000  0 14        .000000000000
G02  22851513.039 7 120085539.392 7     -1605.594          44.000    22851511.250 7  93573126.148 7     -1251.112          43.000
G06  23542565.078 5 123717015.895 5     -3355.160          31.000    23542573.039 5  96402906.890 5     -2614.404          31.000
G07  20814633.828 8 109381639.563 8      -400.434          50.000    20814632.656 8  85232450.572 8      -312.026          50.000
G30  20942984.242 8 110056117.272 8      1792.160          51.000    20942985.602 8  85758075.955 8      1396.488          51.000
R02  22063915.773 5 117737279.985 5     -2878.633          30.000    22063916.094 4  91573442.690 4     -2238.937          25.000
R03  19526073.703 8 104524677.341 8      -158.328          51.000    19526074.102 7  81296931.905 7      -123.144          47.000
R13  19591802.766 6 104619107.330 6       677.703          41.000    19591804.102 7  81370435.374 7       527.102          43.000
R14  21748758.453 5 115933108.000 5      4116.031          34.000    21748757.070 6  90170261.158 6      3201.355          39.000
C05  39810221.109 5 207302267.890 5       -10.000          35.000    39810218.438 6 160299249.156 6        -8.062          40.000
C19  22433111.641 8 116815098.167 8     -1695.527          49.000
C22  22141226.969 4 115295180.462 4      1133.098          29.000
E05  23463678.117 8 123302453.406 8        83.449          51.000    23463680.070 8  94478498.487 8        63.963          51.000
E09  23679184.797 5 124434955.738 5     -1862.363          32.000    23679186.969 5  95346249.203 5     -1427.380          35.000
E24  23074381.156 8 121256708.917 8      1743.789          51.000    23074393.492 8  92911010.774 8      1336.099          50.000
> 2020 05 19 01 18  0.0000000  0 13        .000000000000
G02  22860729.023 7 120133972.798 7     -1621.684          43.000    22860727.711 7  93610866.449 7     -1263.650          43.000
G07  20816974.281 8 109393938.761 8      -417.828          50.000    20816973.125 8  85242034.386 8      -325.580          50.000
G09  21954202.266 5 115370110.238 5     -2267.320          35.000    21954202.664 6  89898790.553 6     -1766.737          36.000
G30  20932807.336 8 110002635.629 8      1775.121          51.000    20932808.500 8  85716401.949 8      1383.211          51.000
R03  19527011.539 8 104529697.060 8      -174.547          51.000    19527011.664 7  81300836.131 7      -135.759          47.000
R13  19588084.070 6 104599249.311 6       647.980          40.000    19588085.758 7  81354990.275 7       503.988          44.000
R14  21725628.148 6 115809847.855 6      4102.848          36.000    21725632.969 6  90074391.933 6      3191.101          39.000
C05  39810291.398 5 207302632.722 5       -11.996          35.000    39810288.703 6 160299532.035 6        -9.566          40.000
C19  22442918.070 8 116866162.802 8     -1707.074          51.000
C22  22134736.023 5 115261364.116 5      1121.969          33.000
E05  23463229.047 8 123300094.198 8        75.484          51.000    23463231.188 8  94476690.776 8        57.845          51.000
E09                                                                  23689844.953 5  95389153.712 5     -1432.076          33.000
E24  23064472.805 8 121204638.053 8      1729.359          51.000    23064484.758 8  92871112.320 8      1325.088          51.000
> 2020 05 19 01 18 30.0000000  0 14        .000000000000
G02  22870018.617 7 120182791.798 7     -1632.910          42.000    22870017.055 7  93648907.210 7     -1272.398          42.000
G07  20819394.969 8 109406658.926 8      -429.980          51.000    20819393.406 8  85251946.185 8      -335.050          51.000
G09  21967153.047 5 115438164.764 5     -2270.445          32.000
G30  20922708.898 8 109949568.307 8      1763.043          51.000    20922709.984 8  85675050.808 8      1373.803          51.000
R02  22096389.617 4 117910565.129 4     -2893.488          28.000
R03  19528021.516 8 104535102.958 8      -185.602          51.000    19528022.008 8  81305040.712 8      -144.357          48.000
R13  19584512.008 6 104580177.048 6       623.703          36.000    19584514.352 7  81340156.274 7       485.102          45.000
R14  21702558.523 7 115686880.776 7      4094.941          43.000    21702564.164 6  89978750.914 6      3184.954          39.000
C05  39810354.000 5 207302958.384 5        -9.586          35.000    39810351.148 6 160299783.815 6        -7.059          40.000
C19  22452772.914 8 116917478.543 8     -1713.773          51.000
C22  22128293.031 6 115227804.090 6      1115.664          37.000
E05  23462806.727 8 123297875.249 8        72.633          51.000    23462808.812 8  94474990.533 8        55.660          51.000
E09  23700516.156 5 124547053.420 5     -1869.445          35.000
E24  23054627.930 8 121152901.310 8      1719.957          51.000    23054640.008 8  92831469.900 8      1317.901          51.000
> 2020 05 19 01 19  0.0000000  0 13        .000000000000
G02  22879394.031 7 120232060.375 7     -1649.121          44.000    22879391.438 6  93687298.273 6     -1285.029          41.000
G06  23600214.633 5 124019960.068 5     -3373.871          34.000
G07  20821908.180 8 109419865.351 8      -447.551          50.000    20821906.570 8  85262236.916 8      -348.741          51.000
G30  20912702.125 8 109896982.609 8      1745.492          51.000    20912703.117 8  85634074.935 8      1360.124          51.000
R02  22112699.070 5 117997585.915 5     -2905.141          35.000
R03  19529115.977 8 104540963.358 8      -202.215          51.000    19529117.180 8  81309598.783 8      -157.281          48.000
R13  19581099.664 6 104561958.752 6       593.980          36.000    19581102.969 7  81325986.452 7       461.985          46.000
R14  21679559.406 7 115564278.419 7      4081.410          47.000    21679564.438 6  89883393.609 6      3174.433          40.000
C05  39810421.500 5 207303310.634 5       -11.500          35.000    39810418.656 6 160300055.458 6        -8.874          40.000
C19  22462688.625 8 116969110.996 8     -1725.656          51.000
C22  22121908.195 6 115194560.515 6      1103.453          36.000
E05  23462423.852 8 123295863.258 8        64.289          51.000    23462425.828 8  94473448.872 8        49.281          51.000
E24  23044859.500 8 121101566.337 8      1705.117          51.000    23044871.422 8  92792135.322 8      1306.509          51.000
> 2020 05 19 01 19 30.0000000  0 14        .000000000000
G02  22888839.758 7 120281696.954 7     -1662.945          44.000    22888835.883 6  93725976.099 6     -1295.805          41.000
G06  23619481.914 5 124121210.417 5     -3378.945          35.000    23619478.969 6  96717819.105 6     -2632.944          36.000
G07  20824498.516 8 109433477.247 8      -462.820          51.000    20824497.031 8  85272843.598 8      -360.639          51.000
G30  20902772.031 8 109844799.702 8      1730.426          51.000    20902773.023 8  85593412.915 8      1348.384          51.000
R02  22129051.391 5 118084825.558 5     -2913.270          31.000    22129050.562 4  91843779.762 4     -2265.882          26.000
R03  19530280.578 8 104547198.285 8      -216.480          51.000    19530281.797 8  81314448.154 8      -168.374          48.000
R13  19577832.359 6 104544513.608 6       566.484          38.000    19577836.242 7  81312417.966 7       440.599          46.000
R14  21656614.914 8 115441963.668 8      4069.996          48.000    21656618.188 6  89788260.005 6      3165.553          41.000
C05  39810478.703 5 207303608.496 5       -11.164          35.000    39810475.914 6 160300285.785 6        -8.593          40.000
C19  22472649.750 8 117020980.971 8     -1735.176          51.000
C22  22115570.156 6 115161555.467 6      1093.797          38.000
E05  23462065.242 8 123293978.784 8        58.375          51.000    23462067.234 8  94472004.924 8        44.771          51.000
E09  23721915.852 5 124659522.959 5     -1878.977          34.000    23721918.062 5  95518333.758 5     -1439.984          31.000
E24  23035152.445 8 121050554.776 8      1692.703          51.000    23035164.305 8  92753048.553 8      1297.009          51.000
> 2020 05 19 01 20  0.0000000  0 13        .000000000000
G02  22898375.359 7 120331806.227 7     -1679.422          46.000    22898371.617 7  93765022.283 7     -1308.637          42.000
G06  23638790.945 5 124222673.880 5     -3387.152          31.000    23638784.852 5  96796881.506 5     -2639.339          32.000
G07  20827186.211 8 109447600.555 8      -480.582          51.000    20827184.383 8  85283848.779 8      -374.480          51.000
G30  20892938.977 8 109793127.361 8      1712.551          51.000    20892940.008 8  85553148.756 8      1334.458          51.000
R03  19531536.039 8 104553917.685 8      -233.379          51.000    19531536.727 8  81319674.360 8      -181.517          48.000
R13  19574730.469 6 104527950.827 6       535.805          39.000    19574734.641 7  81299535.777 7       416.737          46.000
R14  21633745.102 8 115320048.983 8      4055.812          48.000    21633747.148 7  89693437.506 7      3154.521          43.000
C05  39810545.922 5 207303958.878 5       -14.086          35.000    39810543.203 6 160300556.730 6       -10.672          40.000
C19  22482676.812 8 117073194.184 8     -1747.410          51.000
C22  22109298.789 6 115128896.267 6      1081.629          38.000
E05  23461751.305 8 123292329.067 8        49.746          51.000    23461753.383 8  94470740.853 8        38.114          51.000
E09  23732657.398 6 124715972.340 6     -1886.121          36.000
E24  23025527.148 8 120999974.818 8      1677.551          51.000    23025539.562 8  92714292.496 8      1285.369          51.000
> 2020 05 19 01 20 30.0000000  0 12        .000000000000
G02  22907992.094 7 120382342.040 7     -1691.418          46.000    22907989.375 7  93804400.827 7     -1317.988          43.000
G07  20829962.594 8 109462190.363 8      -494.000          51.000    20829960.602 8  85295217.463 8      -384.935          51.000
G30  20883194.656 8 109741922.411 8      1699.121          51.000    20883195.758 8  85513248.809 8      1323.994          51.000
R03  19532873.805 8 104561077.636 8      -245.934          51.000    19532874.352 8  81325243.197 8      -191.282          48.000
R13  19571785.961 6 104512226.271 6       510.055          41.000    19571790.109 7  81287305.583 7       396.709          46.000
R14  21610942.305 8 115198493.405 8      4045.898          49.000    21610944.320 7  89598894.303 7      3146.810          45.000
C05  39810614.789 5 207304317.134 5       -12.008          35.000    39810612.180 6 160300834.533 6        -9.388          40.000
C19  22492761.109 8 117125706.745 8     -1755.336          50.000
C22  22103085.172 6 115096540.284 6      1073.293          36.000
E05  23461473.758 8 123290870.348 8        45.555          51.000    23461475.953 8  94469623.138 8        34.888          51.000
E09  23743422.023 6 124772548.300 6     -1887.785          37.000
E24  23015975.477 8 120949783.697 8      1666.625          50.000    23015988.906 8  92675834.360 8      1277.027          51.000
> 2020 05 19 01 21  0.0000000  0 13        .000000000000
G02  22917682.219 7 120433263.416 7     -1703.977          45.000    22917680.484 7  93844079.827 7     -1327.774          44.000
G06  23677483.852 5 124426016.482 5     -3394.262          33.000
G07  20832820.133 8 109477206.543 8      -507.848          51.000    20832818.203 8  85306918.392 8      -395.725          51.000
G30  20873532.070 8 109691146.827 8      1685.117          51.000    20873533.312 8  85473683.440 8      1313.081          51.000
R03  19534286.469 8 104568639.714 8      -258.961          51.000    19534286.945 8  81331124.811 8      -201.417          48.000
R13  19568991.078 7 104497300.069 7       484.438          42.000    19568994.820 7  81275696.324 7       376.785          45.000
R14  21588200.031 8 115077261.265 8      4035.473          50.000    21588202.281 7  89504602.643 7      3138.701          47.000
C05  39810678.086 5 207304646.686 5       -11.145          35.000    39810675.484 6 160301089.333 6        -8.189          40.000
C19  22502895.477 8 117178479.983 8     -1763.629          50.000
C22  22096921.789 6 115064450.432 6      1064.840          36.000
E05  23461225.195 8 123289564.035 8        40.781          51.000    23461227.609 8  94468622.191 8        31.242          51.000
E09  23754204.945 6 124829212.016 6     -1890.707          40.000
E24  23006490.477 8 120899943.768 8      1655.250          49.000    23006504.820 8  92637645.296 8      1268.237          51.000
> 2020 05 19 01 21 30.0000000  0 14        .000000000000
G02  22927448.117 7 120484581.783 7     -1718.027          46.000    22927446.023 7  93884068.169 7     -1338.723          44.000
G06  23696871.461 5 124527890.220 5     -3399.051          33.000
G07  20835761.227 8 109492661.433 8      -523.270          51.000    20835759.172 8  85318961.165 8      -407.742          51.000
G30  20863954.078 8 109640814.882 8      1669.480          51.000    20863955.375 8  85434463.761 8      1300.897          51.000
R02  22194951.203 5 118436511.292 5     -2947.129          32.000    22194951.648 4  92117288.170 4     -2292.208          27.000
R03  19535777.023 8 104576618.388 8      -273.766          51.000    19535777.578 8  81337330.428 8      -212.929          48.000
R13  19566348.180 7 104483186.197 7       456.230          43.000    19566351.664 7  81264718.897 7       354.846          45.000
R14  21565521.477 8 114956369.964 8      4023.145          51.000    21565524.172 8  89410576.071 8      3129.112          49.000
C05  39810738.234 5 207304959.816 5       -11.277          35.000    39810735.648 6 160301331.496 6        -8.449          40.000
C19  22513082.570 8 117231526.932 8     -1773.566          51.000
C22  22090811.930 5 115032640.932 5      1054.230          32.000
E05  23461008.227 8 123288423.893 8        34.426          51.000    23461010.898 8  94467748.571 8        26.390          51.000
E09  23765006.930 6 124885976.899 6     -1895.086          37.000
E24  22997075.523 8 120850469.770 8      1642.113          50.000    22997090.469 8  92599736.628 8      1258.258          51.000
> 2020 05 19 01 22  0.0000000  0 13        .000000000000
G02  22937294.664 7 120536325.053 7     -1733.125          46.000    22937291.969 7  93924387.571 7     -1350.487          44.000
G06  23716286.219 5 124629938.202 5     -3404.711          35.000
G07  20838791.336 8 109508584.329 8      -539.750          51.000    20838789.141 8  85331368.625 8      -420.584          51.000
G30  20854466.648 8 109590957.582 8      1652.699          51.000    20854467.789 8  85395613.925 8      1287.818          51.000
R03  19537351.320 8 104585045.675 8      -289.684          51.000    19537351.773 8  81343884.973 8      -225.309          48.000
R13  19563863.758 7 104469916.386 7       427.156          43.000    19563866.656 7  81254397.953 7       332.236          44.000
R14  21542913.461 8 114835854.033 8      4009.676          51.000    21542916.359 8  89316841.446 8      3118.637          50.000
C05  39810800.953 5 207305286.412 5       -12.504          35.000    39810798.445 6 160301584.039 6        -9.551          40.000
C19  22523328.078 8 117284877.316 8     -1784.707          51.000
C22  22084761.789 5 115001142.934 5      1043.348          33.000
E05  23460828.711 8 123287480.380 8        26.879          51.000    23460831.516 8  94467025.614 8        20.602          51.000
E09  23775833.555 6 124942848.199 6     -1899.895          37.000
E24  22987736.727 8 120801393.086 8      1627.906          50.000    22987751.695 8  92562132.408 8      1247.405          51.000
> 2020 05 19 01 22 30.0000000  0 13        .000000000000
G02  22947219.531 7 120588480.228 7     -1744.848          46.000    22947216.250 7  93965027.939 7     -1359.622          45.000
G06  23735734.320 5 124732134.234 5     -3408.113          34.000
G07  20841908.359 8 109524963.510 8      -553.168          51.000    20841906.266 8  85344131.625 8      -431.040          51.000
G30  20845067.734 8 109541565.036 8      1639.051          51.000    20845068.750 8  85357126.233 8      1277.182          51.000
R03  19539007.539 8 104593911.520 8      -302.434          51.000    19539007.891 8  81350780.626 8      -235.226          48.000
R13  19561534.727 7 104457478.911 7       401.082          43.000    19561537.195 7  81244724.406 7       311.953          43.000
R14  21520374.414 8 114715706.377 8      3999.148          50.000    21520377.508 8  89223393.255 8      3110.446          51.000
C05  39810864.188 6 207305615.924 6       -10.613          36.000    39810861.797 6 160301838.842 6        -8.198          40.000
C19  22533629.766 8 117338520.281 8     -1792.602          51.000
C22  22078770.961 6 114969947.130 6      1035.367          37.000
E05  23460684.656 8 123286723.106 8        22.527          51.000    23460687.484 8  94466445.363 8        17.279          51.000
E09  23786684.109 6 124999865.098 6     -1902.141          36.000
E24  22978471.625 8 120752704.264 8      1616.906          50.000    22978486.258 8  92524825.391 8      1238.937          51.000
> 2020 05 19 01 23  0.0000000  0 13        .000000000000
G02  22957210.516 7 120640983.644 7     -1756.062          47.000    22957207.320 7  94005939.687 7     -1368.360          44.000
G06  23755197.047 5 124834412.592 5     -3411.086          33.000    23755192.891 5  97273559.032 5     -2657.989          33.000
G07  20845100.055 8 109541735.864 8      -565.836          51.000    20845098.227 8  85357201.004 8      -440.911          51.000
G30  20835745.594 8 109492576.066 8      1625.980          51.000    20835746.547 8  85318953.028 8      1266.998          51.000
R03  19540734.109 8 104603153.950 8      -314.559          51.000    19540734.305 8  81357969.174 8      -244.657          48.000
R13  19559349.906 7 104445811.495 7       375.750          42.000    19559352.117 7  81235649.775 7       292.250          44.000
R14  21497892.617 8 114595868.063 8      3989.078          49.000    21497896.523 8  89130185.637 8      3102.613          51.000
C05  39810916.242 5 207305886.953 5        -8.477          35.000    39810913.812 6 160302048.411 6        -6.222          40.000
C19  22543975.672 8 117392394.303 8     -1799.910          51.000
C22  22072826.320 5 114938993.357 5      1027.309          34.000
E05  23460564.352 8 123286090.516 8        18.793          51.000    23460567.133 8  94465960.643 8        14.442          51.000
E09  23797545.633 5 125056945.785 5     -1903.637          32.000
E24  22969268.828 8 120704342.681 8      1606.363          51.000    22969282.969 8  92487769.116 8      1230.874          51.000
> 2020 05 19 01 23 30.0000000  0 11        .000000000000
G02  22967299.141 7 120694003.149 7     -1772.289          45.000    22967297.062 7  94047253.596 7     -1381.004          45.000
G07  20848398.602 8 109559070.676 8      -583.766          51.000    20848396.945 8  85370708.649 8      -454.882          51.000
G30  20826532.820 8 109444161.881 8      1607.652          51.000    20826533.703 8  85281227.711 8      1252.716          51.000
R03  19542563.695 8 104612947.490 8      -332.023          50.000    19542564.023 8  81365586.376 8      -258.240          48.000
R13  19557341.508 6 104435087.299 6       345.293          41.000    19557343.758 7  81227308.765 7       268.561          44.000
R14  21475501.172 8 114476515.553 8      3973.762          48.000    21475506.445 8  89037355.866 8      3090.704          50.000
C05  39810989.523 5 207306268.243 5       -11.191          35.000    39810987.016 6 160302343.258 6        -8.657          40.000
C19  22554398.359 8 117446667.878 8     -1812.340          51.000
C22  22066960.711 5 114908451.463 5      1014.566          35.000
E05  23460500.180 8 123285753.226 8         9.848          51.000    23460502.945 8  94465702.205 8         7.492          51.000
E24  22960161.031 8 120656479.882 8      1590.539          51.000    22960174.414 8  92451095.014 8      1218.710          51.000
> 2020 05 19 01 24  0.0000000  0 12        .000000000000
G02  22977442.992 7 120747311.248 7     -1791.898          45.000    22977441.695 7  94088792.382 7     -1396.284          45.000
G07  20851761.188 8 109576741.633 8      -604.828          50.000    20851759.750 8  85384478.219 8      -471.295          50.000
G13  23867015.750 5 125422000.093 5      2953.949          35.000
G30  20817386.602 8 109396097.926 8      1586.121          51.000    20817387.328 8  85243775.294 8      1235.939          51.000
R03  19544453.516 8 104623063.635 8      -352.980          50.000    19544453.938 8  81373454.472 8      -274.540          48.000
R13  19555466.648 6 104425077.086 6       311.332          41.000    19555469.031 7  81219523.015 7       242.147          44.000
R14  21453158.703 8 114357424.035 8      3954.891          48.000    21453165.250 8  88944729.108 8      3076.026          49.000
C05  39811041.055 5 207306536.574 5       -17.188          35.000    39811038.539 6 160302550.751 6       -13.327          40.000
C19  22564855.188 8 117501117.515 8     -1828.043          51.000
C22  22061131.820 6 114878099.594 6       998.383          36.000
E05  23460449.406 8 123285486.287 8        -2.508          51.000    23460452.008 8  94465497.663 8        -1.963          51.000
E24  22951105.312 8 120608891.741 8      1571.379          50.000    22951118.562 8  92414631.367 8      1204.050          51.000
> 2020 05 19 01 24 30.0000000  0 12        .000000000000
G02  22987679.438 8 120801103.343 8     -1796.754          48.000    22987678.125 7  94130708.280 7     -1400.068          44.000
G07  20855224.992 8 109594944.689 8      -611.301          50.000    20855223.953 8  85398662.420 8      -476.338          51.000
G30  20808344.242 8 109348582.311 8      1579.066          50.000    20808345.180 8  85206750.145 8      1230.441          50.000
R02  22295209.523 5 118971486.318 5     -2994.910          32.000
R03  19546441.398 8 104633704.459 8      -359.027          49.000    19546441.672 8  81381730.673 8      -279.247          48.000
R13  19553763.164 6 104415981.245 6       292.582          40.000    19553765.820 7  81212448.474 7       227.567          45.000
R14  21430903.359 7 114238797.737 7      3950.840          46.000    21430910.953 8  88852464.191 8      3072.875          48.000
C05  39811108.383 5 207306887.546 5        -8.773          35.000    39811105.828 6 160302822.165 6        -6.781          40.000
C19  22575383.188 8 117555938.527 8     -1829.305          51.000
C22  22055376.906 6 114848134.400 6       996.617          36.000
E05  23460449.672 8 123285487.321 8         -.109          51.000    23460452.016 8  94465498.449 8         -.081          51.000
E24  22942139.516 8 120561776.796 8      1567.031          51.000    22942152.789 8  92378530.310 8      1200.718          51.000
> 2020 05 19 01 25  0.0000000  0 13        .000000000000
G02  22997975.812 8 120855209.235 8     -1806.297          48.000    22997973.688 7  94172868.689 7     -1407.504          43.000
G07  20858758.062 8 109613511.304 8      -622.590          51.000    20858757.117 8  85413129.908 8      -485.135          51.000
G30  20799374.203 8 109301447.989 8      1567.051          49.000    20799375.617 8  85170022.116 8      1221.079          49.000
R02  22312080.891 6 119061476.140 6     -2999.508          36.000
R03  19548495.531 8 104644699.802 8      -370.094          50.000    19548495.406 7  81390282.598 7      -287.851          47.000
R12  22126202.578 5 118194120.469 5     -3512.062          32.000    22126193.148 4  91928781.871 4     -2731.595          27.000
R13  19552199.211 7 104407629.801 7       268.301          42.000    19552202.047 7  81205952.892 7       208.678          44.000
R14  21408704.547 7 114120470.106 7      3941.652          47.000    21408712.430 7  88760431.591 7      3065.730          46.000
C05  39811159.609 5 207307153.800 5        -5.398          35.000    39811157.141 6 160303028.798 6        -3.773          40.000
C19  22585950.461 8 117610964.388 8     -1835.316          51.000
C22  22049665.086 6 114818390.789 6       990.066          38.000
E05  23460469.078 8 123285588.942 8        -2.730          51.000    23460471.250 8  94465576.315 8        -2.068          51.000
E24  22933232.289 8 120514968.497 8      1557.484          51.000    22933245.055 8  92342664.210 8      1193.481          51.000
> 2020 05 19 01 25 30.0000000  0 12        .000000000000
G02  23008346.164 8 120909704.802 8     -1824.996          48.000    23008342.859 7  94215332.753 7     -1422.075          43.000
G07  20862375.016 8 109632518.151 8      -642.898          51.000    20862373.961 8  85427940.428 8      -500.960          51.000
G30  20790492.180 8 109254773.736 8      1546.090          51.000    20790493.766 8  85133652.591 8      1204.745          51.000
R03  19550631.016 8 104656130.355 8      -390.301          50.000    19550630.648 7  81399173.055 7      -303.564          47.000
R12  22145990.461 5 118299828.594 5     -3532.523          32.000    22145981.445 4  92010998.289 4     -2747.521          27.000
R13  19550789.594 7 104400101.497 7       235.176          42.000    19550792.336 7  81200097.557 7       182.914          44.000
R14  21386578.391 8 114002524.152 8      3923.004          49.000    21386584.531 7  88668695.867 7      3051.225          44.000
C05  39811209.797 5 207307415.702 5       -10.902          35.000    39811207.320 6 160303230.566 6        -8.521          40.000
C19  22596571.758 8 117666272.169 8     -1850.305          51.000
C22  22044010.906 6 114788947.290 6       974.262          37.000
E05  23460522.531 8 123285869.504 8       -14.402          51.000    23460524.523 8  94465791.287 8       -11.015          51.000
E24  22924398.633 8 120468546.065 8      1538.879          51.000    22924411.117 8  92307093.774 8      1179.132          51.000
> 2020 05 19 01 26  0.0000000  0 12        .000000000000
G02  23018800.898 8 120964644.661 8     -1837.656          49.000    23018797.305 7  94258143.003 7     -1431.940          43.000
G07  20866086.406 8 109652021.240 8      -657.270          51.000    20866085.320 8  85443137.643 8      -512.155          51.000
G30  20781709.219 8 109208617.248 8      1531.051          51.000    20781710.609 8  85097686.516 8      1193.027          51.000
R03  19552858.266 8 104668054.951 8      -404.625          50.000    19552858.781 7  81408447.720 7      -314.708          47.000
R12  22165870.000 5 118406019.468 5     -3547.066          31.000    22165861.445 4  92093591.181 4     -2758.829          28.000
R13  19549544.922 7 104393454.805 7       208.062          43.000    19549547.461 7  81194927.921 7       161.826          44.000
R14  21364535.875 8 113885021.262 8      3910.391          49.000    21364539.570 7  88577304.793 7      3041.418          44.000
C05  39811269.664 6 207307727.680 6       -10.012          36.000    39811267.102 6 160303471.039 6        -7.929          40.000
C19  22607257.406 8 117721918.063 8     -1859.441          49.000
C22  22038425.359 6 114759861.561 6       964.234          38.000
E05  23460620.914 8 123286386.291 8       -20.074          51.000    23460622.664 8  94466187.267 8       -15.394          51.000
E24  22915649.445 8 120422567.622 8      1526.223          51.000    22915662.031 8  92271863.544 8      1169.452          51.000
> 2020 05 19 01 26 30.0000000  0 12        .000000000000
G02  23029343.727 8 121020046.898 8     -1854.145          49.000    23029340.352 7  94301313.568 7     -1444.791          44.000
G07  20869895.945 8 109672039.767 8      -675.664          51.000    20869894.531 8  85458736.501 8      -526.491          51.000
G30  20773028.773 8 109162999.581 8      1511.727          51.000    20773029.945 8  85062140.294 8      1177.969          51.000
R02  22362951.242 5 119333019.084 5     -3033.355          32.000
R03  19555182.195 8 104680495.497 8      -423.125          51.000    19555182.969 7  81418123.670 7      -329.097          47.000
R13  19548469.109 7 104387709.173 7       176.727          42.000    19548471.211 7  81190459.103 7       137.454          43.000
R14  21342581.383 8 113767985.931 8      3893.555          51.000    21342583.797 7  88486277.358 7      3028.320          45.000
C05  39811342.961 5 207308109.061 5       -13.453          35.000    39811340.305 6 160303765.931 6       -10.596          40.000
C19  22618011.586 8 117777921.947 8     -1872.449          48.000
C22  22032912.695 6 114731155.020 6       950.594          39.000
E05  23460768.141 8 123287160.018 8       -29.914          51.000    23460769.734 8  94466780.124 8       -22.900          51.000
E24  22906988.852 8 120377054.694 8      1509.559          51.000    22907001.516 8  92236990.020 8      1156.657          51.000
> 2020 05 19 01 27  0.0000000  0 13        .000000000000
G02  23039940.984 8 121075734.876 8     -1862.008          51.000    23039937.609 7  94344706.743 7     -1450.915          44.000
G06  23911873.758 5 125657707.883 5     -3444.176          33.000    23911879.961 5  97915129.379 5     -2683.776          33.000
G07  20873770.125 8 109692398.059 8      -685.270          51.000    20873768.414 8  85474600.099 8      -533.976          51.000
G09  22192912.477 5 116624541.679 5     -2377.477          30.000
G30  20764417.695 8 109117746.698 8      1501.258          51.000    20764418.703 8  85026878.315 8      1169.811          51.000
R03  19557569.414 8 104693274.811 8      -432.750          51.000    19557570.031 7  81428063.132 7      -336.583          47.000
R13  19547528.508 7 104382687.709 7       154.426          42.000    19547530.906 7  81186553.561 7       120.112          43.000
R14  21320682.297 8 113651244.684 8      3885.418          51.000    21320684.133 7  88395478.655 7      3021.992          47.000
C05  39811396.398 5 207308387.530 5        -8.285          35.000    39811393.852 6 160303981.261 6        -6.524          40.000
C19  22628801.750 8 117834110.480 8     -1877.062          49.000
C22  22027439.570 6 114702655.716 6       945.480          38.000
E05  23460931.055 8 123288016.325 8       -30.957          51.000    23460932.555 8  94467436.257 8       -23.750          51.000
E24  22898383.836 8 120331833.769 8      1501.461          51.000    22898396.820 8  92202340.242 8      1150.461          51.000
> 2020 05 19 01 27 30.0000000  0 12        .000000000000
G02  23050614.305 8 121131822.150 8     -1876.625          51.000    23050610.438 7  94388411.112 7     -1462.305          43.000
G06  23931558.938 5 125761141.022 5     -3450.867          33.000    23931561.844 5  97995726.646 5     -2688.987          31.000
G07  20877730.664 8 109713210.747 8      -701.742          51.000    20877728.977 8  85490817.804 8      -546.812          51.000
G30  20755898.414 8 109072975.456 8      1483.805          51.000    20755899.234 8  84991991.619 8      1156.211          51.000
R03  19560042.305 8 104706512.294 8      -449.430          51.000    19560042.734 7  81438358.948 7      -349.556          47.000
R13  19546745.570 6 104378507.459 6       124.918          41.000    19546747.797 7  81183302.281 7        97.158          42.000
R14  21298860.953 8 113534918.989 8      3870.090          51.000    21298862.727 8  88305003.129 8      3010.070          49.000
C05  39811452.195 5 207308678.277 5       -10.223          35.000    39811449.719 6 160304206.077 6        -7.956          40.000
C19  22639649.680 8 117890598.474 8     -1888.461          50.000
C22  22022029.039 7 114674479.867 7       933.449          42.000
E05  23461131.789 8 123289071.673 8       -38.941          51.000    23461133.320 8  94468244.897 8       -29.859          51.000
E24  22889856.508 8 120287022.083 8      1486.469          51.000    22889869.758 8  92168004.030 8      1138.971          51.000
> 2020 05 19 01 28  0.0000000  0 12        .000000000000
G02  23061362.547 8 121188304.377 8     -1888.625          50.000    23061358.562 7  94432423.235 7     -1471.656          44.000
G06  23951265.609 5 125864695.024 5     -3453.445          32.000    23951267.234 5  98076418.128 5     -2690.993          33.000
G07  20881777.102 8 109734474.866 8      -715.672          51.000    20881775.266 8  85507387.253 8      -557.663          51.000
G30  20747470.102 8 109028684.277 8      1468.973          51.000    20747471.023 8  84957478.990 8      1144.654          51.000
R03  19562600.469 8 104720206.430 8      -463.406          51.000    19562601.047 7  81449009.921 7      -360.427          47.000
R13  19546119.867 7 104375166.612 7        97.891          42.000    19546121.844 7  81180703.853 7        76.137          43.000
R14  21277117.383 8 113419010.668 8      3857.258          50.000    21277119.477 8  88214852.225 8      3000.089          49.000
C05  39811509.891 5 207308978.033 5        -9.461          35.000    39811507.438 6 160304438.672 6        -7.301          40.000
C19  22650555.078 8 117947383.467 8     -1897.141          51.000
C22  22016681.070 7 114646626.546 7       923.703          43.000
E05  23461370.086 8 123290324.212 8       -44.305          51.000    23461371.719 8  94469204.636 8       -33.945          51.000
E24  22881406.617 8 120242618.611 8      1474.027          51.000    22881419.969 8  92133980.591 8      1129.426          51.000
> 2020 05 19 01 28 30.0000000  0 14        .000000000000
G02  23072181.039 8 121245156.696 8     -1898.828          49.000    23072177.227 7  94476723.756 7     -1479.606          45.000
G06  23970990.703 5 125968344.317 5     -3454.473          33.000    23970990.609 5  98157183.821 5     -2691.797          34.000
G07  20885904.820 8 109756166.498 8      -727.773          51.000    20885902.930 8  85524289.834 8      -567.096          51.000
G30  20739128.656 8 108984851.295 8      1455.801          51.000    20739129.914 8  84923323.414 8      1134.390          51.000
R02  22431439.664 5 119698442.760 5     -3059.375          33.000
R03  19565240.039 8 104734335.279 8      -475.723          51.000    19565240.328 7  81459999.017 7      -370.007          47.000
R12  22266434.789 5 118943258.336 5     -3612.656          31.000    22266445.367 4  92511419.499 4     -2809.844          29.000
R13  19545647.156 6 104372641.499 6        72.996          41.000    19545649.266 7  81178739.904 7        56.775          43.000
R14  21255447.805 8 113303500.550 8      3846.105          50.000    21255450.273 8  88125011.011 8      2991.415          49.000
C05  39811565.320 5 207309266.662 5        -6.957          35.000    39811562.844 6 160304661.817 6        -5.331          40.000
C19  22661513.109 8 118004442.818 8     -1904.020          51.000
C22  22011390.797 7 114619074.567 7       915.980          42.000
E05  23461641.734 8 123291751.793 8       -48.023          51.000    23461643.547 8  94470298.495 8       -36.815          51.000
E24  22873030.180 8 120198601.893 8      1463.223          51.000    22873043.922 8  92100253.497 8      1121.171          51.000
> 2020 05 19 01 29  0.0000000  0 14        .000000000000
G02  23083045.078 8 121302248.908 8     -1907.652          49.000    23083041.570 7  94521211.193 7     -1486.482          45.000
G06  23990708.586 5 126071958.196 5     -3453.645          32.000    23990708.180 5  98237921.922 5     -2691.145          32.000
G07  20890089.336 8 109778156.381 8      -738.570          51.000    20890087.438 8  85541424.810 8      -575.509          51.000
G30  20730850.430 8 108941349.370 8      1444.012          51.000    20730851.750 8  84889425.802 8      1125.201          51.000
R02  22448650.477 5 119790269.313 5     -3063.418          32.000    22448651.125 4  93170233.813 4     -2382.668          28.000
R03  19567936.406 8 104748769.732 8      -486.785          51.000    19567936.883 8  81471225.790 8      -378.611          48.000
R12  22286757.836 5 119051787.720 5     -3622.355          32.000    22286760.602 4  92595830.822 4     -2817.385          29.000
R13  19545302.789 7 104370802.107 7        49.523          42.000    19545304.727 7  81177309.282 7        38.518          43.000
R14  21233829.156 8 113188262.651 8      3836.125          50.000    21233832.094 8  88035381.523 8      2983.653          49.000
C05  39811594.094 5 207309416.933 5        -3.309          35.000    39811591.641 6 160304777.644 6        -2.477          40.000
C19  22672499.484 8 118061649.655 8     -1909.953          51.000
C22  22006133.719 7 114591698.608 7       908.965          44.000
E05  23461922.461 8 123293226.977 8       -50.562          51.000    23461924.453 8  94471428.825 8       -38.728          51.000
E24  22864703.281 8 120154845.291 8      1453.629          51.000    22864717.234 8  92066725.695 8      1113.867          51.000
> 2020 05 19 01 29 30.0000000  0 13        .000000000000
G02  23094031.594 8 121359983.486 8     -1934.000          50.000    23094028.406 7  94566199.152 7     -1507.013          45.000
G07  20894407.484 8 109800848.291 8      -766.902          51.000    20894405.570 8  85559106.826 8      -597.586          51.000
G30  20722712.516 8 108898583.848 8      1414.324          51.000    20722713.703 8  84856102.022 8      1102.071          51.000
R02  22465954.336 5 119882607.473 5     -3085.391          34.000    22465955.086 5  93242052.323 5     -2399.754          31.000
R03  19570767.258 8 104763923.013 8      -515.988          51.000    19570767.648 8  81483011.649 8      -401.327          48.000
R12  22307201.305 5 119160989.190 5     -3650.020          30.000    22307201.828 4  92680830.742 4     -2838.910          28.000
R13  19545163.844 7 104370058.992 7         7.617          42.000    19545165.586 7  81176731.316 7         5.928          44.000
R14  21212339.297 8 113073711.146 8      3808.137          51.000    21212342.391 8  87946285.912 8      2961.884          48.000
C05  39811673.195 5 207309828.347 5       -16.695          35.000    39811670.742 6 160305096.187 6       -13.109          40.000
C19  22683591.086 8 118119404.661 8     -1933.199          51.000
C22  22000987.703 7 114564900.807 7       884.676          44.000
E05  23462289.305 8 123295154.831 8       -70.652          51.000    23462291.430 8  94472906.016 8       -54.106          51.000
E24  22856503.258 8 120111754.636 8      1426.410          51.000    22856517.055 8  92033708.157 8      1093.032          51.000
> 2020 05 19 01 30  0.0000000  0 15        .000000000000
G02  23105070.055 8 121417990.127 8     -1937.297          51.000    23105066.750 7  94611399.143 7     -1509.582          45.000
G07  20898788.977 8 109823873.283 8      -772.281          51.000    20898787.141 8  85577048.396 8      -601.778          51.000
G09  22274997.273 5 117055889.141 5     -2412.711          35.000    22274997.852 5  91212352.961 5     -1880.031          35.000
G30  20714644.664 8 108856187.402 8      1407.758          51.000    20714645.805 8  84823065.850 8      1096.954          51.000
R02  22483283.703 5 119975083.145 5     -3084.324          30.000    22483281.367 4  93313977.837 4     -2398.919          28.000
R03  19573662.406 8 104779421.121 8      -521.570          51.000    19573662.945 8  81495065.722 8      -405.666          48.000
R12  22327700.047 5 119270484.901 5     -3653.617          31.000    22327698.992 4  92765991.999 4     -2841.705          24.000
R13  19545159.797 7 104370037.585 7       -10.828          42.000    19545161.859 7  81176714.676 7        -8.422          44.000
R14  21190909.328 8 112959476.729 8      3803.215          51.000    21190912.070 8  87857436.921 8      2958.059          48.000
C05  39811732.602 5 207310137.984 5        -8.207          35.000    39811730.203 6 160305335.599 6        -6.156          40.000
C19  22694717.219 8 118177343.030 8     -1933.562          50.000
C22  21995882.828 7 114538317.755 7       883.195          45.000
E05  23462672.266 8 123297167.782 8       -67.758          51.000    23462674.539 8  94474448.416 8       -51.948          51.000
E09  23952046.547 5 125868843.241 5     -1958.203          35.000    23952040.633 5  96444943.302 5     -1500.441          34.000
E24  22848360.398 8 120068963.065 8      1422.121          51.000    22848373.773 8  92000919.810 8      1089.650          51.000
> 2020 05 19 01 30 30.0000000  0 15        .000000000000
G02  23116174.242 8 121476343.063 8     -1951.520          50.000    23116171.031 7  94656868.952 7     -1520.665          46.000
G07  20903248.203 8 109847306.246 8      -788.477          51.000    20903246.148 8  85595307.841 8      -614.397          51.000
G09  22288795.719 5 117128412.090 5     -2420.344          31.000    22288811.641 5  91268864.297 5     -1885.985          32.000
G30  20706661.609 8 108814236.874 8      1390.246          51.000    20706662.672 8  84790377.140 8      1083.309          51.000
R02  22500649.297 5 120067786.785 5     -3093.074          32.000    22500648.719 4  93386049.620 4     -2405.727          26.000
R03  19576636.375 8 104795342.700 8      -538.414          51.000    19576637.164 8  81507449.148 8      -418.766          48.000
R12  22348266.531 5 119380348.399 5     -3669.297          34.000
R13  19545305.430 6 104370815.551 6       -39.973          41.000    19545307.820 7  81177319.773 7       -31.090          45.000
R14  21169554.289 8 112845640.433 8      3787.207          51.000    21169556.492 7  87768897.594 7      2945.605          47.000
C05  39811786.883 5 207310420.844 5        -9.660          35.000    39811784.562 6 160305554.321 6        -7.548          40.000
C19  22705893.125 8 118235539.924 8     -1944.820          51.000
C22  21990833.688 7 114512026.308 7       870.703          43.000
E05  23463086.000 8 123299342.489 8       -75.797          51.000    23463088.414 8  94476114.747 8       -58.063          51.000
E09                                                                  23963239.969 5  96490039.649 5     -1504.781          35.000
E24  22840289.375 8 120026547.921 8      1406.957          51.000    22840302.523 8  91968419.912 8      1078.040          51.000
> 2020 05 19 01 31  0.0000000  0 15        .000000000000
G02  23127349.375 8 121535069.362 8     -1963.227          48.000    23127346.539 7  94702629.715 7     -1529.784          47.000
G07  20907790.461 8 109871175.787 8      -802.285          51.000    20907788.352 8  85613907.495 8      -625.154          51.000
G09  22302630.109 5 117201117.797 5     -2426.301          32.000    22302651.047 5  91325517.617 5     -1890.639          32.000
G30  20698769.258 8 108772762.734 8      1375.184          51.000    20698770.219 8  84758059.619 8      1071.572          51.000
R02  22518068.664 4 120160720.351 4     -3101.340          29.000
R03  19579695.469 8 104811719.175 8      -552.871          51.000    19579696.570 8  81520186.392 8      -430.011          48.000
R12  22368908.086 6 119490605.392 6     -3681.199          36.000
R13  19545606.109 6 104372421.886 6       -66.613          41.000    19545608.586 7  81178569.151 7       -51.810          44.000
R14  21148280.148 8 112732236.027 8      3773.523          51.000    21148282.320 8  87680694.171 8      2934.963          48.000
C05  39811841.766 6 207310706.516 6        -9.027          36.000    39811839.453 6 160305775.217 6        -7.041          40.000
C19  22717124.242 8 118294024.722 8     -1953.703          50.000
C22  21985845.766 7 114486057.192 7       860.816          43.000
E05  23463536.258 8 123301709.141 8       -81.531          51.000    23463538.758 8  94477928.159 8       -62.445          51.000
E09  23974464.266 6 125986637.163 6     -1967.301          37.000    23974461.742 5  96535222.440 5     -1507.281          33.000
E24  22832296.117 8 119984540.150 8      1394.020          51.000    22832309.031 8  91936232.154 8      1068.157          51.000
> 2020 05 19 01 31 30.0000000  0 14        .000000000000
G02  23138589.820 7 121594140.305 7     -1976.453          47.000    23138587.781 7  94748659.023 7     -1540.093          47.000
G07  20912410.523 8 109895454.251 8      -817.750          51.000    20912408.492 8  85632825.785 8      -637.208          51.000
G09  22316498.766 5 117273972.995 5     -2432.996          34.000
G30  20690962.766 8 108731738.863 8      1358.270          51.000    20690963.727 8  84726092.971 8      1058.392          51.000
R03  19582834.617 8 104828524.114 8      -569.043          50.000    19582835.828 8  81533256.900 8      -442.589          49.000
R12  22389616.758 5 119601225.311 5     -3695.035          35.000
R13  19546056.812 6 104374829.629 6       -95.262          41.000    19546059.469 7  81180441.842 7       -74.092          45.000
R14  21127082.414 8 112619240.393 8      3757.922          49.000    21127085.070 8  87592808.658 8      2922.828          48.000
C05  39811892.188 6 207310968.605 6       -10.277          36.000    39811889.734 6 160305977.861 6        -7.579          40.000
C19  22728405.625 8 118352770.570 8     -1964.266          51.000
C22  21980914.969 7 114460385.154 7       849.023          42.000
E05  23464018.055 8 123304241.442 8       -88.934          50.000    23464020.531 8  94479868.490 8       -68.150          51.000
E09  23985710.734 5 126045756.317 5     -1972.094          35.000    23985704.422 5  96580483.252 5     -1511.471          32.000
E24  22824375.320 8 119942914.101 8      1379.418          51.000    22824387.820 8  91904336.887 8      1056.981          51.000
> 2020 05 19 01 32  0.0000000  0 13        .000000000000
G02  23149897.797 8 121653564.387 8     -1988.805          49.000    23149896.234 7  94794963.505 7     -1549.715          47.000
G07  20917110.070 8 109920150.970 8      -832.348          51.000    20917107.797 8  85652069.984 8      -648.583          51.000
G30  20683244.055 8 108691176.671 8      1342.238          51.000    20683245.219 8  84694486.072 8      1045.900          51.000
R02  22553026.633 4 120347270.410 4     -3118.609          29.000
R03  19586055.961 8 104845769.615 8      -584.355          50.000    19586057.562 8  81546670.058 8      -454.499          49.000
R12  22410394.742 6 119712214.888 6     -3707.898          36.000
R13  19546659.703 6 104378048.899 6      -123.109          40.000    19546662.211 7  81182945.712 7       -95.755          44.000
R14  21105963.242 7 112506668.308 7      3743.074          46.000    21105967.320 8  87505252.532 8      2911.277          48.000
C05  39811940.164 5 207311219.358 5       -10.406          35.000    39811937.617 6 160306170.617 6        -7.811          40.000
C19  22739739.648 8 118411787.966 8     -1973.895          51.000
C22  21976043.469 7 114435022.148 7       838.102          44.000
E05  23464533.500 8 123306950.623 8       -95.418          50.000    23464536.047 8  94481944.360 8       -73.074          51.000
E24  22816529.117 8 119901681.720 8      1365.723          51.000    22816541.680 8  91872743.262 8      1046.451          51.000
> 2020 05 19 01 32 30.0000000  0 12        .000000000000
G02  23161282.039 8 121713389.037 8     -2000.141          50.000    23161280.312 7  94841580.089 7     -1558.551          46.000
G07  20921898.484 8 109945314.672 8      -845.820          51.000    20921896.195 8  85671678.055 8      -659.081          51.000
G30  20675622.953 8 108651126.663 8      1327.105          51.000    20675623.883 8  84663278.275 8      1034.108          51.000
R03  19589369.805 8 104863507.296 8      -598.730          50.000    19589371.203 8  81560466.042 8      -465.679          49.000
R12  22431250.219 6 119823621.116 6     -3719.645          36.000
R13  19547423.953 6 104382129.732 6      -149.938          40.000    19547426.227 7  81186119.686 7      -116.618          44.000
R14  21084932.734 7 112394574.005 7      3729.016          47.000    21084938.711 8  87418067.977 8      2900.342          48.000
C05  39811995.117 6 207311504.892 6        -9.742          36.000    39811992.500 6 160306391.780 6        -7.138          40.000
C19  22751135.117 8 118471126.112 8     -1982.656          51.000
C22  21971241.586 7 114410018.819 7       828.086          44.000
E05  23465092.211 8 123309887.013 8      -100.895          50.000    23465094.969 8  94484194.319 8       -77.315          51.000
E24  22808767.516 8 119860894.023 8      1352.922          51.000    22808780.297 8  91841490.355 8      1036.624          51.000
> 2020 05 19 01 33  0.0000000  0 12        .000000000000
G02  23172732.711 8 121773562.383 8     -2011.188          50.000    23172730.219 7  94888468.397 7     -1567.159          46.000
G07  20926766.016 8 109970894.516 8      -859.203          51.000    20926764.188 8  85691610.425 8      -669.509          51.000
G30  20668090.070 8 108611539.669 8      1312.207          51.000    20668090.578 8  84632431.284 8      1022.502          51.000
R03  19592766.344 8 104881687.581 8      -613.035          51.000    19592767.609 8  81574606.270 8      -476.802          50.000
R12  22452172.867 5 119935389.359 5     -3731.473          35.000    22452175.648 4  93283157.640 4     -2902.260          27.000
R13  19548339.648 6 104387020.495 6      -176.215          40.000    19548342.125 7  81189923.635 7      -137.056          44.000
R14  21063984.641 8 112282910.785 8      3715.242          50.000    21063990.828 7  87331218.810 7      2889.633          47.000
C05  39812047.656 5 207311778.330 5        -8.410          35.000    39812045.023 6 160306603.274 6        -6.440          40.000
C19  22762582.695 8 118530735.366 8     -1991.191          51.000
C22  21966499.445 7 114385327.137 7       818.266          44.000
E05  23465684.766 8 123313001.293 8      -106.316          50.000    23465687.672 8  94486580.592 8       -81.529          51.000
E24  22801080.672 8 119820502.319 8      1340.160          49.000    22801093.914 8  91810540.862 8      1026.831          51.000
> 2020 05 19 01 33 30.0000000  0 14        .000000000000
G02  23184251.844 8 121834096.101 8     -2023.828          49.000    23184248.648 7  94935637.524 7     -1577.009          46.000
G07  20931715.180 8 109996903.452 8      -874.152          51.000    20931713.430 8  85711877.115 8      -681.158          51.000
G30  20660647.938 8 108572430.312 8      1295.672          51.000    20660648.297 8  84601956.486 8      1009.614          51.000
R02  22605802.742 5 120628918.298 5     -3140.730          30.000
R03  19596248.312 8 104900325.648 8      -628.848          51.000    19596249.133 8  81589102.546 8      -489.104          50.000
R12  22473165.391 5 120047529.777 5     -3744.359          34.000    22473169.734 4  93370383.939 4     -2912.276          25.000
R13  19549410.188 6 104392735.114 6      -204.234          41.000    19549412.062 7  81194368.333 7      -158.852          44.000
R14  21043121.625 8 112171696.486 8      3699.637          51.000    21043127.062 7  87244718.846 7      2877.498          47.000
C05  39812100.445 5 207312053.435 5        -9.078          35.000    39812097.836 6 160306815.981 6        -7.050          40.000
C19  22774084.508 8 118590629.482 8     -2001.203          51.000
C22  21961820.141 7 114360962.346 7       806.641          45.000
E05  23466313.945 8 123316308.007 8      -113.457          50.000    23466316.891 8  94489114.305 8       -86.941          51.000
E09  24030900.711 5 126283226.959 5     -1987.289          34.000
E24  22793471.562 8 119780521.791 8      1325.922          48.000    22793485.711 8  91779906.404 8      1015.885          51.000
> 2020 05 19 01 34  0.0000000  0 14        .000000000000
G02  23195835.273 8 121894967.833 8     -2036.168          48.000    23195831.797 7  94983070.060 7     -1586.624          47.000
G07  20936742.047 8 110023320.554 8      -888.777          51.000    20936740.367 8  85732461.855 8      -692.554          51.000
G30  20653292.875 8 108533779.511 8      1279.367          51.000    20653293.414 8  84571838.999 8       996.909          51.000
R02  22623475.414 5 120723187.884 5     -3149.277          30.000
R03  19599812.164 8 104919402.409 8      -644.656          51.000    19599812.938 8  81603940.013 8      -501.399          50.000
R12  22494222.594 5 120160018.783 5     -3756.922          32.000
R13  19550631.055 6 104399253.319 6      -231.859          41.000    19550632.672 7  81199438.056 7      -180.332          44.000
R14  21022340.031 8 112060915.021 8      3684.012          51.000    21022343.758 7  87158555.532 7      2865.342          45.000
C05  39812149.891 5 207312310.655 5        -9.770          35.000    39812147.250 6 160307014.861 6        -7.509          40.000
C19  22785637.492 8 118650788.578 8     -2011.062          50.000
C22  21957200.914 7 114336906.062 7       795.316          47.000
E05  23466976.109 8 123319787.907 8      -120.344          50.000    23466978.984 8  94491780.723 8       -92.223          51.000
E09  24042253.172 6 126342880.140 6     -1991.438          38.000    24042259.914 6  96808206.979 6     -1525.799          36.000
E24  22785937.594 8 119740933.826 8      1311.680          50.000    22785952.742 8  91749572.735 8      1005.014          51.000
> 2020 05 19 01 34 30.0000000  0 15        .000000000000
G02  23207485.719 7 121956192.663 7     -2051.141          47.000    23207482.625 7  95030777.706 7     -1598.291          47.000
G07  20941849.703 8 110050161.743 8      -906.219          51.000    20941848.195 8  85753377.066 8      -706.144          51.000
G09  22400399.305 5 117714927.540 5     -2471.477          34.000
G30  20646028.164 8 108495604.942 8      1260.047          51.000    20646028.844 8  84542092.595 8       981.855          51.000
R02  22641195.961 5 120817776.333 5     -3161.523          33.000
R03  19603461.469 8 104938936.145 8      -663.383          51.000    19603462.070 8  81619132.906 8      -515.964          50.000
R12  22515347.680 5 120272869.689 5     -3772.734          33.000
R13  19552005.383 6 104406591.591 6      -262.773          41.000    19552007.008 7  81205145.603 7      -204.379          44.000
R14  21001643.555 8 111950587.539 8      3665.449          51.000    21001645.188 7  87072745.292 7      2850.905          44.000
C05  39812199.031 5 207312566.981 5       -12.508          35.000    39812196.523 6 160307213.111 6       -10.022          40.000
C19  22797244.180 8 118711229.440 8     -2023.832          49.000
C22  21952644.844 7 114313176.598 7       781.078          47.000
E05  23467674.547 8 123323458.583 8      -130.020          50.000    23467677.336 8  94494593.316 8       -99.622          51.000
E09  24053626.984 6 126402650.385 6     -1998.934          36.000    24053632.742 6  96854004.843 6     -1531.537          37.000
E24  22778482.367 8 119701756.541 8      1294.578          51.000    22778497.703 8  91719553.770 8       991.943          51.000
> 2020 05 19 01 35  0.0000000  0 14        .000000000000
G02  23219197.156 8 122017736.559 8     -2056.977          48.000    23219194.211 7  95078734.012 7     -1602.839          47.000
G07  20947031.898 8 110077394.130 8      -914.480          51.000    20947030.211 8  85774597.111 8      -712.582          51.000
G30  20638848.312 8 108457875.453 8      1249.906          51.000    20638849.000 8  84512692.981 8       973.953          51.000
R02  22658960.352 6 120912546.958 6     -3162.695          38.000    22658971.453 4  94043144.404 4     -2459.871          25.000
R03  19607190.328 8 104958895.594 8      -672.664          51.000    19607190.469 8  81634656.918 8      -523.183          50.000
R12  22536535.445 5 120386046.258 5     -3778.461          35.000
R13  19553526.906 7 104414716.387 7      -284.078          42.000    19553528.500 7  81211464.896 7      -220.950          45.000
R14  20981026.641 8 111840685.511 8      3656.090          49.000    20981027.047 7  86987265.951 7      2843.625          45.000
C05  39812242.156 6 207312791.302 6        -7.586          36.000    39812239.633 6 160307386.561 6        -5.709          40.000
C19  22808899.047 8 118771920.371 8     -2027.480          50.000
C22  21948145.461 8 114289743.798 8       775.926          48.000
E05  23468403.453 8 123327288.809 8      -130.625          51.000    23468406.117 8  94497528.160 8      -100.119          51.000
E09  24065016.180 5 126462498.142 5     -1996.930          35.000
E24  22771099.891 8 119662959.345 8      1286.641          51.000    22771114.586 8  91689826.049 8       985.853          51.000
> 2020 05 19 01 35 30.0000000  0 15        .000000000000
G02  23230996.172 8 122079739.519 8     -2066.387          50.000    23230993.406 7  95127047.991 7     -1610.171          47.000
G07  20952315.477 8 110105159.038 8      -926.332          51.000    20952313.789 8  85796232.097 8      -721.817          51.000
G09  22428663.180 5 117863392.153 5     -2474.895          34.000
G30  20631780.484 8 108420734.156 8      1236.246          51.000    20631781.375 8  84483751.713 8       963.312          51.000
R02  22676785.445 5 121007663.969 5     -3168.043          35.000    22676787.453 4  94117093.396 4     -2464.030          29.000
R03  19611025.617 8 104979426.729 8      -685.672          51.000    19611025.875 8  81650625.563 8      -533.300          49.000
R12  22557811.211 6 120499689.601 6     -3788.000          37.000
R13  19555222.531 7 104423772.072 7      -309.332          42.000    19555224.609 7  81218508.217 7      -240.592          44.000
R14  20960516.414 7 111731357.323 7      3642.789          47.000    20960517.312 7  86902232.918 7      2833.280          46.000
C05  39812306.211 6 207313124.852 6        -4.848          36.000    39812303.711 6 160307644.473 6        -3.906          40.000
C19  22820629.109 8 118833002.388 8     -2034.684          50.000
C22  21943730.055 8 114266750.192 8       767.055          48.000
E05  23469190.086 8 123331421.612 8      -134.773          51.000    23469192.617 8  94500694.852 8      -103.331          51.000
E09  24076450.617 6 126522581.821 6     -1998.660          36.000
E24  22763817.125 8 119624685.898 8      1275.020          51.000    22763831.461 8  91660499.640 8       976.939          51.000
> 2020 05 19 01 36  0.0000000  0 15        .000000000000
G02  23242843.062 8 122141993.812 8     -2084.332          50.000    23242840.156 7  95175557.830 7     -1624.155          46.000
G07  20957661.016 8 110133249.492 8      -946.832          51.000    20957659.516 8  85818120.774 8      -737.791          51.000
G09  22442802.789 5 117937724.394 5     -2487.301          32.000
G30  20624785.648 8 108383975.744 8      1213.777          51.000    20624786.773 8  84455108.815 8       945.801          51.000
R02  22694635.773 5 121102917.306 5     -3182.312          35.000    22694638.508 5  94191179.388 5     -2475.132          33.000
R03  19614928.461 8 105000321.023 8      -707.699          51.000    19614929.359 8  81666876.667 8      -550.436          49.000
R12  22579134.742 6 120613586.471 6     -3806.191          37.000
R13  19557053.078 7 104433548.488 7      -343.164          42.000    19557055.359 7  81226112.110 7      -266.905          44.000
R14  20940074.602 7 111622397.898 7      3620.785          47.000    20940077.508 7  86817486.678 7      2816.166          47.000
C05                                                                  39812349.602 6 160307829.328 6        -8.796          40.000
C19  22832395.062 8 118894271.246 8     -2050.453          50.000
C22  21939359.828 8 114243993.034 8       749.672          49.000
E05  23469995.281 8 123335651.654 8      -147.680          51.000    23469997.516 8  94503936.045 8      -113.133          51.000
E09  24087888.312 5 126582706.788 5     -2008.750          31.000
E24  22756594.953 8 119586731.366 8      1254.855          51.000    22756608.953 8  91631417.615 8       961.504          51.000
> 2020 05 19 01 36 30.0000000  0 13        .000000000000
G02  23254767.727 8 122204657.914 8     -2092.695          49.000    23254764.633 7  95224386.990 7     -1630.672          47.000
G07  20963098.914 8 110161825.481 8      -957.887          51.000    20963097.328 8  85840387.783 8      -746.405          51.000
G09  22457010.109 5 118012383.557 5     -2490.020          33.000
G30  20617894.547 8 108347761.953 8      1200.855          51.000    20617895.711 8  84426890.286 8       935.732          51.000
R03  19618930.195 8 105021743.441 8      -720.105          51.000    19618931.273 8  81683538.522 8      -560.082          48.000
R12  22600536.945 6 120727994.917 6     -3814.598          36.000    22600537.547 4  93899566.537 4     -2966.909          25.000
R13  19559049.242 6 104444209.100 6      -367.191          41.000    19559051.492 7  81234403.703 7      -285.593          43.000
R14  20919734.039 8 111513974.268 8      3607.973          49.000    20919738.500 7  86733157.190 7      2806.201          47.000
C05  39812410.438 6 207313667.257 6        -8.453          36.000    39812408.055 6 160308064.649 6        -6.576          40.000
C19  22844227.750 8 118955886.342 8     -2056.820          51.000
C22  21935065.875 8 114221633.372 8       741.344          49.000
E05  23470849.695 8 123340140.601 8      -151.223          51.000    23470851.664 8  94507375.636 8      -115.860          51.000
E24  22749464.445 8 119549258.034 8      1243.754          51.000    22749477.492 8  91602704.277 8       953.021          51.000
> 2020 05 19 01 37  0.0000000  0 13        .000000000000
G02  23266739.539 8 122267570.726 8     -2102.648          48.000    23266736.758 7  95273409.939 7     -1638.430          47.000
G07  20968598.617 8 110190726.506 8      -970.211          51.000    20968596.836 8  85862908.076 8      -756.005          51.000
G30  20611077.016 8 108311934.299 8      1186.352          51.000    20611078.148 8  84398972.629 8       924.430          51.000
R02  22730472.820 5 121294154.136 5     -3193.551          30.000    22730479.625 4  94339922.061 4     -2483.867          28.000
R03  19623000.609 8 105043532.960 8      -733.879          51.000    19623001.633 8  81700485.918 8      -570.795          48.000
R12  22621980.977 5 120842534.568 5     -3824.656          34.000
R13  19561180.586 7 104455590.943 7      -392.809          42.000    19561182.828 7  81243256.274 7      -305.518          44.000
R14  20899465.180 8 111405929.004 8      3593.680          50.000    20899470.266 7  86649122.031 7      2795.087          46.000
C05  39812451.305 5 207313880.447 5        -6.629          35.000    39812448.812 6 160308228.760 6        -5.491          40.000
C19  22856096.484 8 119017689.877 8     -2064.602          50.000
C22  21930818.242 8 114199514.907 8       731.750          49.000
E05  23471723.172 8 123344730.002 8      -156.066          51.000    23471724.992 8  94510892.190 8      -119.571          51.000
E24  22742395.352 8 119512107.951 8      1231.539          51.000    22742407.555 8  91574238.627 8       943.608          51.000
> 2020 05 19 01 37 30.0000000  0 13        .000000000000
G02  23278789.906 8 122330895.710 8     -2121.445          48.000    23278787.328 7  95322754.078 7     -1653.074          46.000
G07  20974191.586 8 110220117.814 8      -991.723          51.000    20974189.859 8  85885810.396 8      -772.771          51.000
G09  22485502.469 6 118162127.307 6     -2507.719          36.000
G30  20604364.516 8 108276659.134 8      1162.789          51.000    20604365.953 8  84371485.510 8       906.069          51.000
R02  22748463.148 6 121390149.450 6     -3208.961          36.000
R03  19627171.188 8 105065859.275 8      -757.109          51.000    19627172.516 8  81717850.823 8      -588.863          48.000
R13  19563478.195 7 104467861.358 7      -427.641          42.000    19563480.602 7  81252799.943 7      -332.609          44.000
R14  20879299.938 8 111298434.149 8      3569.980          50.000    20879304.164 7  86565514.948 7      2776.651          46.000
C05  39812505.984 5 207314165.071 5       -14.512          35.000    39812503.484 6 160308448.854 6       -11.339          40.000
C19  22868032.617 8 119079845.974 8     -2081.586          49.000
C22  21926648.789 8 114177803.262 8       713.152          50.000
E05  23472647.352 8 123349586.181 8      -170.086          51.000    23472649.141 8  94514613.152 8      -130.323          51.000
E24  22735419.375 8 119475447.984 8      1209.973          51.000    22735431.375 8  91546148.538 8       927.131          51.000
> 2020 05 19 01 38  0.0000000  0 12        .000000000000
G02  23290902.188 8 122394545.457 8     -2125.969          49.000    23290899.383 7  95372351.269 7     -1656.599          46.000
G07  20979861.352 8 110249912.975 8      -998.840          51.000    20979859.797 8  85909027.420 8      -778.317          51.000
G09  22499801.508 5 118237271.461 5     -2506.316          34.000
G30  20597741.078 8 108241852.035 8      1153.477          51.000    20597742.594 8  84344363.115 8       898.813          51.000
R03  19631426.000 8 105088637.068 8      -765.746          51.000    19631427.469 8  81735566.870 8      -595.580          48.000
R13  19565926.094 7 104480933.609 7      -448.086          42.000    19565928.656 7  81262967.265 7      -348.508          44.000
R14  20859222.562 8 111191407.092 8      3560.691          51.000    20859225.938 7  86482271.678 7      2769.427          46.000
C05  39812558.586 5 207314439.068 5        -8.145          35.000    39812555.906 6 160308659.951 6        -6.053          40.000
C19  22880020.172 8 119142270.135 8     -2084.383          50.000
C22  21922541.438 8 114156415.551 8       708.461          50.000
E05  23473606.180 8 123354624.751 8      -170.012          51.000    23473608.016 8  94518473.863 8      -130.266          51.000
E24  22728520.727 8 119439194.226 8      1202.727          51.000    22728532.461 8  91518369.710 8       921.498          51.000
> 2020 05 19 01 38 30.0000000  0 12        .000000000000
G02  23303074.070 8 122458507.116 8     -2137.684          49.000    23303070.484 7  95422191.505 7     -1665.727          45.000
G07  20985605.797 8 110280100.490 8     -1013.207          51.000    20985604.141 8  85932550.155 8      -789.512          51.000
G09  22514127.977 6 118312564.585 6     -2512.992          39.000
G30  20591204.758 8 108207503.258 8      1136.859          51.000    20591206.148 8  84317597.830 8       885.864          51.000
R03  19635763.664 8 105111856.758 8      -781.781          51.000    19635764.977 8  81753626.633 8      -608.052          49.000
R13  19568522.047 7 104494795.877 7      -475.586          42.000    19568524.836 7  81273749.032 7      -369.900          45.000
R14  20839231.445 8 111084841.153 8      3544.102          51.000    20839234.383 7  86399387.050 7      2756.523          46.000
C05  39812606.789 5 207314689.459 5        -8.090          35.000    39812604.195 6 160308854.316 6        -6.304          40.000
C19  22892057.695 8 119204951.936 8     -2094.129          50.000
C22  21918494.188 8 114135342.863 8       696.707          49.000
E05  23474597.797 8 123359835.943 8      -177.062          51.000    23474599.625 8  94522466.852 8      -135.659          51.000
E24  22721697.445 8 119403337.448 8      1188.156          51.000    22721708.414 8  91490895.042 8       910.364          51.000
> 2020 05 19 01 39  0.0000000  0 12        .000000000000
G02  23315306.203 8 122522785.363 8     -2147.910          50.000    23315301.766 7  95472278.447 7     -1673.696          45.000
G07  20991425.922 8 110310685.749 8     -1026.277          51.000    20991424.180 8  85956382.824 8      -799.697          51.000
G09  22528485.938 5 118388012.802 5     -2517.227          33.000    22528504.875 5  92250429.166 5     -1961.484          32.000
G30  20584756.617 8 108173619.913 8      1121.527          51.000    20584758.297 8  84291195.232 8       873.917          51.000
R03  19640185.281 8 105135525.966 8      -796.652          51.000    19640187.023 8  81772035.999 8      -619.622          49.000
R13  19571267.000 7 104509453.581 7      -501.891          43.000    19571269.875 7  81285149.478 7      -390.359          45.000
R14  20819328.867 8 110978746.903 8      3528.430          51.000    20819331.141 7  86316869.290 7      2744.337          47.000
C05  39812652.125 5 207314926.005 5        -7.848          35.000    39812649.648 6 160309037.264 6        -6.310          40.000
C19  22904146.344 8 119267897.771 8     -2102.746          51.000
C22  21914509.008 8 114114593.110 8       686.160          50.000
E05  23475623.578 8 123365226.993 8      -182.875          51.000    23475625.398 8  94526597.659 8      -140.158          51.000
E24  22714951.008 8 119367885.360 8      1174.781          51.000    22714961.625 8  91463730.479 8       900.163          51.000
> 2020 05 19 01 39 30.0000000  0 13        .000000000000
G02  23327595.703 8 122587366.400 8     -2156.402          49.000    23327590.930 7  95522601.325 7     -1680.314          46.000
G07  20997319.344 8 110341656.226 8     -1037.500          51.000    20997317.898 8  85980515.680 8      -808.442          51.000
G09  22542874.227 6 118463579.576 6     -2520.699          37.000    22542887.602 6  92309322.525 6     -1964.184          36.000
G30  20578395.164 8 108140191.149 8      1108.012          51.000    20578396.898 8  84265146.832 8       863.386          51.000
R03  19644689.023 8 105159633.999 8      -809.547          51.000    19644690.750 8  81790786.681 8      -629.651          49.000
R12  22730182.461 6 121420488.683 6     -3877.418          36.000
R13  19574158.648 7 104524894.741 7      -526.090          42.000    19574161.742 7  81297159.282 7      -409.178          44.000
R14  20799513.180 8 110873116.282 8      3514.578          51.000    20799515.008 7  86234712.171 7      2733.564          47.000
C05  39812692.594 5 207315136.633 5        -5.066          35.000    39812690.008 6 160309200.107 6        -4.020          40.000
C19  22916283.492 8 119331096.108 8     -2109.527          51.000
C22  21910584.352 8 114094156.324 8       677.359          50.000
E05  23476681.492 8 123370787.095 8      -186.746          51.000    23476683.484 8  94530857.983 8      -143.106          51.000
E24  22708279.445 8 119332827.612 8      1163.367          51.000    22708290.594 8  91436868.092 8       891.438          51.000
> 2020 05 19 01 40  0.0000000  0 15        .000000000000
G02  23339953.008 7 122652305.644 7     -2169.336          47.000    23339948.570 7  95573203.314 7     -1690.392          46.000
G07  21003296.914 8 110373068.690 8     -1053.199          51.000    21003295.453 8  86004992.937 8      -820.675          51.000
G09  22557296.633 5 118539371.947 5     -2528.250          34.000    22557307.102 5  92368381.386 5     -1970.068          34.000
G30  20572131.383 8 108107275.329 8      1089.930          51.000    20572133.102 8  84239498.131 8       849.296          51.000
R02  22839014.234 5 121873363.912 5     -3239.141          30.000
R03  19649285.836 8 105184240.803 8      -827.215          51.000    19649287.367 8  81809925.296 8      -643.392          49.000
R12  22752002.242 6 121537114.013 6     -3889.715          38.000
R13  19577207.891 7 104541176.948 7      -555.270          43.000    19577210.602 7  81309823.218 7      -431.876          44.000
R14  20779795.812 8 110768011.927 8      3495.953          49.000    20779797.828 8  86152964.349 8      2719.078          49.000
C05  39812739.078 5 207315378.869 5        -7.492          35.000    39812736.492 6 160309387.436 6        -5.679          40.000
C19  22928479.945 8 119394604.046 8     -2120.824          51.000
C22  21906731.195 8 114074091.188 8       663.934          51.000
E05  23477782.656 8 123376574.701 8      -195.496          51.000    23477784.945 8  94535292.624 8      -149.748          51.000
E24  22701694.344 8 119298223.129 8      1147.121          51.000    22701705.641 8  91410352.992 8       879.017          51.000
E25  26552253.875 7 139533032.327 7      3117.262          45.000
> 2020 05 19 01 40 30.0000000  0 15        .000000000000
G02  23352374.391 7 122717582.574 7     -2179.977          45.000    23352370.617 7  95624068.473 7     -1698.683          45.000
G07  21009354.992 8 110404903.967 8     -1066.711          51.000    21009353.086 8  86029799.644 8      -831.200          51.000
G09  22571751.758 5 118615347.066 5     -2534.113          32.000    22571766.172 5  92427582.543 5     -1974.634          32.000
G30  20565961.859 8 108074855.052 8      1073.859          51.000    20565963.633 8  84214235.574 8       836.774          51.000
R02  22857258.531 4 121970698.458 4     -3247.484          28.000    22857268.344 4  94866145.162 4     -2525.824          28.000
R03  19653972.570 8 105209328.909 8      -842.840          51.000    19653974.219 8  81829438.247 8      -655.542          49.000
R12  22773883.891 6 121653979.410 6     -3899.844          38.000
R13  19580410.828 7 104558280.313 7      -582.176          42.000    19580413.383 7  81323125.851 7      -452.803          45.000
R14  20760173.742 8 110663419.238 8      3479.277          48.000    20760176.984 8  86071614.464 8      2706.102          50.000
C05  39812788.312 5 207315635.167 5        -7.246          35.000    39812785.758 6 160309585.635 6        -5.648          40.000
C19  22940732.219 8 119458403.621 8     -2130.070          51.000
C22  21902946.258 8 114054381.262 8       652.480          51.000
E05  23478923.859 8 123382572.477 8      -202.047          51.000    23478926.297 8  94539888.313 8      -154.800          51.000
E24  22695192.133 8 119264055.030 8      1133.156          51.000    22695203.352 8  91384172.235 8       868.230          51.000
E25  26534475.555 7 139439606.898 7      3113.387          46.000    26534477.703 5 106843339.043 5      2385.675          34.000
> 2020 05 19 01 41  0.0000000  0 15        .000000000000
G02  23364852.398 7 122783156.151 7     -2189.617          47.000    23364849.258 7  95675164.783 7     -1706.195          47.000
G07  21015485.852 8 110437121.548 8     -1079.117          51.000    21015483.969 8  86054904.266 8      -840.871          51.000
G09  22586236.766 5 118691474.391 5     -2537.496          30.000    22586259.555 4  92486952.165 4     -1977.264          29.000
G30  20559879.391 8 108042891.799 8      1058.934          51.000    20559881.273 8  84189329.141 8       825.146          51.000
R02  22875531.938 5 122068232.881 5     -3253.430          30.000
R03  19658742.164 8 105234859.661 8      -857.246          51.000    19658743.617 8  81849295.468 8      -666.747          49.000
R12  22795818.211 6 121771153.455 6     -3909.289          36.000    22795813.391 4  94710895.830 4     -3040.558          24.000
R13  19583759.977 7 104576164.453 7      -607.969          43.000    19583762.391 7  81337035.738 7      -472.865          45.000
R14  20740641.203 8 110559302.377 8      3463.766          50.000    20740645.078 8  85990634.647 8      2694.040          50.000
C05  39812832.883 5 207315867.203 5        -6.117          35.000    39812830.336 6 160309765.046 6        -4.679          40.000
C19  22953033.273 8 119522455.893 8     -2138.191          51.000
C22  21899222.227 8 114034989.216 8       642.281          50.000
E05  23480097.703 8 123388742.014 8      -207.316          51.000    23480100.289 8  94544615.609 8      -158.859          51.000
E24  22688765.562 8 119230285.317 8      1120.195          51.000    22688777.242 8  91358296.733 8       858.340          51.000
E25  26516715.406 7 139346276.393 7      3110.777          46.000    26516719.297 5 106771826.074 5      2383.547          35.000
> 2020 05 19 01 41 30.0000000  0 14        .000000000000
G02  23377389.758 8 122849039.634 8     -2198.969          48.000    23377387.109 7  95726502.564 7     -1713.482          46.000
G07  21021692.297 8 110469736.235 8     -1091.449          51.000    21021690.461 8  86080318.306 8      -850.480          51.000
G30  20553886.875 8 108011401.171 8      1044.160          51.000    20553888.852 8  84164791.009 8       813.631          51.000
R03  19663597.234 8 105260849.397 8      -871.590          51.000    19663598.344 8  81869509.703 8      -677.906          48.000
R12  22817810.414 5 121888598.752 5     -3918.406          33.000    22817805.812 4  94802262.588 4     -3047.646          25.000
R13  19587258.039 7 104594843.409 7      -633.629          43.000    19587260.391 7  81351563.825 7      -492.822          45.000
R14  20721202.438 8 110455680.572 8      3448.156          51.000    20721205.836 8  85910039.897 8      2681.899          49.000
C05  39812875.711 5 207316090.233 5        -5.195          35.000    39812873.211 6 160309937.487 6        -3.788          40.000
C19  22965385.078 8 119586775.668 8     -2146.133          50.000
C22  21895562.250 8 114015931.437 8       631.906          50.000
E05  23481307.406 8 123395099.106 8      -212.656          51.000    23481309.992 8  94549486.614 8      -162.920          51.000
E09  24215198.188 5 127251724.599 5     -2045.609          31.000
E24  22682418.000 8 119196930.181 8      1107.250          51.000    22682430.828 8  91332738.903 8       848.451          51.000
E25  26498976.656 7 139253058.065 7      3107.531          46.000    26498979.945 5 106700398.987 5      2381.365          33.000
> 2020 05 19 01 42  0.0000000  0 15        .000000000000
G02  23389987.000 8 122915237.526 8     -2209.648          48.000    23389985.000 7  95778085.337 7     -1721.804          45.000
G06  24509026.953 5 128795805.274 5     -3509.363          31.000
G07  21027975.312 8 110502753.546 8     -1105.246          51.000    21027973.367 8  86106046.083 8      -861.231          51.000
G09  22615303.352 5 118844229.407 5     -2548.586          32.000
G30  20547985.711 8 107980390.891 8      1027.699          51.000    20547987.672 8  84140627.149 8       800.805          51.000
R03  19668539.547 8 105287306.401 8      -887.469          50.000    19668540.672 8  81890087.357 8      -690.253          48.000
R12  22839859.367 5 122006392.598 5     -3929.551          30.000    22839854.727 4  94893855.503 4     -3056.323          27.000
R13  19590906.203 7 104614323.541 7      -660.551          43.000    19590908.234 7  81366715.047 7      -513.762          46.000
R14  20701858.820 8 110352564.329 8      3430.863          51.000    20701861.266 7  85829838.399 7      2668.452          47.000
C05  39812918.297 6 207316312.505 6        -5.270          36.000    39812915.672 6 160310108.598 6        -4.057          40.000
C19  22977789.539 8 119651369.856 8     -2155.785          50.000
C22  21891967.922 8 113997216.340 8       620.117          51.000
E05  23482554.375 8 123401651.533 8      -219.582          51.000    23482556.844 8  94554507.294 8      -168.266          51.000
E24  22676150.906 8 119163997.820 8      1092.727          51.000    22676164.477 8  91307505.030 8       837.278          51.000
E25  26481260.828 7 139159961.096 7      3103.320          46.000    26481264.414 5 106629064.920 5      2377.887          34.000
> 2020 05 19 01 42 30.0000000  0 14        .000000000000
G02  23402655.805 7 122981812.680 7     -2215.969          46.000    23402654.453 7  95829962.091 7     -1726.729          44.000
G07  21034347.203 8 110536237.850 8     -1114.574          51.000    21034345.453 8  86132137.762 8      -868.499          51.000
G09  22629903.094 5 118920932.333 5     -2549.867          30.000
G30  20542188.508 8 107949926.791 8      1015.734          51.000    20542190.594 8  84116888.907 8       791.481          51.000
R02  22930627.898 5 122362209.396 5     -3270.691          32.000
R03  19673581.516 8 105314297.957 8      -899.125          49.000    19673583.109 8  81911080.769 8      -699.319          48.000
R13  19594716.578 7 104634669.662 7      -683.223          43.000    19594718.523 7  81382539.828 7      -531.395          46.000
R14  20682622.781 8 110250023.966 8      3417.805          51.000    20682624.086 7  85750084.814 7      2658.293          45.000
C05  39812972.961 5 207316597.216 5        -1.359          35.000    39812970.352 6 160310328.770 6        -1.042          40.000
C19  22990259.070 8 119716302.982 8     -2160.824          48.000
C22  21888452.016 8 113978910.150 8       612.730          51.000
E05  23483851.078 8 123408465.348 8      -222.098          51.000    23483853.422 8  94559728.262 8      -170.221          51.000
E24  22669977.000 8 119131554.653 8      1082.621          51.000    22669990.750 8  91282645.978 8       829.523          51.000
E25  26463580.781 7 139067053.037 7      3103.102          45.000    26463585.094 5 106557875.610 5      2377.734          35.000
> 2020 05 19 01 43  0.0000000  0 13        .000000000000
G02  23415371.391 7 123048634.859 7     -2232.848          44.000    23415370.414 7  95882031.375 7     -1739.878          44.000
G07  21040783.375 8 110570060.000 8     -1134.207          51.000    21040781.781 8  86158492.682 8      -883.798          51.000
G30  20536471.281 8 107919881.354 8       993.203          51.000    20536473.172 8  84093476.888 8       773.925          51.000
R02  22949072.219 5 122460645.388 5     -3284.273          31.000
R03  19678699.336 8 105341694.547 8      -921.250          50.000    19678700.703 8  81932389.240 8      -716.525          48.000
R13  19598664.422 7 104655750.512 7      -716.188          44.000    19598666.203 7  81398936.047 7      -557.035          46.000
R14  20663469.961 8 110147933.383 8      3394.203          49.000    20663471.555 7  85670681.042 7      2639.936          46.000
C05  39813015.547 5 207316818.749 5        -7.965          35.000    39813012.852 6 160310500.061 6        -5.990          40.000
C19  23002768.984 7 119781448.014 7     -2176.223          47.000
C22  21884990.820 8 113960887.307 8       594.859          51.000
E05  23485173.242 8 123415413.190 8      -235.156          51.000    23485175.602 8  94565051.929 8      -180.182          51.000
E24  22663872.109 8 119099473.749 8      1062.051          51.000    22663886.305 8  91258064.502 8       813.779          51.000
E25  26445912.023 6 138974207.953 6      3092.688          41.000    26445917.102 5 106486734.552 5      2369.443          35.000
> 2020 05 19 01 43 30.0000000  0 14        .000000000000
G02  23428138.562 7 123115727.852 7     -2239.742          44.000    23428136.984 7  95934311.679 7     -1745.251          42.000
G07  21047288.422 8 110604244.539 8     -1144.363          51.000    21047286.836 8  86185129.986 8      -891.712          51.000
G09  22659140.938 5 119074560.750 5     -2563.812          31.000
G30  20530838.703 8 107890280.853 8       980.391          51.000    20530840.188 8  84070411.567 8       763.941          51.000
R03  19683897.906 8 105369523.891 8      -933.730          51.000    19683899.523 8  81954034.279 8      -726.238          49.000
R13  19602754.555 7 104677591.061 7      -739.695          43.000    19602756.469 7  81415923.149 7      -575.316          46.000
R14  20644406.336 7 110046322.345 7      3380.180          47.000    20644410.367 8  85591650.208 8      2629.029          48.000
C05  39813050.953 6 207317002.945 6        -4.398          36.000    39813048.164 6 160310642.508 6        -3.446          40.000
C19  23015324.398 7 119846830.411 7     -2182.301          47.000
C22  21881589.445 8 113943174.763 8       586.367          51.000
E05  23486525.945 8 123422521.539 8      -238.508          51.000    23486528.383 8  94570498.580 8      -182.747          51.000
E09  24262160.461 5 127498511.383 5     -2061.016          34.000    24262152.711 5  97693640.237 5     -1579.076          33.000
E24  22657841.516 8 119067781.908 8      1051.012          51.000    22657855.922 8  91233781.155 8       805.312          51.000
E25  26428260.156 6 138881453.775 6      3091.590          38.000    26428265.164 5 106415663.102 5      2368.818          35.000
> 2020 05 19 01 44  0.0000000  0 13        .000000000000
G02  23440978.344 7 123183202.346 7     -2253.406          45.000    23440975.867 7  95986889.185 7     -1755.901          42.000
G07  21053883.812 8 110638903.761 8     -1161.102          51.000    21053882.336 8  86212137.166 8      -904.754          51.000
G30  20525312.359 8 107861239.125 8       960.836          51.000    20525313.562 8  84047781.637 8       748.703          51.000
R03  19689199.250 8 105397902.057 8      -953.035          51.000    19689200.867 8  81976106.162 8      -741.250          49.000
R13  19607008.266 7 104700305.594 7      -769.617          43.000    19607010.094 7  81433590.003 7      -598.591          47.000
R14  20625456.375 8 109945309.423 8      3359.098          50.000    20625461.547 8  85513084.610 8      2612.632          50.000
C05  39813100.688 5 207317262.421 5        -7.770          35.000    39813098.016 6 160310843.168 6        -6.153          40.000
C19  23027946.773 7 119912562.196 7     -2194.641          47.000
C22  21878269.352 8 113925886.262 8       571.285          51.000
E05  23487930.992 8 123429904.412 8      -248.512          51.000    23487933.297 8  94576155.589 8      -190.457          51.000
E09                                                                  24273954.500 5  97741148.374 5     -1584.838          35.000
E24  22651906.859 8 119036593.514 8      1033.309          51.000    22651920.883 8  91209883.552 8       791.744          51.000
E25  26410647.852 6 138788906.024 6      3083.441          36.000    26410652.805 6 106344749.839 6      2362.481          36.000
> 2020 05 19 01 44 30.0000000  0 14        .000000000000
G02  23453858.555 7 123250888.955 7     -2259.547          46.000    23453855.812 7  96039631.958 7     -1760.686          42.000
G07  21060537.430 8 110673869.189 8     -1170.465          51.000    21060536.219 8  86239382.956 8      -912.051          51.000
G09  22688514.742 6 119228923.748 6     -2574.898          36.000    22688495.633 5  92905630.659 5     -2006.417          33.000
G30  20519860.570 8 107832589.421 8       948.719          51.000    20519861.641 8  84025457.194 8       739.261          51.000
R03  19694571.797 8 105426659.661 8      -964.770          51.000    19694573.086 8  81998473.169 8      -750.376          49.000
R13  19611393.492 7 104723722.292 7      -792.094          42.000    19611395.617 7  81451803.007 7      -616.073          46.000
R14  20606588.602 8 109844728.813 8      3345.652          51.000    20606593.570 8  85434855.249 8      2602.174          50.000
C05  39813133.195 5 207317431.383 5        -3.816          35.000    39813130.570 6 160310974.199 6        -3.027          40.000
C19  23040604.570 8 119978477.559 8     -2200.043          48.000
C22  21874999.094 8 113908857.449 8       563.488          51.000
E05  23489356.516 8 123437395.319 8      -251.305          51.000    23489358.766 8  94581895.372 8      -192.588          51.000
E09                                                                  24285759.750 5  97788681.849 5     -1584.667          35.000
E24  22646036.555 8 119005742.368 8      1022.887          51.000    22646049.992 8  91186244.369 8       783.788          51.000
E25  26393044.086 5 138696399.502 5      3083.141          35.000    26393047.977 6 106273868.185 6      2362.197          37.000
> 2020 05 19 01 45  0.0000000  0 13        .000000000000
G02  23466815.227 7 123318976.371 7     -2273.621          46.000    23466813.234 7  96092687.071 7     -1771.653          44.000
G07  21067285.516 8 110709330.887 8     -1187.855          51.000    21067284.430 8  86267015.451 8      -925.602          51.000
G30  20514519.711 8 107804523.375 8       928.375          51.000    20514520.750 8  84003587.538 8       723.409          51.000
R03  19700051.781 8 105455992.502 8      -984.758          51.000    19700052.805 8  82021287.574 8      -765.923          49.000
R13  19615946.391 7 104748034.922 7      -822.691          42.000    19615948.336 7  81470712.820 7      -639.871          46.000
R14  20587838.953 8 109744778.133 8      3323.711          51.000    20587843.234 8  85357115.833 8      2585.109          49.000
C05  39813184.828 5 207317700.070 5        -8.293          35.000    39813182.359 6 160311182.345 6        -6.434          40.000
C19  23053334.664 8 120044765.689 8     -2213.258          50.000
C22  21871815.508 8 113892279.181 8       547.590          51.000
E05  23490839.031 8 123445186.148 8      -262.199          51.000    23490841.391 8  94587864.963 8      -200.864          51.000
E09  24297605.281 5 127684772.715 5     -2075.469          35.000    24297606.703 5  97836382.351 5     -1591.037          33.000
E24  22640266.969 8 118975420.683 8      1004.395          51.000    22640279.945 8  91163010.879 8       769.619          51.000
E25  26375485.758 5 138604111.595 5      3074.035          35.000    26375487.406 5 106203166.327 5      2355.394          35.000
> 2020 05 19 01 45 30.0000000  0 14        .000000000000
G02  23479813.898 8 123387283.468 8     -2280.781          48.000    23479812.984 7  96145913.398 7     -1777.232          43.000
G07  21074093.820 8 110745108.590 8     -1198.031          51.000    21074092.734 8  86294894.177 8      -933.531          51.000
G09  22718007.438 5 119383919.782 5     -2586.883          34.000    22718014.430 5  93026457.833 5     -2015.762          33.000
G30  20509255.922 8 107776862.207 8       914.930          51.000    20509256.477 8  83982033.371 8       712.932          51.000
R03  19705605.102 8 105485718.567 8      -997.746          51.000    19705605.961 8  82044407.828 8      -776.025          49.000
R13  19620632.555 7 104773058.798 7      -846.129          42.000    19620634.375 7  81490175.825 7      -658.100          45.000
R14  20569173.555 8 109645279.122 8      3308.793          51.000    20569177.422 8  85279727.697 8      2573.506          49.000
C05  39813221.633 5 207317891.674 5        -5.031          35.000    39813219.180 6 160311330.505 6        -4.072          40.000
C19  23066102.477 8 120111248.835 8     -2219.555          50.000
C22  21868684.664 8 113875975.224 8       538.590          51.000
E05  23492344.742 8 123453098.320 8      -266.008          51.000    23492347.055 8  94593927.542 8      -203.866          51.000
E09  24309462.344 6 127747064.997 6     -2077.309          38.000
E24  22634564.023 8 118945450.222 8       992.883          51.000    22634576.578 8  91140046.530 8       760.750          51.000
E25  26357937.875 5 138511898.065 5      3072.602          34.000    26357936.117 5 106132508.481 5      2354.283          34.000
> 2020 05 19 01 46  0.0000000  0 13        .000000000000
G02  23492867.141 8 123455876.555 8     -2291.227          49.000    23492866.820 7  96199362.563 7     -1785.371          43.000
G07  21080975.195 8 110781270.175 8     -1211.895          51.000    21080974.023 8  86323072.041 8      -944.333          51.000
G30  20504082.320 8 107749675.292 8       898.238          51.000    20504082.672 8  83960848.782 8       699.926          51.000
R03  19711245.031 8 105515909.345 8     -1014.242          51.000    19711246.117 8  82067889.525 8      -788.855          49.000
R13  19625464.547 7 104798863.127 7      -873.285          42.000    19625466.695 7  81510245.872 7      -679.222          45.000
R14  20550606.297 8 109546305.424 8      3290.246          51.000    20550610.102 8  85202748.148 8      2559.080          48.000
C05  39813256.711 6 207318074.416 6        -6.289          36.000    39813254.266 6 160311471.809 6        -4.579          40.000
C19  23078921.297 8 120177995.131 8     -2229.359          51.000
C22  21865619.992 8 113860015.323 8       526.188          51.000
E05  23493886.820 8 123461201.564 8      -273.363          51.000    23493889.039 8  94600136.521 8      -209.445          51.000
E09  24321341.266 6 127809465.546 6     -2081.707          36.000    24321345.234 5  97931978.539 5     -1594.954          30.000
E24  22628941.164 8 118915900.973 8       977.824          51.000    22628953.047 8  91117404.915 8       749.260          51.000
E25                                                                  26340408.805 5 106061949.176 5      2350.395          34.000
> 2020 05 19 01 46 30.0000000  0 13        .000000000000
G02  23505981.609 8 123524791.881 8     -2302.328          49.000    23505981.055 7  96253062.775 7     -1794.025          43.000
G07  21087936.727 8 110817852.873 8     -1226.223          51.000    21087935.352 8  86351578.044 8      -955.498          51.000
G30  20499006.469 8 107723001.673 8       880.652          51.000    20499007.094 8  83940064.176 8       686.223          51.000
R03  19716979.242 8 105546604.926 8     -1031.473          51.000    19716980.094 7  82091763.837 7      -802.257          47.000
R13  19630450.047 7 104825485.366 7      -900.781          42.000    19630452.156 7  81530952.042 7      -700.608          44.000
R14  20532145.750 8 109447899.639 8      3270.898          51.000    20532149.055 7  85126210.315 7      2544.032          47.000
C05  39813297.578 6 207318286.767 6        -7.652          36.000    39813295.070 6 160311636.018 6        -5.739          40.000
C19  23091798.117 8 120245042.578 8     -2239.809          51.000
C22  21862628.852 8 113844439.069 8       512.930          51.000
E05  23495472.602 8 123469535.154 8      -281.441          51.000    23495474.953 8  94606521.994 8      -215.650          51.000
E09                                                                  24333245.258 5  97979902.810 5     -1599.429          32.000
E24  22623405.711 8 118886812.515 8       962.047          51.000    22623417.258 8  91095116.386 8       737.192          51.000
E25                                                                  26322915.078 5 105991519.619 5      2345.777          35.000
> 2020 05 19 01 47  0.0000000  0 13        .000000000000
G02  23519153.594 8 123594010.710 8     -2309.387          48.000    23519151.852 6  96306999.481 6     -1799.525          41.000
G07  21094975.094 8 110854839.486 8     -1236.672          51.000    21094973.586 8  86380398.787 8      -963.637          51.000
G30  20494025.266 8 107696825.303 8       867.094          51.000    20494025.898 8  83919667.026 8       675.657          51.000
R03  19722804.953 8 105577789.569 8     -1044.773          51.000    19722805.719 7  82116018.551 7      -812.602          47.000
R12  23063283.469 5 123199878.388 5     -4021.621          31.000    23063285.109 5  95822136.005 5     -3127.921          30.000
R13  19635585.211 7 104852907.789 7      -924.625          42.000    19635587.609 7  81552280.606 7      -719.153          44.000
R14  20513789.656 8 109350049.144 8      3255.328          51.000    20513792.492 7  85050104.383 7      2531.922          47.000
C05  39813340.969 5 207318512.975 5        -5.207          35.000    39813338.555 6 160311810.917 6        -3.860          40.000
C19  23104729.078 8 120312374.731 8     -2246.258          51.000
C22  21859708.477 8 113829231.575 8       503.559          51.000
E05  23497099.336 8 123478083.386 8      -285.680          51.000    23497101.664 8  94613071.935 8      -218.924          51.000
E24  22617954.906 8 118858169.377 8       950.188          51.000    22617966.289 8  91073169.070 8       728.057          51.000
E25                                                                  26305452.359 5 105921208.895 5      2343.777          35.000
> 2020 05 19 01 47 30.0000000  0 13        .000000000000
G02  23532369.031 7 123663459.830 7     -2320.832          47.000    23532365.578 6  96361115.622 6     -1808.441          40.000
G07  21102076.438 8 110892157.584 8     -1251.387          51.000    21102075.062 8  86409477.841 8      -975.107          51.000
G30  20489125.352 8 107671075.449 8       849.273          51.000    20489125.727 8  83899602.221 8       661.772          51.000
R03  19728708.422 8 105609391.699 8     -1062.391          51.000    19728709.273 7  82140597.945 7      -826.307          47.000
R12  23085896.750 5 123320668.627 5     -4031.383          33.000    23085897.609 4  95916083.975 4     -3135.520          29.000
R13  19640856.422 7 104881056.093 7      -952.289          42.000    19640858.859 7  81574173.741 7      -740.669          43.000
R14  20495524.695 8 109252685.117 8      3235.281          51.000    20495527.562 8  84974376.818 8      2516.330          48.000
C05                                                                  39813371.195 6 160311942.220 6        -5.250          40.000
C19  23117700.938 8 120379920.908 8     -2257.070          51.000
C22  21856845.578 8 113814323.744 8       489.953          51.000
E05  23498753.578 8 123486775.869 8      -294.164          51.000    23498755.812 8  94619732.415 8      -225.422          51.000
E24  22612575.422 8 118829901.461 8       934.000          51.000    22612586.922 8  91051509.242 8       715.662          51.000
E25  26288022.742 6 138144504.184 6      3052.227          38.000    26288007.031 6 105850964.114 6      2338.677          36.000
> 2020 05 19 01 48  0.0000000  0 13        .000000000000
G02  23545645.445 7 123733230.343 7     -2330.406          45.000    23545641.141 6  96415482.243 6     -1815.901          41.000
G07  21109258.500 8 110929899.400 8     -1264.289          51.000    21109257.273 8  86438887.046 8      -985.160          51.000
G30  20484324.539 8 107645846.252 8       833.062          51.000    20484324.867 8  83879943.119 8       649.140          51.000
R03  19734708.117 8 105641507.231 8     -1078.238          51.000    19734708.773 8  82165576.665 8      -838.630          48.000
R12  23108563.789 5 123441752.134 5     -4039.684          33.000    23108564.922 4  96010260.020 4     -3141.976          28.000
R13  19646281.086 7 104910023.634 7      -978.652          42.000    19646283.414 7  81596704.045 7      -761.174          44.000
R14  20477369.156 8 109155905.958 8      3217.012          51.000    20477372.242 8  84899104.147 8      2502.120          48.000
C05  39813413.172 6 207318889.190 6        -6.672          36.000    39813410.750 6 160312101.864 6        -5.162          40.000
C19  23130731.078 8 120447773.501 8     -2266.047          48.000
C22  21854058.273 8 113799809.672 8       477.957          51.000
E05  23500453.227 8 123495706.873 8      -300.836          51.000    23500455.477 8  94626575.654 8      -230.526          51.000
E24  22607285.016 8 118802103.244 8       919.559          51.000    22607297.164 8  91030209.302 8       704.654          51.000
E25  26270608.055 6 138053010.460 6      3047.539          40.000    26270597.406 6 105780858.574 6      2335.082          37.000
> 2020 05 19 01 48 30.0000000  0 14        .000000000000
G02  23558974.336 7 123803275.349 7     -2339.570          47.000    23558970.234 7  96470062.774 7     -1823.042          42.000
G07  21116512.469 8 110968019.294 8     -1277.168          50.000    21116511.250 8  86468590.860 8      -995.196          50.000
G28  23833236.805 5 125244504.426 5      3324.023          35.000
G30  20479614.141 8 107621093.354 8       816.938          51.000    20479614.633 8  83860655.158 8       636.575          51.000
R03  19740795.188 8 105674092.038 8     -1094.203          51.000    19740795.469 8  82190920.392 8      -851.047          48.000
R12  23131277.266 5 123563080.082 5     -4048.211          32.000    23131277.664 4  96104626.197 4     -3148.612          27.000
R13  19651850.570 7 104939764.323 7     -1004.492          42.000    19651852.852 7  81619835.704 7      -781.272          43.000
R14  20459315.586 8 109059670.243 8      3198.559          51.000    20459318.016 7  84824254.145 7      2487.765          47.000
C05  39813451.414 5 207319089.120 5        -6.664          35.000    39813449.023 6 160312256.091 6        -5.301          40.000
C19  23143809.773 7 120515888.299 7     -2275.094          46.000
C22  21851338.555 8 113785646.633 8       466.051          51.000
E05  23502190.000 8 123504832.689 8      -307.598          51.000    23502192.219 8  94633568.156 8      -235.698          51.000
E24  22602075.594 8 118774731.222 8       905.094          51.000    22602088.586 8  91009235.928 8       693.528          51.000
E25  26253221.398 7 137961656.257 7      3042.598          43.000    26253215.102 6 105710859.924 6      2331.434          38.000
> 2020 05 19 01 49  0.0000000  0 15        .000000000000
G02  23572357.641 8 123873604.639 8     -2346.871          48.000    23572353.984 7  96524864.810 7     -1828.731          43.000
G07  21123840.367 8 111006528.037 8     -1287.863          50.000    21123839.094 8  86498597.677 8     -1003.530          50.000
G28  23814267.891 5 125144832.556 5      3323.168          35.000
G30  20474996.914 8 107596829.216 8       802.906          51.000    20474997.266 8  83841748.042 8       625.641          51.000
R03  19746971.914 8 105707159.019 8     -1107.992          51.000    19746972.523 8  82216639.141 8      -861.772          48.000
R12  23154036.703 5 123684659.040 5     -4054.410          30.000    23154039.453 4  96199225.645 4     -3153.430          26.000
R13  19657566.977 7 104970288.631 7     -1028.090          42.000    19657569.312 7  81643576.844 7      -799.622          42.000
R14  20441366.531 8 108963993.732 8      3182.113          51.000    20441368.672 7  84749839.113 7      2474.977          46.000
C05  39813490.766 6 207319293.231 6        -4.742          36.000    39813488.320 6 160312414.270 6        -3.745          40.000
C19  23156941.109 7 120584276.935 7     -2281.918          46.000
C22  21848688.648 8 113771847.914 8       456.152          51.000
E05  23503966.156 8 123514166.035 8      -312.305          51.000    23503968.312 8  94640719.673 8      -239.292          51.000
E09  24393071.453 5 128186455.076 5     -2103.836          32.000
E24  22596950.023 8 118747798.285 8       892.672          51.000    22596963.570 8  90988599.003 8       683.998          51.000
E25  26235865.258 7 137870455.665 7      3039.645          44.000    26235861.977 6 105640978.961 6      2329.300          39.000
> 2020 05 19 01 49 30.0000000  0 14        .000000000000
G02  23585789.898 7 123944190.552 7     -2356.398          47.000    23585786.703 7  96579866.788 7     -1836.158          45.000
G07  21131237.289 8 111045399.291 8     -1301.090          50.000    21131236.031 8  86528886.943 8     -1013.836          50.000
G28  23795311.227 6 125045222.712 6      3320.090          38.000
G30  20470467.898 8 107573028.811 8       786.176          51.000    20470468.266 8  83823202.272 8       612.605          51.000
R03  19753234.320 8 105740683.122 8     -1124.484          51.000    19753235.305 8  82242713.427 8      -874.599          49.000
R12  23176837.391 4 123806502.027 4     -4064.375          28.000
R13  19663424.688 7 105001568.475 7     -1054.582          42.000    19663427.320 7  81667905.649 7      -820.230          42.000
R14  20423517.914 8 108868854.195 8      3162.871          50.000    20423520.453 7  84675841.736 7      2460.014          46.000
C05  39813526.242 6 207319478.183 6        -5.074          36.000    39813523.859 6 160312557.314 6        -4.066          40.000
C19  23170121.711 7 120652914.087 7     -2291.371          47.000
C22  21846103.922 8 113758389.721 8       443.516          51.000
E05  23505777.031 8 123523682.221 8      -319.625          51.000    23505779.094 8  94648011.303 8      -244.970          51.000
E24  22591904.008 8 118721279.983 8       877.613          51.000    22591917.594 8  90968279.796 8       672.448          51.000
E25  26218534.461 7 137779385.405 7      3034.230          45.000    26218534.141 6 105571197.883 6      2324.957          39.000
> 2020 05 19 01 50  0.0000000  0 13        .000000000000
G02  23599280.430 7 124015083.488 7     -2373.355          47.000    23599277.805 7  96635107.991 7     -1849.371          45.000
G07  21138712.969 8 111084684.630 8     -1321.660          48.000    21138711.812 8  86559498.904 8     -1029.865          49.000
G28  23776378.055 6 124945730.683 6      3309.078          38.000
G30  20466037.195 8 107549745.412 8       762.293          51.000    20466037.680 8  83805059.369 8       593.995          51.000
R03  19759592.445 8 105774719.376 8     -1148.418          51.000    19759593.609 8  82269186.073 8      -893.211          49.000
R13  19669433.828 7 105033656.481 7     -1088.242          42.000    19669435.844 6  81692862.999 6      -846.408          41.000
R14  20405780.820 8 108774309.083 8      3136.219          48.000    20405784.562 8  84602306.683 8      2439.281          48.000
C05  39813568.219 6 207319696.427 6       -12.863          36.000    39813565.789 6 160312726.081 6       -10.055          40.000
C19  23183361.305 8 120721851.999 8     -2308.176          49.000
C22  21843595.133 8 113745325.865 8       423.617          51.000
E05  23507632.797 8 123533434.980 8      -334.340          51.000    23507634.938 8  94655484.182 8      -256.096          51.000
E24  22586947.250 8 118695230.200 8       855.254          51.000    22586960.750 8  90948319.582 8       655.339          51.000
E25  26201239.570 7 137688500.601 7      3021.082          46.000    26201242.352 6 105501558.922 6      2314.843          41.000
> 2020 05 19 01 50 30.0000000  0 13        .000000000000
G02  23612825.445 7 124086262.997 7     -2374.586          47.000    23612823.328 7  96690572.527 7     -1850.327          46.000
G07  21146263.750 8 111124364.995 8     -1326.285          49.000    21146262.641 8  86590418.676 8     -1033.472          49.000
G28  23757464.344 6 124846341.202 6      3314.180          39.000
G30  20461701.406 8 107526961.097 8       754.109          51.000    20461701.977 8  83787305.352 8       587.618          51.000
R03  19766042.523 8 105809249.682 8     -1156.273          49.000    19766044.211 8  82296042.974 8      -899.324          49.000
R13  19675590.430 7 105066532.323 7     -1106.043          42.000    19675592.453 6  81718433.106 6      -860.256          41.000
R14  20388152.969 8 108680343.116 8      3125.500          48.000    20388157.078 8  84529222.046 8      2430.944          48.000
C05  39813613.109 6 207319930.124 6        -5.051          36.000    39813610.633 6 160312906.762 6        -3.927          40.000
C19  23196655.406 8 120791072.304 8     -2309.090          51.000
C22  21841159.047 8 113732639.608 8       419.531          51.000
E05  23509530.180 8 123543406.766 8      -332.965          51.000    23509532.406 8  94663124.895 8      -255.153          51.000
E24  22582076.328 8 118669631.544 8       848.797          51.000    22582089.555 8  90928705.046 8       650.347          51.000
E25  26183977.289 7 137597785.123 7      3024.082          47.000    26183981.977 6 105432049.705 6      2317.064          41.000
> 2020 05 19 01 51  0.0000000  0 13        .000000000000
G02  23626411.977 8 124157660.582 8     -2384.195          48.000    23626410.234 7  96746207.024 7     -1857.811          46.000
G07  21153877.117 8 111164373.355 8     -1339.750          49.000    21153875.859 8  86621594.002 8     -1043.964          49.000
G28  23738558.508 6 124746991.847 6      3310.113          41.000    23738556.547 4  97205416.011 4      2579.309          28.000
G30  20457448.125 8 107504610.313 8       736.965          51.000    20457449.031 8  83769889.158 8       574.258          51.000
R03  19772573.055 8 105844207.942 8     -1173.223          50.000    19772575.062 8  82323232.754 8      -912.507          49.000
R13  19681881.766 6 105100126.378 6     -1132.309          41.000    19681883.539 6  81744561.824 6      -880.681          41.000
R14  20370622.406 8 108586892.930 8      3105.602          51.000    20370625.641 8  84456538.534 8      2415.465          48.000
C05                                                                  39813646.062 6 160313049.273 6        -4.785          40.000
C19  23209991.125 8 120860509.495 8     -2318.969          51.000
C22  21838783.125 8 113720267.056 8       406.434          51.000
E05  23511456.930 8 123553532.465 8      -340.828          51.000    23511459.016 8  94670883.532 8      -261.130          51.000
E24  22577278.898 8 118644419.087 8       833.188          51.000    22577291.664 8  90909386.418 8       638.386          51.000
E25  26166735.180 8 137507175.274 8      3017.859          48.000    26166740.102 7 105362621.412 7      2312.529          42.000
> 2020 05 19 01 51 30.0000000  0 13        .000000000000
G02  23640050.523 8 124229331.448 8     -2393.629          48.000    23640049.133 7  96802054.461 7     -1865.165          47.000
G07  21161563.438 7 111204765.524 7     -1352.957          47.000    21161562.289 7  86653068.435 7     -1054.249          47.000
G28  23719672.242 7 124647743.345 7      3306.445          42.000    23719664.203 4  97128065.307 4      2576.457          27.000
G30  20453288.297 8 107482750.664 8       720.367          51.000    20453289.430 8  83752855.667 8       561.325          51.000
R03  19779194.289 8 105879653.258 8     -1189.797          50.000    19779196.547 8  82350801.337 8      -925.398          49.000
R13  19688317.875 6 105134496.066 6     -1158.801          41.000    19688320.000 7  81771293.840 7      -901.289          42.000
R14  20353200.273 8 108494020.186 8      3085.934          51.000    20353203.242 8  84384304.165 8      2400.171          49.000
C05  39813685.336 5 207320306.353 5        -6.898          35.000    39813682.906 6 160313197.714 6        -5.310          40.000
C19  23223379.008 8 120930220.132 8     -2328.438          51.000
C22  21836478.648 8 113708266.370 8       393.637          51.000
E05  23513424.039 8 123563870.118 8      -348.324          51.000    23513426.023 8  94678804.581 8      -266.910          51.000
E24  22572565.891 8 118619651.007 8       817.980          51.000    22572578.516 8  90890408.288 8       626.797          51.000
E25  26149524.562 8 137416730.519 8      3011.777          49.000    26149528.367 7 105293319.617 7      2307.723          44.000
> 2020 05 19 01 52  0.0000000  0 14        .000000000000
G02  23653734.328 8 124301239.613 8     -2399.680          48.000    23653733.141 7  96858086.788 7     -1869.880          47.000
G07  21169316.242 8 111245506.695 8     -1362.785          49.000    21169315.281 8  86684814.810 8     -1061.911          49.000
G09  22912672.328 5 120406904.810 5     -2654.559          34.000    22912672.555 5  93823563.099 5     -2068.487          33.000
G28  23700799.625 7 124548565.348 7      3306.094          42.000    23700793.328 4  97050783.727 4      2576.171          29.000
G30  20449215.695 8 107461348.808 8       707.070          51.000    20449216.789 8  83736178.882 8       550.964          51.000
R03  19785900.484 8 105915552.175 8     -1203.008          51.000    19785902.688 8  82378722.723 8      -935.673          48.000
R13  19694892.695 6 105169605.198 6     -1181.480          41.000    19694894.969 6  81798600.938 6      -918.929          41.000
R14  20335880.367 8 108401694.113 8      3069.633          51.000    20335883.516 8  84312495.024 8      2387.495          49.000
C05  39813717.391 5 207320473.077 5        -3.250          35.000    39813714.938 6 160313326.648 6        -3.156          40.000
C19  23236812.312 8 121000170.656 8     -2334.457          50.000
C22  21834239.516 8 113696605.553 8       384.188          51.000
E05  23515425.203 8 123574386.847 8      -352.375          51.000    23515427.297 8  94686862.846 8      -270.011          51.000
E24  22567931.133 8 118595294.564 8       806.176          51.000    22567943.820 8  90871745.575 8       617.782          51.000
E25  26132339.398 8 137326419.358 8      3009.312          50.000    26132342.656 7 105224120.183 7      2305.834          45.000
> 2020 05 19 01 52 30.0000000  0 14        .000000000000
G02  23667472.969 8 124373435.700 8     -2410.781          49.000    23667471.656 7  96914343.465 7     -1878.531          46.000
G07  21177145.539 8 111286649.006 8     -1377.574          50.000    21177144.297 8  86716873.746 8     -1073.434          50.000
G09  22927850.969 4 120486669.099 4     -2662.836          28.000
G28  23681950.820 6 124449514.255 6      3300.109          41.000    23681944.852 4  96973601.116 4      2571.514          29.000
G30  20445240.422 8 107440458.146 8       688.270          51.000    20445241.742 8  83719900.456 8       536.314          51.000
R03  19792701.742 8 105951959.427 8     -1221.469          51.000    19792703.883 7  82407039.450 7      -950.031          47.000
R13  19701615.664 6 105205505.664 6     -1209.301          40.000    19701618.000 6  81826523.543 6      -940.564          41.000
R14  20318673.508 8 108309972.276 8      3047.738          51.000    20318676.812 8  84241155.850 8      2370.463          49.000
C05  39813754.672 5 207320667.607 5        -6.242          35.000    39813752.297 6 160313477.063 6        -5.084          40.000
C19  23250301.125 8 121070413.430 8     -2345.785          49.000
C22  21832075.977 8 113685338.580 8       369.469          51.000
E05  23517470.688 8 123585136.561 8      -361.746          51.000    23517473.000 8  94695099.620 8      -277.197          51.000
E24  22563384.930 8 118571403.695 8       789.059          51.000    22563397.594 8  90853439.606 8       604.621          51.000
E25  26115190.094 8 137236297.045 8      3001.387          50.000    26115192.844 7 105155065.451 7      2299.671          46.000
> 2020 05 19 01 53  0.0000000  0 13        .000000000000
G02  23681257.070 8 124445871.384 8     -2418.777          49.000    23681255.281 7  96970786.843 7     -1884.762          46.000
G07  21185042.102 8 111328144.960 8     -1389.312          49.000    21185040.281 8  86749208.254 8     -1082.581          49.000
G28  23663117.820 6 124350547.124 6      3297.246          40.000    23663112.930 5  96896483.877 5      2569.277          31.000
G30  20441353.633 8 107420032.765 8       672.859          51.000    20441354.938 8  83703984.591 8       524.306          51.000
R03  19799589.734 8 105988828.958 8     -1237.027          51.000    19799590.984 7  82435715.738 7      -962.132          47.000
R13  19708477.859 6 105242148.932 6     -1234.168          39.000    19708479.570 6  81855023.853 6      -959.908          41.000
R14  20301571.852 8 108218811.317 8      3029.078          51.000    20301575.062 8  84170252.897 8      2355.950          50.000
C05  39813788.664 5 207320844.593 5        -6.441          35.000    39813786.258 6 160313613.870 6        -4.495          40.000
C19  23263837.242 8 121140902.478 8     -2353.988          48.000
C22  21829979.406 8 113674421.077 8       357.797          51.000
E05  23519551.883 8 123596073.832 8      -367.910          51.000    23519554.516 8  94703480.111 8      -281.890          51.000
E24  22558918.641 8 118547933.136 8       775.152          51.000    22558931.055 8  90835455.679 8       593.942          51.000
E25  26098068.250 8 137146319.614 8      2996.539          50.000    26098070.195 7 105086121.709 7      2296.082          46.000
> 2020 05 19 01 53 30.0000000  0 13        .000000000000
G02  23695088.969 8 124518559.214 8     -2427.711          49.000    23695086.383 7  97027426.694 7     -1891.723          45.000
G07  21193008.555 8 111370008.638 8     -1402.145          49.000    21193006.773 8  86781829.318 8     -1092.580          49.000
G28  23644304.398 6 124251682.689 6      3293.414          38.000    23644300.352 5  96819446.698 5      2566.306          32.000
G30  20437558.336 8 107400088.211 8       656.207          51.000    20437559.242 8  83688443.373 8       511.327          51.000
R03  19806567.227 8 106026177.129 8     -1253.469          51.000    19806567.969 7  82464764.295 7      -974.920          47.000
R13  19715481.297 6 105279548.759 6     -1259.648          39.000    19715483.172 6  81884112.628 6      -979.727          41.000
R14  20284578.805 8 108128229.965 8      3009.145          50.000    20284582.203 8  84099800.737 8      2340.446          50.000
C05  39813822.148 5 207321018.881 5        -6.340          35.000    39813819.859 6 160313749.067 6        -5.141          40.000
C19  23277423.391 7 121211652.564 7     -2363.316          47.000
C22  21827953.078 8 113663869.452 8       344.938          51.000
E05  23521671.906 8 123607214.638 8      -375.348          51.000    23521674.859 8  94712016.553 8      -287.619          51.000
E24  22554535.336 8 118524898.892 8       759.883          51.000    22554547.664 8  90817806.089 8       582.251          51.000
E25  26080977.266 8 137056504.404 8      2990.551          49.000    26080978.570 7 105017302.281 7      2291.494          47.000
> 2020 05 19 01 54  0.0000000  0 15        .000000000000
G02  23708968.047 8 124591495.424 8     -2435.133          49.000    23708964.711 7  97084260.105 7     -1897.506          44.000
G05  20800859.469 6 109309249.115 6      1246.379          37.000    20800860.672 6  85176026.187 6       971.204          37.000
G07  21201044.438 8 111412237.441 8     -1413.594          49.000    21201043.070 8  86814734.889 8     -1101.502          49.000
G09  22973564.641 5 120726904.842 5     -2676.816          30.000
G28  23625510.930 6 124152922.619 6      3290.391          37.000    23625508.320 4  96742490.763 4      2563.929          29.000
G30  20433854.062 8 107380623.011 8       640.949          51.000    20433854.969 8  83673275.704 8       499.441          51.000
R03  19813633.680 8 106064002.872 8     -1268.738          51.000    19813634.117 7  82494184.270 7      -986.796          47.000
R13  19722625.945 6 105317701.310 6     -1284.098          39.000    19722628.109 6  81913786.826 6      -998.743          41.000
R14  20267694.109 8 108038229.738 8      2990.336          49.000    20267698.328 8  84029800.544 8      2325.817          50.000
C05  39813855.125 5 207321190.871 5        -5.328          35.000    39813852.844 6 160313881.666 6        -4.341          40.000
C19  23291058.562 7 121282661.840 7     -2371.090          45.000
C22  21825997.016 8 113653683.383 8       333.551          51.000
E05  23523830.617 8 123618558.092 8      -381.422          51.000    23523833.633 8  94720708.270 8      -292.228          51.000
E24  22550234.992 8 118502300.173 8       746.180          51.000    22550247.289 8  90800490.209 8       571.700          51.000
E25  26063916.875 8 136966851.962 8      2985.750          48.000    26063917.984 8 104948607.566 8      2287.759          48.000
> 2020 05 19 01 54 30.0000000  0 15        .000000000000
G02  23722887.602 7 124664644.548 7     -2444.043          47.000    23722884.164 7  97141259.404 7     -1904.449          45.000
G05  20793784.797 5 109272075.887 5      1228.914          35.000    20793786.945 5  85147060.031 5       957.595          34.000
G07  21209143.148 8 111454796.722 8     -1426.328          48.000    21209141.672 8  86847897.962 8     -1111.425          48.000
G09  22988855.367 5 120807228.657 5     -2682.203          34.000    22988854.102 5  94135513.938 5     -2090.028          31.000
G28  23606731.898 5 124054236.830 5      3286.203          34.000    23606729.117 5  96665592.803 5      2560.684          31.000
G30  20430234.773 8 107361604.281 8       624.359          51.000    20430235.719 8  83658455.916 8       486.514          51.000
R03  19820783.047 8 106102273.092 8     -1285.398          51.000    19820783.109 7  82523949.971 7      -999.754          47.000
R13  19729904.797 6 105356570.683 6     -1309.773          40.000    19729906.695 6  81944018.554 6     -1018.713          41.000
R14  20250912.859 8 107948780.790 8      2970.172          50.000    20250917.727 8  83960229.098 8      2310.134          49.000
C05                                                                  39813878.852 6 160313986.489 6        -4.730          40.000
C19  23304737.828 7 121353897.256 7     -2380.438          47.000
C22  21824105.156 8 113643831.418 8       320.645          51.000
E05  23526021.812 8 123630071.813 8      -388.918          51.000    23526024.648 8  94729530.463 8      -297.960          51.000
E24  22546011.219 8 118480104.677 8       730.883          51.000    22546023.516 8  90783483.278 8       560.036          51.000
E25  26046881.102 7 136877331.240 7      2979.656          46.000    26046882.594 8 104880013.756 8      2283.146          48.000
> 2020 05 19 01 55  0.0000000  0 15        .000000000000
G02  23736868.102 7 124738113.834 7     -2452.160          46.000    23736865.273 7  97198508.174 7     -1910.774          46.000
G05  20786821.992 4 109235486.794 4      1211.203          28.000    20786823.617 5  85118554.588 5       943.789          30.000
G07  21217325.516 8 111497795.521 8     -1438.348          49.000    21217323.758 8  86881403.516 8     -1120.790          49.000
G13  22861294.594 5 120136944.200 5      2709.414          34.000
G28  23587988.523 5 123955738.767 5      3282.445          34.000
G30  20426721.359 8 107343142.140 8       608.254          51.000    20426722.406 8  83644069.823 8       473.964          51.000
R03  19828036.438 8 106141100.720 8     -1301.312          51.000    19828036.633 8  82554149.217 8     -1012.132          48.000
R13  19737338.727 6 105396266.809 6     -1334.598          39.000    19737340.961 7  81974893.337 7     -1038.017          42.000
R14  20234257.508 8 107859997.728 8      2950.480          51.000    20234261.812 8  83891175.574 8      2294.818          48.000
C05  39813921.258 5 207321534.581 5        -5.930          35.000    39813919.094 6 160314148.201 6        -4.920          40.000
C19  23318482.969 8 121425467.353 8     -2389.090          50.000
C22  21822298.664 8 113634423.769 8       308.293          51.000
E05  23528266.469 8 123641866.483 8      -395.711          51.000    23528269.031 8  94738567.924 8      -303.204          51.000
E24  22541885.250 8 118458423.070 8       716.250          51.000    22541897.602 8  90766870.113 8       548.824          51.000
E25  26029891.109 7 136788054.387 7      2973.801          45.000    26029894.102 8 104811606.793 8      2278.657          49.000
> 2020 05 19 01 55 30.0000000  0 14        .000000000000
G02  23750886.367 7 124811780.265 7     -2458.941          47.000    23750884.336 7  97255910.577 7     -1916.058          47.000
G05  20779950.180 5 109199375.294 5      1196.191          33.000    20779950.766 5  85090415.679 5       932.103          33.000
G07  21225568.297 8 111541111.598 8     -1449.102          49.000    21225566.805 8  86915156.293 8     -1129.170          49.000
G28  23569258.820 5 123857310.883 5      3279.781          35.000
G30  20423290.852 8 107325115.942 8       593.555          51.000    20423292.070 8  83630023.432 8       462.510          51.000
R03  19835370.898 8 106180363.056 8     -1316.105          51.000    19835371.539 8  82584686.567 8     -1023.638          49.000
R13  19744903.891 6 105436664.363 6     -1358.164          41.000    19744906.000 7  82006313.663 7     -1056.353          42.000
R14  20217704.367 8 107771761.168 8      2932.004          50.000    20217708.648 8  83822547.188 8      2280.451          48.000
C05  39813952.641 5 207321697.806 5        -4.836          35.000    39813950.430 6 160314274.415 6        -3.703          40.000
C19  23332269.617 8 121497252.194 8     -2396.551          51.000
C22  21820554.883 8 113625341.995 8       297.141          51.000
E05  23530541.688 8 123653822.010 8      -401.293          51.000    23530543.992 8  94747728.640 8      -307.451          51.000
E24  22537834.234 8 118437135.311 8       702.926          51.000    22537846.789 8  90750558.721 8       538.605          51.000
E25  26012924.477 7 136698902.623 7      2969.477          45.000    26012929.336 8 104743295.670 8      2275.352          49.000
> 2020 05 19 01 56  0.0000000  0 14        .000000000000
G02  23764949.648 8 124885682.856 8     -2467.879          48.000    23764948.344 7  97313497.008 7     -1923.023          47.000
G05  20773177.109 5 109163773.652 5      1177.117          31.000    20773172.852 5  85062690.739 5       917.237          31.000
G07  21233879.109 8 111584785.353 8     -1461.984          48.000    21233877.922 8  86949187.785 8     -1139.209          48.000
G28  23550550.984 6 123758998.165 6      3274.418          36.000
G30  20419951.508 8 107307567.490 8       576.555          51.000    20419952.484 8  83616349.304 8       449.263          51.000
R03  19842794.414 8 106220103.329 8     -1333.074          51.000    19842795.680 8  82615595.658 8     -1036.836          49.000
R13  19752608.219 6 105477803.958 6     -1383.984          40.000    19752610.023 7  82038311.128 7     -1076.432          44.000
R14  20201262.359 8 107684116.756 8      2911.121          51.000    20201266.711 8  83754379.372 8      2264.205          48.000
C05  39813983.164 5 207321857.690 5        -5.336          35.000    39813980.992 6 160314397.303 6        -4.664          40.000
C19  23346105.375 8 121569292.701 8     -2405.992          51.000
C22  21818881.641 8 113616628.618 8       283.895          51.000
E05  23532855.453 8 123665980.761 8      -409.250          51.000    23532857.547 8  94757045.076 8      -313.560          51.000
E24  22533866.109 8 118416283.787 8       687.230          51.000    22533878.914 8  90734581.587 8       526.579          51.000
E25  25995989.883 7 136609919.682 7      2962.824          44.000    25995995.836 8 104675113.900 8      2270.207          48.000
> 2020 05 19 01 56 30.0000000  0 14        .000000000000
G02  23779060.438 8 124959835.263 8     -2475.652          49.000    23779059.602 7  97371278.107 7     -1929.080          46.000
G05  20766504.391 5 109128710.980 5      1159.727          33.000    20766501.586 5  85035369.263 5       903.683          33.000
G07  21242260.867 8 111628831.690 8     -1474.320          48.000    21242259.539 8  86983509.606 8     -1148.821          48.000
G28  23531868.461 5 123660819.859 5      3270.773          35.000
G30  20416706.172 8 107290512.742 8       560.508          51.000    20416707.055 8  83603059.906 8       436.759          51.000
R03  19850310.172 8 106260338.273 8     -1349.254          50.000    19850312.078 8  82646889.517 8     -1049.420          49.000
R13  19760454.141 6 105519699.601 6     -1408.785          41.000    19760455.781 7  82070896.630 7     -1095.722          44.000
R14  20184936.031 8 107597084.021 8      2891.078          51.000    20184939.625 8  83686687.267 8      2248.616          49.000
C05  39814016.000 5 207322028.927 5        -5.598          35.000    39814013.727 6 160314529.301 6        -4.344          40.000
C19  23359993.148 8 121641604.233 8     -2414.680          51.000
C22  21817282.258 8 113608300.685 8       271.285          51.000
E05  23535211.078 8 123678359.338 8      -416.176          51.000    23535213.055 8  94766529.962 8      -318.903          51.000
E24  22529984.250 8 118395885.082 8       672.559          51.000    22529997.164 8  90718951.408 8       515.337          51.000
E25  25979091.281 7 136521123.597 7      2956.707          44.000    25979097.359 8 104607075.323 8      2265.586          48.000
> 2020 05 19 01 57  0.0000000  0 14        .000000000000
G02  23793213.797 8 125034210.983 8     -2483.004          48.000    23793212.883 7  97429233.196 7     -1934.808          44.000
G05  20759929.766 5 109094159.800 5      1142.895          34.000    20759927.211 5  85008446.267 5       890.567          33.000
G07  21250708.633 7 111673225.081 7     -1485.781          47.000    21250707.289 7  87018101.852 7     -1157.752          47.000
G28  23513207.422 5 123562755.332 5      3266.887          35.000
G30  20413550.383 8 107273927.994 8       544.902          51.000    20413551.062 8  83590136.725 8       424.599          51.000
R03  19857914.125 8 106301044.320 8     -1364.727          50.000    19857916.492 8  82678549.778 8     -1061.451          50.000
R13  19768436.625 6 105562324.921 6     -1432.957          40.000    19768438.227 7  82104049.646 7     -1114.522          45.000
R14  20168720.227 8 107510641.687 8      2871.516          50.000    20168723.867 8  83619454.357 8      2233.401          50.000
C05  39814046.523 5 207322187.607 5        -5.246          35.000    39814044.297 6 160314652.371 6        -3.773          40.000
C19  23373927.922 8 121714162.797 8     -2422.820          50.000
C22  21815752.688 8 113600335.742 8       259.395          51.000
E05  23537604.164 8 123690934.569 8      -422.430          51.000    23537606.164 8  94776165.526 8      -323.734          51.000
E24  22526184.289 8 118375916.021 8       658.504          51.000    22526197.258 8  90703650.438 8       504.553          51.000
E25  25962224.750 7 136432492.536 7      2951.629          45.000    25962230.047 7 104539163.183 7      2261.704          47.000
> 2020 05 19 01 57 30.0000000  0 14        .000000000000
G02  23807411.180 8 125108817.881 8     -2490.695          48.000    23807409.555 7  97487368.411 7     -1940.802          42.000
G05  20753454.594 5 109060132.003 5      1125.539          34.000    20753451.602 5  84981931.080 5       877.034          34.000
G07  21259224.086 7 111717974.666 7     -1497.602          47.000    21259223.016 7  87052971.689 7     -1166.962          47.000
G28  23494570.266 5 123464818.090 5      3262.422          34.000
G30  20410485.883 8 107257823.486 8       528.777          51.000    20410486.445 8  83577587.750 8       412.031          51.000
R03  19865608.078 8 106342232.268 8     -1380.980          49.000    19865610.664 8  82710584.908 8     -1074.096          49.000
R13  19776557.078 7 105605688.138 7     -1457.684          42.000    19776558.812 7  82137776.597 7     -1133.754          45.000
R14  20152616.945 8 107424803.495 8      2851.223          48.000    20152620.914 8  83552691.292 8      2217.618          49.000
C05  39814076.930 6 207322344.681 6        -5.520          36.000    39814074.617 6 160314774.634 6        -4.129          40.000
C19  23387910.422 7 121786978.142 7     -2431.383          47.000
C22  21814295.094 8 113592745.168 8       246.820          51.000
E05  23540036.711 8 123703717.402 8      -429.559          51.000    23540038.531 8  94785960.168 8      -329.145          51.000
E24  22522467.852 8 118356387.506 8       643.578          51.000    22522481.312 8  90688687.046 8       493.155          51.000
E25  25945392.914 7 136344038.827 7      2945.484          47.000    25945396.758 7 104471386.955 7      2256.906          47.000
> 2020 05 19 01 58  0.0000000  0 14        .000000000000
G02  23821651.016 7 125183647.972 7     -2497.621          47.000    23821647.703 6  97545677.523 6     -1946.201          39.000
G05  20747078.312 5 109026623.580 5      1108.449          35.000    20747073.633 5  84955820.685 5       863.733          34.000
G07  21267806.125 8 111763073.427 8     -1508.906          48.000    21267805.039 8  87088113.580 8     -1175.771          48.000
G28  23475957.039 5 123367005.666 5      3258.832          35.000
G30  20407511.648 8 107242193.681 8       513.180          51.000    20407512.164 8  83565408.666 8       399.880          51.000
R03  19873391.547 8 106383896.981 8     -1396.684          51.000    19873393.859 8  82742990.804 8     -1086.309          49.000
R13  19784814.164 6 105649780.582 6     -1481.672          40.000    19784815.820 7  82172070.714 7     -1152.408          46.000
R14  20136626.219 8 107339566.628 8      2831.344          49.000    20136630.344 8  83486395.928 8      2202.156          49.000
C05  39814106.094 6 207322497.952 6        -4.500          36.000    39814103.656 6 160314892.008 6        -3.724          40.000
C19  23401940.102 7 121860044.285 7     -2439.516          46.000
C22  21812908.516 8 113585524.567 8       234.605          51.000
E05  23542507.727 8 123716702.869 8      -436.000          51.000    23542509.258 8  94795910.073 8      -334.123          51.000
E24  22518834.352 8 118337294.528 8       629.316          51.000    22518847.867 8  90674057.367 8       482.245          51.000
E25  25928594.852 8 136255758.819 8      2939.887          49.000    25928596.891 7 104403743.838 7      2252.631          47.000
> 2020 05 19 01 58 30.0000000  0 14        .000000000000
G02  23835933.977 7 125258704.974 7     -2505.762          46.000    23835928.859 6  97604163.459 6     -1952.545          39.000
G05  20740802.289 5 108993643.044 5      1091.059          33.000    20740797.273 5  84930121.520 5       850.172          34.000
G07  21276455.508 7 111808526.379 7     -1520.844          47.000    21276454.352 7  87123531.461 7     -1185.070          47.000
G28  23457369.727 5 123269327.617 5      3253.879          35.000
G30  20404628.906 8 107227044.907 8       497.074          51.000    20404629.391 8  83553604.428 8       387.331          51.000
R03  19881265.648 8 106426045.279 8     -1412.930          51.000    19881267.156 8  82775772.807 8     -1098.945          48.000
R13  19793208.633 7 105694607.137 7     -1506.191          42.000    19793210.570 7  82206935.806 7     -1171.482          46.000
R14  20120750.602 8 107254940.705 8      2810.766          50.000    20120754.289 8  83420575.742 8      2186.151          48.000
C05  39814135.320 5 207322649.362 5        -4.641          35.000    39814132.836 6 160315009.467 6        -3.685          40.000
C19  23416020.594 8 121933367.091 8     -2448.223          48.000
C22  21811594.273 8 113578681.423 8       221.957          51.000
E05  23545018.523 8 123729897.955 8      -443.184          51.000    23545019.984 8  94806020.598 8      -339.597          51.000
E24  22515285.141 8 118318644.022 8       614.352          51.000    22515298.250 8  90659766.730 8       470.761          51.000
E25  25911831.750 8 136167660.854 8      2933.758          51.000    25911832.023 7 104336240.216 7      2247.881          47.000
> 2020 05 19 01 59  0.0000000  0 14        .000000000000
G02  23850259.266 7 125333984.784 7     -2513.047          45.000    23850253.398 6  97662823.039 6     -1958.221          41.000
G05  20734626.969 5 108961190.762 5      1073.027          34.000    20734623.242 5  84904834.020 5       836.128          34.000
G07  21285171.742 7 111854330.925 7     -1532.480          47.000    21285170.617 7  87159223.328 7     -1194.141          47.000
G28  23438808.258 5 123171785.810 5      3249.055          34.000
G30  20401837.539 8 107212375.725 8       481.090          51.000    20401837.766 8  83542173.900 8       374.875          51.000
R03  19889230.070 8 106468676.583 8     -1429.074          51.000    19889230.727 7  82808930.450 7     -1111.505          46.000
R13  19801739.773 6 105740163.205 6     -1530.672          41.000    19801741.984 7  82242368.302 7     -1190.523          46.000
R14  20104990.164 8 107170927.465 8      2790.230          50.000    20104993.734 8  83355232.102 8      2170.179          48.000
C05  39814164.398 5 207322801.367 5        -5.453          35.000    39814161.820 6 160315126.203 6        -3.806          40.000
C19  23430151.414 8 122006944.755 8     -2456.840          49.000
C22  21810352.398 8 113572215.472 8       209.312          51.000
E05  23547569.031 8 123743301.913 8      -450.273          51.000    23547570.523 8  94816291.165 8      -344.982          51.000
E24  22511819.719 8 118300435.140 8       599.688          50.000    22511832.781 8  90645814.481 8       459.507          51.000
E25  25895103.344 8 136079745.614 8      2927.473          51.000    25895102.172 7 104268876.602 7      2243.084          46.000
> 2020 05 19 01 59 30.0000000  0 14        .000000000000
G02  23864626.398 7 125409485.895 7     -2520.609          45.000    23864621.242 7  97721655.079 7     -1964.108          43.000
G05  20728552.664 6 108929269.260 6      1054.863          37.000    20728550.523 6  84879960.154 6       821.977          37.000
G07  21293955.055 8 111900487.036 8     -1544.547          49.000    21293953.852 8  87195189.116 8     -1203.546          49.000
G28  23420273.969 5 123074384.705 5      3243.730          32.000
G30  20399137.641 8 107198187.208 8       464.680          51.000    20399137.320 8  83531117.930 8       362.088          51.000
R03  19897284.758 8 106511792.286 8     -1445.539          51.000    19897284.797 7  82842464.848 7     -1124.311          46.000
R13  19810407.273 7 105786447.829 7     -1555.094          42.000    19810409.375 7  82278367.465 7     -1209.517          46.000
R14  20089345.461 8 107087530.801 8      2769.391          51.000    20089348.828 7  83290368.054 7      2153.970          46.000
C05  39814193.422 5 207322952.258 5        -5.617          35.000    39814190.984 6 160315243.277 6        -4.141          40.000
C19  23444330.953 8 122080777.944 8     -2465.590          50.000
C22  21809183.406 8 113566128.948 8       196.320          51.000
E05  23550159.703 8 123756916.484 8      -457.590          51.000    23550161.281 8  94826723.119 8      -350.648          51.000
E24  22508438.781 8 118282669.579 8       584.566          50.000    22508451.984 8  90632201.940 8       447.891          51.000
E25  25878409.844 8 135992016.182 8      2920.953          51.000    25878408.016 7 104201655.370 7      2238.049          46.000
