     3.02           OBSERVATION DATA    M (MIXED)           RINEX VERSION / TYPE
SAVERINEX           SC600               20200508 015932 LCL PGM / RUN BY / DATE
       G = GPS       R = GLONASS       C = COMPASS          COMMENT
       S = SBAS      J = QZSS          E = GALILEO          COMMENT
BEAN                                                        MARKER NAME
1                                                           MARKER NUMBER
GEODETIC                                                    MARKER TYPE
Unige DICCA         GTER                                    OBSERVER / AGENCY
SC60291900056       SC600               2.12(191226)        REC # / TYPE / VERS
                    HEMA45          NONE                    ANT # / TYPE
  4509407.8091   693652.4678  4442337.6214                  APPROX POSITION XYZ
        0.0000        0.0000        0.0000                  ANTENNA: DELTA H/E/N
G    8 C1C L1C D1C S1C C2Y L2Y D2Y S2Y                      SYS / # / OBS TYPES
R    8 C1C L1C D1C S1C C2P L2P D2P S2P                      SYS / # / OBS TYPES
C    8 C1I L1I D1I S1I C7I L7I D7I S7I                      SYS / # / OBS TYPES
E    8 C1C L1C D1C S1C C7Q L7Q D7Q S7Q                      SYS / # / OBS TYPES
DBHZ                                                        COMMENT
     30.000                                                 INTERVAL
  2020    05    07    23    00    0.0000000     GPS         TIME OF FIRST OBS
  2020    05    07    23    59   30.0000000     GPS         TIME OF LAST OBS
     0                                                      RCV CLOCK OFFS APPL
G L1C  0.00000                                              SYS / PHASE SHIFT
G L2Y  0.00000                                              SYS / PHASE SHIFT
R L1C  0.00000                                              SYS / PHASE SHIFT
R L2P  0.25000                                              SYS / PHASE SHIFT
C L1I  0.00000                                              SYS / PHASE SHIFT
C L7I  0.00000                                              SYS / PHASE SHIFT
E L1C  0.50000                                              SYS / PHASE SHIFT
E L7Q -0.25000                                              SYS / PHASE SHIFT
 13 R05  1 R06 -4 R07  5 R08  6 R09 -2 R10 -5 R14 -7 R15  0 GLONASS SLOT / FRQ #
    R16 -1 R19  3 R20  2 R21  4 R22 -3                      GLONASS SLOT / FRQ #
 C1C   71.950 C2C   71.950 C2P   71.950                     GLONASS COD/PHS/BIS
    18                                                      LEAP SECONDS
*** Above antenna height is from mark to ANTENNA BOTTOM.    COMMENT
    17     4        0.0000        ANT MEASURE TYPE/HEIGT    COMMENT
    0.0000    0.0000    0.0458    0.0405    0.0000          COMMENT
                    BASE STATION                            COMMENT
                                                            END OF HEADER
> 2020 05 07 23 00  0.0000000  0 16        .000000000000
G01  24391608.266 6 128178740.052 6     -3743.934          36.000    24391612.227 6  99879548.942 6     -2917.348          36.000
G03  21497451.805 5 112969891.267 5     -1954.902          35.000    21497452.203 5  88028470.628 5     -1523.301          35.000
G04  20290323.594 8 106626436.591 8      -474.566          51.000    20290323.961 8  83085511.105 8      -369.792          51.000
G09  20950137.492 8 110093806.981 8      1841.023          51.000    20950137.969 8  85787361.259 8      1434.564          51.000
G17  23186085.547 7 121843693.048 7     -2432.383          47.000    23186083.922 7  94943108.952 7     -1895.363          45.000
G19  22662867.336 6 119094162.425 6     -1857.023          41.000    22662865.695 4  92800644.544 4     -1447.028          25.000
R06  20465200.406 5 109206223.008 5     -2157.129          31.000
R08  22834009.133 5 122275097.934 5      2941.031          34.000
R21  21880668.680 6 117087856.443 6     -4226.266          40.000    21880664.922 5  91068325.526 5     -3287.095          32.000
R22  19925980.125 6 106366291.501 6      -635.766          40.000    19925980.375 6  82729287.412 6      -494.487          38.000
C14  22312372.219 6 116186388.068 6     -1444.344          40.000    22312371.516 7  89842713.804 7     -1116.837          42.000
C28  23252973.078 8 121084358.860 8     -2059.664          49.000
E03  23706480.266 8 124578413.565 8     -1029.531          51.000    23706482.758 8  95456237.210 8      -788.841          51.000
E05  27356537.625 5 143759576.520 5     -2502.445          33.000    27356540.820 5 110153445.003 5     -1917.383          33.000
E08  22351734.727 8 117459149.874 8      1399.121          48.000    22351733.289 7  90001254.469 7      1072.018          47.000
E15  23975290.055 8 125991005.814 8     -1958.336          51.000    23975292.891 8  96538554.988 8     -1500.516          51.000
> 2020 05 07 23 00 30.0000000  0 18        .000000000000
G01  24412986.680 6 128291084.785 6     -3747.254          36.000    24412990.242 5  99967090.296 5     -2919.938          35.000
G03  21508632.086 6 113028632.965 6     -1962.715          36.000    21508630.008 6  88074243.484 6     -1529.388          36.000
G04  20293072.031 8 106640879.856 8      -489.809          51.000    20293072.250 8  83096765.591 8      -381.669          51.000
G09  20939660.773 8 110038754.237 8      1827.621          50.000    20939661.531 8  85744463.049 8      1424.123          51.000
G17  23199996.672 7 121916797.856 7     -2442.609          46.000    23199994.859 7  95000073.755 7     -1903.332          46.000
G19  22673513.258 6 119150105.803 6     -1873.949          41.000    22673510.383 5  92844236.770 5     -1460.220          30.000
G22  23566804.906 5 123844396.833 5     -2640.051          34.000
R06  20477343.516 5 109271014.995 5     -2164.109          33.000
R08  22817545.336 5 122186938.331 5      2934.793          31.000    22817556.977 4  95034298.229 4      2282.611          27.000
R21  21904389.852 6 117214779.905 6     -4236.613          38.000    21904382.953 4  91167043.778 4     -3295.144          29.000
R22  19929626.883 6 106385760.858 6      -663.527          41.000    19929629.031 6  82744430.205 6      -516.080          38.000
C14  22320705.531 6 116229783.374 6     -1450.152          39.000    22320705.180 6  89876269.798 6     -1121.283          41.000
C24  24749788.984 5 128878651.550 5      2344.062          32.000
C28  23264871.609 8 121146318.151 8     -2072.344          50.000
E03  23712372.117 8 124609374.486 8     -1035.824          51.000    23712374.375 8  95479960.517 8      -793.692          51.000
E05                                                                  27370821.984 5 110210949.537 5     -1916.871          32.000
E08  22343763.703 7 117417261.414 7      1392.168          47.000    22343761.242 7  89969158.114 7      1066.627          45.000
E15  23986498.000 8 126049904.636 8     -1969.578          51.000    23986500.156 8  96583685.249 8     -1509.151          51.000
> 2020 05 07 23 01  0.0000000  0 17        .000000000000
G01  24434387.016 6 128403545.351 6     -3750.609          37.000    24434390.273 6 100054721.972 6     -2922.553          37.000
G03  21519856.875 5 113087629.619 5     -1971.223          34.000    21519856.977 5  88120214.842 5     -1536.018          33.000
G04  20295910.922 8 106655798.560 8      -505.031          51.000    20295911.219 8  83108390.563 8      -393.531          51.000
G09  20929264.516 8 109984122.811 8      1814.160          51.000    20929265.688 8  85701893.135 8      1413.631          51.000
G17  23213969.242 7 121990224.903 7     -2452.867          47.000    23213967.109 7  95057289.613 7     -1911.325          45.000
G19  22684257.805 7 119206569.686 7     -1890.535          42.000    22684255.758 4  92888234.514 4     -1473.147          28.000
R06  20489529.789 5 109336039.499 5     -2171.148          35.000
R08  22801122.641 4 122098972.790 4      2929.328          28.000
R21  21928173.391 5 117342030.075 5     -4247.016          35.000    21928163.711 4  91266016.092 4     -3303.234          29.000
R22  19933431.438 6 106406075.457 6      -691.297          37.000    19933435.266 6  82760230.428 6      -537.675          36.000
C14  22329074.859 6 116273365.737 6     -1456.066          38.000    22329074.430 6  89909970.418 6     -1125.790          40.000
C24  24736307.508 5 128808462.484 5      2335.195          32.000
C28  23276847.000 8 121208674.363 8     -2085.055          51.000
E03  23718303.102 8 124640541.165 8     -1042.305          51.000    23718305.094 8  95503841.485 8      -798.637          51.000
E05  27385101.797 5 143909681.556 5     -2502.379          34.000    27385106.820 5 110268476.178 5     -1917.282          31.000
E08  22335834.906 7 117375598.117 7      1385.141          45.000    22335831.680 7  89937234.307 7      1061.348          44.000
E15  23997773.500 8 126109158.794 8     -1980.969          51.000    23997775.062 8  96629087.776 8     -1517.918          51.000
> 2020 05 07 23 01 30.0000000  0 18        .000000000000
G01  24455809.984 6 128516124.507 6     -3754.988          37.000    24455813.242 6 100142445.989 6     -2925.965          36.000
G03  21531131.469 6 113146885.337 6     -1979.969          38.000    21531132.711 6  88166388.095 6     -1542.833          39.000
G04  20298841.070 8 106671196.430 8      -521.824          51.000    20298841.289 8  83120388.900 8      -406.616          51.000
G09  20918949.844 8 109929918.157 8      1799.156          51.000    20918951.273 8  85659655.754 8      1401.940          51.000
G17  23228003.523 7 122063975.454 7     -2464.316          47.000    23228001.492 7  95114757.528 7     -1920.250          45.000
G19  22695101.578 6 119263555.263 6     -1908.855          40.000    22695100.133 5  92932638.779 5     -1487.426          30.000
R06  20501760.594 5 109401300.578 5     -2180.781          31.000
R08  22784729.055 5 122011183.134 5      2922.699          33.000
R15  23142733.930 5 123667718.105 5     -1550.059          30.000
R21  21952017.609 6 117469607.554 6     -4258.797          37.000    21952005.406 4  91365242.999 4     -3312.401          29.000
R22  19937395.953 6 106427239.528 6      -720.395          41.000    19937399.734 6  82776691.386 6      -560.304          36.000
C14  22337480.828 6 116317139.551 6     -1463.105          38.000    22337479.750 6  89943819.088 6     -1131.070          39.000
C24  24722887.805 5 128738573.264 5      2324.031          33.000
C28  23288899.023 8 121271430.212 8     -2099.051          50.000
E03  23724273.961 8 124671917.543 8     -1049.867          51.000    23724275.703 8  95527883.127 8      -804.453          51.000
E05  27399389.758 5 143984764.871 5     -2504.070          33.000
E08  22327949.594 7 117334164.626 7      1376.895          44.000    22327947.109 7  89905486.622 7      1054.960          44.000
E15  24009117.281 8 126168771.994 8     -1993.648          51.000    24009118.195 8  96674765.403 8     -1527.595          51.000
> 2020 05 07 23 02  0.0000000  0 19        .000000000000
G01  24477248.289 6 128628784.461 6     -3757.660          38.000    24477251.508 6 100230232.955 6     -2928.047          39.000
G03  21542449.828 6 113206363.845 6     -1987.102          36.000    21542451.156 6  88212735.015 6     -1548.391          36.000
G04  20301855.320 8 106687036.277 8      -536.047          51.000    20301855.328 8  83132731.639 8      -417.699          51.000
G09  20908709.805 8 109876104.903 8      1786.477          51.000    20908710.844 8  85617723.352 8      1392.057          51.000
G17  23242092.008 7 122138011.150 7     -2473.488          46.000    23242090.703 7  95172447.643 7     -1927.397          46.000
G19  22706036.633 6 119321024.769 6     -1924.160          36.000    22706035.688 5  92977420.263 5     -1499.343          31.000
G22  23612135.367 5 124082613.721 5     -2653.836          31.000
R06  20514027.672 5 109466760.221 5     -2185.953          32.000
R07  19819557.391 5 106095647.785 5       758.914          33.000
R08  22768364.773 5 121923549.438 5      2918.227          31.000
R15  23151490.727 5 123714528.602 5     -1572.660          33.000
R21  21975913.000 6 117597471.335 6     -4267.695          40.000    21975901.156 5  91464692.544 5     -3319.319          31.000
R22  19941512.016 5 106449215.777 5      -746.965          35.000    19941515.906 6  82793784.047 6      -580.976          37.000
C14  22345917.070 6 116361068.518 6     -1467.750          38.000    22345915.633 7  89977787.795 7     -1134.873          42.000
C24  24709519.703 5 128668950.648 5      2315.641          32.000
C28  23301019.789 8 121334548.104 8     -2110.645          49.000
E03  23730277.641 8 124703466.843 8     -1055.230          51.000    23730279.203 8  95552057.270 8      -808.553          51.000
E08  22320101.539 7 117292925.022 7      1370.746          45.000    22320100.789 7  89873887.439 7      1050.390          44.000
E15  24020522.055 8 126228707.141 8     -2003.891          51.000    24020522.695 8  96720689.738 8     -1535.446          51.000
> 2020 05 07 23 02 30.0000000  0 17        .000000000000
G01  24498717.961 6 128741606.647 6     -3764.195          39.000    24498720.891 6 100318146.309 6     -2933.139          38.000
G03  21553826.250 5 113266120.868 5     -1998.426          35.000    21553828.367 5  88259320.678 5     -1557.224          35.000
G04  20304969.188 8 106703400.409 8      -555.145          51.000    20304969.258 8  83145482.921 8      -432.580          51.000
G09  20898560.281 8 109822767.114 8      1769.062          51.000    20898560.508 8  85576161.420 8      1378.490          51.000
G17  23256249.891 7 122212412.635 7     -2487.238          43.000    23256249.844 7  95230422.860 7     -1938.108          43.000
G19  22717078.359 5 119379058.674 5     -1944.680          35.000
R06  20526347.125 5 109532501.945 5     -2196.707          33.000
R07  19815351.469 4 106073148.023 4       743.449          29.000    19815344.805 4  82501316.806 4       578.241          26.000
R08  22752042.836 5 121836154.139 5      2908.180          35.000    22752063.398 3  94761519.901 3      2261.914          23.000
R21  21999874.789 6 117725702.337 6     -4281.234          41.000    21999864.508 5  91564427.669 5     -3329.849          30.000
R22  19945796.664 6 106472088.246 6      -778.215          38.000    19945801.086 6  82811573.699 6      -605.278          39.000
C14  22354398.891 6 116405235.053 6     -1477.461          38.000    22354397.844 7  90011940.058 7     -1142.137          42.000
C24  24696217.750 5 128599679.799 5      2301.914          31.000
C28  23313225.312 8 121398108.668 8     -2126.875          49.000
E03  23736329.953 8 124735271.650 8     -1065.332          51.000    23736331.266 8  95576427.187 8      -816.281          51.000
E08  22312306.422 7 117251962.633 7      1360.039          45.000    22312307.203 7  89842500.645 7      1042.012          45.000
E15  24032003.594 8 126289046.582 8     -2018.914          51.000    24032004.883 8  96766923.856 8     -1546.954          51.000
> 2020 05 07 23 03  0.0000000  0 16        .000000000000
G01  24520199.328 6 128854489.867 6     -3763.336          40.000    24520201.922 6 100406107.267 6     -2932.470          40.000
G03  21565242.344 6 113326111.065 6     -2002.844          40.000    21565243.000 6  88306066.162 6     -1560.654          40.000
G04  20308163.812 8 106720188.374 8      -566.262          51.000    20308163.836 8  83158564.454 8      -441.243          51.000
G09  20888482.445 8 109769806.158 8      1759.449          51.000    20888482.312 8  85534893.131 8      1370.999          51.000
G17  23270457.672 7 122287077.549 7     -2492.805          45.000    23270458.703 7  95288603.370 7     -1942.445          45.000
G19  22728209.180 6 119437555.027 6     -1957.234          38.000    22728217.734 4  93068254.186 4     -1525.115          26.000
R06  20538700.555 5 109598423.534 5     -2200.512          32.000
R08  22735748.219 6 121748896.545 6      2906.516          36.000    22735753.984 4  94693599.719 4      2260.623          25.000
R21  22023884.234 7 117854195.167 7     -4287.016          43.000    22023876.406 4  91664366.508 4     -3334.345          29.000
R22  19950230.898 6 106495755.133 6      -801.773          40.000    19950235.484 6  82829981.239 6      -623.602          38.000
C14  22362907.328 6 116449540.303 6     -1478.711          39.000    22362906.977 7  90046199.695 7     -1143.370          42.000
C24  24682962.469 5 128530664.568 5      2296.977          30.000
C28  23325497.273 8 121462011.669 8     -2135.379          50.000
E03  23742411.883 8 124767231.926 8     -1067.453          51.000    23742412.984 8  95600916.226 8      -817.931          51.000
E08  22304545.336 7 117211178.154 7      1356.922          45.000    22304546.977 7  89811250.178 7      1039.797          45.000
E15  24043543.180 8 126349690.027 8     -2026.043          51.000    24043545.258 8  96813390.911 8     -1552.414          51.000
> 2020 05 07 23 03 30.0000000  0 15        .000000000000
G01  24541696.383 6 128967455.524 6     -3767.062          41.000    24541698.836 6 100494132.499 6     -2935.373          41.000
G03  21576702.273 6 113386330.995 6     -2010.902          39.000    21576701.648 6  88352990.763 6     -1566.937          39.000
G04  20311443.297 8 106737422.373 8      -582.109          50.000    20311443.211 8  83171993.548 8      -453.592          50.000
G09  20878480.930 8 109717245.958 8      1745.223          51.000    20878480.906 8  85493937.133 8      1359.914          51.000
G17  23284719.961 8 122362026.710 8     -2503.246          48.000    23284721.023 7  95347005.340 7     -1950.581          42.000
G19  22739433.117 6 119496534.815 6     -1974.410          39.000    22739441.375 5  93114212.504 5     -1538.508          31.000
R08  22719472.266 5 121661793.727 5      2900.062          34.000    22719482.547 4  94625842.459 4      2255.604          27.000
R21  22047946.805 7 117982969.429 7     -4297.418          44.000    22047942.414 5  91764524.234 5     -3342.439          32.000
R22  19954818.383 6 106520239.396 6      -830.113          40.000    19954822.117 6  82849024.613 6      -645.644          36.000
C14  22371447.383 6 116494007.026 6     -1485.070          40.000    22371446.875 7  90080584.204 7     -1148.308          44.000
C24  24669760.852 5 128461930.614 5      2285.938          32.000
C28  23337839.523 8 121526278.214 8     -2148.504          49.000
E03  23748527.680 8 124799370.196 8     -1074.398          51.000    23748528.750 8  95625541.652 8      -823.243          51.000
E08  22296822.906 7 117170594.837 7      1349.301          45.000    22296824.312 7  89780153.874 7      1033.973          45.000
E15  24055145.109 8 126410659.711 8     -2037.980          51.000    24055147.508 8  96860107.936 8     -1561.534          51.000
> 2020 05 07 23 04  0.0000000  0 15        .000000000000
G01  24563211.289 6 129080515.629 6     -3769.812          40.000    24563214.023 6 100582231.291 6     -2937.519          40.000
G03  21588207.984 6 113446793.898 6     -2019.211          39.000    21588207.953 6  88400104.628 6     -1573.411          39.000
G04  20314810.109 8 106755115.131 8      -596.891          51.000    20314810.039 8  83185780.111 8      -465.110          51.000
G09  20868558.273 8 109665101.008 8      1731.828          51.000    20868558.758 8  85453304.723 8      1349.476          51.000
G17  23299038.547 7 122437271.138 7     -2512.578          47.000    23299038.766 6  95405637.350 6     -1957.856          40.000
G19  22750751.211 6 119556009.120 6     -1990.379          40.000    22750759.133 4  93160556.181 4     -1550.935          29.000
R07  19803096.523 5 106007525.232 5       711.582          31.000    19803090.977 5  82450274.056 5       553.453          30.000
R21  22072064.688 7 118112035.012 7     -4306.391          43.000    22072063.594 5  91864908.571 5     -3349.415          34.000
R22  19959560.953 6 106545553.966 6      -857.129          40.000    19959565.414 6  82868713.699 6      -666.656          36.000
C14  22380021.109 6 116538648.658 6     -1490.406          41.000    22380019.773 7  90115103.951 7     -1152.513          43.000
C24  24656617.953 5 128393494.086 5      2276.707          35.000
C28  23350253.750 8 121590920.082 8     -2160.375          50.000
E03  23754679.781 8 124831699.567 8     -1080.398          51.000    23754680.992 8  95650313.503 8      -827.787          51.000
E08  22289141.438 7 117130226.501 7      1342.609          45.000    22289142.289 7  89749222.325 7      1028.615          45.000
E15  24066812.078 8 126471968.421 8     -2048.742          51.000    24066814.180 8  96907084.724 8     -1569.836          51.000
> 2020 05 07 23 04 30.0000000  0 16        .000000000000
G01  24584743.453 6 129193667.356 6     -3773.141          39.000    24584746.352 6 100670401.462 6     -2940.110          39.000
G03  21599759.820 7 113507498.310 7     -2027.602          42.000    21599759.531 6  88447406.705 6     -1579.949          41.000
G04  20318263.836 8 106773264.556 8      -612.824          51.000    20318263.922 8  83199922.526 8      -477.525          51.000
G09  20858714.148 8 109613371.019 8      1717.258          51.000    20858715.195 8  85412995.642 8      1338.123          51.000
G17  23313412.516 7 122512806.902 7     -2522.910          46.000    23313410.906 6  95464496.349 6     -1965.907          39.000
G19  22762162.297 6 119615974.340 6     -2007.250          41.000    22762170.273 5  93207282.380 5     -1564.082          32.000
R06  20575995.461 4 109797448.969 4     -2222.824          29.000
R08  22687047.594 5 121488104.548 5      2888.180          30.000    22687050.086 5  94490759.015 5      2246.368          30.000
R21  22096236.672 7 118241386.843 7     -4316.516          42.000    22096237.984 5  91965515.547 5     -3357.290          34.000
R22  19964459.109 6 106571697.138 6      -885.430          40.000    19964462.438 5  82889047.275 5      -688.668          34.000
C14  22388627.945 6 116583463.877 6     -1496.785          40.000    22388625.898 7  90149757.913 7     -1157.412          44.000
C24  24643531.969 5 128325356.600 5      2266.504          33.000
C28  23362739.023 8 121655934.337 8     -2173.602          48.000
E03  23760867.930 8 124864218.322 8     -1087.262          51.000    23760869.195 8  95675230.471 8      -833.091          51.000
E08  22281500.266 7 117090072.331 7      1334.711          43.000    22281500.969 7  89718454.817 7      1022.728          45.000
E15  24078543.594 8 126533614.147 8     -2060.586          51.000    24078545.234 8  96954319.739 8     -1578.914          51.000
> 2020 05 07 23 05  0.0000000  0 16        .000000000000
G01  24606293.711 6 129306914.512 6     -3776.094          40.000    24606296.719 6 100758646.003 6     -2942.411          40.000
G03  21611358.734 7 113568449.463 7     -2035.766          42.000    21611360.586 7  88494901.122 7     -1586.311          42.000
G04  20321805.258 8 106791875.202 8      -627.844          51.000    20321805.445 8  83214424.322 8      -489.229          51.000
G09  20848949.969 8 109562062.297 8      1703.441          51.000    20848951.359 8  85373014.832 8      1327.357          51.000
G17  23327842.562 7 122588636.892 7     -2532.391          46.000    23327838.859 6  95523584.661 6     -1973.291          39.000
G19  22773667.219 7 119676433.377 7     -2023.449          42.000
R06  20588507.195 5 109864230.031 5     -2229.574          33.000
R08  22670880.438 4 121401542.748 4      2881.969          29.000    22670886.820 4  94423433.278 4      2241.531          29.000
R21  22120463.102 6 118371026.832 6     -4326.039          40.000    22120465.766 5  92066346.714 5     -3364.694          34.000
R22  19969512.117 5 106598673.625 5      -913.117          34.000    19969516.609 5  82910028.989 5      -710.202          34.000
C14  22397268.922 6 116628457.929 6     -1502.605          39.000    22397266.375 7  90184550.133 7     -1161.883          44.000
C24  24630503.594 5 128257526.184 5      2255.953          32.000
C28  23375295.461 7 121721324.619 7     -2185.797          47.000
E03  23767093.062 8 124896931.421 8     -1093.406          51.000    23767094.250 8  95700296.354 8      -837.802          51.000
E08  22273900.656 7 117050137.934 7      1327.637          42.000    22273901.680 7  89687855.658 7      1017.304          45.000
E15  24090340.180 8 126595601.501 8     -2071.676          51.000    24090341.500 8  97001816.517 8     -1587.415          51.000
> 2020 05 07 23 05 30.0000000  0 16        .000000000000
G01  24627860.344 6 129420248.540 6     -3778.781          39.000    24627863.930 6 100846958.229 6     -2944.508          39.000
G03  21623002.766 6 113629640.913 6     -2043.500          40.000    21623007.359 6  88542582.653 6     -1592.341          41.000
G04  20325432.961 8 106810939.226 8      -642.637          50.000    20325433.195 8  83229279.416 8      -500.756          50.000
G09  20839264.820 8 109511168.805 8      1689.906          51.000    20839266.523 8  85333357.600 8      1316.810          51.000
G17  23342326.938 7 122664752.124 7     -2541.387          46.000    23342322.359 6  95582895.225 6     -1980.301          39.000
G19  22785264.508 6 119737377.332 6     -2039.293          40.000    22785257.227 4  93301813.741 4     -1589.059          26.000
R06  20601060.844 6 109931210.226 6     -2235.738          36.000
R08  22654749.828 5 121315147.832 5      2876.910          30.000    22654745.703 4  94356219.745 4      2237.597          24.000
R21  22144741.352 6 118500943.703 6     -4334.699          40.000    22144745.719 5  92167393.202 5     -3371.433          33.000
R22  19974719.297 6 106626475.727 6      -940.332          38.000    19974724.617 5  82931652.854 5      -731.366          34.000
C14  22405942.031 6 116673623.923 6     -1508.344          37.000    22405939.969 7  90219475.306 7     -1166.042          45.000
C24  24617535.031 6 128189998.817 6      2245.887          36.000
C28  23387924.016 8 121787082.450 8     -2197.633          48.000
E03  23773353.773 8 124929831.458 8     -1099.457          51.000    23773354.914 8  95725505.476 8      -842.435          51.000
E08  22266342.445 7 117010416.570 7      1320.691          43.000    22266343.266 7  89657419.777 7      1012.132          45.000
E15  24102200.055 8 126657922.768 8     -2082.496          51.000    24102201.117 8  97049569.150 8     -1595.661          51.000
> 2020 05 07 23 06  0.0000000  0 16        .000000000000
G01  24649444.195 6 129533672.605 6     -3782.285          36.000    24649448.422 6 100935340.593 6     -2947.235          37.000
G03  21634693.688 6 113691076.911 6     -2051.891          41.000    21634699.664 6  88590455.060 6     -1598.864          37.000
G04  20329147.727 8 106830460.510 8      -658.383          50.000    20329147.945 8  83244490.812 8      -513.026          50.000
G09  20829659.914 8 109460696.150 8      1675.359          51.000    20829661.969 8  85294028.266 8      1305.475          51.000
G17  23356865.906 8 122741154.287 8     -2551.574          48.000    23356861.812 6  95642429.332 6     -1988.240          40.000
G19  22796954.344 6 119798808.391 6     -2055.715          39.000    22796947.000 4  93349682.063 4     -1601.850          29.000
R06  20613653.336 6 109998404.150 6     -2243.254          38.000
R08  22638656.367 5 121228977.859 5      2870.465          34.000    22638673.172 4  94289228.254 4      2232.581          26.000
R21  22169072.516 6 118631138.471 6     -4344.508          40.000    22169077.539 4  92268655.881 4     -3379.059          27.000
R22  19980082.562 6 106655107.658 6      -968.008          36.000    19980089.391 5  82953922.126 5      -752.901          34.000
C14  22414648.281 5 116718966.494 5     -1514.445          35.000    22414647.438 7  90254537.008 7     -1170.905          44.000
C24  24604627.414 5 128122781.595 5      2235.539          35.000
C28  23400624.195 8 121853210.831 8     -2210.484          49.000
E03  23779650.828 8 124962922.668 8     -1106.234          51.000    23779652.039 8  95750861.076 8      -847.622          51.000
E08  22258826.125 7 116970913.219 7      1313.199          42.000    22258826.102 7  89627150.993 7      1006.167          44.000
E15  24114123.766 8 126720581.840 8     -2094.316          51.000    24114124.656 8  97097580.647 8     -1604.688          51.000
> 2020 05 07 23 06 30.0000000  0 16        .000000000000
G01  24671043.766 5 129647177.596 5     -3785.707          34.000    24671047.422 5 101023785.917 5     -2949.914          33.000
G03  21646429.734 6 113752750.282 6     -2060.410          37.000    21646442.750 5  88638512.144 5     -1605.517          35.000
G04  20332947.789 8 106850430.613 8      -673.398          50.000    20332948.055 8  83260051.921 8      -524.726          50.000
G09  20820134.039 8 109410637.706 8      1661.281          51.000    20820136.367 8  85255021.674 8      1294.505          51.000
G17  23371457.578 8 122817833.583 8     -2560.941          48.000    23371454.602 6  95702179.357 6     -1995.542          41.000
G19  22808734.758 6 119860716.501 6     -2072.078          39.000    22808729.211 5  93397922.163 5     -1614.594          35.000
R06  20626283.859 6 110065803.299 6     -2250.336          37.000
R08  22622593.727 5 121142947.446 5      2864.297          32.000    22622606.492 5  94222315.622 5      2227.783          30.000
R21  22193452.656 6 118761599.642 6     -4353.699          38.000    22193459.125 4  92370125.767 4     -3386.211          26.000
R22  19985599.836 6 106684560.648 6      -995.859          40.000    19985606.094 5  82976829.952 5      -774.557          33.000
C14  22423387.500 6 116764478.077 6     -1520.477          36.000    22423387.141 7  90289729.439 7     -1175.572          44.000
C24  24591778.523 6 128055870.081 6      2225.020          38.000
C28  23413393.625 8 121919700.513 8     -2222.512          50.000
E03  23785982.766 8 124996197.083 8     -1112.555          51.000    23785983.977 8  95776357.058 8      -852.498          51.000
E08  22251349.047 6 116931620.667 6      1305.902          40.000    22251347.859 7  89597043.766 7      1000.498          42.000
E15  24126109.656 8 126783570.355 8     -2105.504          51.000    24126110.875 8  97145844.592 8     -1613.362          51.000
> 2020 05 07 23 07  0.0000000  0 17        .000000000000
G01  24692656.203 5 129760743.314 5     -3784.062          30.000
G03  21658207.438 6 113814642.158 6     -2064.539          38.000    21658217.961 6  88686797.971 6     -1608.735          39.000
G04  20336829.539 8 106870830.029 8      -684.930          50.000    20336829.938 8  83275947.584 8      -533.711          50.000
G09  20810683.758 8 109360975.745 8      1651.023          51.000    20810685.742 8  85216324.044 8      1286.512          51.000
G17  23386098.125 8 122894768.873 8     -2566.320          48.000    23386096.070 6  95762128.905 6     -1999.730          41.000
G19  22820602.078 6 119923080.673 6     -2084.043          38.000    22820598.234 5  93446517.580 5     -1623.930          33.000
R06  20638948.672 5 110133388.135 5     -2253.777          35.000
R08  22606557.852 5 121057073.198 5      2862.453          32.000    22606567.773 5  94155524.290 5      2226.349          33.000
R15  23246369.164 5 124221494.529 5     -1802.344          33.000
R21  22217877.680 5 118892304.606 5     -4358.559          34.000    22217883.867 4  92471785.163 4     -3389.990          25.000
R22  19991269.047 7 106714815.055 7     -1019.336          42.000    19991272.094 5  83000361.138 5      -792.820          34.000
C14  22432156.562 6 116810140.129 6     -1522.449          38.000    22432155.812 7  90325038.266 7     -1177.203          45.000
C24  24578985.867 6 127989248.462 6      2217.973          38.000
C28  23426227.891 8 121986531.384 8     -2231.098          50.000
E03  23792345.898 8 125029635.671 8     -1115.066          51.000    23792347.125 8  95801978.842 8      -854.458          51.000
E08  22243907.711 6 116892520.622 6      1302.441          41.000    22243904.758 6  89567084.062 6       997.846          41.000
E15  24138154.016 8 126846868.933 8     -2112.949          50.000    24138156.508 8  97194346.118 8     -1618.947          51.000
> 2020 05 07 23 07 30.0000000  0 17        .000000000000
G01  24714285.703 5 129874433.640 5     -3790.793          32.000
G03  21670031.656 6 113876775.893 6     -2076.055          37.000    21670037.016 6  88735213.862 6     -1617.708          37.000
G04  20340797.469 8 106891681.248 8      -703.418          51.000    20340797.859 8  83292195.281 8      -548.118          51.000
G09  20801313.570 8 109311734.428 8      1633.477          51.000    20801314.359 8  85177954.205 8      1272.839          51.000
G17  23400791.141 7 122971980.816 7     -2579.129          47.000    23400789.898 7  95822294.060 7     -2009.711          44.000
G19  22832560.570 6 119985921.968 6     -2103.582          36.000    22832558.531 5  93495484.844 5     -1639.158          33.000
R06  20651652.812 6 110201181.125 6     -2264.215          37.000
R08  22590557.906 6 120971379.606 6      2852.055          36.000    22590563.250 5  94088873.674 5      2218.268          30.000
R15  23256568.328 5 124276000.636 5     -1829.418          32.000
R21  22242349.094 5 119023272.821 5     -4370.715          32.000    22242347.516 4  92573697.442 4     -3399.439          27.000
R22  19997092.562 7 106745893.779 7     -1050.660          43.000    19997092.953 5  83024533.432 5      -817.183          35.000
C14  22440959.336 6 116855975.915 6     -1531.406          38.000    22440958.305 7  90360481.411 7     -1184.259          45.000
C24  24566253.938 6 127922942.676 6      2204.199          38.000
C28  23439131.414 8 122053724.828 8     -2246.789          49.000
E03  23798744.602 8 125063261.322 8     -1124.809          51.000    23798745.938 8  95827743.957 8      -861.809          51.000
E08  22236507.938 7 116853636.713 7      1291.695          43.000    22236503.867 7  89537289.902 7       989.621          42.000
E15  24150261.703 8 126910500.082 8     -2127.363          50.000    24150265.609 8  97243102.474 8     -1630.055          51.000
> 2020 05 07 23 08  0.0000000  0 17        .000000000000
G01  24735933.750 5 129988188.356 5     -3792.812          31.000
G03  21681907.117 5 113939177.297 5     -2083.277          35.000    21681908.938 5  88783838.299 5     -1623.333          35.000
G04  20344856.031 8 106913008.996 8      -717.559          50.000    20344856.352 8  83308814.316 8      -559.134          50.000
G09  20792028.469 8 109262940.351 8      1620.367          51.000    20792028.336 8  85139932.842 8      1262.624          51.000
G17  23415540.969 7 123049492.713 7     -2587.422          45.000    23415540.812 7  95882692.913 7     -2016.173          45.000
G19  22844613.727 5 120049263.456 5     -2118.309          32.000    22844612.914 5  93544841.852 5     -1650.633          32.000
R06  20664400.609 5 110269207.695 5     -2270.465          35.000
R08  22574595.961 5 120885893.302 5      2847.211          32.000    22574598.195 4  94022384.356 4      2214.507          24.000
R15  23266903.781 5 124331222.208 5     -1851.594          34.000    23266908.156 4  96702124.337 4     -1440.128          25.000
R21  22266875.734 6 119154526.997 6     -4378.848          37.000    22266878.594 5  92675784.038 5     -3405.773          32.000
R22  20003074.906 7 106777821.887 7     -1076.938          43.000    20003073.500 6  83049366.352 6      -837.621          36.000
C14  22449800.133 6 116902010.878 6     -1536.469          39.000    22449799.055 7  90396078.555 7     -1188.183          44.000
C24  24553587.359 5 127856980.790 5      2194.312          35.000
C28  23452108.773 8 122121304.567 8     -2257.797          49.000
E03  23805183.758 8 125097099.306 8     -1130.195          51.000    23805185.250 8  95853671.772 8      -865.985          51.000
E08  22229154.883 7 116814994.795 7      1285.320          44.000    22229151.133 7  89507681.162 7       984.841          43.000
E15  24162438.125 8 126974488.717 8     -2137.570          50.000    24162442.469 8  97292132.713 8     -1637.929          51.000
> 2020 05 07 23 08 30.0000000  0 15        .000000000000
G03  21693830.305 6 114001830.963 6     -2096.062          36.000    21693830.883 6  88832659.277 6     -1633.295          37.000
G04  20349002.258 8 106934797.035 8      -737.570          51.000    20349002.531 8  83325792.017 8      -574.730          51.000
G09  20782825.609 8 109214578.958 8      1601.172          51.000    20782825.797 8  85102248.636 8      1247.666          51.000
G17  23430344.242 7 123127286.546 7     -2601.508          42.000    23430345.375 7  95943311.458 7     -2027.152          42.000
G19  22856759.039 5 120113087.527 5     -2139.031          32.000    22856758.328 5  93594574.906 5     -1666.775          31.000
G22  23811375.570 5 125129622.695 5     -2719.172          32.000
R06  20677188.438 5 110337451.536 5     -2282.250          33.000
R21  22291453.680 6 119286047.484 6     -4392.316          39.000    22291456.734 5  92778077.731 5     -3416.249          34.000
R22  20009212.594 7 106810582.712 7     -1109.484          44.000    20009210.141 6  83074846.945 6      -862.932          37.000
C14  22458676.547 6 116948229.601 6     -1547.250          40.000    22458674.977 7  90431817.786 7     -1196.396          46.000
C24  24540984.461 6 127791350.321 6      2178.332          38.000
C28  23465157.484 8 122189253.634 8     -2274.754          50.000
E03  23811660.367 8 125131133.797 8     -1141.445          51.000    23811661.969 8  95879750.163 8      -874.581          51.000
E08  22221844.812 7 116776579.785 7      1273.211          43.000    22221842.812 7  89478246.316 7       975.502          45.000
E15  24174680.102 8 127038818.600 8     -2153.668          51.000    24174683.766 8  97341424.420 8     -1650.159          51.000
> 2020 05 07 23 09  0.0000000  0 16        .000000000000
G01  24779274.055 5 130215963.773 5     -3797.215          30.000    24779280.500 4 101466988.675 4     -2958.866          28.000
G03  21705807.789 6 114064771.087 6     -2099.191          37.000    21705808.023 6  88881703.484 6     -1635.734          36.000
G04  20353242.359 8 106957078.689 8      -746.980          50.000    20353242.664 8  83343154.342 8      -582.063          50.000
G09  20773711.641 8 109166685.358 8      1592.527          51.000    20773712.633 8  85064928.951 8      1240.930          51.000
G17  23445207.461 7 123205394.135 7     -2604.891          42.000    23445209.344 7  96004174.522 7     -2029.785          42.000
G19  22869002.719 6 120177426.148 6     -2149.156          36.000    22869001.023 5  93644708.893 5     -1674.661          34.000
R06  20690023.961 5 110405946.910 5     -2283.871          35.000
R07  19766571.094 5 105811981.997 5       593.875          32.000
R21  22316087.844 6 119417865.411 6     -4394.711          41.000    22316089.883 6  92880602.776 6     -3418.109          36.000
R22  20015512.500 7 106844210.199 7     -1131.348          45.000    20015509.961 6  83101001.637 6      -879.937          39.000
C14  22467594.633 6 116994666.121 6     -1547.492          38.000    22467592.922 7  90467725.437 7     -1196.834          45.000
C24  24528452.477 7 127726087.843 7      2173.176          42.000
C28  23478283.375 8 122257604.262 8     -2281.145          50.000
E03  23818180.742 8 125165398.612 8     -1142.121          51.000    23818182.375 8  95906005.032 8      -875.114          51.000
E08  22214584.836 7 116738426.303 7      1271.371          44.000    22214584.281 7  89449011.849 7       974.090          45.000
E15  24186993.523 8 127103523.159 8     -2159.184          51.000    24186996.172 8  97391003.205 8     -1654.433          51.000
> 2020 05 07 23 09 30.0000000  0 14        .000000000000
G03  21717814.992 6 114127869.609 6     -2107.664          40.000    21717814.375 6  88930871.083 6     -1642.339          41.000
G04  20357551.594 8 106979724.928 8      -762.586          49.000    20357552.148 8  83360800.772 8      -594.223          49.000
G09  20764662.500 8 109119132.282 8      1577.820          51.000    20764663.805 8  85027874.613 8      1229.470          51.000
G17  23460105.719 7 123283684.739 7     -2614.352          45.000    23460107.500 7  96065180.203 7     -2037.157          45.000
G19  22881319.414 6 120242148.293 6     -2165.336          36.000    22881317.594 5  93695141.659 5     -1687.278          31.000
R06  20702882.469 6 110474562.408 6     -2291.020          38.000
R21  22340752.469 6 119549846.430 6     -4403.883          41.000    22340753.523 6  92983254.676 6     -3425.242          36.000
R22  20021949.656 7 106878573.201 7     -1159.305          44.000    20021947.867 6  83127728.367 6      -901.684          41.000
C14  22476529.555 6 117041193.504 6     -1554.227          38.000    22476528.266 7  90503703.314 7     -1201.694          45.000
C24  24515967.133 6 127661069.243 6      2161.664          41.000
C28  23491461.461 8 122326227.725 8     -2293.504          50.000
E03  23824720.383 8 125199765.251 8     -1148.770          51.000    23824722.039 8  95932337.911 8      -880.253          51.000
E08  22207350.398 7 116700406.473 7      1263.688          44.000    22207350.438 7  89419879.791 7       968.112          44.000
E15  24199353.539 8 127168473.437 8     -2170.684          51.000    24199355.742 8  97440770.261 8     -1663.263          51.000
> 2020 05 07 23 10  0.0000000  0 15        .000000000000
G03  21729871.883 7 114191231.045 7     -2115.258          43.000    21729871.492 7  88980243.609 7     -1648.253          43.000
G04  20361950.070 8 107002839.522 8      -777.176          49.000    20361950.922 8  83378812.130 8      -605.592          49.000
G09  20755698.359 8 109072025.200 8      1563.836          51.000    20755699.625 8  84991167.816 8      1218.573          51.000
G17  23475058.414 7 123362260.721 7     -2622.723          46.000    23475059.227 7  96126408.241 7     -2043.680          44.000
G19  22893728.375 6 120307356.361 6     -2180.730          38.000    22893727.516 6  93745953.152 6     -1699.274          36.000
R06  20715783.203 6 110543403.509 6     -2297.887          38.000
R07  19760041.633 4 105777019.744 4       569.648          29.000    19760032.164 4  82270996.737 4       443.060          27.000
R21  22365466.523 6 119682093.285 6     -4411.742          39.000    22365466.539 6  93086113.369 6     -3431.355          36.000
R22  20028544.461 7 106913776.755 7     -1186.387          44.000    20028543.180 7  83155108.938 7      -922.742          42.000
C14  22485501.922 6 117087915.341 6     -1559.395          39.000    22485500.922 7  90539831.584 7     -1205.916          45.000
C24  24503548.047 6 127596400.886 6      2150.883          40.000
C28  23504711.688 8 122395226.001 8     -2305.121          51.000
E03  23831299.250 8 125234337.970 8     -1154.785          51.000    23831301.000 8  95958828.690 8      -884.811          51.000
E08  22200161.078 7 116662625.193 7      1256.609          44.000    22200160.414 7  89390930.536 7       962.695          42.000
E15  24211779.812 8 127233773.229 8     -2181.426          51.000    24211782.414 8  97490805.141 8     -1671.389          51.000
> 2020 05 07 23 10 30.0000000  0 16        .000000000000
G01  24844382.383 5 130558111.558 5     -3806.133          33.000    24844387.992 5 101733613.640 5     -2965.821          33.000
G03  21741975.672 7 114254838.220 7     -2123.828          42.000    21741975.320 7  89029807.601 7     -1654.931          43.000
G04  20366434.094 8 107026404.099 8      -792.570          48.000    20366435.227 8  83397174.136 8      -617.587          48.000
G09  20746816.148 8 109025347.561 8      1549.305          51.000    20746817.445 8  84954795.627 8      1207.247          51.000
G17  23490061.523 7 123441102.087 7     -2631.777          45.000    23490061.008 7  96187843.070 7     -2050.736          43.000
G19  22906226.297 6 120373030.558 6     -2196.578          37.000    22906225.227 5  93797127.898 5     -1711.619          34.000
R06  20728723.695 6 110612452.017 6     -2304.672          36.000
R08  22495284.242 4 120461224.339 4      2816.473          29.000
R21  22390225.945 6 119814584.673 6     -4420.043          36.000    22390225.578 5  93189162.181 5     -3437.814          35.000
R22  20035292.961 7 106949802.119 7     -1214.113          43.000    20035292.086 7  83183128.690 7      -944.310          42.000
C14  22494508.188 6 117134814.550 6     -1565.816          38.000    22494507.273 7  90576097.000 7     -1210.783          44.000
C24  24491193.195 6 127532068.281 6      2139.250          38.000
C28  23518030.820 8 122464580.126 8     -2317.176          51.000
E03  23837914.039 8 125269098.965 8     -1161.371          51.000    23837915.930 8  95985463.742 8      -889.915          51.000
E08  22193013.883 7 116625065.417 7      1248.742          44.000    22193012.148 7  89362150.995 7       956.634          42.000
E15  24224269.039 8 127299404.296 8     -2192.832          51.000    24224272.391 8  97541093.894 8     -1680.177          51.000
> 2020 05 07 23 11  0.0000000  0 15        .000000000000
G01  24866111.281 5 130672296.109 5     -3807.492          31.000    24866118.984 5 101822594.124 5     -2966.877          31.000
G03  21754122.938 6 114318674.990 6     -2131.973          41.000    21754121.656 7  89079550.485 7     -1661.280          42.000
G04  20371000.633 8 107050401.629 8      -807.258          49.000    20371001.719 8  83415873.506 8      -629.032          49.000
G09  20738012.664 8 108979084.086 8      1535.004          51.000    20738014.320 8  84918746.160 8      1196.107          51.000
G17  23505111.133 7 123520190.022 7     -2640.426          42.000    23505109.906 7  96249470.017 7     -2057.475          42.000
G19  22918809.508 6 120439152.358 6     -2211.562          41.000    22918807.914 4  93848651.326 4     -1723.292          25.000
R06  20741699.500 6 110681691.177 6     -2311.445          38.000
R21  22415027.844 5 119947300.082 5     -4427.422          34.000    22415025.953 5  93292385.261 5     -3443.550          32.000
R22  20042192.117 7 106986631.806 7     -1241.055          44.000    20042191.180 7  83211773.990 7      -965.265          42.000
C14  22503545.391 6 117181875.080 6     -1571.281          38.000    22503544.531 7  90612487.207 7     -1215.259          44.000
C24  24478899.516 5 127468058.148 5      2127.934          34.000
C28  23531415.172 8 122534272.390 8     -2328.773          51.000
E03  23844561.516 8 125304031.718 8     -1167.383          51.000    23844563.562 8  96012230.386 8      -894.464          51.000
E08  22185905.773 7 116587711.255 7      1241.652          42.000    22185903.766 7  89333528.998 7       951.396          42.000
E15  24236817.898 8 127365349.667 8     -2203.504          51.000    24236822.156 8  97591623.500 8     -1688.387          51.000
> 2020 05 07 23 11 30.0000000  0 16        .000000000000
G01  24887853.477 5 130786554.041 5     -3810.027          34.000    24887861.070 5 101911620.188 5     -2968.852          33.000
G03  21766314.656 6 114382746.178 6     -2139.488          40.000    21766310.469 6  89129475.976 6     -1667.137          38.000
G04  20375650.398 8 107074835.987 8      -821.766          50.000    20375651.469 8  83434913.245 8      -640.337          50.000
G09  20729288.938 8 108933240.329 8      1521.082          51.000    20729290.922 8  84883023.758 8      1185.259          51.000
G17  23520207.945 7 123599527.004 7     -2648.824          42.000    23520207.227 7  96311291.023 7     -2064.016          42.000
G19  22931478.438 6 120505723.935 6     -2226.387          41.000    22931473.742 5  93900525.270 5     -1734.850          31.000
R06  20754712.031 6 110751124.316 6     -2317.469          36.000
R08  22463798.562 5 120292607.602 5      2804.688          31.000
R21  22439871.391 4 120080240.779 4     -4434.680          27.000    22439866.969 4  93395783.561 4     -3449.198          29.000
R22  20049242.117 7 107024269.566 7     -1267.918          43.000    20049242.164 7  83241047.799 7      -986.158          43.000
C14  22512614.469 6 117229101.792 6     -1577.164          39.000    22512614.023 7  90649005.823 7     -1219.373          45.000
C24  24466670.492 5 127404377.842 5      2117.688          32.000
C28  23544865.008 8 122604305.726 8     -2340.164          51.000
E03  23851242.461 8 125339140.644 8     -1173.176          51.000    23851244.625 8  96039132.024 8      -898.945          51.000
E08  22178836.781 6 116550567.884 6      1234.555          40.000    22178836.227 7  89305068.485 7       946.098          42.000
E15  24249427.383 8 127431613.306 8     -2213.980          51.000    24249432.203 8  97642396.959 8     -1696.436          51.000
> 2020 05 07 23 12  0.0000000  0 14        .000000000000
G03  21778549.906 6 114447045.212 6     -2147.441          40.000    21778544.180 6  89179579.045 6     -1673.328          39.000
G04  20380381.805 8 107099699.628 8      -836.039          49.000    20380382.875 8  83454287.513 8      -651.456          48.000
G09  20720644.062 8 108887810.561 8      1507.363          51.000    20720645.852 8  84847623.940 8      1174.569          51.000
G17  23535350.805 6 123679103.675 6     -2656.414          41.000    23535351.078 6  96373298.837 6     -2069.930          41.000
G19  22944230.375 6 120572736.142 6     -2241.301          39.000    22944224.234 4  93952742.562 4     -1746.474          29.000
R06  20767759.352 5 110820744.876 5     -2324.211          35.000
R08  22448106.906 5 120208560.912 5      2798.848          33.000
R22  20056442.211 7 107062707.516 7     -1294.555          45.000    20056443.711 7  83270943.955 7     -1006.876          44.000
C14  22521714.711 6 117276488.101 6     -1582.152          41.000    22521714.195 7  90685647.949 7     -1223.635          45.000
C24  24454505.531 5 127341021.698 5      2106.480          31.000
C28  23558378.328 8 122674671.924 8     -2351.125          51.000
E03  23857955.594 8 125374418.772 8     -1178.895          51.000    23857957.805 8  96066163.311 8      -903.264          51.000
E08  22171806.477 6 116513628.967 6      1227.898          39.000    22171807.023 6  89276764.632 6       940.818          40.000
E15  24262096.086 8 127498187.818 8     -2224.453          51.000    24262101.070 8  97693408.610 8     -1704.415          51.000
> 2020 05 07 23 12 30.0000000  0 16        .000000000000
G01  24931374.938 5 131015258.948 5     -3813.180          32.000
G03  21790833.891 5 114511599.894 5     -2155.352          32.000    21790830.742 5  89229881.283 5     -1679.504          30.000
G04  20385199.883 8 107125019.430 8      -851.297          49.000    20385200.969 8  83474017.227 8      -663.348          49.000
G09  20712083.328 8 108842823.354 8      1492.590          51.000    20712084.500 8  84812568.984 8      1163.057          51.000
G17  23550544.445 7 123758945.458 7     -2665.547          45.000    23550545.695 7  96435513.252 7     -2077.050          45.000
G19  22957070.461 6 120640214.069 6     -2256.480          37.000    22957064.500 5  94005322.777 5     -1758.296          32.000
R06  20780845.734 5 110890579.751 5     -2331.391          32.000
R08  22432452.391 5 120124716.142 5      2792.062          34.000    22432451.539 4  93430356.928 4      2171.607          28.000
R22  20063797.648 7 107101972.526 7     -1322.250          44.000    20063799.812 7  83301483.394 7     -1028.420          44.000
C14  22530851.367 6 117324061.732 6     -1588.492          40.000    22530850.242 7  90722434.855 7     -1228.308          44.000
C24  24442405.297 5 127278024.087 5      2094.293          31.000
C26  24503260.414 6 127594907.780 6      -450.344          37.000
C28  23571960.688 8 122745396.697 8     -2363.121          51.000
E03  23864706.172 8 125409893.538 8     -1185.328          51.000    23864708.398 8  96093345.269 8      -908.238          51.000
E08  22164821.312 6 116476922.539 6      1220.090          38.000    22164821.328 6  89248638.923 6       934.662          40.000
E15  24274829.219 8 127565100.113 8     -2235.688          51.000    24274834.031 8  97744679.078 8     -1713.038          51.000
> 2020 05 07 23 13  0.0000000  0 16        .000000000000
G03  21803164.492 5 114576399.316 5     -2163.328          33.000    21803164.547 5  89280374.253 5     -1685.710          34.000
G04  20390102.562 8 107150783.343 8      -865.582          48.000    20390103.625 8  83494092.991 8      -674.480          49.000
G09  20703604.586 8 108798268.341 8      1478.504          51.000    20703605.367 8  84777850.808 8      1152.081          51.000
G17  23565786.047 7 123839038.634 7     -2673.324          47.000    23565788.070 7  96497923.531 7     -2083.110          47.000
G19  22969996.047 5 120708144.470 5     -2271.254          35.000    22969991.828 5  94058255.526 5     -1769.808          31.000
R06  20793970.164 5 110960617.266 5     -2337.000          33.000
R07  19742068.281 5 105680836.647 5       499.289          30.000
R15  23377210.086 5 124920721.431 5     -2076.160          31.000
R22  20071305.172 7 107142051.955 7     -1348.988          43.000    20071307.859 7  83332656.279 7     -1049.213          45.000
C14  22540021.016 6 117371811.667 6     -1593.949          40.000    22540019.523 7  90759358.120 7     -1232.528          43.000
C24  24430369.688 5 127215374.282 5      2083.387          35.000
C26  24505909.031 5 127608676.730 5      -467.059          34.000
C28  23585609.320 8 122816467.289 8     -2374.074          51.000
E03  23871491.945 8 125445553.452 8     -1191.086          51.000    23871494.336 8  96120669.085 8      -912.674          51.000
E08  22157878.234 6 116440437.752 6      1212.867          39.000    22157878.398 6  89220683.047 6       929.361          40.000
E15  24287624.508 8 127632338.176 8     -2246.047          51.000    24287628.898 8  97796199.160 8     -1720.937          51.000
> 2020 05 07 23 13 30.0000000  0 15        .000000000000
G04  20395083.172 8 107176956.429 8      -882.973          48.000    20395084.156 8  83514487.610 8      -688.028          48.000
G09  20695201.734 8 108754112.384 8      1461.477          51.000    20695202.508 8  84743443.583 8      1138.813          51.000
G17  23581068.539 8 123919346.908 8     -2684.270          48.000    23581070.828 7  96560501.426 7     -2091.639          46.000
G19  22983001.523 5 120776490.774 5     -2288.582          35.000    22982997.953 4  94111512.362 4     -1783.308          29.000
R06  20807126.375 5 111030822.074 5     -2347.016          35.000
R15  23388960.055 5 124983466.780 5     -2102.062          34.000
R21  22539660.859 5 120614254.775 5     -4466.629          30.000
R22  20078958.453 7 107182909.876 7     -1378.621          44.000    20078961.742 7  83364434.698 7     -1072.261          45.000
C14  22549218.281 7 117419704.276 7     -1602.684          42.000    22549216.680 7  90796391.725 7     -1239.167          45.000
C24  24418396.188 5 127153041.419 5      2069.012          32.000
C26  24508646.750 5 127622919.028 5      -485.977          33.000
C28  23599317.336 8 122887848.297 8     -2388.223          51.000
E03  23878306.391 8 125481364.176 8     -1199.898          51.000    23878309.047 8  96148108.461 8      -919.424          51.000
E08  22150971.242 7 116404141.006 7      1203.000          42.000    22150971.281 6  89192871.267 6       921.839          41.000
E15  24300475.430 8 127699867.224 8     -2259.520          51.000    24300479.133 8  97847942.191 8     -1731.278          51.000
> 2020 05 07 23 14  0.0000000  0 15        .000000000000
G04  20400153.992 8 107203603.485 8      -893.738          49.000    20400154.750 8  83535251.559 8      -696.419          48.000
G09  20686887.414 8 108710422.025 8      1450.910          51.000    20686888.266 8  84709399.155 8      1130.579          51.000
G17  23596404.008 8 123999933.405 8     -2688.281          48.000    23596405.898 7  96623296.121 7     -2094.762          45.000
G19  22996098.352 5 120845316.189 5     -2299.391          31.000    22996094.711 4  94165142.565 4     -1791.730          25.000
R06  20820326.367 5 111101260.543 5     -2349.152          35.000
R15  23400807.883 5 125046787.325 5     -2119.070          31.000
R21  22564720.008 5 120748308.528 5     -4469.777          33.000
R22  20086770.594 7 107224611.942 7     -1401.539          46.000    20086773.938 7  83396869.646 7     -1090.086          45.000
C14  22558455.750 6 117467804.769 6     -1604.207          41.000    22558454.133 7  90833586.065 7     -1240.713          45.000
C24  24406495.617 5 127091093.336 5      2061.207          32.000
C26  24511484.211 6 127637699.837 6      -499.418          37.000
C28  23613096.727 8 122959603.079 8     -2395.602          49.000
E03  23885162.039 8 125517391.121 8     -1202.070          51.000    23885164.773 8  96175713.513 8      -921.046          51.000
E08  22144113.094 6 116368098.401 6      1199.418          41.000    22144111.883 6  89165254.190 6       919.106          41.000
E15  24313393.992 8 127767752.124 8     -2266.359          51.000    24313397.031 8  97899957.878 8     -1736.555          51.000
> 2020 05 07 23 14 30.0000000  0 12        .000000000000
G04  20405293.547 8 107230611.175 8      -908.164          50.000    20405294.047 8  83556296.515 8      -707.660          50.000
G09  20678640.469 8 108667085.620 8      1436.746          51.000    20678641.484 8  84675630.526 8      1119.542          51.000
G17  23611770.531 8 124080683.142 8     -2696.168          49.000    23611771.383 7  96686217.990 7     -2100.910          44.000
G19  23009264.773 5 120914506.131 5     -2314.055          34.000    23009261.461 5  94219056.808 5     -1803.159          33.000
R06  20833548.539 5 111171817.784 5     -2355.996          34.000
R22  20094719.469 8 107267042.328 8     -1428.449          48.000    20094722.664 7  83429871.060 7     -1111.016          45.000
C14  22567711.914 7 117516001.900 7     -1610.094          43.000    22567710.227 7  90870855.118 7     -1244.948          46.000
C26  24514405.227 5 127652908.069 5      -516.086          34.000
C28  23626925.227 7 123031618.481 7     -2406.750          47.000
E03  23892037.477 8 125553521.558 8     -1207.977          51.000    23892039.984 8  96203397.864 8      -925.601          51.000
E08  22137281.602 6 116332197.731 6      1192.535          40.000    22137279.805 6  89137745.904 6       913.737          41.000
E15  24326358.531 8 127835879.592 8     -2276.852          51.000    24326360.805 8  97952159.407 8     -1744.601          51.000
> 2020 05 07 23 15  0.0000000  0 17        .000000000000
G03  21852922.867 4 114837884.543 4     -2194.531          28.000    21852925.297 4  89484082.535 4     -1710.021          27.000
G04  20410525.031 8 107258101.779 8      -921.980          50.000    20410525.547 8  83577717.777 8      -718.426          50.000
G09  20670484.750 8 108624227.167 8      1423.070          51.000    20670485.805 8  84642234.336 8      1108.886          51.000
G17  23627191.102 8 124161716.918 8     -2703.402          49.000    23627190.344 7  96749361.172 7     -2106.547          44.000
G19  23022523.398 6 120984180.699 6     -2327.945          39.000    23022521.820 5  94273348.677 5     -1813.980          31.000
R06  20846816.383 5 111242618.023 5     -2361.387          33.000
R08  22354670.258 5 119708216.089 5      2762.168          30.000
R09  23600363.273 7 126024617.472 7      4048.316          43.000    23600365.508 7  98019160.490 7      3148.687          43.000
R21  22614909.859 5 121016933.663 5     -4482.688          30.000
R22  20102828.359 8 107310325.003 8     -1454.512          48.000    20102831.250 7  83463535.367 7     -1131.287          45.000
C14  22577009.789 6 117564417.847 6     -1615.004          41.000    22577007.859 7  90908293.404 7     -1248.875          45.000
C24  24382891.672 6 126968073.373 6      2038.273          38.000
C26  24517431.648 6 127668666.072 6      -531.863          36.000
C28  23640826.359 7 123104014.821 7     -2417.281          45.000
E03  23898956.023 8 125589878.387 8     -1213.316          51.000    23898958.188 8  96231255.687 8      -929.699          51.000
E08  22130500.266 6 116296562.627 6      1185.684          40.000    22130499.461 7  89110441.116 7       908.607          42.000
E15  24339392.156 8 127904371.997 8     -2286.715          51.000    24339393.695 8  98004640.579 8     -1752.203          51.000
> 2020 05 07 23 15 30.0000000  0 17        .000000000000
G03  21865472.359 5 114903828.991 5     -2203.023          34.000    21865466.727 5  89535436.802 5     -1716.648          31.000
G04  20415832.656 8 107285992.690 8      -937.625          50.000    20415833.023 8  83599450.962 8      -730.617          49.000
G09  20662404.906 8 108581765.752 8      1407.355          51.000    20662405.602 8  84609147.526 8      1096.641          51.000
G17  23642649.531 7 124242950.539 7     -2712.316          47.000    23642647.328 7  96812660.094 7     -2113.493          45.000
G19  23035858.375 7 121054255.866 7     -2343.938          42.000    23035858.336 5  94327952.685 5     -1826.439          31.000
R06  20860114.516 5 111313577.826 5     -2368.645          31.000
R08  22339220.812 5 119625474.999 5      2754.812          32.000    22339218.969 4  93042046.805 4      2142.632          26.000
R09  23577629.914 7 125903212.886 7      4044.840          44.000    23577630.133 7  97924734.725 7      3145.990          43.000
R21  22640058.094 5 121151553.705 5     -4491.531          30.000
R22  20111080.961 7 107354375.485 7     -1482.453          47.000    20111083.195 7  83497796.845 7     -1153.022          45.000
C14  22586333.891 6 117612971.803 6     -1622.410          41.000    22586331.789 7  90945838.392 7     -1254.309          45.000
C24  24371193.148 6 126907125.082 6      2024.715          40.000
C26  24520546.875 6 127684892.906 6      -549.852          36.000
C28  23654785.898 7 123176709.374 7     -2429.531          45.000
E03  23905902.062 8 125626379.599 8     -1220.418          51.000    23905903.898 8  96259224.136 8      -935.105          51.000
E08  22123754.711 7 116261111.701 7      1177.219          42.000    22123754.117 7  89083277.451 7       902.115          43.000
E15  24352479.070 8 127973146.761 8     -2298.582          51.000    24352480.406 8  98057338.127 8     -1761.215          51.000
> 2020 05 07 23 16  0.0000000  0 16        .000000000000
G03  21878069.117 5 114970025.582 5     -2210.398          32.000    21878090.953 4  89587107.858 4     -1722.385          28.000
G04  20421225.023 8 107314329.789 8      -951.793          48.000    20421225.375 8  83621531.807 8      -741.657          48.000
G09  20654409.859 8 108539748.962 8      1393.488          51.000    20654410.133 8  84576407.181 8      1085.835          51.000
G17  23658153.758 7 124324428.148 7     -2719.770          44.000    23658151.242 7  96876149.140 7     -2119.301          44.000
G19  23049278.094 7 121124776.155 7     -2357.668          42.000    23049279.688 5  94382903.532 5     -1837.147          33.000
R06  20873451.672 5 111384744.277 5     -2374.957          32.000
R09  23554910.453 7 125781889.116 7      4042.914          44.000    23554909.797 7  97830371.858 7      3144.492          43.000
R21  22665253.227 5 121286347.667 5     -4496.766          30.000
R22  20119485.586 7 107399239.587 7     -1508.609          46.000    20119488.039 7  83532691.143 7     -1173.363          45.000
C14  22595693.352 6 117661710.195 6     -1627.234          40.000    22595691.344 7  90983526.020 7     -1258.477          46.000
C24  24359561.906 6 126846548.416 6      2013.242          40.000
C26  24523761.953 5 127701635.304 5      -566.918          31.000
C28  23668812.609 7 123249746.874 7     -2439.922          47.000
E03  23912884.328 8 125663071.720 8     -1225.898          51.000    23912886.109 8  96287338.868 8      -939.307          51.000
E08  22117053.312 7 116225892.133 7      1170.641          42.000    22117052.383 7  89056291.016 7       896.796          44.000
E15  24365628.273 8 128042249.841 8     -2308.574          51.000    24365629.914 8  98110287.260 8     -1768.890          51.000
> 2020 05 07 23 16 30.0000000  0 14        .000000000000
G04  20426697.078 8 107343085.882 8      -966.012          49.000    20426697.633 8  83643939.164 8      -752.733          49.000
G09  20646494.344 8 108498151.389 8      1379.129          51.000    20646494.820 8  84543993.516 8      1074.649          51.000
G17  23673698.414 7 124406121.182 7     -2727.059          42.000    23673696.914 7  96939806.061 7     -2124.981          42.000
G19  23062777.047 6 121195712.519 6     -2371.938          41.000    23062780.094 5  94438178.587 5     -1848.266          35.000
R06  20886822.203 5 111456090.122 5     -2382.391          33.000
R09  23532201.008 7 125660624.686 7      4040.613          44.000    23532201.172 7  97736055.109 7      3142.699          42.000
R22  20128036.633 7 107444889.383 7     -1535.254          45.000    20128039.828 7  83568196.530 7     -1194.089          46.000
C14  22605083.297 6 117710607.378 6     -1633.137          41.000    22605081.375 7  91021336.371 7     -1262.797          45.000
C24  24347995.883 6 126786320.166 6      2001.352          36.000
C26  24527072.250 5 127718901.587 5      -582.391          31.000
C28  23682899.953 8 123323099.556 8     -2450.773          48.000
E03  23919897.820 8 125699928.257 8     -1231.816          51.000    23919899.797 8  96315579.593 8      -943.886          51.000
E08  22110389.602 6 116190878.049 6      1163.238          41.000    22110390.180 7  89029462.014 7       891.274          46.000
E15  24378834.906 8 128111654.221 8     -2319.008          51.000    24378837.117 8  98163467.267 8     -1776.881          51.000
> 2020 05 07 23 17  0.0000000  0 15        .000000000000
G03  21903395.180 5 115103126.714 5     -2225.621          30.000    21903400.250 4  89690743.604 4     -1734.247          29.000
G04  20432252.992 8 107372281.720 8      -980.051          50.000    20432253.523 8  83666689.161 8      -763.676          50.000
G09  20638662.742 8 108456995.419 8      1365.082          51.000    20638663.305 8  84511923.944 8      1063.703          51.000
G17  23689288.281 7 124488049.078 7     -2734.266          43.000    23689287.773 7  97003645.981 7     -2130.597          43.000
G19  23076358.867 7 121267084.109 7     -2385.750          42.000    23076361.445 5  94493792.819 5     -1859.032          35.000
R06  20900229.984 5 111527636.925 5     -2387.598          32.000
R09  23509507.477 7 125539446.088 7      4038.195          44.000    23509508.883 7  97641805.125 7      3140.822          42.000
R22  20136739.625 7 107491345.337 7     -1561.320          47.000    20136742.047 7  83604328.944 7     -1214.357          45.000
C14  22614508.336 6 117759684.751 6     -1638.215          41.000    22614506.250 7  91059286.136 7     -1266.953          45.000
C24  24336499.734 4 126726541.488 4      1989.367          27.000
C26  24530478.602 5 127736645.156 5      -599.055          35.000
C28  23697051.289 8 123396787.074 8     -2461.223          49.000
E03  23926946.672 8 125736970.545 8     -1237.305          51.000    23926948.969 8  96343962.645 8      -948.098          51.000
E08  22103768.898 7 116156091.347 7      1156.238          42.000    22103771.672 7  89002807.283 7       885.952          47.000
E15  24392103.250 8 128181380.679 8     -2329.137          51.000    24392106.062 8  98216894.046 8     -1784.666          51.000
> 2020 05 07 23 17 30.0000000  0 15        .000000000000
G04  20437888.039 8 107401893.242 8      -993.422          50.000    20437888.281 8  83689763.086 8      -774.095          50.000
G09  20630911.016 8 108416258.764 8      1351.422          51.000    20630911.164 8  84480181.094 8      1053.056          51.000
G17  23704918.414 7 124570185.932 7     -2740.941          45.000    23704918.742 7  97067648.680 7     -2135.802          43.000
G19  23090018.586 6 121338865.364 6     -2399.516          40.000    23090019.344 5  94549726.342 5     -1869.752          33.000
R06  20913670.945 5 111599360.299 5     -2393.086          35.000
R07  19719478.453 5 105559914.109 5       396.555          30.000    19719480.023 5  82102147.101 5       308.428          31.000
R09  23486826.945 7 125418334.732 7      4036.262          45.000    23486829.680 7  97547607.432 7      3139.315          42.000
R22  20145588.773 7 107538582.317 7     -1587.035          46.000    20145590.797 7  83641068.797 7     -1234.361          45.000
C14  22623963.773 7 117808919.715 7     -1643.309          42.000    22623961.570 7  91097357.678 7     -1270.674          46.000
C24  24325068.031 5 126666997.151 5      1977.988          34.000
C26  24533981.820 5 127754877.539 5      -615.441          32.000
C28  23711261.938 8 123470784.767 8     -2471.188          49.000
E03  23934026.523 8 125774175.268 8     -1242.367          51.000    23934029.078 8  96372470.164 8      -951.911          51.000
E08  22097188.086 7 116121509.380 7      1149.848          44.000    22097191.523 7  88976309.413 7       881.025          47.000
E15  24405428.711 8 128251405.261 8     -2338.543          51.000    24405431.914 8  98270549.249 8     -1791.901          51.000
> 2020 05 07 23 18  0.0000000  0 14        .000000000000
G04  20443601.922 8 107431919.611 8     -1007.820          51.000    20443601.945 8  83713160.265 8      -785.315          50.000
G09  20623238.898 8 108375942.153 8      1336.844          51.000    20623239.141 8  84448765.575 8      1041.699          51.000
G17  23720588.219 7 124652529.548 7     -2748.242          47.000    23720588.953 7  97131812.503 7     -2141.490          42.000
G19  23103755.422 6 121411053.776 6     -2413.387          39.000    23103754.773 5  94605977.000 5     -1880.564          34.000
R06  20927145.312 6 111671260.415 6     -2399.508          36.000
R09  23464160.445 7 125297295.666 7      4033.387          45.000    23464163.602 6  97453465.937 6      3137.079          41.000
R22  20154582.750 7 107586598.728 7     -1613.500          45.000    20154585.516 7  83678414.872 7     -1254.944          44.000
C14  22633449.148 6 117858312.409 6     -1649.125          41.000    22633447.328 7  91135551.213 7     -1275.181          46.000
C24  24313708.102 5 126607849.137 5      1965.188          34.000
C26  24537578.125 6 127773598.712 6      -632.297          38.000
C28  23725531.375 8 123545090.966 8     -2482.090          48.000
E03  23941137.289 8 125811542.193 8     -1248.324          51.000    23941139.953 8  96401101.970 8      -956.481          51.000
E08  22090646.953 7 116087132.552 7      1142.445          45.000    22090649.547 7  88949968.707 7       875.329          47.000
E15  24418810.961 8 128321727.186 8     -2349.023          51.000    24418814.039 8  98324432.268 8     -1799.871          51.000
> 2020 05 07 23 18 30.0000000  0 18        .000000000000
G03  21941711.344 5 115304458.446 5     -2246.566          31.000
G04  20449385.633 8 107462312.432 8     -1019.816          51.000    20449385.602 8  83736842.977 8      -794.662          51.000
G09  20615637.453 8 108335998.946 8      1324.551          51.000    20615638.352 8  84417641.026 8      1032.117          51.000
G17  23736287.922 8 124735030.008 8     -2753.109          48.000    23736288.328 6  97196098.559 6     -2145.277          41.000
G19  23117560.039 7 121483599.561 7     -2424.789          43.000    23117558.734 6  94662506.166 6     -1889.446          36.000
G22  24126458.977 5 126785368.740 5     -2801.184          34.000
R06  20940643.750 4 111743288.116 4     -2403.680          28.000
R07  19715170.930 5 105536758.046 5       375.340          31.000    19715154.953 4  82084145.222 4       291.925          29.000
R08  22247234.938 4 119132835.889 4      2720.172          28.000
R09  23441499.430 7 125176285.089 7      4032.539          45.000    23441502.227 6  97359346.595 6      3136.419          41.000
R22  20163714.422 7 107635344.804 7     -1637.688          47.000    20163717.211 7  83716328.487 7     -1273.757          43.000
C14  22642955.836 7 117907816.068 7     -1652.688          42.000    22642954.117 7  91173830.557 7     -1277.899          46.000
C24  24302406.773 5 126549011.706 5      1956.008          34.000
C26  24541258.664 5 127792761.741 5      -646.895          35.000
C28  23739850.727 8 123619656.840 8     -2490.426          49.000
E03  23948269.906 8 125849023.631 8     -1251.898          51.000    23948272.422 8  96429821.511 8      -959.238          51.000
E08  22084136.055 7 116052913.734 7      1137.371          45.000    22084137.031 7  88923749.062 7       871.495          46.000
E15  24432240.562 8 128392298.094 8     -2357.145          51.000    24432243.250 8  98378506.061 8     -1806.130          51.000
> 2020 05 07 23 19  0.0000000  0 13        .000000000000
G03  21954573.414 5 115372069.961 5     -2257.793          34.000    21954575.117 5  89900316.142 5     -1759.316          35.000
G04  20455263.930 8 107493203.032 8     -1036.074          51.000    20455263.875 8  83760913.590 8      -807.328          51.000
G09  20608132.477 8 108296562.240 8      1307.977          51.000    20608133.680 8  84386911.103 8      1019.199          51.000
G17  23752042.109 7 124817816.915 7     -2762.461          47.000    23752041.281 6  97260607.836 6     -2152.567          40.000
G19  23131458.148 7 121556632.243 7     -2440.605          44.000    23131455.820 6  94719414.739 6     -1901.770          38.000
R09  23418869.898 7 125055442.657 7      4027.078          46.000    23418872.531 7  97265358.021 7      3132.172          43.000
R22  20173008.336 8 107684953.096 8     -1666.090          49.000    20173010.508 7  83754912.655 7     -1295.851          43.000
C14  22652509.062 6 117957561.905 6     -1660.301          41.000    22652507.422 7  91212297.182 7     -1283.919          46.000
C24  24291192.984 5 126490619.029 5      1940.562          32.000
C28  23754244.711 7 123694611.808 7     -2503.184          47.000
E03  23955449.438 8 125886751.658 8     -1259.758          51.000    23955451.656 8  96458729.999 8      -965.302          51.000
E08  22077679.875 7 116018985.580 7      1127.945          45.000    22077680.383 7  88897752.155 7       864.330          46.000
E15  24445742.445 8 128463249.453 8     -2369.473          51.000    24445744.508 8  98432871.361 8     -1815.534          51.000
> 2020 05 07 23 19 30.0000000  0 13        .000000000000
G04  20461219.438 8 107524499.824 8     -1048.652          51.000    20461219.336 8  83785300.691 8      -817.132          51.000
G09  20600706.859 8 108257542.000 8      1295.043          51.000    20600708.125 8  84356505.712 8      1009.124          51.000
G17  23767832.758 7 124900797.287 7     -2767.871          45.000    23767830.703 6  97325267.871 6     -2156.783          40.000
G19  23145431.461 7 121630058.441 7     -2452.832          44.000    23145427.672 6  94776629.958 6     -1911.298          39.000
R07  19711108.922 5 105515092.834 5       351.027          32.000    19711107.500 4  82067292.165 4       273.021          28.000
R09  23396254.844 7 124934680.969 7      4025.316          45.000    23396257.883 7  97171432.305 7      3130.802          43.000
R22  20182446.094 7 107735329.996 7     -1690.559          47.000    20182447.836 7  83794094.652 7     -1314.879          44.000
C14  22662091.609 6 118007460.269 6     -1664.367          41.000    22662090.031 7  91250881.744 7     -1287.097          45.000
C24  24280049.602 5 126432583.591 5      1929.414          30.000
C28  23768695.180 7 123769864.144 7     -2512.059          46.000
E03  23962658.539 8 125924635.347 8     -1264.062          51.000    23962660.438 8  96487757.753 8      -968.567          51.000
E08  22071261.586 7 115985257.793 7      1122.141          46.000    22071262.062 7  88871908.785 7       859.768          45.000
E15  24459298.984 8 128534489.652 8     -2378.117          51.000    24459300.617 8  98487457.983 8     -1822.206          50.000
> 2020 05 07 23 20  0.0000000  0 14        .000000000000
G04  20467249.047 8 107556186.123 8     -1063.449          51.000    20467248.977 8  83809991.301 8      -828.662          51.000
G09  20593357.852 8 108218923.258 8      1279.836          51.000    20593359.156 8  84326413.195 8       997.278          51.000
G17  23783656.312 7 124983952.896 7     -2775.262          43.000    23783654.172 7  97390064.452 7     -2162.542          42.000
G19  23159476.031 7 121703860.087 7     -2467.082          44.000    23159470.664 6  94834137.737 6     -1922.402          38.000
R09  23373652.414 7 124813989.015 7      4021.109          44.000    23373655.297 6  97077560.723 6      3127.526          40.000
R21  22867981.750 5 122371147.441 5     -4542.281          33.000    22867986.109 5  95177594.415 5     -3532.885          30.000
R22  20192022.555 7 107786457.562 7     -1717.590          45.000    20192026.258 7  83833860.535 7     -1335.903          46.000
C14  22671700.789 7 118057495.821 7     -1670.914          42.000    22671698.891 7  91289572.413 7     -1291.978          46.000
C24  24268971.961 4 126374897.793 4      1916.945          28.000
C26  24552906.609 5 127853415.303 5      -698.105          34.000
C28  23783199.938 7 123845396.548 7     -2523.078          47.000
E03  23969894.164 8 125962658.759 8     -1270.480          51.000    23969895.891 8  96516892.567 8      -973.485          51.000
E08  22064878.500 7 115951715.045 7      1114.234          46.000    22064878.305 7  88846207.205 7       853.821          44.000
E15  24472906.930 8 128606002.125 8     -2389.035          51.000    24472908.312 8  98542253.248 8     -1830.541          50.000
> 2020 05 07 23 20 30.0000000  0 16        .000000000000
G04  20473361.273 8 107588306.370 8     -1077.266          51.000    20473361.172 8  83835020.075 8      -839.425          51.000
G09  20586094.469 8 108180752.174 8      1265.480          51.000    20586095.508 8  84296669.501 8       986.089          51.000
G17  23799521.016 7 125067326.805 7     -2782.336          43.000    23799520.375 7  97455031.160 7     -2168.051          42.000
G19  23173599.914 7 121778080.074 7     -2480.172          45.000    23173593.523 6  94891971.478 6     -1932.601          37.000
R07  19707311.914 5 105494782.214 5       327.492          32.000
R09  23351071.961 6 124693417.677 6      4017.707          41.000    23351075.273 7  96983782.973 7      3124.883          42.000
R15  23565693.711 4 125927921.373 4     -2395.965          28.000
R21  22893455.211 4 122507489.522 4     -4547.359          29.000    22893463.273 4  95283638.158 4     -3536.838          29.000
R22  20201748.992 7 107838380.183 7     -1743.324          47.000    20201753.820 7  83874244.828 7     -1355.919          47.000
C14  22681344.922 6 118107713.709 6     -1676.523          40.000    22681342.641 7  91328404.043 7     -1296.255          46.000
C24  24257965.961 5 126317585.149 5      1904.074          33.000
C26  24556976.367 5 127874616.036 5      -714.387          35.000
C28  23797767.625 8 123921252.286 8     -2533.223          48.000
E03  23977164.969 8 126000867.062 8     -1275.988          51.000    23977166.609 8  96546169.048 8      -977.732          51.000
E08  22058538.984 7 115918403.077 7      1107.223          44.000    22058537.227 7  88820682.480 7       848.487          43.000
E15  24486575.109 8 128677831.406 8     -2398.953          51.000    24486576.531 8  98597291.253 8     -1838.129          50.000
> 2020 05 07 23 21  0.0000000  0 13        .000000000000
G04  20479550.617 8 107620831.278 8     -1090.688          51.000    20479550.336 8  83860364.163 8      -849.886          50.000
G09  20578911.164 8 108143001.089 8      1251.492          51.000    20578911.844 8  84267253.068 8       975.189          51.000
G17  23815421.898 7 125150887.968 7     -2787.941          45.000    23815422.758 7  97520143.757 7     -2172.422          43.000
G19  23187797.258 7 121852687.152 7     -2492.895          45.000    23187790.414 6  94950106.823 6     -1942.515          39.000
R09  23328511.266 7 124572943.045 7      4014.457          45.000    23328514.070 7  96890080.546 7      3122.355          43.000
R22  20211618.766 7 107891067.312 7     -1768.832          47.000    20211623.672 7  83915223.714 7     -1375.758          46.000
C14  22691018.180 7 118158086.040 7     -1681.574          42.000    22691015.953 7  91367355.080 7     -1300.176          46.000
C24  24247036.453 5 126260652.512 5      1891.660          34.000
C26  24561140.352 5 127896301.841 5      -730.934          33.000
C28  23812392.336 8 123997401.420 8     -2543.027          50.000
E03  23984465.523 8 126039231.669 8     -1281.262          51.000    23984467.133 8  96575565.289 8      -981.746          51.000
E08  22052237.539 7 115885293.878 7      1100.379          43.000    22052235.133 7  88795313.119 7       843.189          43.000
E15  24500298.188 8 128749948.234 8     -2408.461          51.000    24500300.266 8  98652549.596 8     -1845.444          51.000
> 2020 05 07 23 21 30.0000000  0 13        .000000000000
G04  20485816.953 8 107653760.564 8     -1105.227          51.000    20485816.477 8  83886023.346 8      -861.216          50.000
G09  20571807.836 8 108105671.365 8      1236.469          51.000    20571808.102 8  84238164.971 8       963.482          51.000
G17  23831358.742 7 125234634.941 7     -2795.410          47.000    23831360.344 7  97585401.141 7     -2178.242          44.000
G19  23202067.727 7 121927679.800 7     -2507.031          44.000    23202061.406 6  95008542.651 6     -1953.531          39.000
R09  23305970.867 7 124452570.825 7      4009.867          47.000    23305972.289 7  96796457.703 7      3118.786          42.000
R22  20221632.195 8 107944517.613 8     -1795.199          50.000    20221636.086 7  83956796.194 7     -1396.266          45.000
C14  22700721.383 6 118208613.704 6     -1687.625          41.000    22700719.281 7  91406426.267 7     -1305.024          46.000
C24  24236177.406 6 126204089.883 6      1878.625          37.000
C26  24565395.094 5 127918473.337 5      -748.680          30.000
C28  23827073.086 8 124073842.845 8     -2553.668          49.000
E03  23991795.883 8 126077753.032 8     -1287.438          51.000    23991797.516 8  96605081.646 8      -986.463          51.000
E08  22045975.102 7 115852388.501 7      1092.848          42.000    22045974.008 7  88770099.934 7       837.257          45.000
E15  24514076.188 8 128822352.433 8     -2419.078          51.000    24514079.125 8  98708028.140 8     -1853.546          51.000
> 2020 05 07 23 22  0.0000000  0 14        .000000000000
G04  20492162.000 8 107687104.257 8     -1118.477          51.000    20492161.539 8  83912005.450 8      -871.540          51.000
G09  20564786.719 8 108068774.719 8      1222.484          51.000    20564786.539 8  84209414.320 8       952.585          51.000
G17  23847332.773 8 125318576.109 8     -2801.480          48.000    23847334.398 7  97650809.847 7     -2182.972          44.000
G19  23216412.734 7 122003066.281 7     -2519.359          42.000    23216407.742 6  95067285.376 6     -1963.134          41.000
G22  24239083.414 5 127377242.977 5     -2833.211          33.000
R07  19702080.578 5 105466768.322 5       293.250          32.000    19702080.203 4  82029716.308 4       228.083          24.000
R09  23283452.625 8 124332316.765 8      4006.387          48.000    23283452.312 7  96702926.818 7      3116.082          43.000
R22  20231790.891 8 107998740.526 8     -1820.418          51.000    20231792.508 7  83998969.488 7     -1415.884          44.000
C14  22710456.734 7 118259307.827 7     -1692.625          42.000    22710454.523 7  91445626.159 7     -1308.960          46.000
C24  24225390.586 5 126147910.795 5      1865.637          30.000
C28  23841810.844 8 124150585.719 8     -2563.301          49.000
E03  23999158.156 8 126116441.973 8     -1292.582          51.000    23999159.867 8  96634726.406 8      -990.453          51.000
E08  22039754.344 7 115819698.352 7      1085.914          44.000    22039755.164 7  88745051.636 7       832.037          47.000
E15  24527910.984 8 128895054.124 8     -2428.543          51.000    24527914.602 8  98763734.627 8     -1860.829          51.000
> 2020 05 07 23 22 30.0000000  0 13        .000000000000
G04  20498586.281 8 107720864.242 8     -1129.742          51.000    20498585.961 8  83938311.935 8      -880.319          51.000
G09  20557848.766 8 108032314.678 8      1210.570          51.000    20557848.422 8  84181003.908 8       943.302          51.000
G17  23863343.820 8 125402711.811 8     -2805.285          48.000    23863345.156 7  97716370.148 7     -2185.936          45.000
G19  23230832.320 7 122078846.620 7     -2530.094          42.000    23230829.055 7  95126335.010 7     -1971.502          42.000
R07  19700472.844 5 105458136.543 5       284.262          30.000
R09  23260957.641 8 124212189.154 8      4004.602          48.000    23260956.195 7  96609494.255 7      3114.690          42.000
R22  20242094.320 8 108053736.810 8     -1843.578          51.000    20242094.766 7  84041744.317 7     -1433.894          46.000
C14  22720225.156 7 118310171.436 7     -1695.840          43.000    22720222.555 7  91484957.108 7     -1311.183          46.000
C24  24214686.852 5 126092231.867 5      1855.777          34.000
C28  23856606.242 8 124227631.013 8     -2570.750          49.000
E03  24006552.789 8 126155301.118 8     -1295.582          51.000    24006554.648 8  96664501.581 8      -992.698          51.000
E08  22033575.594 7 115787226.600 7      1081.367          45.000    22033577.516 7  88720170.673 7       828.562          47.000
E15  24541802.961 8 128968055.230 8     -2435.770          51.000    24541806.789 8  98819670.535 8     -1866.327          51.000
> 2020 05 07 23 23  0.0000000  0 15        .000000000000
G04  20505080.406 8 107754991.160 8     -1145.215          51.000    20505080.016 8  83964904.338 8      -892.375          50.000
G09  20550984.359 8 107996243.516 8      1194.320          51.000    20550984.672 8  84152896.548 8       930.642          51.000
G17  23879382.000 8 125486991.154 8     -2813.191          48.000    23879383.164 7  97782042.377 7     -2192.094          44.000
G19  23245317.680 7 122154969.927 7     -2544.637          43.000    23245314.961 6  95185651.877 6     -1982.831          41.000
R06  21063744.938 5 112400131.959 5     -2458.312          30.000
R07  19698913.586 5 105449803.186 5       271.566          33.000
R08  22111596.102 5 118406568.212 5      2662.133          30.000
R09  23238476.875 7 124092143.602 7      3998.523          44.000    23238474.961 6  96516125.527 6      3109.966          41.000
R22  20252532.586 8 108109455.411 8     -1870.820          50.000    20252534.344 8  84085081.025 8     -1455.079          48.000
C14  22730017.180 7 118361156.780 7     -1703.176          42.000    22730013.594 7  91524382.238 7     -1316.865          45.000
C24  24204032.680 6 126036785.034 6      1840.785          38.000
C28  23871450.047 8 124304929.015 8     -2582.383          49.000
E03  24013970.570 8 126194281.886 8     -1302.914          51.000    24013972.555 8  96694369.959 8      -998.301          51.000
E08  22027429.531 7 115754925.221 7      1072.359          46.000    22027431.352 7  88695420.295 7       821.603          47.000
E15  24555742.531 8 129041306.480 8     -2447.395          51.000    24555746.055 8  98875798.107 8     -1875.255          51.000
> 2020 05 07 23 23 30.0000000  0 16        .000000000000
G04  20511661.859 8 107789577.153 8     -1160.867          51.000    20511661.344 8  83991854.464 8      -904.572          50.000
G07  24251109.570 5 127440432.415 5      3428.512          35.000
G09  20544211.617 8 107960655.005 8      1177.785          51.000    20544212.844 8  84125165.250 8       917.755          51.000
G17  23895464.500 7 125571504.854 7     -2821.328          47.000    23895465.727 7  97847897.216 7     -2198.438          44.000
G19  23259885.953 7 122231526.761 7     -2559.762          43.000    23259882.555 6  95245306.529 6     -1994.620          41.000
R06  21077578.969 4 112474006.057 4     -2467.074          29.000
R09  23216029.055 7 123972279.611 7      3991.941          43.000    23216028.531 7  96422897.974 7      3104.843          44.000
R21  23046878.344 5 123328514.714 5     -4576.188          33.000
R22  20263123.406 8 108165988.978 8     -1898.375          51.000    20263125.875 7  84129051.595 7     -1476.511          47.000
C14  22739849.047 6 118412356.440 6     -1710.703          38.000    22739845.516 7  91563973.087 7     -1322.712          45.000
C24  24193463.281 6 125981776.495 6      1825.383          39.000
C26  24583370.539 5 128012049.271 5      -814.992          31.000
C28  23886359.859 8 124382570.160 8     -2594.234          50.000
E03  24021429.094 8 126233477.148 8     -1310.410          51.000    24021431.234 8  96724402.697 8     -1004.095          51.000
E08  22021333.578 7 115722887.707 7      1063.078          46.000    22021334.484 7  88670872.053 7       814.653          46.000
E15  24569747.211 8 129114900.032 8     -2459.234          51.000    24569749.906 8  98932187.953 8     -1884.339          51.000
> 2020 05 07 23 24  0.0000000  0 15        .000000000000
G04  20518314.977 8 107824540.010 8     -1171.332          51.000    20518314.695 8  84019098.261 8      -912.723          50.000
G07  24231528.297 5 127337533.412 5      3430.043          35.000    24231521.664 6  99224031.265 6      2672.764          36.000
G09  20537515.852 8 107925468.604 8      1166.520          51.000    20537517.492 8  84097747.259 8       908.976          51.000
G17  23911575.602 7 125656169.379 7     -2824.418          47.000    23911576.930 7  97913869.576 7     -2200.845          44.000
G19  23274520.828 7 122308433.279 7     -2569.008          43.000    23274516.570 7  95305233.652 7     -2001.827          42.000
R09  23193599.859 7 123852519.522 7      3990.500          43.000    23193602.094 7  96329751.228 7      3103.719          44.000
R21  23072530.766 5 123465797.210 5     -4577.621          31.000
R22  20273851.273 8 108223252.841 8     -1920.535          51.000    20273852.336 7  84173590.182 7     -1493.750          45.000
C14  22749705.672 6 118463690.121 6     -1713.090          38.000    22749703.523 7  91603667.492 7     -1324.582          47.000
C24  24182965.438 6 125927128.325 6      1816.441          36.000
C26  24588104.930 4 128036695.476 4      -827.965          29.000
C28  23901320.312 8 124460472.163 8     -2600.664          51.000
E03  24028912.852 8 126272805.513 8     -1312.840          51.000    24028915.188 8  96754537.420 8     -1005.936          51.000
E08  22015272.008 7 115691033.204 7      1059.129          45.000    22015272.695 7  88646464.055 7       811.621          47.000
E15  24583801.344 8 129188753.751 8     -2465.629          50.000    24583802.891 8  98988777.145 8     -1889.356          50.000
> 2020 05 07 23 24 30.0000000  0 17        .000000000000
G04  20525043.320 8 107859898.439 8     -1185.074          51.000    20525043.352 8  84046650.283 8      -923.434          50.000
G07  24211959.352 5 127234696.286 5      3427.449          35.000    24211952.211 5  99143898.483 5      2670.743          35.000
G09  20530900.391 8 107890704.573 8      1151.773          51.000    20530902.492 8  84070658.408 8       897.489          51.000
G17  23927718.656 8 125741001.537 8     -2830.387          48.000    23927719.688 7  97979972.532 7     -2205.499          42.000
G19  23289225.438 7 122385706.582 7     -2581.699          43.000    23289220.758 6  95365446.617 6     -2011.711          41.000
R07  19694644.203 5 105426980.715 5       237.738          32.000
R08  22067013.578 4 118167829.730 4      2643.457          29.000
R09  23171196.172 7 123732888.167 7      3985.562          44.000    23171199.664 7  96236704.569 7      3099.882          46.000
R21  23098206.656 5 123603192.856 5     -4581.484          33.000
R22  20284718.961 8 108281264.995 8     -1946.039          51.000    20284719.195 7  84218710.736 7     -1513.586          46.000
C14  22759592.422 6 118515177.434 6     -1718.633          37.000    22759591.352 7  91643480.752 7     -1328.950          47.000
C24  24172539.898 6 125872862.668 6      1802.578          40.000
C26  24592929.094 5 128061804.440 5      -845.016          32.000
C28  23916334.711 8 124538652.742 8     -2610.609          51.000
E03  24036425.750 8 126312286.432 8     -1318.496          51.000    24036428.094 8  96784789.037 8     -1010.273          51.000
E08  22009248.797 7 115659381.727 7      1051.738          46.000    22009249.328 7  88622211.621 7       805.844          46.000
E15  24597908.328 8 129262886.380 8     -2475.633          48.000    24597908.977 8  99045580.041 8     -1896.910          50.000
> 2020 05 07 23 25  0.0000000  0 16        .000000000000
G03  22112321.477 5 116201033.411 5     -2347.078          31.000
G04  20531851.055 8 107895674.367 8     -1198.715          50.000    20531851.250 8  84074527.633 8      -934.064          50.000
G07  24192407.906 6 127131947.156 6      3424.328          36.000    24192399.578 5  99063834.309 5      2668.308          35.000
G09  20524369.883 8 107856386.513 8      1137.254          51.000    20524371.797 8  84043917.082 8       886.172          51.000
G17  23943897.508 8 125826022.061 8     -2836.219          48.000    23943897.961 6  98046222.265 6     -2210.044          41.000
G19  23304003.664 7 122463366.697 7     -2594.094          44.000    23303998.609 6  95425960.999 6     -2021.372          41.000
R08  22052224.711 4 118088660.614 4      2636.738          29.000
R09  23148822.617 7 123613413.990 7      3980.703          45.000    23148826.758 7  96143780.273 7      3096.102          46.000
R21  23123907.438 4 123740721.912 4     -4585.508          29.000
R22  20295730.922 8 108340046.595 8     -1971.348          51.000    20295732.031 8  84264429.752 8     -1533.270          48.000
C14  22769513.102 5 118566841.438 5     -1723.758          34.000    22769513.086 7  91683430.640 7     -1333.281          47.000
C24  24162195.805 7 125819004.914 7      1789.266          43.000
C28  23931406.406 8 124617132.762 8     -2620.191          51.000
E03  24043972.086 8 126351942.698 8     -1323.984          51.000    24043974.336 8  96815174.997 8     -1014.479          51.000
E08  22003268.812 7 115627956.574 7      1044.551          47.000    22003268.766 7  88598132.600 7       800.289          45.000
E15  24612071.375 7 129337319.893 7     -2485.457          45.000    24612072.789 8  99102613.514 8     -1904.351          50.000
> 2020 05 07 23 25 30.0000000  0 13        .000000000000
G04  20538733.977 8 107931844.701 8     -1212.277          51.000    20538734.086 8  84102712.308 8      -944.632          51.000
G07  24172866.836 6 127029285.825 6      3421.812          36.000
G09  20517920.375 8 107822492.976 8      1122.684          51.000    20517921.305 8  84017506.544 8       874.818          51.000
G17  23960107.398 7 125911206.045 7     -2842.062          46.000    23960107.203 6  98112599.355 6     -2214.594          39.000
G19  23318850.672 7 122541389.307 7     -2606.941          42.000    23318846.461 7  95486757.860 7     -2031.383          42.000
R09  23126475.898 8 123494079.508 8      3975.410          48.000    23126479.789 7  96050964.539 7      3091.983          46.000
R22  20306881.922 8 108399573.032 8     -1996.574          51.000    20306884.359 8  84310728.074 8     -1552.891          48.000
C14  22779463.898 5 118618660.575 5     -1729.781          34.000    22779464.500 7  91723500.459 7     -1337.640          47.000
C24  24151927.680 6 125765535.655 6      1775.695          40.000
C28  23946530.812 8 124695888.548 8     -2629.820          51.000
E03  24051547.570 8 126391752.029 8     -1329.547          51.000    24051549.789 8  96845678.247 8     -1018.681          51.000
E08  21997327.820 7 115596735.993 7      1037.309          47.000    21997327.125 7  88574210.352 7       794.773          45.000
E15  24626285.742 7 129412031.194 7     -2494.867          44.000    24626290.039 8  99159859.912 8     -1911.750          50.000
> 2020 05 07 23 26  0.0000000  0 14        .000000000000
G04  20545689.836 8 107968398.007 8     -1226.059          51.000    20545689.961 8  84131195.401 8      -955.367          51.000
G07  24153336.414 5 126926637.526 5      3418.672          35.000    24153332.836 5  98903860.658 5      2663.894          33.000
G09  20511549.711 8 107789014.097 8      1107.836          51.000    20511549.969 8  83991419.092 8       863.249          51.000
G17  23976345.820 7 125996541.160 7     -2848.141          44.000    23976345.492 6  98179094.244 6     -2219.330          39.000
G19  23333764.266 7 122619761.030 7     -2619.477          43.000    23333760.625 7  95547826.765 7     -2041.151          43.000
R09  23104154.586 8 123374879.172 8      3969.766          49.000    23104157.680 7  95958253.217 7      3087.595          47.000
R22  20318169.633 8 108459831.374 8     -2022.082          51.000    20318172.227 7  84357595.673 7     -1572.730          46.000
C14  22789443.938 6 118670624.551 6     -1735.375          36.000    22789443.633 7  91763682.349 7     -1342.277          45.000
C24  24141733.406 5 125712447.101 5      1761.855          35.000
C26  24607957.008 4 128140082.376 4      -894.902          29.000
C28  23961705.484 8 124774907.904 8     -2639.680          50.000
E03  24059150.094 8 126431703.801 8     -1335.414          51.000    24059152.508 8  96876290.642 8     -1023.185          51.000
E08  21991423.938 8 115565709.937 8      1029.680          48.000    21991423.062 7  88550437.144 7       788.966          45.000
E15  24640553.289 8 129487009.083 8     -2504.914          49.000    24640558.195 8  99217310.526 8     -1919.407          51.000
> 2020 05 07 23 26 30.0000000  0 13        .000000000000
G04  20552720.961 8 108005346.708 8     -1238.250          51.000    20552721.070 8  84159986.607 8      -964.870          51.000
G07  24133825.219 5 126824096.422 5      3416.379          34.000    24133819.055 5  98823958.573 5      2662.116          35.000
G09  20505260.406 8 107755963.942 8      1094.496          51.000    20505261.086 8  83965665.733 8       852.854          51.000
G17  23992614.883 7 126082038.111 7     -2852.809          42.000    23992615.047 6  98245715.268 6     -2222.965          40.000
G19  23348746.594 7 122698492.752 7     -2630.332          43.000    23348743.406 7  95609176.152 7     -2049.609          43.000
R09  23081861.742 7 123255831.290 7      3965.621          47.000    23081863.898 7  95865660.451 7      3084.372          46.000
R22  20329596.977 8 108520833.346 8     -2045.711          51.000    20329599.047 7  84405041.656 7     -1591.109          47.000
C14  22799454.297 5 118722747.081 5     -1739.613          33.000    22799452.719 7  91803986.818 7     -1345.527          47.000
C26  24613161.969 5 128167139.047 5      -910.172          34.000
C28  23976932.938 8 124854202.303 8     -2647.793          49.000
E03  24066782.227 8 126471811.248 8     -1339.449          51.000    24066784.938 8  96907022.331 8     -1026.355          51.000
E08  21985559.672 7 115534892.172 7      1023.824          47.000    21985559.234 7  88526823.548 7       784.423          45.000
E15  24654875.297 8 129562265.997 8     -2513.223          51.000    24654879.320 8  99274974.907 8     -1925.749          51.000
> 2020 05 07 23 27  0.0000000  0 15        .000000000000
G03  22166269.516 5 116484521.025 5     -2377.457          33.000    22166283.977 4  90767229.437 4     -1852.558          29.000
G04  20559829.938 8 108042704.760 8     -1251.168          51.000    20559830.125 8  84189096.785 8      -974.936          51.000
G07  24114328.719 5 126721651.340 5      3413.867          34.000    24114323.406 5  98744131.277 5      2660.159          33.000
G09  20499055.703 8 107723358.036 8      1080.258          51.000    20499056.539 8  83940258.521 8       841.759          51.000
G17  24008917.328 6 126167709.514 6     -2857.625          41.000    24008917.922 6  98312472.240 6     -2226.721          41.000
G19  23363799.828 7 122777596.511 7     -2642.004          46.000    23363796.914 7  95670815.409 7     -2058.704          44.000
R09  23059600.875 7 123136956.474 7      3960.480          45.000    23059602.000 7  95773202.307 7      3080.374          45.000
R22  20341166.773 8 108582591.829 8     -2070.254          51.000    20341168.609 8  84453076.023 8     -1610.197          49.000
C14  22809497.547 5 118775043.251 5     -1745.129          33.000    22809496.039 8  91844425.465 8     -1349.632          48.000
C24  24121584.375 5 125607429.222 5      1736.883          32.000
C26  24618454.969 5 128194696.711 5      -926.543          31.000
C28  23992216.219 8 124933784.720 8     -2656.695          49.000
E03  24074446.883 8 126512089.178 8     -1344.664          51.000    24074449.695 8  96937884.640 8     -1030.285          51.000
E08  21979738.023 7 115504297.984 7      1016.926          46.000    21979737.773 7  88503381.299 7       779.170          45.000
E15  24669253.430 8 129637815.912 8     -2522.348          51.000    24669256.289 8  99332863.772 8     -1932.732          51.000
> 2020 05 07 23 27 30.0000000  0 16        .000000000000
G03  22179863.359 5 116555967.590 5     -2384.777          32.000    22179876.195 5  90822902.010 5     -1858.262          30.000
G04  20567011.633 8 108080445.352 8     -1263.570          50.000    20567011.867 8  84218505.045 8      -984.600          50.000
G07  24094845.961 5 126619279.536 5      3410.867          31.000    24094842.281 5  98664361.072 5      2657.822          32.000
G09  20492931.164 8 107691171.136 8      1066.762          51.000    20492931.062 8  83915177.776 8       831.243          51.000
G17  24025247.828 6 126253527.074 6     -2862.254          41.000    24025248.445 6  98379343.064 6     -2230.328          38.000
G19  23378918.531 7 122857044.084 7     -2653.105          47.000    23378915.562 7  95732722.595 7     -2067.355          42.000
R06  21189410.844 4 113070755.198 4     -2508.574          27.000
R08  21978821.438 5 117695528.051 5      2605.352          33.000
R09  23037364.094 5 123018233.422 5      3955.766          35.000    23037368.195 7  95680862.086 7      3076.704          43.000
R22  20352872.992 8 108645078.092 8     -2094.215          51.000    20352875.359 8  84501676.437 8     -1628.834          50.000
C14  22819570.297 5 118827487.641 5     -1749.449          34.000    22819567.891 7  91884978.809 7     -1353.033          47.000
C24  24111615.719 4 125555517.792 4      1724.250          29.000
C28  24007549.875 8 125013627.771 8     -2664.867          48.000
E03  24082139.023 8 126552511.575 8     -1348.938          51.000    24082141.641 8  96968857.651 8     -1033.619          51.000
E08  21973954.133 7 115473901.943 7      1010.762          46.000    21973953.727 7  88480090.865 7       774.396          45.000
E15  24683681.875 8 129713632.028 8     -2530.777          51.000    24683684.258 8  99390956.610 8     -1939.131          51.000
> 2020 05 07 23 28  0.0000000  0 14        .000000000000
G03  22193500.844 5 116627634.614 5     -2394.465          33.000    22193509.883 5  90878723.625 5     -1865.814          31.000
G04  20574267.734 8 108118577.491 8     -1278.973          49.000    20574268.203 8  84248218.406 8      -996.602          49.000
G07  24075378.094 5 126516971.809 5      3406.723          32.000    24075379.023 5  98584652.984 5      2654.589          32.000
G09  20486888.367 8 107659413.840 8      1050.035          51.000    20486887.805 8  83890431.829 8       818.209          51.000
G17  24041607.898 6 126339498.266 6     -2869.805          40.000    24041608.195 6  98446333.569 6     -2236.211          39.000
G19  23394103.859 7 122936842.637 7     -2667.152          47.000    23394100.961 7  95794903.284 7     -2078.301          43.000
R07  19686867.203 5 105385294.682 5       157.715          30.000    19686864.242 4  81966357.816 4       122.667          27.000
R09  23015158.000 7 122899677.146 7      3947.641          42.000    23015165.039 7  95588651.538 7      3070.387          42.000
R22  20364716.633 8 108708300.067 8     -2121.070          51.000    20364719.398 8  84550849.089 8     -1649.721          48.000
C14                                                                  22829669.906 7  91925654.671 7     -1359.080          47.000
C28  24022934.758 7 125093739.545 7     -2676.102          46.000
E03  24089860.664 8 126593088.352 8     -1356.469          51.000    24089862.703 8  96999948.936 8     -1039.381          51.000
E08  21968209.734 7 115443714.448 7      1001.281          45.000    21968209.125 7  88456960.162 7       767.272          46.000
E15  24698162.195 8 129789723.420 8     -2542.309          51.000    24698164.773 8  99449260.386 8     -1948.039          51.000
> 2020 05 07 23 28 30.0000000  0 15        .000000000000
G03  22207179.617 6 116699515.873 6     -2397.996          37.000    22207190.945 6  90934734.836 6     -1868.574          36.000
G04  20581595.570 8 108157086.188 8     -1288.141          50.000    20581596.461 8  84278225.181 8     -1003.746          50.000
G09  20480924.477 8 107628072.727 8      1039.582          51.000    20480923.992 8  83866010.204 8       810.064          51.000
G17  24057994.539 6 126425606.908 6     -2870.754          40.000    24057993.820 5  98513431.160 5     -2236.951          35.000
G19  23409352.750 7 123016975.541 7     -2674.695          47.000    23409350.188 7  95857344.484 7     -2084.178          44.000
R07  19686005.883 5 105380668.574 5       150.699          32.000    19686002.359 4  81962772.625 4       117.207          28.000
R08  21949711.453 5 117539651.164 5      2594.172          33.000
R09  22992987.180 7 122781278.414 7      3945.832          44.000    22992992.930 7  95496563.656 7      3068.984          43.000
R22  20376694.891 8 108772241.506 8     -2141.559          51.000    20376696.680 7  84600581.293 7     -1665.660          47.000
C14  22839803.953 5 118932837.366 5     -1759.008          31.000    22839799.391 7  91966442.499 7     -1360.116          46.000
C24  24091914.156 6 125452904.056 6      1698.105          37.000
C28  24038366.969 7 125174104.317 7     -2681.398          44.000
E03  24097609.008 8 126633805.350 8     -1357.793          51.000    24097610.484 8  97031147.669 8     -1040.447          51.000
E08  21962502.250 7 115413721.893 7       998.098          45.000    21962501.922 7  88433978.814 7       764.929          46.000
E15  24712691.461 8 129866075.124 8     -2547.625          51.000    24712694.789 8  99507763.644 8     -1952.118          51.000
> 2020 05 07 23 29  0.0000000  0 15        .000000000000
G03  22220888.070 5 116771552.271 5     -2407.598          35.000    22220896.711 5  90990866.882 5     -1876.068          32.000
G04  20588984.422 8 108195915.045 8     -1303.277          50.000    20588985.258 8  84308481.415 8     -1015.541          50.000
G09  20475028.938 8 107597092.997 8      1023.023          51.000    20475028.695 8  83841870.129 8       797.161          51.000
G17  24074396.672 6 126511794.829 6     -2877.715          39.000    24074394.539 6  98580590.542 6     -2242.378          37.000
G19  23424654.203 7 123097385.056 7     -2688.578          47.000    23424651.781 7  95920001.242 7     -2094.996          44.000
R07  19685182.633 4 105376343.036 4       137.492          28.000    19685187.258 4  81959397.413 4       106.941          28.000
R09  22970836.648 8 122662985.973 8      3937.465          48.000    22970840.500 7  95404558.419 7      3062.473          42.000
R22  20388796.578 8 108836843.414 8     -2168.074          51.000    20388798.570 8  84650827.205 8     -1686.280          49.000
C14  22849953.672 5 118985675.221 5     -1766.570          30.000    22849946.266 7  92007300.177 7     -1365.985          45.000
C24  24082171.680 6 125402150.918 6      1682.406          39.000
C26  24640514.672 5 128309588.457 5      -990.023          32.000
C28  24053835.930 6 125254665.327 6     -2692.238          41.000
E03  24105373.352 8 126674606.997 8     -1365.254          51.000    24105374.547 8  97062411.269 8     -1046.095          51.000
E08  21956821.086 7 115383869.157 7       989.039          45.000    21956821.930 7  88411104.638 7       757.733          47.000
E15  24727259.141 8 129942630.773 8     -2558.980          51.000    24727263.562 8  99566423.183 8     -1960.759          51.000
> 2020 05 07 23 29 30.0000000  0 17        .000000000000
G03  22234667.555 5 116843964.030 5     -2413.562          32.000    22234688.977 5  91047334.025 5     -1880.698          32.000
G04  20596475.992 8 108235283.120 8     -1314.766          51.000    20596476.633 8  84339157.829 8     -1024.493          51.000
G07  24017093.648 5 126210677.589 5      3399.961          32.000
G09  20469243.945 8 107566695.316 8      1009.902          51.000    20469244.344 8  83818183.606 8       786.937          51.000
G17  24090854.906 6 126598279.793 6     -2881.266          38.000    24090851.641 6  98647981.417 6     -2245.145          37.000
G19  23440049.805 7 123178288.200 7     -2698.445          46.000    23440047.289 7  95983042.621 7     -2102.685          44.000
R07  19684464.602 5 105372491.535 5       127.559          32.000
R08  21920727.906 5 117384527.108 5      2580.695          31.000
R09  22948748.531 7 122545028.652 7      3932.852          47.000    22948751.008 7  95312813.869 7      3058.888          42.000
R22  20401063.977 8 108902327.104 8     -2190.840          51.000    20401066.734 8  84701758.956 8     -1703.987          50.000
C14                                                                  22860152.289 7  92048396.481 7     -1368.848          45.000
C24  24072537.477 6 125351957.706 6      1670.559          38.000
C26  24646286.586 5 128339626.439 5     -1005.156          32.000
C28  24069386.008 7 125335638.911 7     -2699.586          43.000
E03  24113195.562 8 126715713.270 8     -1368.746          51.000    24113196.789 8  97093908.287 8     -1048.779          49.000
E08  21951208.539 7 115354376.767 7       983.586          44.000    21951210.133 7  88388506.598 7       753.681          46.000
E15  24741907.250 8 130019609.489 8     -2566.531          51.000    24741912.594 8  99625406.907 8     -1966.587          51.000
> 2020 05 07 23 30  0.0000000  0 17        .000000000000
G04  20604015.344 8 108274901.700 8     -1328.242          51.000    20604016.031 8  84370029.447 8     -1034.994          51.000
G07  23997687.078 5 126108707.085 5      3396.637          33.000    23997676.742 5  98266480.896 5      2646.733          33.000
G09  20463515.195 8 107536592.425 8       995.023          51.000    20463515.930 8  83794726.844 8       775.346          51.000
G17  24107313.094 6 126684771.673 6     -2886.707          39.000    24107310.094 6  98715377.723 6     -2249.379          37.000
G19  23455484.023 7 123259394.612 7     -2710.508          46.000    23455481.531 7  96046242.419 7     -2112.084          43.000
R08  21906281.836 5 117307183.645 5      2573.359          34.000
R09  22926669.164 7 122427118.934 7      3925.961          47.000    22926669.375 6  95221106.286 6      3053.525          39.000
R21  23381900.883 5 125121257.554 5     -4615.172          33.000
R22  20413441.961 8 108968397.955 8     -2215.598          51.000    20413444.406 8  84753147.385 8     -1723.246          50.000
C14  22870398.484 4 119092070.307 4     -1775.520          29.000    22870363.258 7  92089511.154 7     -1373.476          46.000
C24  24062955.133 6 125302041.858 6      1655.793          36.000
C25  25823130.570 6 134467820.260 6      3286.891          36.000
C26  24652122.164 5 128370012.852 5     -1022.090          35.000
C28  24084961.531 7 125416738.156 7     -2708.820          45.000
E03  24121020.734 8 126756836.312 8     -1374.465          50.000    24121022.266 8  97125418.162 8     -1053.188          49.000
E08  21945609.992 7 115324957.367 7       975.918          44.000    21945611.383 7  88365964.470 7       747.847          45.000
E15  24756581.375 8 130096722.605 8     -2576.125          51.000    24756586.953 8  99684493.599 8     -1973.917          51.000
> 2020 05 07 23 30 30.0000000  0 17        .000000000000
G03  22262325.531 5 116989339.075 5     -2429.781          30.000
G04  20611644.984 8 108314994.682 8     -1342.582          51.000    20611645.609 8  84401270.734 8     -1046.168          51.000
G07  23978316.562 5 126006916.858 5      3391.875          33.000    23978308.906 5  98187163.902 5      2643.023          33.000
G09  20457885.531 8 107507009.845 8       979.160          51.000    20457886.297 8  83771675.499 8       762.982          51.000
G17  24123814.523 6 126771492.775 6     -2892.758          39.000    24123812.492 6  98782952.599 6     -2254.097          38.000
G19  23470999.062 7 123340926.665 7     -2723.051          46.000    23470996.680 7  96109773.897 7     -2121.858          44.000
R09  22904641.695 7 122309490.719 7      3917.938          47.000    22904640.812 6  95129617.772 6      3047.288          41.000
R21  23407790.047 5 125259807.785 5     -4619.242          34.000
R22  20425972.000 8 109035281.955 8     -2241.238          51.000    20425973.883 8  84805168.240 8     -1743.188          49.000
C14                                                                  22880621.453 7  92130816.841 7     -1378.623          45.000
C24  24053466.055 5 125252628.565 5      1640.566          35.000
C25  25804204.875 6 134369270.960 6      3284.867          36.000
C26  24658068.094 5 128400970.230 5     -1039.879          35.000
C28  24100603.922 8 125498184.017 8     -2718.848          48.000
E03  24128891.922 8 126798200.934 8     -1381.152          50.000    24128893.703 8  97157113.140 8     -1058.330          48.000
E08  21940068.117 7 115295836.249 7       967.434          43.000    21940069.047 7  88343650.878 7       741.292          45.000
E15  24771323.914 8 130174194.101 8     -2586.582          51.000    24771329.180 8  99743854.865 8     -1981.986          51.000
> 2020 05 07 23 31  0.0000000  0 18        .000000000000
G04  20619344.453 8 108355455.022 8     -1356.133          51.000    20619345.008 8  84432798.276 8     -1056.727          51.000
G07  23958962.430 5 125905213.308 5      3386.695          30.000    23958954.547 4  98107914.508 4      2638.986          29.000
G09  20452334.734 8 107477842.058 8       963.988          51.000    20452335.969 8  83748947.363 8       751.160          51.000
G17  24140338.906 6 126858334.918 6     -2897.762          39.000    24140337.781 6  98850621.803 6     -2257.993          37.000
G19  23486574.320 7 123422775.615 7     -2734.859          46.000    23486572.062 7  96173552.280 7     -2131.059          44.000
G22  24533959.008 5 128926830.883 5     -2907.477          31.000
R07  19682620.891 6 105362606.005 6        91.652          37.000
R09  22882647.164 7 122192041.079 7      3910.441          46.000    22882645.922 6  95038268.100 6      3041.454          40.000
R21  23433688.391 5 125398410.499 5     -4622.336          33.000
R22  20438632.820 8 109102868.687 8     -2265.941          51.000    20438634.930 8  84857735.674 8     -1762.399          49.000
C14                                                                  22890906.844 7  92172232.484 7     -1383.411          45.000
C24  24044052.070 6 125203615.292 6      1625.668          38.000
C25  25785279.664 5 134270727.228 5      3282.969          35.000
C26  24664103.242 5 128432393.257 5     -1056.016          33.000
C28  24116292.438 7 125579869.613 7     -2728.074          47.000
E03  24136789.078 8 126839700.965 8     -1386.953          50.000    24136791.102 8  97188911.861 8     -1062.727          48.000
E08  21934563.039 7 115266907.756 7       959.652          44.000    21934563.836 7  88321484.886 7       735.339          45.000
E15  24786114.273 8 130251916.897 8     -2596.309          51.000    24786118.531 8  99803408.662 8     -1989.388          51.000
> 2020 05 07 23 31 30.0000000  0 16        .000000000000
G04  20627109.508 8 108396260.065 8     -1367.281          51.000    20627110.008 8  84464594.403 8     -1065.414          51.000
G07  23939621.414 5 125803560.654 5      3385.668          31.000    23939611.398 5  98028718.012 5      2638.183          30.000
G09  20446859.117 8 107449067.908 8       951.211          51.000    20446860.781 8  83726525.970 8       741.203          51.000
G17  24156881.984 6 126945273.906 6     -2900.977          38.000    24156881.438 6  98918366.506 6     -2260.495          38.000
G19  23502205.117 7 123504917.447 7     -2744.215          45.000    23502203.148 7  96237558.896 7     -2138.346          43.000
R09  22860683.023 8 122074753.133 8      3905.586          49.000    22860681.648 7  94947044.121 7      3037.678          43.000
R21  23459592.906 5 125537040.677 5     -4623.227          32.000
R22  20451420.383 8 109171133.805 8     -2288.184          51.000    20451423.562 8  84910830.759 8     -1779.698          50.000
C14                                                                  22901215.141 7  92213741.727 7     -1386.262          43.000
C24  24034711.266 6 125154983.064 6      1613.266          40.000
C25  25766351.938 5 134172170.509 5      3283.883          35.000
C26  24670223.852 5 128464260.297 5     -1069.984          30.000
C28  24132021.844 8 125661771.615 8     -2735.023          48.000
E03  24144707.938 8 126881314.603 8     -1390.375          50.000    24144710.461 8  97220797.655 8     -1065.391          48.000
E08  21929091.227 7 115238150.542 7       954.414          45.000    21929091.438 7  88299450.163 7       731.292          45.000
E15  24800947.977 8 130329868.363 8     -2603.602          51.000    24800950.516 8  99863137.651 8     -1994.982          51.000
> 2020 05 07 23 32  0.0000000  0 18        .000000000000
G04  20634948.547 8 108437453.875 8     -1379.238          51.000    20634948.883 8  84496693.474 8     -1074.731          51.000
G09  20441467.469 8 107420733.067 8       937.555          51.000    20441469.008 8  83704446.883 8       730.562          51.000
G17  24173452.180 6 127032352.335 6     -2904.727          36.000    24173451.703 5  98986219.845 5     -2263.423          35.000
G19  23517899.500 7 123587394.115 7     -2754.383          44.000    23517897.844 7  96301826.451 7     -2146.269          44.000
R06  21317558.625 5 113754582.877 5     -2555.930          31.000
R07  19681695.500 5 105357615.710 5        71.199          30.000    19681703.352 4  81944876.355 4        55.368          25.000
R08  21848913.609 5 116999941.287 5      2547.379          31.000    21848923.344 4  90999990.884 4      1981.301          25.000
R09  22838758.438 8 121957677.774 8      3899.344          48.000    22838758.477 7  94855985.538 7      3032.823          45.000
R21  23485510.781 5 125675740.517 5     -4624.203          31.000
R22  20464343.859 8 109240120.604 8     -2311.191          51.000    20464347.602 8  84964487.191 8     -1797.593          50.000
C14                                                                  22911555.109 7  92255379.430 7     -1389.875          42.000
C24  24025452.031 6 125106778.950 6      1600.184          38.000
C25  25747430.820 5 134073648.547 5      3283.703          34.000
C26  24676437.398 5 128496615.736 5     -1085.902          31.000
C28  24147800.656 7 125743932.867 7     -2742.438          47.000
E03  24152657.078 8 126923086.900 8     -1394.711          49.000    24152660.070 8  97252804.988 8     -1068.651          48.000
E08  21923660.695 7 115209610.141 7       948.055          44.000    21923660.188 7  88277581.586 7       726.581          44.000
E15  24815833.469 8 130408092.620 8     -2611.582          50.000    24815834.258 8  99923075.656 8     -2001.097          51.000
> 2020 05 07 23 32 30.0000000  0 16        .000000000000
G04  20642858.516 8 108479020.759 8     -1391.434          51.000    20642858.836 8  84529083.243 8     -1084.237          51.000
G09  20436156.648 8 107392823.320 8       923.555          51.000    20436157.711 8  83682699.030 8       719.653          51.000
G17  24190046.688 6 127119553.193 6     -2908.262          40.000    24190045.031 6  99054168.570 6     -2266.178          39.000
G19  23533654.469 7 123670188.464 7     -2764.898          44.000    23533653.234 7  96366341.508 7     -2154.466          44.000
R08  21834663.664 5 116923616.651 5      2541.574          30.000
R09  22816871.812 7 121840805.237 7      3892.508          44.000    22816873.117 7  94765084.633 7      3027.509          46.000
R21  23511441.164 5 125814491.901 5     -4625.523          30.000
R22  20477399.922 8 109309811.656 8     -2334.410          51.000    20477403.211 8  85018691.345 8     -1815.652          50.000
C14                                                                  22921924.625 7  92297134.470 7     -1393.457          42.000
C24  24016272.680 6 125058990.825 6      1586.355          39.000
C25  25728514.594 5 133975149.715 5      3282.543          33.000
C26  24682740.594 5 128529444.630 5     -1101.973          32.000
C28  24163625.812 7 125826336.981 7     -2750.422          45.000
E03  24160633.422 8 126965003.013 8     -1399.145          48.000    24160636.695 8  97284922.523 8     -1072.159          48.000
E08  21918267.836 7 115181272.206 7       941.598          43.000    21918266.828 7  88255868.127 7       721.523          43.000
E15  24830767.594 8 130486573.939 8     -2619.988          49.000    24830767.867 8  99983210.666 8     -2007.476          51.000
> 2020 05 07 23 33  0.0000000  0 17        .000000000000
G03  22332191.648 5 117356456.322 5     -2465.789          30.000    22332197.594 5  91446606.833 5     -1921.388          31.000
G04  20650840.539 8 108520966.357 8     -1404.125          51.000    20650840.961 8  84561768.115 8     -1094.123          51.000
G09  20430928.078 8 107365345.792 8       909.078          51.000    20430928.516 8  83661287.977 8       708.373          51.000
G17  24206665.445 7 127206880.770 7     -2912.352          42.000    24206662.641 6  99122216.016 6     -2269.368          40.000
G19  23549470.789 7 123753304.019 7     -2775.445          44.000    23549469.750 7  96431106.886 7     -2162.685          44.000
R06  21346362.055 5 113908258.775 5     -2566.449          34.000
R07  19681018.570 5 105354030.373 5        49.180          34.000
R09  22795024.906 7 121724147.340 7      3885.324          45.000    22795027.820 7  94674350.707 7      3021.913          45.000
R22  20490588.641 8 109380210.992 8     -2358.066          51.000    20490590.906 8  85073446.339 8     -1834.055          49.000
C14                                                                  22932325.484 7  92339012.253 7     -1397.505          44.000
C24  24007174.836 6 125011627.539 6      1572.309          36.000
C25  25709604.664 5 133876683.358 5      3282.102          34.000
C26  24689136.570 4 128562753.535 4     -1118.055          29.000
C28  24179497.883 7 125908988.659 7     -2758.723          44.000
E03  24168638.398 8 127007069.490 8     -1404.133          48.000    24168641.422 8  97317155.280 8     -1075.897          49.000
E08  21912914.320 7 115153143.761 7       934.602          43.000    21912913.500 7  88234315.181 7       716.159          45.000
E15  24845750.688 7 130565317.967 7     -2628.680          46.000    24845752.695 8 100043547.015 8     -2014.186          51.000
> 2020 05 07 23 33 30.0000000  0 16        .000000000000
G03  22346290.742 5 117430540.893 5     -2473.000          34.000    22346294.898 5  91504335.006 5     -1927.013          35.000
G04  20658892.109 8 108563277.529 8     -1416.355          51.000    20658892.602 8  84594737.864 8     -1103.654          51.000
G09  20425779.703 8 107338288.923 8       894.977          51.000    20425779.883 8  83640204.718 8       697.384          51.000
G17  24223305.500 7 127294320.678 7     -2916.430          42.000    24223302.281 6  99190350.951 6     -2272.543          40.000
G19  23565345.508 7 123836726.239 7     -2785.496          43.000    23565344.305 7  96496111.189 7     -2170.519          43.000
R06  21360802.492 4 113985334.328 4     -2571.531          28.000
R07  19680775.125 6 105352712.029 6        38.750          37.000
R09  22773216.297 7 121607696.978 7      3878.305          44.000    22773220.945 7  94583778.190 7      3016.462          46.000
R22  20503906.469 8 109451303.714 8     -2381.164          51.000    20503908.547 8  85128740.638 8     -1852.020          50.000
C14                                                                  22942755.289 7  92381003.774 7     -1401.537          43.000
C24  23998158.797 6 124964679.860 6      1558.242          40.000
C25  25690700.633 6 133778240.779 6      3281.395          37.000
C28  24195414.523 6 125991874.089 6     -2766.793          41.000
E03  24176669.734 7 127049274.201 7     -1409.113          47.000    24176672.148 8  97349493.957 8     -1079.692          49.000
E08  21907598.938 7 115125213.207 7       927.633          45.000    21907598.844 7  88212913.813 7       710.903          46.000
E15  24860781.242 7 130644311.681 7     -2637.168          47.000    24860785.898 8 100104074.705 8     -2020.705          51.000
> 2020 05 07 23 34  0.0000000  0 17        .000000000000
G03  22360429.938 5 117504843.716 5     -2479.395          31.000    22360434.016 4  91562233.341 4     -1931.996          29.000
G04  20667014.289 8 108605960.012 8     -1428.934          51.000    20667014.797 8  84627996.940 8     -1113.455          51.000
G09  20420712.469 8 107311659.892 8       880.551          51.000    20420712.922 8  83619454.819 8       686.143          51.000
G17  24239967.438 6 127381876.856 6     -2920.668          39.000    24239963.930 6  99258576.532 6     -2275.845          38.000
G19  23581279.492 7 123920459.171 7     -2796.195          45.000    23581277.641 7  96561357.624 7     -2178.853          44.000
R07  19680591.609 5 105351721.691 5        27.398          32.000    19680588.109 4  81940231.163 4        21.316          27.000
R09  22751449.742 7 121491465.925 7      3870.785          44.000    22751454.945 7  94493376.247 7      3010.611          45.000
R21  23589277.117 5 126230986.151 5     -4630.605          30.000
R22  20517354.188 8 109523093.985 8     -2404.656          50.000    20517357.320 8  85184577.531 8     -1870.288          50.000
C14                                                                  22953214.109 6  92423114.359 6     -1405.636          41.000
C24  23989224.078 5 124918156.555 5      1543.660          34.000
C25  25671803.305 6 133679831.508 6      3279.973          36.000
C26  24702204.031 5 128630862.473 5     -1150.242          31.000
C28  24211376.297 6 126074998.021 6     -2774.672          39.000
E03  24184728.719 7 127091623.716 7     -1414.051          46.000    24184730.609 8  97381943.585 8     -1083.475          49.000
E08  21902323.172 7 115097487.468 7       920.773          45.000    21902323.703 7  88191669.408 7       705.558          47.000
E15  24875861.969 8 130723560.774 8     -2645.875          50.000    24875867.711 8 100164798.073 8     -2027.329          51.000
> 2020 05 07 23 34 30.0000000  0 18        .000000000000
G03  22374610.180 5 117579362.158 5     -2486.973          35.000    22374613.977 5  91620299.674 5     -1937.895          33.000
G04  20675206.484 8 108649010.495 8     -1440.984          51.000    20675206.773 8  84661542.774 8     -1122.845          51.000
G07  23824018.922 5 125196046.733 5      3363.598          32.000
G09  20415726.094 8 107285456.908 8       866.438          51.000    20415726.688 8  83599036.876 8       675.146          51.000
G17  24256650.250 5 127469545.034 5     -2924.062          33.000    24256646.875 5  99326889.455 5     -2278.481          33.000
G19  23597271.625 7 124004497.606 7     -2806.113          45.000    23597269.031 7  96626842.091 7     -2186.585          45.000
R06  21389776.367 5 114139938.033 5     -2580.762          32.000
R07  19680467.969 5 105351057.399 5        16.867          35.000    19680464.055 4  81939714.466 4        13.116          24.000
R09  22729725.102 7 121375456.933 7      3863.172          45.000    22729729.961 7  94403147.041 7      3004.689          46.000
R22  20530931.781 8 109595576.804 8     -2427.562          50.000    20530935.547 8  85240953.098 8     -1888.104          49.000
C14  22963704.000 5 119578021.558 5     -1822.930          33.000    22963701.094 6  92465342.643 6     -1409.318          37.000
C24  23980373.086 6 124872057.673 6      1529.758          39.000
C25  25652912.266 5 133581456.242 5      3279.078          34.000
C26  24708868.773 4 128665566.032 4     -1165.602          28.000
C28  24227382.688 6 126158356.447 6     -2782.582          39.000
E03  24192814.703 7 127134115.700 7     -1418.641          45.000    24192816.359 8  97414502.382 8     -1086.942          49.000
E08  21897085.914 7 115069964.728 7       914.094          45.000    21897087.047 7  88170580.557 7       700.532          47.000
E15  24890991.656 8 130803062.002 8     -2654.070          51.000    24890997.281 8 100225714.618 8     -2033.647          51.000
> 2020 05 07 23 35  0.0000000  0 16        .000000000000
G04  20683467.031 8 108692420.100 8     -1451.527          51.000    20683467.000 8  84695368.437 8     -1131.060          51.000
G07  23804826.664 6 125095193.201 6      3361.094          36.000    23804823.109 6  97476769.562 6      2619.034          36.000
G09  20410819.453 8 107259672.555 8       853.887          51.000    20410819.930 8  83578945.173 8       665.366          51.000
G17  24273352.312 4 127557314.696 4     -2924.836          29.000    24273348.305 4  99395281.309 4     -2279.078          28.000
G19  23613319.930 7 124088831.372 7     -2814.555          46.000    23613316.742 7  96692556.690 7     -2193.159          44.000
R06  21404309.867 5 114217455.638 5     -2584.238          31.000
R07  19680401.930 4 105350711.140 4         8.621          29.000    19680401.648 4  81939450.114 4         6.714          27.000
R09  22708040.875 7 121259667.348 7      3857.348          42.000    22708046.156 7  94313088.493 7      3000.156          46.000
R22  20544638.000 8 109668741.617 8     -2448.699          51.000    20544641.305 8  85297859.035 8     -1904.544          49.000
C14  22974222.891 5 119632776.733 5     -1826.156          35.000    22974216.906 6  92507682.812 6     -1412.233          38.000
C24  23971601.312 4 124826378.095 4      1516.426          27.000
C25  25634026.781 5 133483110.155 5      3279.160          33.000
C28  24243433.148 6 126241939.640 6     -2788.387          41.000
E03  24200926.398 7 127176742.189 7     -1421.559          43.000    24200927.867 8  97447164.271 8     -1089.336          50.000
E08  21891886.016 7 115042637.486 7       909.234          46.000    21891887.227 7  88149641.488 7       696.614          47.000
E15  24906167.812 8 130882806.487 8     -2660.684          51.000    24906172.984 8 100286817.528 8     -2038.670          51.000
> 2020 05 07 23 35 30.0000000  0 14        .000000000000
G04  20691796.109 8 108736189.647 8     -1465.434          51.000    20691796.078 8  84729474.573 8     -1141.896          51.000
G07  23785656.141 5 124994456.232 5      3355.531          35.000    23785652.852 5  97398273.250 5      2614.703          34.000
G09  20405992.930 8 107234309.150 8       837.859          51.000    20405993.094 8  83559181.493 8       652.877          51.000
G19  23629424.078 7 124173459.457 7     -2826.477          45.000    23629420.555 7  96758500.673 7     -2202.449          44.000
R07  19680394.906 4 105350685.091 4        -4.535          28.000    19680398.188 4  81939429.912 4        -3.518          27.000
R09  22686398.805 6 121144104.210 6      3848.078          37.000    22686404.914 7  94223205.911 7      2992.947          47.000
R22  20558472.453 8 109742587.377 8     -2473.387          51.000    20558474.906 8  85355294.612 8     -1923.745          50.000
C14  22984768.836 6 119687678.622 6     -1833.152          38.000    22984761.906 6  92550136.427 6     -1416.900          37.000
C24  23962916.469 5 124781191.226 5      1500.867          35.000
C25  25615147.812 5 133384798.111 5      3276.695          30.000
C28  24259527.469 7 126325747.704 7     -2797.672          42.000
E03  24209063.953 7 127219505.025 7     -1428.000          43.000    24209065.594 8  97479930.592 8     -1094.191          50.000
E08  21886724.039 7 115015508.001 7       900.648          46.000    21886724.992 7  88128853.931 7       690.158          47.000
E15  24921390.102 8 130962795.048 8     -2670.770          51.000    24921394.555 8 100348107.469 8     -2046.395          51.000
> 2020 05 07 23 36  0.0000000  0 14        .000000000000
G04  20700195.680 8 108780329.482 8     -1481.590          51.000    20700195.719 8  84763869.259 8     -1154.483          51.000
G07  23766510.656 6 124893849.999 6      3347.188          38.000    23766508.070 6  97319878.809 6      2608.198          38.000
G09  20401248.703 8 107209378.469 8       819.715          51.000    20401248.430 8  83539755.000 8       638.739          51.000
G19  23645585.492 7 124258386.685 7     -2840.074          44.000    23645582.344 7  96824706.838 7     -2213.045          44.000
R07  19680445.648 5 105350950.207 5       -20.402          32.000    19680455.953 4  81939664.057 4       -15.865          27.000
R09  22664803.438 7 121028783.859 7      3835.730          45.000    22664809.047 8  94133512.268 8      2983.343          48.000
R22  20572435.844 8 109817123.062 8     -2500.219          51.000    20572438.531 8  85413266.850 8     -1944.615          51.000
C14  22995343.227 6 119742739.074 6     -1842.008          37.000    22995336.305 5  92592712.682 5     -1424.723          34.000
C24  23954311.180 6 124736371.708 6      1482.477          36.000
C26  24729405.523 5 128772495.225 5     -1215.668          33.000
C28  24275666.508 6 126409789.947 6     -2809.250          40.000
E03  24217229.547 7 127262415.466 7     -1436.918          43.000    24217231.484 8  97512810.003 8     -1100.934          50.000
E08  21881601.703 7 114988587.991 7       889.801          46.000    21881602.812 8  88108226.926 8       681.771          48.000
E15  24936660.344 8 131043038.025 8     -2683.004          51.000    24936663.945 8 100409592.335 8     -2055.829          51.000
> 2020 05 07 23 36 30.0000000  0 17        .000000000000
G03  22431738.102 6 117879573.213 6     -2515.500          36.000    22431740.047 5  91854210.514 5     -1960.127          35.000
G04  20708663.109 8 108824826.035 8     -1489.391          51.000    20708663.000 8  84798541.915 8     -1160.564          51.000
G07  23747389.039 6 124793364.930 6      3347.078          40.000    23747386.031 6  97241578.748 6      2608.113          39.000
G09  20396584.422 8 107184868.470 8       809.715          51.000    20396584.250 8  83520656.302 8       630.947          51.000
G19  23661802.172 7 124343605.571 7     -2845.746          45.000    23661799.164 7  96891111.157 7     -2217.464          44.000
R07  19680562.414 5 105351598.178 5       -26.352          31.000    19680569.336 5  81940157.912 5       -20.496          31.000
R08  21721930.977 5 116319952.772 5      2489.410          31.000
R09  22643253.164 8 120913698.737 8      3831.883          50.000    22643257.648 7  94044001.679 7      2980.353          47.000
R22  20586525.570 8 109892332.967 8     -2518.430          51.000    20586528.438 8  85471763.449 8     -1958.779          50.000
C14  23005944.852 5 119797945.915 5     -1843.000          34.000
C24  23945788.914 5 124691978.848 5      1472.734          33.000
C25  25577450.820 5 133188486.278 5      3273.324          30.000
C26  24736431.695 5 128809082.992 5     -1227.414          33.000
C28  24291846.570 6 126494052.080 6     -2812.867          36.000
E03  24225420.711 7 127305460.950 7     -1437.504          43.000    24225422.844 8  97545792.865 8     -1101.389          50.000
E08  21876516.359 7 114961865.292 7       887.191          46.000    21876517.773 7  88087751.111 7       679.697          47.000
E15  24951975.922 8 131123521.847 8     -2687.055          51.000    24951979.000 8 100471261.760 8     -2058.924          51.000
> 2020 05 07 23 37  0.0000000  0 15        .000000000000
G03  22446124.969 5 117955170.465 5     -2529.117          35.000    22446123.430 5  91913117.535 5     -1970.738          34.000
G04  20717202.305 8 108869699.717 8     -1507.219          51.000    20717202.117 8  84833508.428 8     -1174.456          51.000
G07  23728295.516 6 124693025.601 6      3336.750          40.000    23728292.258 6  97163392.231 6      2600.065          39.000
G09  20392004.250 8 107160800.954 8       789.672          51.000    20392004.422 8  83501902.395 8       615.332          51.000
G19  23678077.109 7 124429130.673 7     -2861.230          46.000    23678074.430 7  96957754.095 7     -2229.530          43.000
G22  24734539.289 5 129980880.218 5     -2955.887          31.000
R09  22621751.820 8 120798875.948 8      3817.785          51.000    22621755.156 7  93954695.087 7      2969.391          47.000
R22  20600744.789 8 109968236.091 8     -2546.863          50.000    20600747.414 8  85530799.188 8     -1980.894          49.000
C14  23016579.266 6 119853320.633 6     -1853.641          37.000
C25  25558596.320 5 133090324.467 5      3265.848          31.000
C26  24743550.805 5 128846154.159 5     -1248.633          34.000
C28  24308071.672 5 126578553.424 5     -2825.859          34.000
E03  24233641.766 7 127348662.712 7     -1447.770          43.000    24233643.781 8  97578895.500 8     -1109.393          50.000
E08  21871472.359 7 114935361.710 7       874.520          45.000    21871473.531 7  88067443.156 7       670.206          46.000
E15  24967340.586 8 131204266.868 8     -2701.047          49.000    24967343.312 8 100533131.340 8     -2069.648          51.000
> 2020 05 07 23 37 30.0000000  0 15        .000000000000
G03  22460554.203 6 118031012.638 6     -2529.742          37.000    22460556.922 6  91972211.403 6     -1971.225          37.000
G04  20725814.750 8 108914958.628 8     -1513.207          51.000    20725814.695 8  84868775.116 8     -1179.122          51.000
G07  23709231.969 6 124592843.964 6      3338.605          39.000    23709229.086 6  97085328.630 6      2601.511          40.000
G09  20387510.203 8 107137185.507 8       781.453          51.000    20387510.305 8  83483500.758 8       608.925          51.000
G19  23694411.469 7 124514968.693 7     -2864.504          44.000    23694408.930 7  97024640.850 7     -2232.081          44.000
R09  22600302.211 8 120684329.785 8      3815.398          49.000    22600304.336 7  93865603.686 7      2967.532          44.000
R22  20615094.523 8 110044838.802 8     -2563.227          50.000    20615096.656 7  85590379.074 7     -1993.618          47.000
C14  23027247.492 5 119908872.728 5     -1853.199          32.000    23027273.805 4  92721193.141 4     -1432.443          29.000
C24  23928992.359 5 124604550.168 5      1443.062          33.000
C25  25539759.055 5 132992237.881 5      3270.156          34.000
C26  24750764.094 5 128883717.543 5     -1258.215          34.000
C28  24324344.945 5 126663301.221 5     -2827.383          32.000
E03  24241894.258 7 127392029.933 7     -1446.422          42.000    24241896.227 8  97612124.925 8     -1108.261          50.000
E08  21866472.117 7 114909086.787 7       873.832          46.000    21866472.438 7  88047310.417 7       669.658          45.000
E15  24982756.250 8 131285281.253 8     -2703.109          49.000    24982758.648 8 100595207.325 8     -2071.220          51.000
> 2020 05 07 23 38  0.0000000  0 16        .000000000000
G03  22475010.797 6 118106983.641 6     -2534.211          38.000    22475014.914 6  92031409.600 6     -1974.707          37.000
G04  20734480.086 8 108960495.655 8     -1522.031          51.000    20734479.961 8  84904258.514 8     -1185.998          51.000
G07  23690178.602 6 124492717.313 6      3337.203          40.000    23690176.375 6  97007307.857 6      2600.418          40.000
G09  20383082.289 8 107113916.459 8       770.289          51.000    20383082.320 8  83465369.032 8       600.225          51.000
G19  23710784.555 7 124601010.666 7     -2870.883          43.000    23710782.133 7  97091686.508 7     -2237.052          42.000
R07  19681287.172 5 105355499.080 5       -55.777          31.000    19681285.516 4  81943145.770 4       -43.382          28.000
R08  21680263.266 5 116096797.890 5      2473.430          32.000
R09  22578884.531 7 120569957.750 7      3809.887          47.000    22578885.797 7  93776647.685 7      2963.245          44.000
R22  20629555.320 8 110122030.639 8     -2582.410          51.000    20629556.648 8  85650417.163 8     -2008.541          48.000
C14  23037927.195 5 119964497.491 5     -1854.379          31.000    23037921.805 5  92764170.787 5     -1434.286          32.000
C25  25520919.492 5 132894124.376 5      3271.781          32.000
C26  24758052.008 5 128921667.585 5     -1270.797          34.000
C28  24340647.977 5 126748188.385 5     -2831.680          33.000
E03  24250158.023 6 127435456.494 6     -1448.195          41.000    24250160.047 8  97645399.807 8     -1109.542          50.000
E08  21861495.695 7 114882934.805 7       870.164          47.000    21861495.672 7  88027271.874 7       666.773          46.000
E15  24998203.281 8 131366457.890 8     -2708.055          49.000    24998205.289 8 100657407.615 8     -2075.000          50.000
> 2020 05 07 23 38 30.0000000  0 16        .000000000000
G04  20743229.836 8 109006476.423 8     -1537.680          51.000    20743229.633 8  84940087.667 8     -1198.195          51.000
G07  23671167.648 6 124392815.429 6      3328.516          41.000    23671166.172 6  96929462.216 6      2593.649          41.000
G09  20378752.031 8 107091160.821 8       752.320          51.000    20378752.406 8  83447637.371 8       586.224          51.000
G19  23727227.531 7 124687420.626 7     -2884.195          44.000    23727225.617 6  97159018.954 6     -2247.422          41.000
R07  19681662.320 5 105357472.078 5       -70.492          31.000    19681653.320 4  81944666.671 4       -54.824          26.000
R08  21666449.883 5 116022847.120 5      2462.648          33.000
R09  22557530.734 7 120455934.028 7      3797.309          45.000    22557532.102 7  93687962.623 7      2953.462          42.000
R22  20644158.156 8 110199977.782 8     -2608.402          51.000    20644159.492 8  85711042.733 8     -2028.757          49.000
C14  23048653.477 5 120020360.229 5     -1863.934          31.000    23048649.203 5  92807360.536 5     -1441.269          31.000
C24  23912525.039 5 124518773.975 5      1413.715          31.000
C25  25502106.734 5 132796152.015 5      3265.727          34.000
C26  24765446.109 5 128960168.937 5     -1290.512          35.000
C28  24357011.852 6 126833378.248 6     -2842.254          39.000
E03  24258464.469 6 127479108.924 6     -1456.504          41.000    24258466.961 8  97678847.745 8     -1116.016          50.000
E08  21856574.562 7 114857072.718 7       859.617          47.000    21856575.086 8  88007455.491 8       658.602          48.000
E15  25013713.031 8 131447962.351 8     -2719.926          49.000    25013714.375 8 100719859.085 8     -2084.126          49.000
> 2020 05 07 23 39  0.0000000  0 15        .000000000000
G04  20752041.711 8 109052783.703 8     -1549.855          51.000    20752041.719 8  84976171.250 8     -1207.680          51.000
G07  23652177.625 6 124293025.005 6      3323.867          40.000    23652176.734 6  96851703.405 6      2590.026          40.000
G09  20374497.539 8 107068802.785 8       737.762          51.000    20374498.219 8  83430215.540 8       574.882          51.000
G19  23743718.086 7 124774079.666 7     -2893.586          44.000    23743716.453 6  97226545.495 6     -2254.742          41.000
R07  19682081.023 5 105359740.558 5       -81.188          33.000    19682074.445 4  81946429.153 4       -63.146          24.000
R08  21652670.898 5 115949064.634 5      2455.680          33.000
R09  22536220.641 7 120342145.983 7      3788.137          46.000    22536222.141 6  93599460.822 6      2946.329          41.000
R22  20658880.117 8 110278559.451 8     -2630.754          51.000    20658881.148 8  85772161.815 8     -2046.142          49.000
C14                                                                  23059402.930 5  92850652.515 5     -1445.244          34.000
C25  25483298.898 6 132698208.832 6      3263.488          37.000
C26  24772923.758 5 128999105.977 5     -1305.605          34.000
C28  24373412.609 6 126918753.939 6     -2849.785          41.000
E03  24266791.656 6 127522870.976 6     -1461.234          39.000    24266794.914 8  97712379.719 8     -1119.704          50.000
E08  21851686.414 8 114831384.742 8       852.605          48.000    21851687.477 8  87987772.532 8       653.322          48.000
E15  25029262.695 7 131529677.416 7     -2728.141          47.000    25029263.375 8 100782471.901 8     -2090.271          48.000
> 2020 05 07 23 39 30.0000000  0 16        .000000000000
G04  20760893.336 8 109099299.884 8     -1555.961          51.000    20760893.484 8  85012417.609 8     -1212.437          51.000
G07  23633187.227 7 124193232.749 7      3324.605          42.000    23633186.906 7  96773943.186 7      2590.599          42.000
G09  20370296.750 8 107046726.212 8       729.211          51.000    20370297.422 8  83413013.012 8       568.216          51.000
G19  23760233.555 7 124860868.388 7     -2897.176          44.000    23760231.500 6  97294173.092 6     -2257.540          40.000
R07  19682532.680 5 105362185.351 5       -86.355          32.000    19682534.977 5  81948311.584 5       -67.171          31.000
R08  21638911.391 5 115875369.469 5      2454.551          30.000
R09  22514934.703 7 120228480.160 7      3784.719          47.000    22514934.422 6  93511054.067 6      2943.673          41.000
R22  20673697.617 8 110357654.333 8     -2647.000          51.000    20673698.891 8  85833680.059 8     -2058.778          49.000
C14                                                                  23070153.406 5  92893950.848 5     -1445.202          32.000
C24  23896390.133 5 124434757.735 5      1389.023          30.000
C25  25464474.273 6 132600182.244 6      3266.875          36.000
C26  24780462.945 6 129038362.738 6     -1315.930          36.000
C28  24389826.391 7 127004198.019 7     -2851.570          43.000
E03  24275117.320 6 127566626.098 6     -1460.398          38.000    24275121.539 8  97745906.380 8     -1119.102          50.000
E08  21846809.719 8 114805754.756 8       851.258          49.000    21846809.711 7  87968133.957 7       652.298          47.000
E15  25044829.516 7 131611485.422 7     -2730.703          46.000    25044830.344 8 100845155.946 8     -2092.249          49.000
> 2020 05 07 23 40  0.0000000  0 15        .000000000000
G04  20769816.000 8 109146189.295 8     -1573.016          51.000    20769816.234 8  85048954.804 8     -1225.726          51.000
G07  23614228.781 7 124093607.196 7      3314.328          42.000    23614228.664 7  96696312.865 7      2582.593          42.000
G09  20366180.781 8 107025096.819 8       709.711          51.000    20366181.469 8  83396158.934 8       553.022          51.000
G19  23776804.875 7 124947949.483 7     -2911.348          45.000    23776801.797 6  97362028.501 6     -2268.583          40.000
R07  19683052.172 5 105364975.034 5      -102.754          34.000    19683059.047 5  81950481.380 5       -79.917          33.000
R08  21625179.398 5 115801857.283 5      2442.926          33.000
R09  22493703.977 7 120115109.716 7      3769.938          47.000    22493703.742 6  93422877.097 6      2932.177          41.000
R22  20688641.234 8 110437427.212 8     -2674.219          51.000    20688643.109 8  85895725.652 8     -2079.945          48.000
C14                                                                  23080937.938 5  92937382.377 5     -1452.784          34.000
C25  25445626.477 6 132502052.157 6      3259.441          38.000
C26  24788095.109 6 129078102.493 6     -1336.648          37.000
C28  24406282.383 7 127089872.421 7     -2863.371          44.000
E03  24283473.531 6 127610539.586 6     -1470.176          36.000    24283478.062 8  97779554.402 8     -1126.594          49.000
E08  21841975.477 7 114780348.474 7       839.188          47.000    21841973.820 7  87948666.771 7       643.151          47.000
E15  25060445.039 7 131693550.686 7     -2743.633          45.000    25060446.984 8 100908037.118 8     -2102.276          50.000
> 2020 05 07 23 40 30.0000000  0 17        .000000000000
G04  20778829.070 8 109193553.502 8     -1584.711          51.000    20778829.414 8  85085861.981 8     -1234.837          51.000
G07  23595322.039 7 123994253.928 7      3309.266          43.000    23595322.445 7  96618894.742 7      2578.649          43.000
G09  20362169.578 8 107004017.561 8       695.473          51.000    20362170.211 8  83379733.565 8       541.927          51.000
G19  23793450.891 7 125035422.574 7     -2920.344          46.000    23793446.281 6  97430189.341 6     -2275.593          41.000
R07  19683657.195 5 105368214.324 5      -113.340          33.000    19683665.688 5  81953000.835 5       -88.153          31.000
R08  21611514.070 5 115728670.836 5      2436.180          32.000
R09  22472548.781 7 120002144.310 7      3760.812          45.000    22472549.461 7  93335015.143 7      2925.076          43.000
R22  20703731.062 8 110517979.470 8     -2696.020          51.000    20703732.680 7  85958377.396 7     -2096.904          46.000
C14                                                                  23091775.586 5  92981026.319 5     -1457.164          34.000
C24  23880582.797 5 124352462.681 5      1354.277          31.000
C25  25426855.711 6 132404297.262 6      3257.297          38.000
C26  24795838.938 6 129118426.442 6     -1351.746          36.000
C27  23867813.602 6 124285970.954 6      -506.699          39.000
C28  24422799.492 7 127175876.915 7     -2870.246          44.000
E03  24291879.992 5 127654714.035 5     -1474.664          35.000    24291883.992 8  97813402.368 8     -1129.952          49.000
E08  21837202.508 7 114755268.820 7       832.562          45.000    21837200.883 7  87929449.908 7       637.923          47.000
E15  25076129.352 7 131775974.783 7     -2751.387          46.000    25076132.875 8 100971193.237 8     -2108.143          51.000
> 2020 05 07 23 41  0.0000000  0 15        .000000000000
G04  20787912.180 8 109241285.128 8     -1613.547          51.000    20787912.453 8  85123055.451 8     -1257.309          51.000
G07  23576447.547 7 123895069.845 7      3287.117          43.000    23576447.953 7  96541608.453 7      2561.390          43.000
G09  20358242.984 8 106983382.438 8       664.035          51.000    20358243.641 8  83363654.265 8       517.433          51.000
G19  23810150.742 7 125123179.067 7     -2946.199          46.000    23810144.555 6  97498570.998 6     -2295.743          40.000
R07  19684325.703 5 105371794.950 5      -141.789          34.000    19684330.852 4  81955785.739 4      -110.286          29.000
R09  22451449.945 7 119889480.853 7      3733.734          46.000    22451451.961 7  93247387.987 7      2904.010          43.000
R22  20718945.938 8 110599200.045 8     -2735.039          50.000    20718947.273 7  86021548.940 7     -2127.253          45.000
C14                                                                  23102647.508 5  93024801.151 5     -1473.904          35.000
C25  25408101.477 6 132306628.218 6      3237.598          38.000
C26  24803673.375 5 129159228.722 5     -1384.539          34.000
C27  23870781.961 6 124301447.718 6      -541.027          36.000
C28  24439358.070 7 127262104.268 7     -2894.168          43.000
E03  24300316.047 5 127699022.080 5     -1496.707          34.000    24300319.258 8  97847368.810 8     -1146.827          49.000
E08  21832471.602 7 114730409.869 7       808.695          46.000    21832470.758 7  87910402.147 7       619.569          47.000
E15  25091862.367 8 131858650.293 8     -2776.426          48.000    25091867.227 8 101034542.010 8     -2127.325          51.000
> 2020 05 07 23 41 30.0000000  0 15        .000000000000
G04  20797084.297 8 109289484.423 8     -1606.023          51.000    20797084.547 8  85160613.336 8     -1251.447          51.000
G07  23557625.109 7 123796158.766 7      3300.789          42.000    23557625.609 6  96464534.872 6      2572.043          41.000
G09  20354420.000 8 106963292.884 8       668.980          51.000    20354420.906 8  83348000.063 8       521.283          51.000
G19  23826922.898 7 125211317.148 7     -2935.953          45.000    23826916.344 6  97567249.994 6     -2287.756          39.000
R09  22430427.344 7 119777227.150 7      3743.426          45.000    22430430.500 7  93160079.493 7      2911.553          44.000
R22  20734304.422 8 110681188.376 8     -2737.199          50.000    20734306.555 7  86085317.634 7     -2128.933          45.000
C14  23113602.984 6 120358587.395 6     -1892.039          36.000    23113570.945 5  93068784.724 5     -1463.111          35.000
C24  23865185.852 5 124272273.082 5      1325.906          35.000
C25  25389382.914 5 132209148.220 5      3254.266          33.000
C26  24811618.641 5 129200608.940 5     -1380.535          34.000
C27  23873868.836 6 124317547.394 6      -538.465          37.000
C28  24455977.578 6 127348652.763 6     -2881.820          40.000
E03  24308800.719 6 127743606.727 6     -1481.941          36.000    24308803.352 8  97881531.101 8     -1135.520          48.000
E08  21827802.711 8 114705873.128 8       820.969          48.000    21827801.820 7  87891601.246 7       629.003          47.000
E15  25107662.812 8 131941677.270 8     -2764.961          49.000    25107668.430 8 101098160.087 8     -2118.579          51.000
> 2020 05 07 23 42  0.0000000  0 17        .000000000000
G04  20806287.383 8 109337847.115 8     -1616.812          51.000    20806287.758 8  85198298.556 8     -1259.851          51.000
G07  23538797.422 6 123697221.195 6      3296.402          41.000    23538798.883 6  96387440.660 6      2568.628          41.000
G09  20350643.328 8 106943446.375 8       655.438          51.000    20350644.195 8  83332535.249 8       510.731          51.000
G19  23843709.195 7 125299531.109 7     -2943.707          44.000    23843703.758 7  97635988.131 7     -2293.798          42.000
R07  19685858.930 4 105379951.306 4      -142.309          29.000    19685856.938 4  81962170.645 4      -110.684          26.000
R08  21570749.500 5 115510400.301 5      2418.961          33.000
R09  22409425.773 8 119665080.500 8      3734.242          48.000    22409428.836 7  93072854.288 7      2904.411          45.000
R22  20749749.250 8 110763634.035 8     -2757.848          51.000    20749752.336 7  86149442.027 7     -2144.993          47.000
C14  23124502.641 6 120415437.993 6     -1896.688          36.000    23124488.570 6  93112745.336 6     -1466.585          38.000
C24  23857591.445 5 124232733.777 5      1311.207          35.000
C25  25370641.516 5 132111559.970 5      3252.703          31.000
C26  24819617.617 4 129242266.465 4     -1395.012          29.000
C27  23877018.820 6 124333969.778 6      -554.906          37.000
C28  24472600.500 6 127435220.427 6     -2887.883          38.000
E03  24317276.555 6 127788144.182 6     -1485.965          39.000    24317278.656 8  97915657.189 8     -1138.399          48.000
E08  21823137.648 8 114681356.017 8       814.871          48.000    21823136.156 7  87872815.390 7       624.385          46.000
E15  25123472.375 8 132024751.741 8     -2771.934          50.000    25123478.109 8 101161814.543 8     -2123.940          51.000
> 2020 05 07 23 42 30.0000000  0 17        .000000000000
G03  22607025.750 5 118800734.885 5     -2602.316          32.000
G04  20815573.336 8 109386645.239 8     -1632.004          51.000    20815573.703 8  85236323.074 8     -1271.691          50.000
G07  23520017.109 6 123598533.189 6      3287.199          41.000    23520020.312 6  96310540.929 6      2561.454          41.000
G09  20346964.922 8 106924116.214 8       637.539          51.000    20346965.516 8  83317472.808 8       496.784          51.000
G19  23860561.273 7 125388091.012 7     -2955.703          44.000    23860556.852 6  97704995.858 6     -2303.145          41.000
R07  19686714.664 6 105384527.887 6      -157.496          36.000
R09  22388498.242 8 119553323.456 8      3720.578          49.000    22388500.633 7  92985932.154 7      2893.783          47.000
R22  20765331.289 8 110846811.084 8     -2782.879          51.000    20765335.133 7  86214135.275 7     -2164.461          47.000
C14                                                                  23135452.695 6  93156892.276 6     -1473.218          40.000
C24  23850095.773 5 124193706.474 5      1292.910          31.000
C25  25351931.812 5 132014137.341 5      3246.324          34.000
C26  24827723.039 4 129284466.318 4     -1414.887          28.000
C27  23880284.367 6 124350985.250 6      -575.078          36.000
C28  24489278.641 6 127522075.863 6     -2897.938          38.000
E03  24325795.078 6 127832907.351 6     -1494.043          39.000    24325797.047 8  97949956.257 8     -1144.768          48.000
E08  21818527.977 8 114657131.887 8       804.594          48.000    21818526.492 7  87854254.079 7       616.363          46.000
E15  25139342.586 8 132108145.624 8     -2783.281          51.000    25139347.938 8 101225713.739 8     -2132.590          51.000
> 2020 05 07 23 43  0.0000000  0 17        .000000000000
G03  22621888.797 5 118878826.875 5     -2604.949          35.000    22621888.453 5  92632844.604 5     -2029.824          33.000
G04  20824904.805 8 109435682.251 8     -1638.934          51.000    20824905.094 8  85274533.729 8     -1277.091          50.000
G07  23501247.719 7 123499902.131 7      3286.336          42.000    23501252.477 6  96233685.570 6      2560.781          38.000
G09  20343347.477 8 106905107.099 8       627.820          51.000    20343347.914 8  83302660.524 8       489.211          51.000
G19  23877441.570 7 125476798.728 7     -2959.719          44.000    23877437.367 6  97774118.760 6     -2306.274          41.000
R07  19687612.422 6 105389320.215 6      -163.645          39.000    19687611.047 5  81969454.539 5      -127.279          30.000
R09  22367607.547 8 119441762.547 8      3714.965          49.000    22367609.586 8  92899162.577 8      2889.417          48.000
R22  20781012.164 8 110930517.731 8     -2799.445          51.000    20781016.289 7  86279240.427 7     -2177.346          47.000
C14  23146428.070 5 120529517.521 5     -1906.160          30.000    23146424.711 5  93201076.256 5     -1473.484          34.000
C24  23842681.602 6 124155062.724 6      1281.758          38.000
C25  25333217.555 5 131916689.367 5      3248.184          33.000
C26  24835894.289 5 129327022.802 5     -1425.000          31.000
C27  23883628.195 6 124368399.887 6      -587.852          36.000
C28  24505975.133 6 127609023.351 6     -2900.152          37.000
E03  24334319.305 6 127877700.622 6     -1494.199          38.000    24334321.453 8  97984278.373 8     -1144.855          48.000
E08  21813937.062 8 114633005.590 8       802.094          48.000    21813936.016 7  87835767.715 7       614.537          47.000
E15  25155235.914 8 132191662.204 8     -2786.430          51.000    25155240.430 8 101289706.957 8     -2134.988          51.000
> 2020 05 07 23 43 30.0000000  0 17        .000000000000
G03  22636784.336 5 118957104.064 5     -2614.418          32.000
G04  20834295.242 8 109485028.948 8     -1653.371          51.000    20834295.586 8  85312985.710 8     -1288.341          50.000
G07  23482503.648 7 123401402.899 7      3277.609          43.000    23482504.922 6  96156933.131 6      2553.987          37.000
G09  20339804.914 8 106886491.220 8       610.684          51.000    20339805.148 8  83288154.649 8       475.857          51.000
G19  23894363.352 7 125565723.583 7     -2971.293          44.000    23894358.516 6  97843410.825 6     -2315.296          38.000
R07  19688562.312 6 105394401.423 6      -177.414          36.000    19688563.445 5  81973406.622 5      -137.986          31.000
R09  22346767.898 8 119330475.872 8      3701.445          49.000    22346769.422 8  92812606.263 8      2878.902          49.000
R22  20796805.719 8 111014823.868 8     -2823.562          51.000    20796809.273 7  86344811.826 7     -2196.104          47.000
C14  23157423.641 5 120586776.128 5     -1913.801          30.000    23157420.961 6  93245352.481 6     -1480.056          41.000
C24  23835344.570 5 124116844.875 5      1263.352          35.000
C25  25314513.711 5 131819290.348 5      3242.387          32.000
C26  24844146.227 5 129370003.630 5     -1442.277          31.000
C27  23887062.555 6 124386284.702 6      -607.383          36.000
C28  24522703.195 6 127696132.273 6     -2909.816          36.000
E03  24342862.711 6 127922595.850 6     -1501.465          37.000    24342865.211 7  98018678.609 7     -1150.518          47.000
E08  21809378.477 8 114609049.349 8       792.402          48.000    21809377.961 7  87817411.646 7       607.127          47.000
E15  25171165.516 8 132275372.268 8     -2796.844          51.000    25171168.984 8 101353848.425 8     -2143.066          51.000
> 2020 05 07 23 44  0.0000000  0 16        .000000000000
G04  20843772.297 8 109534830.708 8     -1670.898          51.000    20843772.633 8  85351792.279 8     -1301.999          50.000
G07  23463813.398 7 123303185.385 7      3265.809          43.000    23463810.625 7  96080400.075 7      2544.789          42.000
G09  20336365.195 8 106868415.297 8       590.207          51.000    20336365.359 8  83274069.515 8       459.902          51.000
G19  23911353.859 7 125655008.827 7     -2985.676          44.000    23911347.672 6  97912983.668 6     -2326.501          38.000
R07  19689592.672 5 105399921.252 5      -195.141          34.000    19689592.914 4  81977699.802 4      -151.773          29.000
R09  22326007.906 8 119219617.546 8      3684.734          49.000    22326009.672 8  92726383.122 8      2865.905          48.000
R22  20812738.812 8 111099874.976 8     -2850.766          51.000    20812742.180 8  86410962.635 8     -2217.262          48.000
C14                                                                  23168468.695 7  93289833.211 7     -1488.738          43.000
C24  23828113.570 6 124079199.498 6      1241.742          37.000
C25  25295849.000 5 131722088.432 5      3233.258          32.000
C26  24852509.055 5 129413552.525 5     -1464.699          31.000
C27  23890614.484 5 124404784.483 5      -630.918          33.000
C28  24539492.000 5 127783545.672 5     -2921.512          33.000
E03                                                                  24351455.891 7  98053269.154 7     -1158.800          47.000
E08  21804879.891 8 114585409.905 8       779.320          48.000    21804879.625 7  87799298.322 7       597.052          46.000
E15  25187159.039 8 132359421.121 8     -2810.648          50.000    25187161.516 8 101418249.482 8     -2153.638          51.000
> 2020 05 07 23 44 30.0000000  0 15        .000000000000
G03  22666693.703 6 119114277.531 6     -2621.941          37.000
G04  20853268.586 8 109584733.405 8     -1668.559          51.000    20853268.750 8  85390677.492 8     -1300.176          51.000
G07  23445110.273 7 123204899.405 7      3273.902          44.000    23445107.758 7  96003813.619 7      2551.093          44.000
G09  20332961.000 8 106850526.463 8       589.719          51.000    20332961.461 8  83260130.178 8       459.521          51.000
G19  23928345.094 7 125744298.664 7     -2979.848          43.000    23928338.883 6  97982560.117 6     -2321.962          39.000
R07  19690637.203 5 105405519.937 5      -191.043          31.000    19690637.414 4  81982054.278 4      -148.586          26.000
R09  22305261.367 8 119108833.723 8      3687.996          48.000    22305263.531 7  92640217.923 7      2868.438          47.000
R22  20828743.688 8 111185309.129 8     -2857.605          51.000    20828747.078 7  86477411.407 7     -2222.582          47.000
C14  23179502.656 6 120701746.418 6     -1916.742          37.000    23179499.555 6  93334248.409 6     -1481.990          40.000
C24  23820927.531 6 124041779.075 6      1240.090          38.000
C25  25277154.453 5 131624736.592 5      3244.043          31.000
C26  24860915.164 5 129457318.754 5     -1465.902          32.000
E03  24360023.297 6 128012786.120 6     -1502.957          38.000    24360026.164 7  98087779.441 7     -1151.586          46.000
E08  21800374.375 8 114561734.531 8       786.461          48.000    21800374.000 7  87781157.464 7       602.574          46.000
E15  25203149.414 8 132443454.580 8     -2804.152          50.000    25203150.945 8 101482638.739 8     -2148.648          50.000
> 2020 05 07 23 45  0.0000000  0 16        .000000000000
G04  20862888.156 8 109635284.394 8     -1690.020          51.000    20862888.141 8  85430067.868 8     -1316.898          51.000
G07  23426499.109 7 123107096.308 7      3257.777          44.000    23426497.461 7  95927603.418 7      2538.528          44.000
G09  20329696.797 8 106833373.470 8       565.312          51.000    20329697.492 8  83246764.218 8       440.503          51.000
G19  23945440.953 7 125834139.148 7     -2997.926          43.000    23945436.750 6  98052565.669 6     -2336.046          38.000
R07  19691800.781 4 105411757.013 4      -213.289          29.000
R09  22284633.648 7 118998686.923 7      3666.730          46.000    22284636.148 7  92554548.183 7      2851.901          46.000
R22  20844924.484 8 111271680.407 8     -2888.785          51.000    20844927.070 7  86544589.096 7     -2246.833          47.000
C14  23190626.484 5 120759644.093 5     -1932.113          35.000    23190617.633 6  93379018.673 6     -1493.930          41.000
C24  23813888.352 6 124005128.888 6      1214.469          37.000
C25  25258534.742 5 131527781.604 5      3230.691          35.000
C26  24869466.422 6 129501845.155 6     -1491.352          36.000
C27  23897985.391 5 124443074.476 5      -660.012          33.000
C28  24573144.633 5 127958831.899 5     -2930.902          33.000
E03  24368678.141 6 128058268.647 6     -1517.664          41.000    24368680.602 7  98122629.694 7     -1162.909          45.000
E08  21795966.641 8 114538572.118 8       769.312          48.000    21795965.898 7  87763409.634 7       589.503          46.000
E15  25219241.070 8 132528019.984 8     -2822.020          50.000    25219242.297 8 101547435.596 8     -2162.279          50.000
> 2020 05 07 23 45 30.0000000  0 17        .000000000000
G03  22696814.328 5 119272570.055 5     -2636.457          31.000
G04  20872553.773 8 109686077.652 8     -1692.152          51.000    20872553.758 8  85469647.015 8     -1318.560          50.000
G07  23407903.531 7 123009374.325 7      3260.930          44.000    23407902.469 7  95851456.402 7      2540.984          44.000
G09  20326495.664 8 106816551.596 8       560.156          51.000    20326496.219 8  83233656.256 8       436.485          51.000
G19  23962564.117 7 125924122.255 7     -2997.090          45.000    23962561.844 6  98122682.415 6     -2335.392          38.000
R07  19693015.727 5 105418251.531 5      -214.172          31.000
R09  22264048.406 7 118888770.784 7      3665.031          45.000    22264051.922 7  92469057.877 7      2850.580          45.000
R22  20861202.758 8 111358574.037 8     -2899.961          51.000    20861205.125 7  86612173.059 7     -2255.525          46.000
C14  23201750.258 5 120817600.646 5     -1927.305          34.000    23201746.758 6  93423833.861 6     -1490.668          40.000
C24  23806920.891 6 123968849.913 6      1208.141          36.000
C25  25239915.164 5 131430825.080 5      3237.191          35.000
C26  24878086.820 6 129546729.693 6     -1497.047          36.000
C27  23901818.070 6 124463053.346 6      -667.766          38.000
C28  24590034.414 6 128046783.631 6     -2928.211          38.000
E03  24377340.586 6 128103789.888 6     -1513.168          41.000    24377342.453 7  98157509.611 7     -1159.357          45.000
E08  21791579.508 7 114515517.967 7       771.637          47.000    21791578.711 7  87745744.755 7       591.269          46.000
E15  25235357.039 8 132612711.213 8     -2820.117          51.000    25235358.820 8 101612328.874 8     -2160.878          51.000
> 2020 05 07 23 46  0.0000000  0 16        .000000000000
G04  20882263.852 8 109737104.432 8     -1699.742          51.000    20882264.023 8  85509408.117 8     -1324.474          51.000
G07  23389322.305 7 122911728.230 7      3258.305          42.000    23389321.883 7  95775368.538 7      2538.942          42.000
G09  20323356.109 8 106800053.338 8       549.594          51.000    20323356.523 8  83220800.485 8       428.255          51.000
G19  23979712.578 7 126014237.656 7     -3001.090          45.000    23979711.477 6  98192902.228 6     -2338.512          39.000
R07  19694258.727 6 105424931.733 6      -221.031          36.000    19694258.234 4  81997145.594 4      -171.913          27.000
R09  22243506.531 7 118779082.708 7      3657.512          45.000    22243510.898 7  92383744.936 7      2844.734          45.000
R22  20877576.266 8 111445979.199 8     -2916.840          51.000    20877578.633 7  86680154.853 7     -2268.653          46.000
C14  23212898.273 6 120875606.849 6     -1929.574          38.000    23212885.844 6  93468688.397 6     -1491.897          40.000
C24  23800023.141 5 123932936.391 5      1195.887          35.000
C25  25221294.000 5 131333862.394 5      3237.273          35.000
C26  24886775.078 6 129591964.197 6     -1508.734          37.000
C27  23905733.398 6 124483431.337 6      -680.410          36.000
C28  24606940.320 6 128134816.936 6     -2930.730          38.000
E03  24386009.094 6 128149342.078 6     -1513.914          39.000    24386010.414 7  98192413.250 7     -1159.994          45.000
E08  21787211.289 7 114492564.711 7       768.410          46.000    21787210.703 7  87728157.189 7       588.878          46.000
E15  25251495.906 8 132697519.462 8     -2823.770          51.000    25251498.383 8 101677311.814 8     -2163.695          51.000
> 2020 05 07 23 46 30.0000000  0 16        .000000000000
G04  20892042.227 8 109788489.947 8     -1722.887          51.000    20892042.406 8  85549448.764 8     -1342.512          51.000
G07  23370780.531 7 122814288.320 7      3240.523          42.000    23370780.500 7  95699441.348 7      2525.080          42.000
G09  20320302.375 8 106784005.271 8       523.223          51.000    20320302.758 8  83208295.515 8       407.706          51.000
G19  23996909.820 7 126104608.744 7     -3020.762          45.000    23996908.734 6  98263321.238 6     -2353.843          39.000
R07  19695569.586 5 105431958.859 5      -244.250          35.000    19695569.641 4  82002611.571 4      -189.978          26.000
R09  22223032.945 7 118669755.890 7      3633.949          46.000    22223037.273 7  92298713.010 7      2826.408          46.000
R22  20894069.023 8 111534020.664 8     -2949.418          51.000    20894071.352 7  86748631.518 7     -2293.992          47.000
C14  23224074.961 5 120933790.013 5     -1946.727          35.000    23224059.234 6  93513679.326 6     -1505.021          40.000
C24  23793220.539 6 123897515.621 6      1168.348          36.000
C25  25202695.828 5 131237021.773 5      3221.805          34.000
C26  24895554.617 6 129637673.097 6     -1535.754          37.000
C27  23909750.766 6 124504332.830 6      -709.262          36.000
C28  24623885.070 6 128223055.124 6     -2948.719          40.000
E03  24394707.328 6 128195051.649 6     -1530.406          41.000    24394708.352 7  98227437.440 7     -1172.559          45.000
E08  21782886.359 7 114469839.072 7       749.672          47.000    21782886.078 7  87710744.037 7       574.346          46.000
E15  25267681.305 8 132782569.948 8     -2843.168          51.000    25267684.039 8 101742480.366 8     -2178.531          51.000
> 2020 05 07 23 47  0.0000000  0 16        .000000000000
G04  20901857.602 8 109840069.864 8     -1728.074          51.000    20901857.594 8  85589640.902 8     -1346.551          51.000
G07  23352247.586 6 122716894.290 6      3240.074          41.000    23352247.211 7  95623549.875 7      2524.733          42.000
G09  20317303.367 8 106768244.360 8       515.039          51.000    20317303.656 8  83196014.278 8       401.329          51.000
G19  24014124.172 7 126195069.551 7     -3022.363          45.000    24014121.953 6  98333810.148 6     -2355.091          39.000
R07  19696915.086 5 105439166.891 5      -248.992          33.000    19696915.859 4  82008208.262 4      -193.658          26.000
R09  22202597.344 7 118560629.752 7      3628.492          47.000    22202601.297 7  92213837.111 7      2822.161          46.000
R22  20910649.633 8 111622529.529 8     -2963.715          51.000    20910651.781 7  86817471.730 7     -2305.112          47.000
C14  23235248.500 5 120991988.333 5     -1945.535          32.000    23235235.898 6  93558681.890 6     -1504.511          41.000
C24  23786479.617 5 123862427.683 5      1158.734          35.000
C25  25184089.305 5 131140144.413 5      3224.211          35.000
C26  24904393.406 6 129683693.862 6     -1544.656          37.000
C27  23913836.977 5 124525595.522 5      -719.906          33.000
C28  24640838.367 6 128311334.462 6     -2948.910          40.000
E03  24403404.344 7 128240755.226 7     -1528.984          43.000    24403405.047 7  98262457.042 7     -1171.541          44.000
E08  21778574.070 7 114447178.114 7       748.684          47.000    21778574.016 7  87693380.436 7       573.703          45.000
E15  25283881.562 8 132867698.230 8     -2844.438          51.000    25283884.141 8 101807708.531 8     -2179.519          51.000
> 2020 05 07 23 47 30.0000000  0 16        .000000000000
G03  22757408.094 5 119590974.458 5     -2668.680          35.000    22757407.109 5  93187778.581 5     -2079.494          35.000
G04  20911760.906 8 109892112.269 8     -1740.344          51.000    20911760.828 8  85630193.417 8     -1356.112          51.000
G07  23333774.828 6 122619818.030 6      3232.438          38.000    23333773.602 6  95547906.004 6      2518.782          37.000
G09  20314410.023 8 106753039.913 8       499.648          51.000    20314410.406 8  83184166.645 8       389.336          51.000
G19  24031406.250 7 126285886.730 7     -3030.984          45.000    24031403.297 7  98404576.745 7     -2361.809          42.000
R07  19698346.875 5 105446830.141 5      -260.562          32.000    19698348.000 4  82014168.606 4      -202.657          28.000
R09  22182251.281 7 118451982.908 7      3615.754          45.000    22182255.406 7  92129333.964 7      2812.253          46.000
R22  20927368.469 8 111711775.435 8     -2984.863          50.000    20927371.125 8  86886885.203 8     -2321.560          48.000
C14  23246477.336 5 121050468.674 5     -1951.914          33.000    23246466.891 7  93603902.580 7     -1509.338          42.000
C24  23779855.219 5 123827941.281 5      1141.227          35.000
C25  25165526.641 5 131043500.031 5      3219.723          35.000
C26  24913342.102 6 129730292.477 6     -1560.879          36.000
C28  24657850.578 6 128399919.652 6     -2955.688          41.000
E03  24412151.633 7 128286721.927 7     -1534.633          44.000    24412151.859 7  98297678.269 7     -1175.852          44.000
E08  21774325.508 7 114424851.277 7       740.844          47.000    21774325.492 7  87676272.880 7       567.645          45.000
E15  25300147.258 8 132953172.288 8     -2852.785          51.000    25300149.570 8 101873201.630 8     -2185.879          50.000
> 2020 05 07 23 48  0.0000000  0 15        .000000000000
G04  20921722.398 8 109944460.721 8     -1748.547          51.000    20921722.430 8  85670984.409 8     -1362.504          51.000
G07  23315334.758 5 122522907.398 5      3230.047          32.000    23315330.375 5  95472391.455 5      2516.926          34.000
G09  20311593.117 8 106738236.770 8       488.242          51.000    20311593.844 8  83172631.731 8       380.448          51.000
G19  24048725.781 7 126376901.794 7     -3035.535          44.000    24048723.039 7  98475497.573 7     -2365.349          42.000
R07  19699833.641 5 105454790.297 5      -268.352          34.000    19699838.445 4  82020359.958 4      -208.712          28.000
R09  22161966.289 7 118343662.698 7      3606.754          45.000    22161970.352 7  92045084.832 7      2805.253          44.000
R22  20944195.570 8 111801597.311 8     -3002.117          50.000    20944198.375 8  86956746.665 8     -2334.980          49.000
C14                                                                  23257722.875 6  93649222.536 6     -1511.201          40.000
C24  23773317.609 5 123793904.241 5      1128.609          35.000
C25  25146979.875 6 130946937.797 6      3218.633          36.000
C26  24922371.320 5 129777314.186 5     -1572.969          35.000
C28  24674891.227 6 128488654.862 6     -2958.699          39.000
E03  24420919.477 7 128332796.400 7     -1536.008          46.000    24420919.578 7  98332982.094 7     -1177.094          44.000
E08  21770111.047 8 114402703.561 8       736.797          48.000    21770110.492 7  87659302.571 7       564.610          45.000
E15  25316448.367 8 133038835.593 8     -2857.090          51.000    25316450.273 8 101938839.751 8     -2189.208          49.000
> 2020 05 07 23 48 30.0000000  0 14        .000000000000
G04  20931748.680 8 109997149.808 8     -1763.391          51.000    20931748.891 8  85712040.850 8     -1374.068          51.000
G09  20308859.664 8 106723870.814 8       470.125          51.000    20308860.367 8  83161437.483 8       366.331          51.000
G19  24066089.109 7 126468147.800 7     -3046.711          45.000    24066087.477 7  98546598.398 7     -2374.057          42.000
R07  19701381.469 5 105463084.581 5      -283.406          33.000    19701388.273 4  82026810.991 4      -220.430          27.000
R09  22141751.109 7 118235710.078 7      3590.715          46.000    22141753.977 7  91961121.663 7      2792.778          43.000
R22  20961136.656 8 111892028.359 8     -3025.973          49.000    20961139.188 8  87027081.911 8     -2353.534          48.000
C14                                                                  23269009.641 6  93694669.566 6     -1518.010          39.000
C24  23766875.539 6 123760354.088 6      1108.777          39.000
C25  25128457.758 6 130850496.063 6      3211.414          36.000
C26  24931488.820 5 129824793.682 5     -1592.039          35.000
C28  24691967.008 6 128577573.622 6     -2968.469          39.000
E03  24429714.844 7 128379014.378 7     -1544.488          45.000    24429715.133 7  98368395.869 7     -1183.463          44.000
E08  21765937.953 8 114380771.039 8       725.934          48.000    21765936.102 7  87642497.136 7       556.223          44.000
E15  25332791.586 8 133124722.692 8     -2868.125          51.000    25332792.938 8 102004649.345 8     -2197.702          49.000
> 2020 05 07 23 49  0.0000000  0 16        .000000000000
G04  20941887.633 8 110050430.984 8     -1782.824          51.000    20941888.148 8  85753558.658 8     -1389.211          51.000
G07  23278611.336 5 122329922.666 5      3204.309          35.000
G09  20306257.234 8 106710194.690 8       447.566          51.000    20306257.766 8  83150780.757 8       348.753          51.000
G19  24083544.148 7 126559874.160 7     -3062.457          47.000    24083543.406 6  98618073.548 6     -2386.327          40.000
R07  19703040.867 4 105471969.896 4      -302.523          28.000
R09  22121653.766 7 118128387.003 7      3570.043          47.000    22121655.367 7  91877648.278 7      2776.706          42.000
R22  20978237.953 7 111983321.245 7     -3054.289          46.000    20978241.078 7  87098087.542 7     -2375.555          47.000
C14                                                                  23280375.727 6  93740437.423 6     -1528.552          39.000
C24  23760575.938 5 123727542.828 5      1084.836          35.000
C25  25110008.547 5 130754427.996 5      3199.570          33.000
C26  24940742.844 5 129872980.318 5     -1615.090          35.000
C27  23931260.109 4 124616487.751 4      -796.676          28.000
C28  24709126.883 6 128666924.062 6     -2982.551          36.000
E03  24438585.383 7 128425628.290 7     -1557.273          44.000    24438586.586 7  98404113.044 7     -1193.328          44.000
E08  21761853.828 8 114359306.511 8       710.883          48.000    21761851.398 7  87626050.288 7       544.583          44.000
E15  25349225.188 8 133211084.895 8     -2883.570          51.000    25349225.891 8 102070822.970 8     -2209.507          48.000
> 2020 05 07 23 49 30.0000000  0 14        .000000000000
G04  20952008.406 8 110103616.318 8     -1786.012          51.000    20952009.133 8  85795001.779 8     -1391.697          50.000
G07  23260251.695 6 122233451.464 6      3204.387          39.000    23260249.125 6  95246833.220 6      2496.925          39.000
G09  20303655.258 8 106696521.770 8       440.902          51.000    20303655.930 8  83140126.522 8       343.560          51.000
G19  24100959.539 7 126651391.605 7     -3061.879          47.000    24100959.242 6  98689385.889 6     -2385.880          38.000
R09  22101544.266 8 118021000.472 8      3565.441          48.000    22101544.555 7  91794125.563 7      2773.127          43.000
R22  20995369.906 8 112074775.120 8     -3066.066          48.000    20995373.523 7  87169218.346 7     -2384.718          47.000
C14                                                                  23291692.281 6  93785999.971 6     -1526.854          40.000
C24  23754286.781 6 123694791.774 6      1075.664          36.000
C26  24950001.844 5 129921192.670 5     -1621.945          35.000
C27  23935815.016 5 124640059.052 5      -806.355          34.000
C28  24726239.438 5 128756023.749 5     -2980.512          35.000
E03  24447400.297 7 128471951.297 7     -1554.031          44.000    24447402.734 7  98439607.319 7     -1190.712          43.000
E08  21757727.672 7 114337623.459 7       711.566          46.000    21757726.117 7  87609436.016 7       545.217          44.000
E15  25365618.570 8 133297234.232 8     -2882.828          51.000    25365618.859 8 102136833.484 8     -2208.977          48.000
> 2020 05 07 23 50  0.0000000  0 16        .000000000000
G04  20962230.953 8 110157336.239 8     -1801.711          51.000    20962231.578 8  85836861.462 8     -1403.931          50.000
G07  23241972.031 6 122137390.843 6      3192.980          40.000    23241970.945 6  95171980.820 6      2488.037          40.000
G09  20301174.078 8 106683483.665 8       421.949          51.000    20301175.016 8  83129966.957 8       328.792          51.000
G19  24118454.891 7 126743328.833 7     -3073.828          46.000    24118454.625 6  98761025.319 6     -2395.191          40.000
R07  19706426.125 5 105490045.197 5      -321.336          33.000
R09  22081543.789 8 117914197.656 8      3548.223          48.000    22081543.617 7  91711056.710 7      2759.729          44.000
R22  21012651.961 8 112167028.157 8     -3090.531          49.000    21012656.008 7  87240970.671 7     -2403.750          47.000
C14  23303078.258 5 121345238.746 5     -1983.809          30.000    23303078.031 6  93831841.408 6     -1534.460          39.000
C24  23748130.398 5 123662728.620 5      1054.844          35.000
C25  25073056.539 5 130561973.219 5      3194.520          33.000
C26  24959385.891 5 129970055.863 5     -1641.625          34.000
C27  23940502.836 5 124664482.860 5      -826.961          31.000
C28  24743424.172 5 128845496.442 5     -2990.695          30.000
E03  24456279.898 7 128518614.965 7     -1563.289          44.000    24456283.586 7  98475362.617 7     -1197.908          42.000
E08  21753680.094 7 114316353.742 7       700.012          46.000    21753679.625 7  87593138.467 7       536.400          44.000
E15  25382091.602 8 133383801.042 8     -2894.684          51.000    25382091.984 8 102203163.877 8     -2217.983          49.000
> 2020 05 07 23 50 30.0000000  0 14        .000000000000
G04  20972513.062 8 110211368.745 8     -1803.793          51.000    20972513.516 8  85878964.705 8     -1405.553          49.000
G07  23223728.828 6 122041522.771 6      3194.992          39.000    23223725.078 6  95097278.481 6      2489.607          40.000
G09  20298771.820 8 106670859.605 8       416.324          51.000    20298772.633 8  83120130.031 8       324.408          51.000
G19  24135987.344 7 126835462.155 7     -3071.770          44.000    24135986.477 6  98832817.502 6     -2393.587          40.000
R07  19708228.875 4 105499691.604 4      -323.359          29.000
R09  22061610.523 7 117807758.939 7      3544.332          47.000    22061611.500 7  91628271.019 7      2756.703          46.000
R22  21030040.406 8 112259852.185 8     -3101.141          49.000    21030044.812 7  87313167.113 7     -2411.998          46.000
C14  23314491.789 5 121404664.136 5     -1980.914          34.000    23314489.711 6  93877792.793 6     -1531.699          37.000
C25  25054636.781 6 130466035.234 6      3198.715          38.000
C26  24968852.664 5 130019350.042 5     -1647.742          33.000
C27  23945283.938 5 124689375.565 5      -835.590          31.000
E03  24465182.398 7 128565398.349 7     -1559.102          44.000    24465186.445 6  98511209.632 6     -1194.543          40.000
E08  21749669.445 7 114295276.780 7       701.832          46.000    21749669.016 7  87576988.576 7       537.875          43.000
E15  25398601.812 8 133470563.181 8     -2892.902          50.000    25398602.656 8 102269643.942 8     -2216.616          49.000
> 2020 05 07 23 51  0.0000000  0 15        .000000000000
G03  22864997.602 5 120156377.904 5     -2709.113          33.000
G04  20982800.172 8 110265427.641 8     -1807.898          51.000    20982800.617 8  85921088.524 8     -1408.752          48.000
G07  23205468.438 6 121945564.790 6      3194.836          41.000    23205463.062 6  95022506.103 6      2489.486          41.000
G09  20296394.203 8 106658364.588 8       408.859          51.000    20296394.914 8  83110393.655 8       318.592          51.000
G19  24153501.828 7 126927503.439 7     -3072.070          42.000    24153500.102 7  98904537.973 7     -2393.821          42.000
R09  22041691.961 8 117701399.558 8      3538.352          48.000    22041694.703 7  91545547.029 7      2752.051          47.000
R22  21047481.578 8 112352954.053 8     -3113.574          51.000    21047485.344 7  87385579.663 7     -2421.669          46.000
C14  23325878.195 6 121463949.439 6     -1979.414          36.000    23325873.539 6  93923635.998 6     -1530.524          37.000
C25  25036182.266 6 130369926.741 6      3200.988          41.000
C26  24978347.945 5 130068791.907 5     -1656.523          34.000
C27  23950104.531 5 124714468.000 5      -845.402          35.000
C28  24777815.492 5 129024596.455 5     -2986.711          32.000
E03  24474053.789 7 128612016.269 7     -1556.586          44.000    24474056.844 6  98546929.878 6     -1192.766          36.000
E08  21745640.844 7 114274107.739 7       701.660          44.000    21745639.836 6  87560768.140 6       537.723          41.000
E15  25415094.586 8 133557234.343 8     -2893.020          48.000    25415096.320 8 102336054.293 8     -2216.690          49.000
> 2020 05 07 23 51 30.0000000  0 16        .000000000000
G04  20993224.297 8 110320206.333 8     -1835.285          51.000    20993224.500 7  85963773.218 7     -1430.092          47.000
G07  23187323.891 6 121850214.819 6      3170.945          41.000    23187319.609 6  94948207.447 6      2470.866          41.000
G09  20294173.188 8 106646693.236 8       377.977          51.000    20294174.086 8  83101299.111 8       294.527          51.000
G19  24171130.555 7 127020144.647 7     -3095.258          43.000    24171128.078 7  98976725.933 7     -2411.889          42.000
R07  19711961.711 5 105519682.042 5      -354.941          31.000
R09  22021921.820 8 117595830.404 8      3508.453          49.000    22021925.461 8  91463437.675 8      2728.797          48.000
R22  21065107.391 8 112447035.908 8     -3149.695          51.000    21065110.188 7  87458754.426 7     -2449.763          47.000
C14  23337368.812 6 121523783.371 6     -2001.012          37.000    23337364.914 6  93969903.393 6     -1547.454          41.000
C24  23730171.742 5 123569239.571 5      1005.973          32.000
C25  25017825.016 7 130274338.930 7      3180.285          43.000
C26  24988003.414 5 130119068.705 5     -1687.180          34.000
C27  23955093.570 6 124740448.118 6      -878.445          36.000
C28  24795105.625 5 129114642.621 5     -3008.023          35.000
E03  24483025.945 7 128659163.365 7     -1577.938          44.000    24483027.812 5  98583055.533 5     -1208.916          33.000
E08  21741726.414 7 114253541.460 7       678.180          44.000    21741725.820 7  87545009.611 7       519.515          42.000
E15  25431701.492 7 133644507.827 7     -2916.586          46.000    25431705.031 8 102402926.197 8     -2234.697          49.000
> 2020 05 07 23 52  0.0000000  0 17        .000000000000
G03  22896085.641 6 120319741.491 6     -2717.848          36.000    22896085.648 6  93755641.459 6     -2117.806          36.000
G04  21003648.969 8 110374988.282 8     -1823.895          51.000    21003648.977 7  86006460.438 7     -1421.217          45.000
G07  23169159.969 7 121754760.605 7      3185.648          44.000    23169157.117 7  94873827.524 7      2482.323          44.000
G09  20291972.773 8 106635130.208 8       385.824          51.000    20291973.734 8  83092288.971 8       300.642          51.000
G19  24188737.094 7 127112667.596 7     -3079.797          44.000    24188734.016 7  99048821.714 7     -2399.842          42.000
R09  22002165.000 8 117490329.591 8      3517.809          50.000    22002168.703 7  91381381.462 7      2736.073          47.000
R22  21082779.562 8 112541367.262 8     -3146.250          51.000    21082781.961 7  87532123.270 7     -2447.083          47.000
C14  23348828.102 6 121583457.332 6     -1984.445          36.000    23348825.398 7  94016047.012 7     -1534.309          42.000
C24  23724343.148 5 123538890.372 5      1010.945          34.000
C25  24999431.961 7 130178565.912 7      3197.734          45.000
C26  24997682.805 5 130169470.596 5     -1679.875          33.000
C27  23960116.805 6 124766606.371 6      -873.094          36.000
C28  24812366.891 6 129204532.404 6     -2991.434          38.000
E02  27758232.438 7 145870493.659 7      2914.234          43.000    27758233.625 8 111770900.056 8      2233.096          48.000
E03  24491962.203 7 128706124.063 7     -1559.922          43.000    24491963.766 4  98618989.363 4     -1196.070          28.000
E08  21737791.453 7 114232862.837 7       693.531          45.000    21737791.648 7  87529164.950 7       531.386          43.000
E15  25448286.570 7 133731666.944 7     -2901.238          46.000    25448292.031 8 102469710.507 8     -2222.961          50.000
> 2020 05 07 23 52 30.0000000  0 17        .000000000000
G03  22911682.273 6 120401699.748 6     -2728.000          36.000    22911680.328 5  93819506.643 5     -2125.711          33.000
G04  21014155.273 8 110430199.222 8     -1839.086          51.000    21014155.109 7  86049481.946 7     -1433.054          45.000
G07  23151058.305 7 121659631.856 7      3173.883          46.000    23151056.555 7  94799701.210 7      2473.155          46.000
G09  20289874.273 8 106624102.442 8       367.027          51.000    20289875.227 8  83083695.910 8       285.995          51.000
G19  24206402.070 7 127205496.206 7     -3090.867          46.000    24206398.531 7  99121155.660 7     -2408.468          42.000
R09  21982503.656 8 117385335.910 8      3499.754          51.000    21982507.102 7  91299719.697 7      2722.031          47.000
R22  21100578.359 8 112636378.537 8     -3169.898          51.000    21100580.602 7  87606020.924 7     -2465.477          46.000
C14  23360337.438 6 121643394.591 6     -1994.102          37.000    23360336.133 6  94062394.255 6     -1541.830          41.000
C24  23718628.977 5 123509138.650 5       989.977          33.000
C25  24981085.141 7 130083033.620 7      3188.516          46.000
C26  25007467.078 5 130220419.746 5     -1699.508          32.000
C27  23965255.719 5 124793365.193 5      -893.234          33.000
C28  24829679.766 6 129294686.241 6     -3001.125          40.000
E02  27741659.867 6 145783409.577 6      2908.957          41.000    27741662.828 8 111704173.263 8      2228.899          49.000
E03  24500944.078 7 128753325.243 7     -1569.070          44.000
E08  21733916.789 7 114212498.999 7       681.953          45.000    21733917.586 7  87513561.482 7       522.541          43.000
E15  25464931.977 7 133819137.384 7     -2912.559          47.000    25464937.922 8 102536733.341 8     -2231.677          49.000
> 2020 05 07 23 53  0.0000000  0 15        .000000000000
G04  21024746.836 8 110485858.366 8     -1865.266          51.000    21024746.406 7  86092852.720 7     -1453.454          44.000
G07  23133022.805 7 121564851.677 7      3151.016          47.000    23133021.836 7  94725846.525 7      2455.337          46.000
G09  20287881.406 8 106613630.285 8       337.320          51.000    20287882.469 8  83075535.800 8       262.847          51.000
G19  24224128.523 7 127298647.804 7     -3112.805          45.000    24224124.617 7  99193741.289 7     -2425.562          43.000
R09  21962942.055 8 117280874.858 8      3470.535          51.000    21962944.984 7  91218472.205 7      2699.305          46.000
R22  21118507.453 8 112732086.508 8     -3204.367          51.000    21118509.461 7  87680460.414 7     -2492.286          46.000
C14  23371902.102 6 121703615.559 6     -2014.297          37.000    23371900.133 6  94108960.987 6     -1557.661          38.000
C24  23713034.438 6 123480006.511 6       958.027          37.000
C25  24962788.828 7 129987765.201 7      3168.781          46.000
C26  25017359.219 5 130271935.277 5     -1728.594          32.000
C28  24847046.859 7 129385122.370 7     -3021.809          42.000
E02  27725113.602 6 145696475.145 6      2892.812          39.000    27725120.164 8 111637561.103 8      2216.526          48.000
E03  24509975.516 7 128800787.227 7     -1588.996          43.000    24509987.250 5  98691555.255 5     -1217.414          34.000
E08  21730105.367 7 114192470.586 7       659.695          43.000    21730106.523 7  87498215.018 7       505.379          42.000
E15  25481641.039 8 133906938.283 8     -2934.727          49.000    25481646.062 8 102604009.349 8     -2248.609          49.000
> 2020 05 07 23 53 30.0000000  0 16        .000000000000
G04  21035369.195 8 110541679.544 8     -1863.852          51.000    21035368.602 7  86136349.732 7     -1452.352          45.000
G07  23114999.688 7 121470137.769 7      3155.438          47.000    23114999.320 7  94652043.468 7      2458.782          47.000
G09  20285940.039 8 106603428.771 8       335.027          51.000    20285941.195 8  83067586.566 8       261.060          51.000
G19  24241861.555 7 127391834.681 7     -3107.238          44.000    24241857.672 7  99266354.403 7     -2421.225          43.000
R09  21943426.656 8 117176661.993 8      3469.133          50.000    21943428.500 7  91137417.781 7      2698.217          45.000
R22  21136511.672 8 112828198.009 8     -3210.863          48.000    21136514.828 7  87755213.790 7     -2497.341          46.000
C14  23383467.312 5 121763838.179 5     -2007.672          35.000    23383464.281 6  94155528.894 6     -1552.477          39.000
C24  23707506.453 6 123451213.244 6       953.551          38.000
C25  24944489.602 7 129892481.162 7      3175.930          44.000
C26  25027305.852 5 130323733.887 5     -1731.305          31.000
C27  23975834.297 4 124848458.103 4      -928.945          28.000
C28  24864413.648 6 129475556.263 6     -3014.465          41.000
E02  27708542.852 6 145609407.880 6      2904.117          38.000    27708551.945 8 111570847.154 8      2225.203          48.000
E03  24519002.391 7 128848224.871 7     -1581.395          43.000    24519011.930 6  98727903.561 6     -1211.457          37.000
E08  21726303.172 7 114172492.786 7       664.703          43.000    21726304.352 7  87482907.324 7       509.405          42.000
E15  25498358.578 8 133994783.255 8     -2929.312          49.000    25498361.906 8 102671319.111 8     -2244.523          48.000
> 2020 05 07 23 54  0.0000000  0 16        .000000000000
G04  21046047.242 8 110597792.782 8     -1876.121          50.000    21046046.914 7  86180074.331 7     -1461.913          45.000
G07  23097014.461 8 121375624.632 8      3146.164          48.000    23097014.586 8  94578396.848 8      2451.556          48.000
G09  20284075.125 8 106593629.043 8       319.059          51.000    20284076.188 8  83059950.417 8       248.617          51.000
G19  24259625.547 7 127485185.152 7     -3115.355          43.000    24259621.828 7  99339095.034 7     -2427.547          42.000
R09  21923983.336 8 117072835.465 8      3453.566          50.000    21923983.969 7  91056663.878 7      2686.107          44.000
R22  21154616.281 8 112924842.652 8     -3231.234          51.000    21154620.227 7  87830381.886 7     -2513.182          46.000
C14  23395057.312 6 121824192.796 6     -2014.953          37.000    23395054.312 6  94202198.820 6     -1558.274          37.000
C24  23702065.656 4 123422890.244 4       934.727          29.000
C25  24926212.938 7 129797314.401 7      3169.488          43.000
C26  25037332.680 5 130375944.488 5     -1747.957          33.000
C27  23981246.562 4 124876640.270 4      -947.602          29.000
C28  24881804.070 6 129566116.003 6     -3021.668          39.000
E02  27691974.125 6 145522341.560 6      2901.477          40.000    27691983.758 8 111504133.938 8      2223.185          48.000
E03  24528049.703 7 128895769.348 7     -1587.297          43.000    24528056.047 6  98764333.741 6     -1216.435          37.000
E08  21722536.023 7 114152697.022 7       656.102          42.000    21722537.383 7  87467739.158 7       502.530          42.000
E15  25515108.922 8 134082802.184 8     -2937.605          49.000    25515110.742 7 102738762.147 7     -2250.907          47.000
> 2020 05 07 23 54 30.0000000  0 16        .000000000000
G04  21056785.211 8 110654221.240 8     -1886.020          49.000    21056785.430 7  86224044.570 7     -1469.626          46.000
G07  23079072.398 8 121281339.509 8      3139.344          48.000    23079072.805 8  94504927.911 8      2446.239          48.000
G09  20282291.289 8 106584255.412 8       305.637          51.000    20282292.203 8  83052646.294 8       238.158          51.000
G19  24277424.414 7 127578720.698 7     -3120.586          42.000    24277420.758 7  99411979.889 7     -2431.625          42.000
R09  21904618.234 8 116969424.804 8      3440.277          50.000    21904617.906 7  90976233.377 7      2675.771          44.000
R22  21172825.961 8 113022041.735 8     -3248.867          51.000    21172828.453 7  87905981.120 7     -2526.900          45.000
C14  23406677.844 5 121884703.751 5     -2019.762          34.000    23406674.242 6  94248989.695 6     -1561.630          36.000
C24  23696723.016 5 123395046.455 5       919.902          31.000
C25  24907964.219 7 129702292.101 7      3165.512          42.000
C26  25047443.719 5 130428590.326 5     -1762.219          31.000
C27  23986751.359 4 124905312.126 4      -963.887          28.000
C28  24899222.500 6 129656823.605 6     -3025.730          38.000
E02  27675411.750 7 145435303.162 7      2901.082          42.000    27675420.742 7 111437442.155 7      2222.889          47.000
E03  24537121.938 7 128943444.998 7     -1590.965          44.000    24537125.188 6  98800864.434 6     -1219.302          36.000
E08  21718808.469 7 114133107.943 7       649.820          42.000    21718809.586 6  87452729.364 6       497.986          41.000
E15  25531896.398 7 134171018.157 7     -2943.535          47.000    25531897.633 7 102806356.168 7     -2255.487          47.000
> 2020 05 07 23 55  0.0000000  0 16        .000000000000
G03  22990248.633 6 120814575.443 6     -2767.543          37.000    22990253.055 6  94141233.982 6     -2156.530          36.000
G04  21067578.695 8 110710941.432 8     -1896.094          49.000    21067579.023 7  86268242.134 7     -1477.476          45.000
G07  23061170.070 8 121187262.774 8      3131.715          48.000    23061170.367 8  94431621.358 8      2440.297          48.000
G09  20280584.484 8 106575285.595 8       291.629          51.000    20280585.273 8  83045656.829 8       227.243          51.000
G19  24295253.781 7 127672416.202 7     -3126.566          43.000    24295249.648 6  99484989.365 6     -2436.286          41.000
R09  21885327.523 8 116866412.689 8      3426.379          50.000    21885326.992 7  90896112.846 7      2664.961          43.000
R22  21191134.352 8 113119768.655 8     -3267.004          51.000    21191135.125 7  87981990.872 7     -2541.006          45.000
C14  23418323.086 5 121945349.284 5     -2024.086          31.000    23418319.398 5  94295884.619 5     -1565.342          35.000
C24  23691475.531 5 123367721.620 5       903.031          30.000
C25  24889739.461 7 129607394.994 7      3160.496          42.000
C26  25057633.172 5 130481648.165 5     -1776.434          32.000
C28  24916664.727 6 129747654.962 6     -3030.426          36.000
E02  27658851.398 7 145348272.885 7      2900.316          43.000    27658858.781 7 111370756.640 7      2222.296          45.000
E03  24546214.820 7 128991229.361 7     -1595.371          44.000    24546216.688 6  98837478.417 6     -1222.218          36.000
E08  21715115.508 6 114113703.437 6       642.906          40.000    21715116.508 6  87437861.008 6       492.862          41.000
E15  25548716.180 7 134259407.502 7     -2949.895          45.000    25548718.516 8 102874083.057 8     -2260.279          48.000
> 2020 05 07 23 55 30.0000000  0 16        .000000000000
G04  21078431.656 8 110767973.634 8     -1904.559          49.000    21078431.625 7  86312682.805 7     -1484.072          45.000
G07  23043312.266 8 121093418.574 8      3125.941          49.000    23043312.047 8  94358496.017 8      2435.798          49.000
G09  20278958.547 8 106566740.892 8       279.457          51.000    20278959.312 8  83038998.621 8       217.762          51.000
G19  24313117.367 7 127766290.301 7     -3130.277          43.000    24313112.633 6  99558137.981 6     -2439.177          40.000
R08  21218799.352 4 113625678.044 4      2236.906          29.000    21218794.688 4  88375529.916 4      1739.816          24.000
R09  21866116.125 8 116763825.542 8      3414.211          49.000    21866115.711 7  90816322.819 7      2655.497          44.000
R22  21209543.406 8 113218041.420 8     -3283.066          50.000    21209545.148 7  88058425.244 7     -2553.493          47.000
C14                                                                  23429995.117 5  94342900.130 5     -1567.764          33.000
C25  24871543.227 6 129512647.120 6      3157.738          41.000
C26  25067904.820 4 130535159.143 4     -1787.664          28.000
C27  23998040.203 5 124964083.697 5      -993.766          31.000
C28  24934134.852 6 129838629.177 6     -3033.059          38.000
E02  27642297.195 7 145261274.720 7      2901.109          44.000    27642301.906 7 111304095.756 7      2222.916          43.000
E03  24555332.461 7 129039143.823 7     -1597.629          45.000    24555334.188 5  98874192.085 5     -1224.172          35.000
E08  21711461.500 6 114094505.091 6       638.203          40.000    21711461.797 6  87423150.615 6       489.037          40.000
E15  25565572.180 7 134347990.282 7     -2954.312          43.000    25565576.828 8 102941958.200 8     -2263.652          49.000
> 2020 05 07 23 56  0.0000000  0 17        .000000000000
G04  21089294.789 8 110825059.328 8     -1917.098          49.000    21089294.625 7  86357165.158 7     -1493.842          45.000
G07  23025450.391 8 120999552.722 8      3115.840          50.000    23025449.484 8  94285353.833 8      2427.927          50.000
G09  20277364.500 8 106558363.986 8       263.105          51.000    20277365.273 8  83032471.153 8       205.017          51.000
G19  24330965.703 7 127860082.805 7     -3138.453          43.000    24330960.633 6  99631223.017 6     -2445.545          40.000
R06  22038092.359 5 117599482.923 5     -2776.809          32.000
R09  21846936.070 8 116661406.925 8      3397.496          49.000    21846936.641 7  90736663.933 7      2642.497          45.000
R22  21228005.195 8 113316594.774 8     -3303.359          51.000    21228008.453 8  88135077.879 8     -2569.280          48.000
C14                                                                  23441652.656 6  94389839.479 6     -1573.591          37.000
C24  23681205.445 5 123314247.223 5       869.027          34.000
C25  24853327.336 6 129417796.548 6      3149.891          41.000
C26  25078209.031 4 130588825.304 4     -1804.445          29.000
C27  24003781.562 5 124993940.952 5     -1011.848          30.000
C28  24951583.859 6 129929489.323 6     -3040.008          36.000
E02  27625700.664 7 145174054.002 7      2897.539          45.000    27625702.727 7 111237264.360 7      2220.195          42.000
E03  24564426.195 7 129086931.004 7     -1604.246          45.000    24564427.500 5  98910808.236 5     -1229.078          33.000
E08  21707798.430 6 114075255.917 6       628.922          40.000    21707797.820 7  87408401.230 7       481.880          42.000
E15  25582415.594 7 134436507.942 7     -2962.898          43.000    25582422.578 8 103009783.448 8     -2270.234          49.000
> 2020 05 07 23 56 30.0000000  0 16        .000000000000
G04  21100307.289 8 110882930.216 8     -1913.078          49.000    21100307.344 7  86402259.366 7     -1490.707          45.000
G07  23007724.195 8 120906401.050 8      3122.223          49.000    23007722.812 8  94212768.160 8      2432.904          49.000
G09  20275941.828 8 106550887.666 8       263.348          51.000    20275942.492 8  83026645.440 8       205.206          51.000
G19  24348937.445 6 127954523.185 6     -3129.750          40.000    24348932.469 6  99704812.926 6     -2438.763          36.000
R09  21827927.922 8 116559906.269 8      3397.508          49.000    21827929.570 7  90657718.989 7      2642.506          46.000
R22  21246659.281 8 113416169.862 8     -3306.680          51.000    21246662.516 7  88212525.150 7     -2571.862          47.000
C14                                                                  23453431.820 6  94437264.239 6     -1566.611          40.000
C24  23676281.320 5 123288612.432 5       867.223          30.000
C25  24835231.078 6 129323572.457 6      3158.969          39.000
C26  25088685.711 5 130643372.690 5     -1804.113          30.000
C27  24009695.992 5 125024808.389 5     -1014.445          32.000
C28  24969150.148 6 130020959.510 6     -3030.402          36.000
E02  27609201.680 7 145087346.138 7      2910.812          45.000    27609202.141 7 111170825.911 7      2230.390          43.000
E03  24573635.578 7 129135323.701 7     -1594.043          45.000    24573635.898 5  98947849.399 5     -1221.859          31.000
E08  21704265.555 6 114056688.922 6       636.617          41.000    21704265.125 7  87394174.575 7       487.762          44.000
E15  25599386.242 7 134525692.009 7     -2954.727          43.000    25599394.406 8 103078119.356 8     -2264.074          48.000
> 2020 05 07 23 57  0.0000000  0 19        .000000000000
G04  21111287.500 8 110940631.481 8     -1938.918          50.000    21111287.656 7  86447221.393 7     -1510.845          46.000
G07  22989952.492 8 120813012.290 8      3098.391          49.000    22989951.156 8  94139997.708 8      2414.330          49.000
G09  20274509.117 8 106543358.196 8       233.434          51.000    20274509.648 8  83020778.324 8       181.896          51.000
G19  24366849.844 5 128048655.426 5     -3151.465          35.000    24366846.125 5  99778162.760 5     -2455.684          34.000
R06  22069344.922 5 117766246.759 5     -2787.348          33.000
R09  21808911.523 8 116458359.632 8      3367.012          50.000    21808913.375 7  90578738.263 7      2618.787          47.000
R22  21265322.602 8 113515793.838 8     -3340.285          51.000    21265324.867 7  88290010.467 7     -2598.000          47.000
C14  23465159.875 5 122189247.931 5     -2047.086          32.000    23465150.398 6  94484443.983 6     -1582.819          38.000
C24  23671363.930 5 123262995.810 5       834.668          33.000
C25  24817072.539 6 129229032.728 6      3137.938          38.000
C26  25099156.664 6 130697895.288 6     -1834.691          38.000
C27  24015613.031 5 125055633.854 5     -1046.102          33.000
C28  24986651.828 5 130112092.791 5     -3050.383          33.000
E02  27592619.195 7 145000200.104 7      2893.762          46.000    27592618.695 7 111104051.699 7      2217.358          43.000
E03  24582778.570 7 129183368.235 7     -1614.062          43.000
E07  26951055.781 6 141628755.401 6      2217.621          40.000
E08  21700681.336 7 114037850.708 7       614.168          43.000    21700681.406 7  87379740.105 7       470.488          44.000
E13  24245023.547 6 127408462.047 6      -727.402          40.000    24245025.438 6  97624670.752 6      -557.178          41.000
E15  25616302.508 7 134614587.520 7     -2976.820          42.000    25616310.773 7 103146234.134 7     -2280.910          46.000
> 2020 05 07 23 57 30.0000000  0 19        .000000000000
G04  21122392.461 8 110998988.000 8     -1953.578          50.000    21122392.250 7  86492693.987 7     -1522.269          47.000
G07  22972293.305 8 120720216.036 8      3085.715          50.000    22972292.398 8  94067688.933 8      2404.453          50.000
G09  20273223.391 8 106536601.526 8       214.828          51.000    20273224.078 8  83015513.389 8       167.399          51.000
G19  24384859.719 4 128143303.316 4     -3161.148          29.000    24384857.234 5  99851914.417 5     -2463.226          30.000
R07  19739300.289 5 105666045.530 5      -477.297          33.000    19739309.117 5  82184709.469 5      -371.231          30.000
R09  21790044.234 8 116357611.249 8      3347.410          48.000    21790046.438 7  90500378.379 7      2603.538          47.000
R22  21284151.516 8 113616301.882 8     -3362.414          51.000    21284153.102 7  88368183.400 7     -2615.208          46.000
C14  23476968.578 5 122250763.770 5     -2056.641          31.000    23476963.891 6  94532011.963 6     -1590.041          38.000
C24  23666612.305 4 123238239.697 4       813.738          29.000
C25  24799013.109 6 129134998.717 6      3128.555          41.000
C26  25109777.883 6 130753190.599 6     -1853.539          40.000
C27  24021686.664 4 125087288.357 4     -1066.344          29.000
C28  25004245.398 5 130203705.560 5     -3059.602          32.000
E02  27576110.531 7 144913444.518 7      2887.922          45.000    27576109.727 7 111037576.632 7      2212.784          43.000
E03  24592012.297 7 129231890.574 7     -1622.727          43.000
E07  26938413.344 6 141562319.867 6      2209.316          39.000    26938421.781 5 108469853.808 5      1692.763          34.000
E08  21697203.086 7 114019567.564 7       602.715          44.000    21697203.023 7  87365730.926 7       461.770          45.000
E13  24249223.781 6 127430543.426 6      -747.062          37.000    24249224.352 6  97641590.228 6      -572.335          40.000
E15  25633321.125 7 134704019.146 7     -2987.453          42.000    25633328.766 7 103214759.701 7     -2289.046          43.000
> 2020 05 07 23 58  0.0000000  0 17        .000000000000
G04  21133528.203 8 111057506.400 8     -1952.246          51.000    21133527.773 7  86538292.728 7     -1521.231          47.000
G07  22954653.984 8 120627522.637 8      3089.012          50.000    22954653.297 8  93995460.316 8      2407.022          50.000
G09  20271991.117 8 106530125.439 8       212.277          51.000    20271991.711 8  83010467.079 8       165.411          51.000
G19  24402873.977 5 128237968.680 5     -3154.555          31.000    24402872.461 5  99925681.197 5     -2458.095          32.000
R07  19741959.320 5 105680323.329 5      -475.969          34.000    19741968.953 5  82195800.610 5      -370.207          30.000
R09  21771233.383 7 116257166.108 7      3344.086          46.000    21771236.016 7  90422254.342 7      2600.956          45.000
R22  21303051.805 8 113717190.445 8     -3368.184          51.000    21303052.617 7  88446652.299 7     -2619.695          46.000
C14  23488780.266 5 122312294.184 5     -2050.359          34.000    23488780.156 6  94579591.141 6     -1585.278          39.000
C25  24780959.484 7 129040985.739 7      3134.418          43.000
C26  25120453.664 6 130808769.801 6     -1856.297          40.000
C27  24027828.602 6 125119187.261 6     -1070.809          36.000
E02  27559582.500 7 144826589.779 7      2897.809          45.000    27559581.930 7 110971025.593 7      2220.477          43.000
E03  24601243.211 6 129280398.480 6     -1615.559          41.000
E07  26925762.922 6 141495847.628 6      2217.531          38.000    26925772.461 5 108418920.535 5      1698.860          35.000
E08  21693736.711 7 114001347.543 7       607.398          43.000    21693735.805 7  87351770.103 7       465.430          44.000
E13  24253484.203 5 127452939.597 5      -751.090          33.000    24253485.836 6  97658750.866 6      -575.088          40.000
E15  25650347.906 7 134793493.376 7     -2982.031          43.000    25650354.430 6 103283317.932 6     -2285.029          38.000
> 2020 05 07 23 58 30.0000000  0 19        .000000000000
G04  21144708.992 8 111116261.866 8     -1964.094          51.000    21144708.734 7  86584076.204 7     -1530.463          47.000
G07  22937049.695 8 120535011.212 8      3079.055          51.000    22937049.055 8  93923373.496 8      2399.263          51.000
G09  20270826.656 8 106524006.145 8       196.465          51.000    20270827.055 8  83005698.798 8       153.089          51.000
G19  24420906.297 5 128332729.316 5     -3161.355          35.000    24420904.445 6  99999520.658 6     -2463.388          36.000
R07  19744666.281 5 105694812.808 5      -488.492          35.000    19744669.328 4  82207070.121 4      -379.941          29.000
R09  21752495.086 8 116157106.236 8      3327.188          48.000    21752497.305 7  90344429.971 7      2587.812          42.000
R22  21322036.359 8 113818533.388 8     -3387.250          49.000    21322037.375 7  88525474.604 7     -2634.525          46.000
C14  23500614.336 5 122373914.932 5     -2056.980          35.000    23500614.484 6  94627240.173 6     -1590.573          39.000
C24  23657324.109 4 123189941.702 4       789.781          29.000
C25  24762925.438 7 128947072.281 7      3127.254          43.000
C26  25131197.914 6 130864707.417 6     -1872.094          38.000
C27  24034060.344 6 125151597.189 6     -1088.691          38.000
C28  25039434.438 5 130386891.923 5     -3058.410          32.000
E02  27543050.398 7 144739714.821 7      2894.562          45.000    27543049.703 7 110904459.043 7      2217.980          43.000
E03  24610485.641 6 129328968.269 6     -1621.637          40.000    24610491.930 5  99096249.932 5     -1242.541          33.000
E07  26913120.805 6 141429415.681 6      2211.863          37.000    26913128.906 6 108368018.060 6      1695.056          37.000
E08  21690296.320 7 113983267.155 7       598.539          42.000    21690294.914 7  87337916.283 7       458.830          44.000
E13  24257819.070 5 127475699.800 5      -767.129          32.000    24257823.523 6  97676211.226 6      -588.261          39.000
E15  25667396.844 7 134883085.226 7     -2989.852          42.000    25667404.805 5 103351966.370 5     -2290.880          33.000
> 2020 05 07 23 59  0.0000000  0 19        .000000000000
G04  21155949.836 8 111175333.186 8     -1976.629          51.000    21155949.914 7  86630105.798 7     -1540.230          47.000
G07  22919496.180 8 120442764.712 8      3068.035          51.000    22919495.078 8  93851493.118 8      2390.680          51.000
G09  20269745.219 8 106518323.497 8       179.805          51.000    20269745.719 8  83001270.756 8       140.108          51.000
G19  24438971.555 6 128427660.472 6     -3169.457          38.000    24438968.828 5 100073492.831 5     -2469.725          33.000
R07  19747438.289 6 105709639.196 6      -502.375          39.000    19747439.344 5  82218601.683 5      -390.739          30.000
R09  21733845.500 8 116057517.839 8      3309.328          49.000    21733846.438 6  90266972.397 6      2573.925          41.000
R22  21341119.891 8 113920407.771 8     -3407.035          50.000    21341121.797 7  88604710.264 7     -2649.916          47.000
C14  23512479.742 5 122435705.734 5     -2064.719          33.000    23512479.859 6  94675020.713 6     -1596.786          36.000
C24  23652827.211 5 123166457.648 5       770.129          31.000
C25  24744926.523 7 128853340.563 7      3118.836          44.000
C26  25142025.188 4 130921081.425 4     -1888.762          28.000
C27  24040382.305 5 125184500.550 5     -1107.168          32.000
C28  25057069.055 6 130478698.454 6     -3065.055          36.000
E02  27526529.922 7 144652902.184 7      2890.242          45.000    27526529.141 7 110837940.271 7      2214.523          43.000
E03  24619755.000 7 129377679.859 7     -1628.312          42.000    24619760.391 6  99133574.401 6     -1247.881          36.000
E07  26900502.359 6 141363104.446 6      2206.152          39.000    26900510.688 6 108317208.157 6      1690.324          38.000
E08  21686897.062 6 113965406.559 6       589.238          41.000    21686896.383 7  87324230.917 7       451.503          44.000
E13  24262245.023 5 127498957.114 5      -785.348          35.000    24262251.172 6  97694032.568 6      -601.808          38.000
E15  25684482.984 7 134972873.265 7     -2998.543          42.000    25684499.266 6 103420765.194 6     -2297.621          37.000
> 2020 05 07 23 59 30.0000000  0 16        .000000000000
G04  21167248.234 8 111234707.022 8     -1982.496          51.000    21167248.477 7  86676371.119 7     -1544.802          47.000
G07  22901991.477 8 120350773.710 8      3063.746          51.000    22901989.234 8  93779811.852 8      2387.335          51.000
G09  20268744.477 8 106513065.208 8       169.895          51.000    20268745.148 8  82997173.392 8       132.385          51.000
G19  24457066.734 6 128522747.532 6     -3170.461          41.000    24457063.609 5 100147586.692 5     -2470.492          32.000
R07  19750271.477 6 105724790.039 6      -508.781          40.000    19750270.344 5  82230385.659 5      -395.716          31.000
R09  21715283.406 8 115958393.747 8      3297.910          49.000    21715284.367 7  90189875.959 7      2565.041          44.000
R22  21360301.281 8 114022797.844 8     -3419.793          51.000    21360303.180 7  88684346.976 7     -2659.839          47.000
C14                                                                  23524375.172 6  94722923.591 6     -1597.611          36.000
C25  24726960.555 7 128759781.404 7      3117.457          44.000
C28  25074726.469 6 130570631.569 6     -3064.605          38.000
E02  27510019.289 7 144566142.272 7      2892.750          45.000    27510018.922 7 110771461.889 7      2216.621          42.000
E03  24629048.836 6 129426521.008 6     -1628.688          41.000    24629054.547 6  99170998.154 6     -1247.940          37.000
E07  26887904.930 6 141296902.336 6      2206.707          40.000    26887913.789 6 108266481.862 6      1690.752          38.000
E08  21683537.578 7 113947753.892 7       586.633          42.000    21683537.547 7  87310704.869 7       449.540          44.000
E13  24266759.445 6 127522674.472 6      -796.629          39.000    24266765.297 6  97712205.597 6      -610.545          39.000
E15  25701603.867 7 135062844.009 7     -3000.500          42.000    25701623.148 6 103489703.883 6     -2298.872          38.000
