     3.02           OBSERVATION DATA    M (MIXED)           RINEX VERSION / TYPE
SAVERINEX           SC600               20200505 235931 LCL PGM / RUN BY / DATE
       G = GPS       R = GLONASS       C = COMPASS          COMMENT
       S = SBAS      J = QZSS          E = GALILEO          COMMENT
BEAN                                                        MARKER NAME
1                                                           MARKER NUMBER
GEODETIC                                                    MARKER TYPE
Unige DICCA         GTER                                    OBSERVER / AGENCY
SC60291900056       SC600               2.12(191226)        REC # / TYPE / VERS
                    HEMA45          NONE                    ANT # / TYPE
  4509407.8091   693652.4678  4442337.6214                  APPROX POSITION XYZ
        0.0000        0.0000        0.0000                  ANTENNA: DELTA H/E/N
G    8 C1C L1C D1C S1C C2Y L2Y D2Y S2Y                      SYS / # / OBS TYPES
R    8 C1C L1C D1C S1C C2P L2P D2P S2P                      SYS / # / OBS TYPES
C    4 C1I L1I D1I S1I                                      SYS / # / OBS TYPES
E    8 C1C L1C D1C S1C C7Q L7Q D7Q S7Q                      SYS / # / OBS TYPES
DBHZ                                                        COMMENT
     30.000                                                 INTERVAL
  2020    05    05    21    00    0.0000000     GPS         TIME OF FIRST OBS
  2020    05    05    21    59   30.0000000     GPS         TIME OF LAST OBS
     0                                                      RCV CLOCK OFFS APPL
G L1C  0.00000                                              SYS / PHASE SHIFT
G L2Y  0.00000                                              SYS / PHASE SHIFT
R L1C  0.00000                                              SYS / PHASE SHIFT
R L2P  0.25000                                              SYS / PHASE SHIFT
C L1I  0.00000                                              SYS / PHASE SHIFT
E L1C  0.50000                                              SYS / PHASE SHIFT
E L7Q -0.25000                                              SYS / PHASE SHIFT
 12 R02 -4 R03  5 R04  6 R05  1 R10 -5 R12 -1 R13 -2 R14 -7 GLONASS SLOT / FRQ #
    R15  0 R17  4 R18 -3 R19  3                             GLONASS SLOT / FRQ #
 C1C   71.950 C2C   71.950 C2P   71.950                     GLONASS COD/PHS/BIS
    18                                                      LEAP SECONDS
*** Above antenna height is from mark to ANTENNA BOTTOM.    COMMENT
    17     4        0.0000        ANT MEASURE TYPE/HEIGT    COMMENT
    0.0000    0.0000    0.0458    0.0405    0.0000          COMMENT
                    BASE STATION                            COMMENT
                                                            END OF HEADER
> 2020 05 05 21 00  0.0000000  0 15        .000000000000
G01  20510667.086 8 107784283.585 8     -1092.777          51.000    20510669.359 8  83987759.061 8      -851.515          51.000
G03  20413887.828 7 107275714.005 7       641.398          44.000    20413890.195 7  83591473.864 7       499.794          44.000
G04  22629812.461 7 118920457.063 7      3367.320          47.000    22629810.891 6  92665344.541 6      2623.889          41.000
G11  21885739.445 8 115010321.697 8     -3265.621          51.000    21885735.055 6  89618436.052 6     -2544.640          40.000
G22  20827209.914 8 109447786.060 8      -880.676          51.000    20827205.961 8  85283999.872 8      -686.241          51.000
R03  20276738.492 6 108543010.576 6     -2576.402          38.000    20276739.602 6  84422356.048 6     -2003.868          37.000
R04  19471822.055 8 104270728.712 8      1119.656          51.000    19471823.297 7  81099469.738 7       870.844          46.000
R05  22879224.906 7 122302636.652 7      3695.520          42.000    22879227.055 4  95124239.938 4      2874.299          25.000
R18  20520069.797 8 109537527.972 8     -3032.008          51.000    20520071.234 7  85195858.862 7     -2358.231          46.000
R19  19254869.867 6 103000570.150 6       724.340          39.000    19254871.461 7  80111558.157 7       563.378          42.000
C27  22342219.266 8 116341785.804 8     -2057.273          51.000
E04  24408909.516 8 128269771.351 8      1901.578          51.000    24408911.742 8  98284604.173 8      1457.089          51.000
E12  21823499.242 8 114683260.698 8     -1073.238          49.000    21823498.438 8  87874191.861 8      -822.348          49.000
E19  24364779.789 8 128037796.822 8     -1092.574          48.000    24364780.328 7  98106900.575 7      -837.107          44.000
E33  27193309.273 7 142901776.450 7     -2773.816          44.000    27193310.984 8 109496150.833 8     -2125.413          49.000
> 2020 05 05 21 00 30.0000000  0 15        .000000000000
G01  20516943.852 8 107817269.345 8     -1106.719          51.000    20516946.469 8  84013462.255 8      -862.378          51.000
G03  20410258.820 7 107256642.979 7       629.520          44.000    20410261.148 7  83576613.326 7       490.535          44.000
G04  22610612.336 7 118819561.899 7      3358.605          44.000    22610610.836 6  92586724.980 6      2617.095          41.000
G11  21904412.695 8 115108449.036 8     -3276.699          51.000    21904408.711 7  89694898.867 7     -2553.272          42.000
G22  20832263.203 8 109474340.703 8      -890.070          51.000    20832259.094 8  85304691.813 8      -693.561          51.000
R03  20291212.148 6 108620487.581 6     -2589.098          40.000    20291213.188 6  84482615.914 6     -2013.746          37.000
R04  19465603.375 8 104237427.308 8      1100.000          50.000    19465604.680 7  81073568.650 7       855.556          47.000
R05  22858505.805 6 122191888.319 6      3687.215          39.000    22858509.500 4  95038081.520 4      2867.834          29.000
R18  20537157.266 8 109628742.536 8     -3049.484          51.000    20537158.781 7  85266803.500 7     -2371.821          46.000
R19  19250874.438 6 102979197.188 6       700.164          39.000    19250875.906 7  80094934.730 7       544.572          43.000
C27  22354107.648 8 116403694.128 8     -2070.227          51.000
E04  24398080.781 8 128212863.346 8      1892.012          51.000    24398082.258 8  98240999.387 8      1449.696          51.000
E12  21829655.562 8 114715612.587 8     -1083.812          49.000    21829654.734 8  87898980.965 8      -830.529          50.000
E19  24371045.430 8 128070723.301 8     -1102.918          48.000    24371046.172 7  98132129.969 7      -845.087          44.000
E33  27209154.977 7 142985051.840 7     -2778.234          42.000    27209158.773 8 109559959.319 8     -2128.756          48.000
> 2020 05 05 21 01  0.0000000  0 15        .000000000000
G01  20523302.219 8 107850683.016 8     -1121.293          51.000    20523304.961 8  84039498.888 8      -873.735          51.000
G03  20406698.391 7 107237933.613 7       617.168          43.000    20406701.109 7  83562034.625 7       480.913          43.000
G04  22591463.070 7 118718939.047 7      3349.090          42.000    22591462.648 6  92508317.593 6      2609.680          40.000
G11  21923150.641 8 115206915.409 8     -3288.328          51.000    21923147.398 7  89771625.874 7     -2562.337          43.000
G22  20837371.133 8 109501183.099 8      -900.039          51.000    20837367.195 8  85325607.973 8      -701.329          51.000
R03  20305756.141 6 108698343.983 6     -2601.793          37.000    20305757.219 6  84543170.950 6     -2023.617          36.000
R04  19459496.844 8 104204725.560 8      1079.512          50.000    19459497.828 7  81048133.977 7       839.623          47.000
R05  22837834.297 5 122081400.697 5      3677.715          30.000    22837846.148 5  94952146.803 5      2860.448          34.000
R18  20554344.383 8 109720491.683 8     -3067.750          50.000    20554345.953 7  85338163.924 7     -2386.028          45.000
R19  19247014.344 6 102958547.088 6       676.117          39.000    19247015.234 7  80078873.551 7       525.869          42.000
C27  22366072.828 8 116466003.529 8     -2084.195          49.000
E04  24387308.406 8 128156253.307 8      1881.492          51.000    24387309.359 8  98197622.911 8      1441.648          51.000
E12  21835874.453 8 114748293.946 8     -1095.363          48.000    21835874.242 8  87924022.503 8      -839.307          51.000
E19  24377372.234 8 128103971.002 8     -1114.137          48.000    24377373.141 7  98157605.512 7      -853.779          44.000
E33  27225026.484 7 143068466.193 7     -2783.320          42.000    27225033.273 8 109623874.292 8     -2132.710          50.000
> 2020 05 05 21 01 30.0000000  0 15        .000000000000
G01  20529738.375 8 107884504.968 8     -1134.852          51.000    20529740.695 8  84065853.668 8      -884.300          51.000
G03  20403202.570 7 107219566.045 7       605.891          44.000    20403206.078 7  83547722.249 7       472.123          44.000
G04  22572362.586 7 118618571.205 7      3340.414          43.000    22572363.203 6  92430108.893 6      2602.920          41.000
G11  21941949.023 8 115305698.955 8     -3298.754          51.000    21941946.344 7  89848600.023 7     -2570.458          43.000
G22  20842529.883 8 109528292.952 8      -908.883          51.000    20842526.281 8  85346732.531 8      -708.220          51.000
R03  20320366.094 7 108776557.172 7     -2613.762          42.000    20320368.602 6  84604003.362 6     -2032.929          38.000
R04  19453498.141 8 104172603.117 8      1060.363          51.000    19453498.469 7  81023149.882 7       824.727          46.000
R05  22817217.141 5 121971062.879 5      3670.227          32.000    22817222.859 6  94866431.735 6      2854.627          36.000
R18  20571627.156 8 109812753.030 8     -3084.527          48.000    20571628.570 7  85409922.739 7     -2399.077          43.000
R19  19243286.000 6 102938601.983 6       652.449          39.000    19243286.484 7  80063360.696 7       507.461          43.000
C27  22378110.344 8 116528693.245 8     -2096.590          48.000
E04  24376588.836 8 128099922.193 8      1872.332          51.000    24376589.789 8  98154460.143 8      1434.677          51.000
E12  21842152.336 8 114781285.235 8     -1105.551          48.000    21842152.812 8  87949301.536 8      -847.146          51.000
E19  24383756.406 8 128137519.423 8     -1124.039          48.000    24383757.219 7  98183311.449 7      -861.193          44.000
E33  27240922.164 7 143151998.946 7     -2787.023          43.000    27240930.188 8 109687879.975 8     -2135.568          50.000
> 2020 05 05 21 02  0.0000000  0 16        .000000000000
G01  20536257.641 8 107918763.027 8     -1148.934          51.000    20536259.547 8  84092548.265 8      -895.273          51.000
G03  20399777.695 7 107201567.895 7       594.105          45.000    20399780.945 7  83533697.720 7       462.939          45.000
G04  22553317.609 7 118518488.554 7      3331.520          45.000    22553318.609 7  92352122.440 7      2595.989          43.000
G11  21960812.586 8 115404825.410 8     -3309.574          51.000    21960810.008 7  89925841.385 7     -2578.889          43.000
G14  22988501.336 5 120805359.522 5     -2401.234          32.000
G22  20847744.719 8 109555697.541 8      -918.047          51.000    20847741.359 8  85368086.745 8      -715.361          51.000
R03  20335049.789 5 108855152.398 5     -2625.535          35.000    20335051.570 6  84665132.960 6     -2042.080          38.000
R04  19447612.586 8 104141088.158 8      1040.750          50.000    19447612.930 7  80998638.287 7       809.475          47.000
R05  22796644.469 6 121861090.327 6      3661.344          39.000    22796649.125 6  94780897.640 6      2847.715          37.000
R18  20589010.578 7 109905552.726 7     -3101.875          47.000    20589012.047 7  85482100.303 7     -2412.566          42.000
R19  19239694.773 6 102919392.069 6       628.734          39.000    19239695.508 7  80048419.643 7       489.016          44.000
C27  22390226.422 8 116591789.684 8     -2109.684          50.000
E04  24365927.758 8 128043898.516 8      1862.676          51.000    24365928.945 8  98111532.938 8      1427.278          51.000
E12  21848494.570 8 114814614.392 8     -1116.254          49.000    21848495.453 8  87974839.463 8      -855.270          51.000
E19  24390202.633 8 128171394.798 8     -1134.238          48.000    24390203.656 7  98209267.920 7      -868.984          44.000
E33  27256846.312 7 143235677.337 7     -2791.430          43.000    27256853.719 8 109751997.226 8     -2138.798          49.000
> 2020 05 05 21 02 30.0000000  0 15        .000000000000
G01  20542856.820 8 107953440.726 8     -1162.660          51.000    20542858.773 8  84119569.845 8      -905.969          51.000
G03  20396419.977 7 107183922.476 7       582.461          45.000    20396422.531 7  83519948.062 7       453.866          46.000
G04  22534324.578 7 118418677.135 7      3322.801          47.000    22534325.742 7  92274347.352 7      2589.195          43.000
G11  21979737.453 8 115504276.094 8     -3320.094          51.000    21979734.672 7  90003335.430 7     -2587.086          43.000
G22  20853012.453 8 109583379.682 8      -927.086          51.000    20853009.070 8  85389657.252 8      -722.405          51.000
R03  20349797.883 6 108934109.560 6     -2637.484          38.000    20349800.414 6  84726544.113 6     -2051.380          38.000
R04  19441837.633 8 104110163.797 8      1021.234          51.000    19441838.547 8  80974586.023 8       794.293          48.000
R05  22776120.461 6 121751375.655 6      3653.094          41.000    22776123.352 6  94695564.108 6      2841.295          37.000
R18  20606491.883 8 109998871.747 8     -3118.973          49.000    20606494.102 7  85554681.786 7     -2425.868          44.000
R19  19236238.352 6 102900902.597 6       604.547          39.000    19236238.836 7  80034038.955 7       470.206          43.000
C27  22402418.609 8 116655275.313 8     -2122.348          51.000
E04  24355322.000 8 127988166.430 8      1853.223          51.000    24355323.711 8  98068829.133 8      1419.996          51.000
E12  21854898.133 8 114848265.083 8     -1126.758          49.000    21854899.078 8  88000623.757 8      -863.339          51.000
E19  24396707.852 8 128205580.036 8     -1144.355          48.000    24396709.312 7  98235461.825 7      -876.877          45.000
E33  27272795.078 7 143319484.058 7     -2795.430          45.000    27272801.438 8 109816212.803 8     -2141.941          49.000
> 2020 05 05 21 03  0.0000000  0 15        .000000000000
G01  20549537.555 8 107988547.278 8     -1177.590          51.000    20549539.531 8  84146925.581 8      -917.602          51.000
G03  20393130.945 7 107166638.721 7       570.039          45.000    20393133.203 7  83506480.204 7       444.186          45.000
G04  22515385.500 8 118319148.616 8      3312.629          48.000    22515386.570 7  92196792.698 7      2581.269          44.000
G11  21998724.789 8 115604057.997 8     -3331.734          50.000    21998722.664 7  90081087.578 7     -2596.157          45.000
G22  20858334.625 8 109611347.638 8      -937.305          51.000    20858330.961 8  85411450.463 8      -730.367          50.000
R03  20364617.539 6 109013435.620 6     -2650.348          39.000    20364618.938 6  84788242.132 6     -2061.382          39.000
R04  19436174.867 8 104079839.061 8      1000.582          51.000    19436176.078 8  80951000.111 8       778.230          48.000
R05  22755645.977 6 121641930.049 6      3643.766          37.000    22755650.000 6  94610439.823 6      2834.040          38.000
R18  20624073.117 8 110092717.147 8     -3137.105          51.000    20624075.672 7  85627672.610 7     -2439.974          45.000
R19  19232918.508 6 102883145.142 6       579.535          39.000    19232919.273 7  80020227.597 7       450.750          44.000
C27  22414687.688 8 116719157.942 8     -2136.285          51.000
E04  24344773.430 8 127932735.833 8      1842.461          51.000    24344775.945 8  98026356.333 8      1411.702          51.000
E12  21861364.703 8 114882246.639 8     -1138.512          50.000    21861365.594 8  88026661.569 8      -872.366          51.000
E19  24403273.750 7 128240082.936 7     -1155.672          47.000    24403275.195 7  98261899.109 7      -885.506          44.000
E33  27288769.719 7 143403427.576 7     -2800.738          45.000    27288775.039 8 109880533.136 8     -2145.963          49.000
> 2020 05 05 21 03 30.0000000  0 15        .000000000000
G01  20556298.789 8 108024077.348 8     -1190.996          51.000    20556300.547 8  84174611.338 8      -928.049          51.000
G03  20389909.883 7 107149711.097 7       558.938          46.000    20389912.070 7  83493289.868 7       435.536          45.000
G04  22496499.789 8 118219900.079 8      3304.023          50.000    22496500.750 7  92119456.204 7      2574.564          45.000
G11  22017773.438 8 115704163.456 8     -3341.855          49.000    22017772.312 7  90159091.851 7     -2604.043          45.000
G22  20863710.086 8 109639595.478 8      -945.766          51.000    20863706.211 8  85433461.771 8      -736.960          50.000
R03  20379504.055 6 109093121.593 6     -2662.020          36.000    20379505.234 6  84850220.154 6     -2070.460          39.000
R04  19430622.344 8 104050107.976 8       981.598          50.000    19430624.430 8  80927875.958 8       763.468          48.000
R05  22735221.805 5 121532750.099 5      3635.199          35.000    22735226.781 6  94525521.988 6      2827.374          41.000
R18  20641751.742 8 110187081.262 8     -3153.590          51.000    20641754.031 7  85701066.892 7     -2452.795          47.000
R19  19229735.156 6 102866116.076 6       555.945          39.000    19229736.039 7  80006982.770 7       432.402          44.000
C27  22427031.922 8 116783430.994 8     -2148.520          51.000
E04  24334281.633 8 127877602.008 8      1833.164          51.000    24334284.469 8  97984110.916 8      1404.641          51.000
E12  21867893.289 8 114916553.800 8     -1148.590          49.000    21867893.750 8  88052948.875 8      -880.139          51.000
E19  24409898.625 7 128274896.927 7     -1165.090          47.000    24409899.766 7  98288574.782 7      -892.764          44.000
E33  27304768.391 7 143487501.716 7     -2804.246          47.000    27304772.875 7 109944953.555 7     -2148.654          47.000
> 2020 05 05 21 04  0.0000000  0 15        .000000000000
G01  20563137.578 8 108060015.145 8     -1205.379          51.000    20563139.102 8  84202614.814 8      -939.256          51.000
G03  20386753.562 7 107133123.721 7       546.555          45.000    20386755.766 7  83480364.662 7       425.890          45.000
G04  22477664.891 8 118120918.243 8      3294.328          50.000    22477665.594 7  92042327.540 7      2567.009          46.000
G11  22036880.227 8 115804575.096 8     -3352.734          48.000    22036880.273 7  90237334.699 7     -2612.520          46.000
G22  20869135.625 8 109668106.834 8      -955.387          51.000    20869131.766 8  85455678.406 8      -744.457          51.000
R03  20394452.742 6 109173148.595 6     -2673.805          36.000    20394454.031 6  84912463.474 6     -2079.623          38.000
R04  19425178.117 8 104020954.560 8       961.566          51.000    19425180.242 8  80905201.067 8       747.885          48.000
R05  22714848.227 6 121423821.001 6      3626.172          40.000    22714850.508 7  94440799.371 7      2820.359          42.000
R18  20659523.438 8 110281945.480 8     -3171.062          51.000    20659525.883 8  85774850.160 8     -2466.382          48.000
R19  19226685.336 6 102849801.238 6       531.133          40.000    19226686.180 7  79994293.458 7       413.106          44.000
C27  22439447.648 8 116848077.672 8     -2161.680          51.000
E04  24323843.984 8 127822749.814 8      1823.152          51.000    24323846.039 8  97942081.321 8      1396.979          51.000
E12  21874480.773 8 114951170.976 8     -1159.621          49.000    21874480.703 8  88079473.721 8      -888.493          51.000
E19  24416579.469 7 128310005.522 7     -1175.742          47.000    24416580.398 7  98315476.161 7      -900.738          44.000
E33  27320789.180 7 143571690.001 7     -2808.652          46.000    27320792.523 7 110009461.481 7     -2152.099          47.000
> 2020 05 05 21 04 30.0000000  0 15        .000000000000
G01  20570056.375 8 108096373.578 8     -1219.035          51.000    20570057.781 8  84230946.051 8      -949.898          51.000
G03  20383663.984 7 107116889.228 7       535.125          43.000    20383666.078 7  83467714.426 7       416.981          44.000
G04  22458883.547 8 118022218.474 8      3285.168          50.000    22458884.031 7  91965418.676 7      2559.874          46.000
G11  22056047.602 8 115905303.570 8     -3362.918          48.000    22056048.648 7  90315824.424 7     -2620.456          46.000
G22  20874613.602 8 109696893.921 8      -964.211          51.000    20874609.938 8  85478109.906 8      -751.333          50.000
R03  20409468.070 5 109253527.301 5     -2684.984          35.000    20409469.062 6  84974980.216 6     -2088.321          38.000
R04  19419844.125 8 103992391.418 8       942.211          51.000    19419846.523 8  80882985.324 8       732.831          48.000
R05  22694523.383 7 121315158.188 7      3617.480          44.000    22694523.109 7  94356283.925 7      2813.599          42.000
R18  20677390.297 8 110377320.904 8     -3187.773          50.000    20677393.062 8  85849031.051 8     -2479.379          48.000
R19  19223771.680 6 102834216.166 6       507.289          39.000    19223772.594 7  79982171.743 7       394.558          44.000
C27  22451936.766 8 116913109.459 8     -2174.168          51.000
E04  24313462.641 8 127768192.818 8      1813.523          51.000    24313462.891 8  97900277.942 8      1389.610          50.000
E12  21881129.758 8 114986111.199 8     -1170.238          50.000    21881129.148 8  88106246.110 8      -896.649          51.000
E19  24423318.852 7 128345420.291 7     -1185.688          47.000    24423319.852 7  98342612.167 7      -908.556          44.000
E33  27336833.141 7 143656004.674 7     -2812.652          45.000    27336836.742 8 110074066.182 8     -2155.176          48.000
> 2020 05 05 21 05  0.0000000  0 15        .000000000000
G01  20577056.836 8 108133160.787 8     -1233.371          51.000    20577058.242 8  84259611.396 8      -961.068          51.000
G03  20380643.297 7 107101015.609 7       523.164          45.000    20380644.875 7  83455345.373 7       407.660          45.000
G04  22440157.273 8 117923811.420 8      3275.254          48.000    22440157.883 7  91888737.874 7      2552.146          46.000
G11  22075276.633 7 116006354.936 7     -3373.758          47.000    22075278.289 7  90394565.724 7     -2628.905          45.000
G22  20880145.484 8 109725964.072 8      -973.773          51.000    20880141.898 8  85500761.964 8      -758.784          50.000
R03  20424549.609 5 109334262.587 5     -2697.062          31.000    20424551.219 6  85037774.372 6     -2097.712          37.000
R04  19414622.016 8 103964426.862 8       922.145          51.000    19414624.656 8  80861235.100 8       717.220          48.000
R05  22674248.477 7 121206771.345 7      3608.250          44.000    22674246.562 6  94271983.144 6      2806.420          40.000
R18  20695353.664 8 110473213.447 8     -3205.023          51.000    20695356.594 7  85923614.143 7     -2492.799          47.000
R19  19220996.641 6 102819370.667 6       482.340          40.000    19220997.297 7  79970625.264 7       375.156          44.000
C27  22464500.492 8 116978533.199 8     -2187.434          51.000
E04  24303138.711 8 127713939.771 8      1803.312          51.000    24303137.422 8  97858707.484 8      1381.792          49.000
E12  21887841.867 8 115021382.684 8     -1181.301          50.000    21887840.867 8  88133272.332 8      -905.108          51.000
E19  24430117.664 7 128381148.061 7     -1196.230          46.000    24430119.094 7  98369988.006 7      -916.616          44.000
E33  27352902.797 7 143740453.074 7     -2817.234          45.000    27352906.164 7 110138773.366 7     -2158.639          47.000
> 2020 05 05 21 05 30.0000000  0 15        .000000000000
G01  20584140.922 8 108170387.242 8     -1247.668          51.000    20584141.930 8  84288619.020 8      -972.209          51.000
G03  20377693.438 7 107085513.131 7       511.078          45.000    20377694.633 7  83443265.539 7       398.246          45.000
G04  22421488.070 7 117825710.072 7      3265.402          47.000    22421489.547 7  91812295.247 7      2544.466          46.000
G11  22094568.945 8 116107737.353 8     -3384.293          48.000    22094570.570 7  90473564.997 7     -2637.108          43.000
G22  20885733.109 8 109755327.052 8      -983.117          51.000    20885729.461 8  85523642.214 8      -766.065          50.000
R03  20439699.500 5 109415362.497 5     -2708.695          34.000    20439702.180 6  85100852.037 6     -2106.766          37.000
R04  19409513.555 8 103937070.904 8       902.250          51.000    19409516.102 8  80839958.240 8       701.750          48.000
R05  22654025.438 6 121098673.239 6      3598.926          41.000    22654023.234 6  94187906.923 6      2799.168          40.000
R18  20713415.914 8 110569631.217 8     -3222.172          51.000    20713418.500 7  85998605.743 7     -2506.134          47.000
R19  19218362.250 6 102805277.367 6       457.648          40.000    19218362.867 7  79959663.804 7       355.949          45.000
C27  22477141.008 8 117044357.964 8     -2200.289          51.000
E04  24292874.125 8 127660001.856 8      1793.227          51.000    24292872.656 8  97817378.491 8      1374.085          50.000
E12  21894618.789 8 115056996.103 8     -1192.254          50.000    21894617.484 8  88160560.534 8      -913.524          51.000
E19  24436977.727 7 128417198.379 7     -1206.617          47.000    24436979.180 7  98397611.003 7      -924.479          43.000
E33  27369000.141 7 143825044.906 7     -2821.543          45.000    27369002.562 7 110203590.520 7     -2161.956          47.000
> 2020 05 05 21 06  0.0000000  0 15        .000000000000
G01  20591304.414 8 108208030.970 8     -1261.582          51.000    20591305.227 8  84317951.797 8      -983.051          51.000
G03  20374809.883 7 107070359.597 7       499.734          44.000    20374811.094 7  83431457.652 7       389.406          44.000
G04  22402873.867 8 117727894.776 8      3255.852          49.000    22402875.500 7  91736075.530 7      2537.027          47.000
G11  22113919.703 7 116209426.670 7     -3394.395          46.000    22113921.352 7  90552803.387 7     -2644.986          42.000
G22  20891372.117 8 109784960.369 8      -992.078          51.000    20891368.375 8  85546733.106 8      -773.048          50.000
R03  20454913.570 5 109496801.420 5     -2719.043          31.000    20454916.016 5  85164193.497 5     -2114.805          34.000
R04  19404514.383 8 103910300.890 8       882.785          51.000    19404516.711 8  80819137.142 8       686.611          48.000
R05  22633850.508 7 120990843.424 7      3589.914          43.000    22633850.367 6  94104039.301 6      2792.152          39.000
R18  20731572.125 8 110666549.608 8     -3238.680          51.000    20731574.352 7  86073986.708 7     -2518.973          47.000
R19  19215864.633 6 102791915.576 6       433.504          40.000    19215865.156 7  79949271.315 7       337.170          45.000
C27  22489854.297 8 117110560.744 8     -2212.930          51.000
E04  24282665.102 8 127606357.733 8      1783.414          50.000    24282664.695 8  97776274.598 8      1366.497          50.000
E12  21901456.484 8 115092929.566 8     -1202.953          50.000    21901454.648 8  88188093.967 8      -921.719          51.000
E19  24443895.000 7 128453548.150 7     -1216.473          46.000    24443895.812 7  98425463.407 7      -931.980          43.000
E33  27385120.305 7 143909757.595 7     -2825.605          44.000    27385122.898 8 110268500.242 8     -2165.068          49.000
> 2020 05 05 21 06 30.0000000  0 15        .000000000000
G01  20598547.305 8 108246092.448 8     -1275.859          51.000    20598548.102 8  84347610.090 8      -994.176          51.000
G03  20371992.836 7 107055555.390 7       487.453          45.000    20371993.961 7  83419921.896 7       379.831          45.000
G04  22384315.641 8 117630368.482 8      3245.863          51.000    22384316.492 7  91660081.055 7      2529.247          47.000
G11  22133328.633 7 116311421.322 7     -3404.969          45.000    22133330.172 7  90632279.714 7     -2653.225          42.000
G22  20897062.453 8 109814863.953 8     -1001.461          51.000    20897058.695 8  85570034.597 8      -780.359          50.000
R03  20470188.039 5 109578577.044 5     -2731.711          31.000    20470190.062 5  85227796.746 5     -2124.667          32.000
R04  19399625.102 8 103884116.974 8       862.793          51.000    19399626.664 8  80798771.890 8       671.064          48.000
R05  22613727.719 7 120883284.138 7      3580.617          47.000    22613729.461 7  94020382.097 7      2784.928          42.000
R18  20749821.758 8 110763966.699 8     -3255.645          50.000    20749824.297 7  86149755.545 7     -2532.168          47.000
R19  19213504.016 6 102779287.725 6       408.734          40.000    19213504.398 7  79939449.655 7       317.905          45.000
C27  22502640.000 8 117177140.725 8     -2225.672          51.000
E04  24272512.391 8 127553008.507 8      1773.105          49.000    24272513.281 8  97735396.636 8      1358.712          51.000
E12  21908355.297 8 115129183.661 8     -1214.000          51.000    21908353.211 8  88215873.082 8      -930.199          51.000
E19  24450868.938 7 128490196.803 7     -1226.789          46.000    24450869.758 7  98453544.858 7      -940.001          43.000
E33  27401263.641 7 143994590.772 7     -2830.059          44.000    27401266.961 8 110333502.292 8     -2168.376          49.000
> 2020 05 05 21 07  0.0000000  0 15        .000000000000
G01  20605869.664 8 108284572.025 8     -1289.590          51.000    20605870.531 8  84377594.179 8     -1004.875          51.000
G03  20369242.492 7 107041100.704 7       475.969          45.000    20369243.273 7  83408658.487 7       370.885          45.000
G04  22365813.297 8 117533134.148 8      3236.293          51.000    22365813.195 7  91584314.073 7      2521.790          46.000
G11  22152794.906 7 116413719.317 7     -3414.895          44.000    22152796.773 7  90711992.433 7     -2660.957          42.000
G22  20902804.172 8 109845037.700 8     -1010.199          51.000    20902800.469 8  85593546.609 8      -787.168          50.000
R03  20485525.570 5 109660627.940 5     -2742.422          34.000    20485530.008 5  85291660.033 5     -2132.995          35.000
R04  19394845.016 8 103858519.365 8       843.461          51.000    19394846.148 8  80778862.674 8       656.028          48.000
R05  22593657.062 8 120775997.666 8      3571.719          48.000    22593660.156 7  93936937.106 7      2778.003          43.000
R18  20768163.984 8 110861880.531 8     -3272.066          49.000    20768167.398 8  86225910.739 8     -2544.941          48.000
R19  19211281.133 6 102767396.114 6       383.980          40.000    19211281.461 7  79930200.626 7       298.655          45.000
C27  22515498.031 8 117244097.114 8     -2238.152          51.000
E04  24262416.289 8 127499955.332 8      1763.535          50.000    24262418.312 8  97694745.519 8      1351.262          51.000
E12  21915315.102 8 115165758.969 8     -1224.480          50.000    21915313.562 8  88243898.299 8      -938.274          51.000
E19  24457899.336 7 128527143.492 7     -1236.527          45.000    24457900.781 7  98481854.679 7      -947.427          43.000
E33  27417428.969 6 144079544.165 6     -2833.664          40.000    27417433.617 8 110398596.510 8     -2171.309          49.000
> 2020 05 05 21 07 30.0000000  0 16        .000000000000
G01  20613273.320 8 108323479.440 8     -1303.465          51.000    20613274.359 8  84407911.644 8     -1015.687          51.000
G03  20366560.109 7 107027005.080 7       464.602          45.000    20366561.078 7  83397674.902 7       362.030          45.000
G04  22347368.664 8 117436203.951 8      3226.570          50.000    22347367.859 7  91508784.094 7      2514.211          46.000
G11  22172320.664 7 116516328.718 7     -3424.762          46.000    22172322.531 7  90791947.849 7     -2668.642          44.000
G14  23143327.523 4 121619006.773 4     -2529.562          29.000
G22  20908599.039 8 109875490.402 8     -1019.051          51.000    20908595.461 8  85617275.973 8      -794.066          50.000
R03  20500927.266 6 109743079.398 6     -2753.520          39.000    20500934.664 5  85355788.911 5     -2141.626          35.000
R04  19390176.219 8 103833517.511 8       824.086          51.000    19390177.289 8  80759416.803 8       640.956          48.000
R05  22573639.609 7 120668995.509 7      3562.633          46.000    22573643.492 7  93853713.281 7      2770.940          42.000
R18  20786601.031 8 110960298.697 8     -3288.293          51.000    20786605.062 7  86302458.187 7     -2557.561          47.000
R19  19209198.219 6 102756252.648 6       359.688          40.000    19209198.359 7  79921533.482 7       279.757          45.000
C27  22528429.992 8 117311438.217 8     -2250.414          51.000
E04  24252379.086 8 127447208.516 8      1753.863          51.000    24252381.602 8  97654329.134 8      1343.860          51.000
E12  21922337.789 8 115202665.296 8     -1234.988          50.000    21922336.906 8  88272177.159 8      -946.266          51.000
E19  24464988.383 7 128564397.011 7     -1246.137          45.000    24464989.625 7  98510399.598 7      -954.925          42.000
E33  27433618.102 6 144164626.820 6     -2837.355          39.000    27433624.852 8 110463789.768 8     -2174.236          49.000
> 2020 05 05 21 08  0.0000000  0 15        .000000000000
G01  20620756.180 8 108362803.263 8     -1317.688          51.000    20620757.539 8  84438553.572 8     -1026.769          51.000
G03  20363943.922 7 107013256.922 7       452.508          46.000    20363944.836 7  83386962.095 7       352.603          46.000
G04  22328979.820 8 117339568.986 8      3216.246          49.000    22328978.492 7  91433484.155 7      2506.166          44.000
G11  22191903.703 8 116619235.653 8     -3435.090          49.000    22191904.953 7  90872135.103 7     -2676.693          44.000
G22  20914444.742 8 109906210.185 8     -1028.371          51.000    20914441.336 8  85641213.464 8      -801.328          50.000
R03  20516393.305 4 109825857.759 4     -2764.906          29.000    20516397.414 5  85420172.031 5     -2150.480          32.000
R04  19385616.414 8 103809099.342 8       804.309          51.000    19385617.125 7  80740424.916 7       625.573          47.000
R05  22553673.391 7 120562267.992 7      3552.938          46.000    22553676.906 6  93770703.079 6      2763.399          40.000
R18  20805130.367 8 111059206.997 8     -3305.090          51.000    20805133.969 7  86379386.858 7     -2570.625          47.000
R19  19207253.445 6 102745847.291 6       334.605          41.000    19207253.094 7  79913440.424 7       260.249          45.000
C27  22541433.219 8 117379151.464 8     -2263.285          51.000
E04  24242398.781 8 127394757.315 8      1743.465          51.000    24242400.977 8  97614139.262 8      1335.878          51.000
E12  21929421.289 8 115239891.370 8     -1246.234          49.000    21929421.055 8  88300701.028 8      -954.871          51.000
E19  24472133.422 7 128601944.773 7     -1256.383          44.000    24472133.844 6  98539169.957 6      -962.779          41.000
E33  27449830.867 6 144249826.559 6     -2841.773          40.000    27449838.336 8 110529072.744 8     -2177.582          48.000
> 2020 05 05 21 08 30.0000000  0 15        .000000000000
G01  20628320.625 8 108402555.420 8     -1333.152          51.000    20628322.102 8  84469529.278 8     -1038.820          51.000
G03  20361396.438 7 106999868.082 7       439.316          46.000    20361396.781 7  83376529.219 7       342.324          46.000
G04  22310649.102 7 117243243.647 7      3204.727          47.000    22310647.688 7  91358425.491 7      2497.193          44.000
G11  22211545.820 8 116722450.318 8     -3446.508          51.000    22211545.961 7  90952562.132 7     -2685.591          44.000
G22  20920343.492 8 109937208.323 8     -1038.891          51.000    20920340.016 8  85665367.858 8      -809.525          50.000
R03  20531919.547 5 109908972.094 5     -2777.098          35.000    20531924.156 5  85484816.532 5     -2159.968          34.000
R04  19381167.688 8 103785276.637 8       783.168          51.000    19381168.508 8  80721896.154 8       609.131          48.000
R05  22533761.445 7 120455829.151 7      3542.074          47.000    22533763.828 6  93687917.381 6      2754.947          39.000
R18  20823753.688 8 111158615.263 8     -3322.883          51.000    20823756.352 7  86456704.393 7     -2584.464          46.000
R19  19205449.078 6 102736193.476 6       308.023          40.000    19205448.516 7  79905931.910 7       239.574          45.000
C27  22554509.750 8 117447247.353 8     -2277.164          50.000
E04  24232477.344 8 127342614.307 8      1731.992          51.000    24232478.539 8  97574185.559 8      1327.129          51.000
E12  21936568.070 8 115277449.239 8     -1258.465          49.000    21936568.688 8  88329479.145 8      -964.200          51.000
E19  24479336.266 7 128639797.576 7     -1267.574          43.000    24479336.867 7  98568174.065 7      -971.450          42.000
E33  27466068.656 7 144335154.707 7     -2847.254          42.000    27466075.516 7 110594454.036 7     -2181.731          46.000
> 2020 05 05 21 09  0.0000000  0 15        .000000000000
G01  20635966.492 8 108442734.721 8     -1346.078          51.000    20635967.938 8  84500837.830 8     -1048.892          51.000
G03  20358916.633 7 106986837.154 7       428.633          44.000    20358917.242 7  83366375.263 7       334.003          44.000
G04  22292377.281 7 117147229.273 7      3195.730          47.000    22292376.164 7  91283609.121 7      2490.180          43.000
G11  22231245.930 8 116825969.334 8     -3455.312          51.000    22231245.031 7  91033226.290 7     -2692.451          46.000
G22  20926294.938 8 109968483.092 8     -1046.703          51.000    20926291.297 8  85689737.807 8      -815.613          50.000
R03  20547509.195 6 109992418.678 6     -2786.500          37.000    20547514.695 5  85549719.383 5     -2167.278          35.000
R04  19376829.516 8 103762047.704 8       764.750          51.000    19376830.969 8  80703829.228 8       594.806          48.000
R05  22513904.484 8 120349679.757 8      3533.949          48.000    22513905.984 6  93605356.780 6      2748.627          40.000
R18  20842469.648 8 111258519.946 8     -3337.980          51.000    20842471.398 7  86534408.011 7     -2596.207          45.000
R19  19203785.102 6 102727292.444 6       284.625          39.000    19203784.688 7  79899008.885 7       221.375          45.000
C27  22567659.156 8 117515723.490 8     -2288.480          49.000
E04  24222614.227 8 127290778.989 8      1723.055          51.000    24222614.500 8  97534467.629 8      1320.260          51.000
E12  21943777.836 8 115315337.876 8     -1268.117          48.000    21943779.219 8  88358510.694 8      -971.596          51.000
E19  24486597.000 7 128677953.480 7     -1276.422          43.000    24486598.234 7  98597410.413 7      -978.038          42.000
E33  27482330.867 7 144420609.364 7     -2850.121          44.000    27482335.719 7 110659932.286 7     -2183.763          42.000
> 2020 05 05 21 09 30.0000000  0 15        .000000000000
G01  20643690.562 8 108483324.584 8     -1360.410          51.000    20643692.094 8  84532466.295 8     -1060.060          51.000
G03  20356501.609 7 106974147.506 7       416.793          45.000    20356503.258 7  83356487.243 7       324.774          45.000
G04  22274162.523 8 117051511.792 8      3185.102          48.000    22274161.883 7  91209024.100 7      2481.897          44.000
G11  22251000.227 8 116929773.884 8     -3465.363          51.000    22250998.570 7  91114112.913 7     -2700.283          45.000
G22  20932295.766 8 110000017.348 8     -1055.949          51.000    20932292.172 8  85714309.969 8      -822.818          50.000
R03  20563158.727 4 110076197.770 4     -2798.211          27.000    20563162.250 5  85614865.383 5     -2176.377          32.000
R04  19372599.234 8 103739395.459 8       744.957          51.000    19372600.984 8  80686210.818 8       579.411          49.000
R05  22494099.047 8 120243804.561 8      3524.121          48.000    22494100.727 7  93523009.464 7      2740.986          42.000
R18  20861274.094 8 111358901.705 8     -3354.461          49.000    20861275.469 7  86612482.717 7     -2609.025          45.000
R19  19202258.688 6 102719128.642 6       259.359          39.000    19202258.578 7  79892659.259 7       201.724          45.000
C27  22580878.422 8 117584562.202 8     -2301.078          49.000
E04  24212806.211 8 127239235.471 8      1712.719          51.000    24212805.891 8  97494973.298 8      1312.337          51.000
E12  21951047.617 8 115353540.872 8     -1279.098          49.000    21951049.406 8  88387783.114 8      -980.088          51.000
E19  24493912.234 7 128716394.552 7     -1286.570          43.000    24493913.453 7  98626865.253 7      -985.760          42.000
E33  27498614.117 7 144506173.216 7     -2854.395          45.000    27498616.648 6 110725494.236 6     -2187.184          41.000
> 2020 05 05 21 10  0.0000000  0 15        .000000000000
G01  20651496.734 8 108524345.896 8     -1374.512          51.000    20651498.422 8  84564430.928 8     -1071.048          51.000
G03  20354155.727 7 106961819.862 7       405.016          44.000    20354157.703 7  83346881.287 7       315.600          44.000
G04  22256009.211 8 116956114.490 8      3174.605          49.000    22256009.320 7  91134688.578 7      2473.719          45.000
G11  22270812.117 8 117033882.723 8     -3475.223          51.000    22270809.883 7  91195236.634 7     -2707.966          46.000
G22  20938349.680 8 110031831.482 8     -1064.992          51.000    20938346.445 8  85739100.217 8      -829.864          51.000
R03  20578862.062 5 110160265.575 5     -2808.082          35.000    20578864.805 5  85680208.607 5     -2184.067          30.000
R04  19368480.367 8 103717340.561 8       725.312          51.000    19368482.484 8  80669057.018 8       564.132          48.000
R05  22474348.672 7 120138226.540 7      3514.375          46.000    22474350.953 7  93440893.304 7      2733.406          42.000
R18  20880171.359 8 111459779.337 8     -3370.766          50.000    20880173.508 7  86690943.093 7     -2621.707          46.000
R19  19200874.648 6 102711725.057 6       234.332          39.000    19200874.727 7  79886900.938 7       182.258          45.000
C27  22594171.727 8 117653782.868 8     -2313.641          51.000
E04  24203057.406 8 127188005.290 8      1702.582          51.000    24203056.766 8  97455719.035 8      1304.567          51.000
E12  21958381.547 8 115392079.196 8     -1290.102          50.000    21958383.258 8  88417312.475 8      -988.558          50.000
E19  24501285.203 7 128755140.599 7     -1296.570          42.000    24501286.242 6  98656553.782 6      -993.617          41.000
E33  27514921.609 7 144591866.492 7     -2858.566          45.000    27514921.891 6 110791155.270 6     -2190.240          40.000
> 2020 05 05 21 10 30.0000000  0 15        .000000000000
G01  20659382.922 8 108565787.340 8     -1386.523          51.000    20659384.375 8  84596722.944 8     -1080.408          51.000
G03  20351876.352 7 106949842.808 7       395.219          43.000    20351877.914 7  83337548.526 7       307.963          43.000
G04  22237915.289 8 116861028.647 8      3166.117          49.000    22237916.305 7  91060595.743 7      2467.104          46.000
G11  22290679.148 8 117138282.919 8     -3483.023          51.000    22290676.938 7  91276587.382 7     -2714.047          45.000
G22  20944454.477 8 110063913.604 8     -1072.109          51.000    20944451.492 8  85764099.290 8      -835.410          50.000
R03  20594628.969 5 110244672.254 5     -2817.164          30.000    20594634.242 5  85745858.223 5     -2191.134          33.000
R04  19364471.023 8 103695871.149 8       707.688          51.000    19364473.086 8  80652358.589 8       550.424          48.000
R05  22454650.570 7 120032936.350 7      3506.617          43.000    22454654.242 7  93359000.975 7      2727.369          42.000
R18  20899158.984 8 111561139.225 8     -3384.812          50.000    20899162.023 7  86769778.567 7     -2632.632          47.000
R19  19199630.812 6 102705072.134 6       211.250          39.000    19199631.367 7  79881726.434 7       164.306          45.000
C27  22607536.398 8 117723373.102 8     -2323.984          51.000
E04  24193365.703 8 127137077.867 8      1694.391          51.000    24193365.297 8  97416696.739 8      1298.308          51.000
E12  21965777.430 8 115430941.753 8     -1298.945          51.000    21965778.773 8  88447090.257 8      -995.269          51.000
E19  24508714.000 7 128794179.428 7     -1304.293          43.000    24508715.109 7  98686466.643 7      -999.426          42.000
E33  27531251.242 7 144677677.208 7     -2860.430          46.000    27531248.898 6 110856906.350 6     -2191.887          39.000
> 2020 05 05 21 11  0.0000000  0 16        .000000000000
G01  20667347.156 8 108607639.327 8     -1402.629          51.000    20667348.195 8  84629334.870 8     -1092.958          51.000
G03  20349661.867 7 106938206.676 7       381.516          45.000    20349663.430 7  83328481.416 7       297.282          45.000
G04  22219879.266 8 116766247.228 8      3153.648          49.000    22219881.102 7  90986740.115 7      2457.388          46.000
G11  22310599.070 8 117242962.420 8     -3494.602          51.000    22310596.867 7  91358155.792 7     -2723.066          44.000
G22  20950608.328 8 110096253.685 8     -1082.910          50.000    20950605.594 8  85789299.367 8      -843.826          50.000
R03  20610456.633 4 110329383.263 4     -2830.242          29.000    20610463.227 5  85811744.575 5     -2201.299          34.000
R04  19360569.305 8 103674977.177 8       686.254          51.000    19360571.055 7  80636107.744 7       533.753          47.000
R05  22435004.391 7 119927926.059 7      3495.074          43.000    22435008.625 6  93277326.326 6      2718.391          41.000
R18  20918234.672 8 111662969.113 8     -3402.707          49.000    20918239.133 8  86848979.581 8     -2646.550          48.000
R19  19198525.945 6 102699161.453 6       184.082          39.000    19198526.617 7  79877129.247 7       143.178          45.000
C20  26253004.820 5 136706272.288 5      2888.223          35.000
C27  22620969.883 8 117793322.093 8     -2338.191          51.000
E04  24183729.773 8 127086444.263 8      1682.230          51.000    24183729.953 8  97377899.574 8      1288.991          51.000
E12  21973233.055 8 115470119.110 8     -1311.797          51.000    21973234.203 8  88477109.247 8     -1005.137          51.000
E19  24516196.820 7 128833500.336 7     -1316.152          43.000    24516198.086 7  98716595.655 7     -1008.477          42.000
E33  27547601.430 8 144763595.129 8     -2866.250          48.000    27547597.719 6 110922739.606 6     -2196.077          41.000
> 2020 05 05 21 11 30.0000000  0 16        .000000000000
G01  20675374.094 8 108649821.235 8     -1416.543          51.000    20675375.062 8  84662203.868 8     -1103.800          51.000
G03  20347497.258 7 106926830.699 7       369.984          44.000    20347498.789 7  83319617.027 7       288.303          44.000
G04  22201886.281 8 116671692.069 8      3143.176          49.000    22201888.680 7  90913060.796 7      2449.228          46.000
G11  22330555.922 8 117347838.549 8     -3504.043          49.000    22330553.555 7  91439877.443 7     -2730.423          44.000
G22  20956795.922 8 110128770.567 8     -1091.789          50.000    20956793.625 8  85814637.201 8      -850.745          50.000
R03  20626325.703 4 110414336.150 4     -2841.672          27.000    20626331.656 5  85877841.094 5     -2210.186          32.000
R04  19356759.656 8 103654575.831 8       666.809          50.000    19356761.242 7  80620240.044 7       518.632          47.000
R05  22415398.102 7 119823115.198 7      3485.262          45.000    22415400.172 7  93195806.823 7      2710.762          42.000
R18  20937382.320 7 111765184.483 7     -3418.516          47.000    20937388.109 7  86928480.445 7     -2658.845          46.000
R19  19197544.898 6 102693912.623 6       158.965          39.000    19197545.375 7  79873046.832 7       123.639          44.000
C20  26236359.102 5 136619589.432 5      2884.500          34.000
C27  22634456.867 8 117863548.642 8     -2350.328          51.000
E04  24174134.867 8 127036024.517 8      1672.113          51.000    24174135.688 8  97339266.284 8      1281.236          51.000
E12  21980733.117 8 115509530.747 8     -1322.570          51.000    21980734.180 8  88507307.749 8     -1013.392          51.000
E19  24523717.789 7 128873021.749 7     -1325.766          42.000    24523718.891 6  98746878.284 6     -1015.658          41.000
E33  27563956.617 8 144849539.025 8     -2870.035          48.000    27563953.820 7 110988592.750 7     -2199.151          44.000
> 2020 05 05 21 12  0.0000000  0 15        .000000000000
G01  20683502.117 8 108692533.961 8     -1430.227          51.000    20683503.242 8  84695486.505 8     -1114.462          51.000
G03  20345420.008 7 106915915.711 7       358.535          42.000    20345421.805 7  83311111.853 7       279.378          42.000
G04  22183974.867 8 116577566.640 8      3132.711          48.000    22183977.570 7  90839716.335 7      2441.073          45.000
G11  22350587.328 7 117453110.444 7     -3513.285          46.000    22350585.531 7  91521907.539 7     -2737.625          43.000
G22  20963055.438 8 110161664.649 8     -1100.375          51.000    20963053.461 8  85840268.963 8      -857.435          51.000
R04  19353079.727 8 103634871.269 8       647.559          51.000    19353081.477 7  80604914.290 7       503.657          46.000
R05  22395868.969 7 119718710.168 7      3475.715          47.000    22395869.180 7  93114603.012 7      2703.340          44.000
R18  20956640.305 8 111867987.015 8     -3434.238          49.000    20956646.164 7  87008437.984 7     -2671.074          44.000
R19  19196726.016 6 102689531.985 6       134.223          39.000    19196726.477 7  79869639.665 7       104.395          44.000
C20  26219755.172 5 136533127.602 5      2880.688          32.000
C27  22648035.008 8 117934250.654 8     -2362.250          51.000
E04  24164619.617 8 126986020.284 8      1662.180          51.000    24164620.820 8  97300951.364 8      1273.570          51.000
E12  21988315.906 8 115549377.741 8     -1333.156          51.000    21988316.922 8  88537839.847 8     -1021.554          51.000
E19  24531314.641 7 128912943.443 7     -1334.844          42.000    24531315.336 6  98777467.681 6     -1023.105          41.000
E33  27580354.852 8 144935709.159 8     -2873.734          48.000    27580353.641 7 111054619.228 7     -2202.051          46.000
> 2020 05 05 21 12 30.0000000  0 16        .000000000000
G01  20691704.375 8 108735636.339 8     -1443.879          51.000    20691705.695 8  84729072.768 8     -1125.100          51.000
G03  20343403.508 7 106905320.502 7       347.270          45.000    20343405.484 7  83302855.828 7       270.600          45.000
G04  22166118.758 7 116483732.272 7      3122.312          47.000    22166121.203 7  90766598.688 7      2432.974          44.000
G11  22370666.523 7 117558634.674 7     -3522.320          46.000    22370665.781 7  91604134.272 7     -2744.662          43.000
G22  20969359.945 8 110194794.288 8     -1108.895          51.000    20969357.758 8  85866084.256 8      -864.074          50.000
R03  20658267.891 5 110585323.670 5     -2859.539          35.000    20658266.688 5  86010797.400 5     -2224.092          30.000
R04  19349503.445 8 103615719.423 8       628.520          50.000    19349504.797 7  80590018.426 7       488.852          46.000
R05  22376388.734 8 119614569.258 8      3466.316          48.000    22376388.867 7  93033604.606 7      2696.027          45.000
R18  20975982.102 8 111971231.105 8     -3449.414          51.000    20975986.031 7  87088738.876 7     -2682.884          43.000
R19  19196042.820 6 102685877.170 6       109.148          39.000    19196042.984 7  79866797.032 7        84.893          43.000
C20  26203166.641 5 136446747.961 5      2877.402          31.000
C27  22661676.844 8 118005286.938 8     -2374.090          51.000
E04  24155157.023 8 126936291.059 8      1652.402          51.000    24155158.180 8  97262847.165 8      1266.123          51.000
E12  21995954.578 8 115589519.120 8     -1343.621          50.000    21995955.242 8  88568597.537 8     -1029.468          51.000
E19  24538960.688 7 128953123.560 7     -1344.293          43.000    24538961.070 6  98808255.017 6     -1030.114          41.000
E33  27596769.070 7 145021963.690 7     -2877.230          47.000    27596768.797 7 111120710.370 7     -2204.640          46.000
> 2020 05 05 21 13  0.0000000  0 14        .000000000000
G01  20699991.758 8 108779186.637 8     -1461.930          51.000    20699993.312 8  84763008.059 8     -1139.166          51.000
G03  20341459.445 7 106895103.107 7       331.324          46.000    20341461.500 7  83294894.246 7       258.175          46.000
G04  22148329.344 7 116390249.736 7      3107.340          47.000    22148330.750 7  90693755.205 7      2421.307          43.000
G11  22390805.438 8 117664467.499 8     -3535.754          49.000    22390805.289 7  91686601.444 7     -2755.130          44.000
G22  20975720.281 8 110228217.058 8     -1121.812          51.000    20975717.625 8  85892127.979 8      -874.137          50.000
R04  19346041.109 8 103597179.011 8       604.875          50.000    19346042.367 7  80575598.133 7       470.458          46.000
R05  22356968.188 7 119510753.556 7      3452.168          47.000    22356969.281 7  92952859.078 7      2685.020          44.000
R18  20995417.164 8 112074973.192 8     -3469.195          51.000    20995420.117 7  87169427.095 7     -2698.266          45.000
R19  19195506.391 6 102683008.973 6        79.488          38.000    19195506.508 7  79864566.218 7        61.824          43.000
C27  22675393.281 8 118076713.892 8     -2390.223          51.000
E04  24145757.984 8 126886895.761 8      1638.137          51.000    24145758.922 8  97224998.837 8      1255.172          51.000
E12  22003660.273 8 115630013.207 8     -1358.453          49.000    22003660.492 8  88599625.503 8     -1040.926          51.000
E19  24546666.758 7 128993619.055 7     -1357.895          42.000    24546667.359 6  98839284.061 6     -1040.572          41.000
E33  27613209.523 7 145108360.219 7     -2885.141          43.000    27613209.922 7 111186910.344 7     -2210.614          45.000
> 2020 05 05 21 13 30.0000000  0 15        .000000000000
G01  20708361.312 8 108823168.844 8     -1471.363          51.000    20708363.070 8  84797279.912 8     -1146.517          51.000
G03  20339584.445 7 106885247.637 7       324.305          47.000    20339586.328 8  83287214.690 8       252.705          48.000
G04  22130603.812 7 116297105.651 7      3101.234          45.000    22130604.180 7  90621175.419 7      2416.549          43.000
G11  22411000.250 8 117770590.869 8     -3540.266          49.000    22411000.305 7  91769295.002 7     -2758.645          44.000
G22  20982133.328 8 110261916.800 8     -1126.035          51.000    20982130.375 8  85918387.518 8      -877.430          50.000
R03  20690461.203 4 110757589.289 4     -2878.867          29.000    20690446.664 5  86144784.812 5     -2239.119          30.000
R04  19342689.828 8 103579233.382 8       590.211          50.000    19342691.203 7  80561640.421 7       459.050          46.000
R05  22337605.023 7 119407248.599 7      3446.855          46.000    22337607.055 7  92872355.217 7      2680.888          46.000
R18  21014941.852 8 112179194.839 8     -3480.055          51.000    21014944.641 7  87250488.350 7     -2706.709          46.000
R19  19195114.312 6 102680912.651 6        58.977          39.000    19195114.703 7  79862935.737 7        45.871          43.000
C27  22689181.438 8 118148514.481 8     -2397.648          50.000
E04  24136419.500 8 126837819.146 8      1632.543          51.000    24136420.109 8  97187394.687 8      1250.942          51.000
E12  22011429.906 8 115670844.284 8     -1364.586          48.000    22011430.188 8  88630911.665 8     -1045.652          51.000
E19  24554429.336 6 129034412.946 6     -1362.879          41.000    24554430.375 6  98870541.757 6     -1044.272          41.000
E33  27629672.516 6 145194882.194 6     -2884.090          40.000    27629674.422 7 111253206.430 7     -2209.920          45.000
> 2020 05 05 21 14  0.0000000  0 16        .000000000000
G01  20716798.383 8 108867506.361 8     -1484.449          51.000    20716800.312 8  84831828.617 8     -1156.714          51.000
G03  20337763.352 7 106875677.345 7       313.473          46.000    20337764.867 7  83279757.336 7       244.264          46.000
G04  22112928.484 7 116204225.875 7      3091.043          46.000    22112928.930 7  90548801.568 7      2408.605          44.000
G11  22431235.430 8 117876926.035 8     -3548.641          49.000    22431235.992 7  91852153.572 7     -2765.175          46.000
G22  20988584.359 8 110295816.390 8     -1133.941          51.000    20988581.273 8  85944802.779 8      -883.591          51.000
R03  20706618.789 6 110844052.246 6     -2887.977          37.000    20706593.664 4  86212018.270 4     -2246.210          27.000
R04  19339435.031 8 103561803.896 8       571.684          50.000    19339436.453 7  80548084.165 7       444.643          46.000
R05  22318285.453 7 119303978.428 7      3437.676          46.000    22318288.805 7  92792034.029 7      2673.751          47.000
R18  21034541.188 8 112283815.471 8     -3494.590          51.000    21034543.688 7  87331859.944 7     -2718.017          46.000
R19  19194852.266 6 102679511.893 6        34.402          39.000    19194852.820 7  79861846.255 7        26.757          44.000
C20  26153528.969 5 136188284.248 5      2867.352          33.000
C27  22703026.891 8 118220611.496 8     -2408.797          49.000
E04  24127126.945 8 126788985.269 8      1623.129          51.000    24127127.234 8  97149976.526 8      1243.717          51.000
E12  22019249.375 8 115711935.856 8     -1374.617          49.000    22019249.773 8  88662397.417 8     -1053.239          51.000
E19  24562234.109 7 129075427.592 7     -1371.238          42.000    24562235.031 6  98901968.585 6     -1050.722          41.000
E33  27646145.250 6 145281452.330 6     -2887.148          41.000    27646147.906 7 111319539.395 7     -2212.183          45.000
> 2020 05 05 21 14 30.0000000  0 16        .000000000000
G01  20725318.078 8 108912278.865 8     -1500.078          51.000    20725320.391 8  84866716.271 8     -1168.892          51.000
G03  20336011.344 7 106866471.891 7       300.410          45.000    20336012.922 7  83272584.235 7       234.083          44.000
G04  22095320.039 8 116111692.624 8      3078.176          48.000    22095320.734 7  90476697.744 7      2398.579          45.000
G11  22451525.727 8 117983550.974 8     -3559.379          49.000    22451526.867 7  91935237.930 7     -2773.542          47.000
G22  20995088.492 8 110329995.038 8     -1144.375          51.000    20995085.242 8  85971435.496 8      -891.718          51.000
R03  20722843.453 5 110930865.247 5     -2899.469          33.000    20722814.133 4  86279531.190 4     -2255.148          29.000
R04  19336291.789 8 103544971.156 8       550.719          50.000    19336293.023 7  80534992.039 7       428.337          46.000
R05  22299025.227 7 119201025.835 7      3426.078          47.000    22299029.836 7  92711959.845 7      2664.727          46.000
R18  21054229.734 8 112388914.083 8     -3511.594          51.000    21054231.867 7  87413603.301 7     -2731.240          45.000
R19  19194735.797 6 102678889.115 6         7.375          40.000    19194736.758 7  79861361.867 7         5.733          45.000
C20  26137028.078 6 136102352.353 6      2862.004          37.000
C27  22716944.414 8 118293082.703 8     -2422.273          50.000
E04  24117895.445 8 126740474.561 8      1611.223          51.000    24117895.758 8  97112805.983 8      1234.588          51.000
E12  22027133.734 8 115753367.829 8     -1387.137          50.000    22027133.758 8  88694143.993 8     -1062.898          51.000
E19  24570096.180 6 129116742.071 6     -1382.523          40.000    24570096.617 7  98933625.126 7     -1059.333          42.000
E33  27662643.195 7 145368149.748 7     -2892.520          43.000    27662645.336 7 111385969.885 7     -2216.343          45.000
> 2020 05 05 21 15  0.0000000  0 17        .000000000000
G01  20733917.102 8 108957468.950 8     -1513.133          50.000    20733919.781 8  84901929.312 8     -1179.065          51.000
G03  20334325.914 7 106857613.812 7       289.746          46.000    20334327.203 7  83265681.834 7       225.776          46.000
G04  22077775.203 8 116019490.997 8      3068.070          49.000    22077776.250 7  90404852.346 7      2390.704          45.000
G11  22471867.523 8 118090446.088 8     -3567.367          50.000    22471868.391 7  92018532.814 7     -2779.767          45.000
G17  22336114.195 6 117377078.844 6      1383.836          36.000
G22  21001642.227 8 110364435.006 8     -1152.121          51.000    21001638.953 8  85998271.840 8      -897.757          51.000
R03  20739120.625 5 111017968.402 5     -2908.285          31.000    20739094.602 5  86347277.883 5     -2262.006          33.000
R04  19333256.484 8 103528717.109 8       532.477          48.000    19333257.977 7  80522350.038 7       414.148          46.000
R05  22279822.148 8 119098374.925 8      3416.941          49.000    22279826.664 7  92632120.287 7      2657.621          45.000
R18  21074003.523 8 112494470.057 8     -3525.934          50.000    21074005.539 7  87495702.347 7     -2742.396          45.000
R19  19194761.625 6 102679028.263 6       -17.051          40.000    19194762.977 7  79861470.089 7       -13.262          45.000
C20  26120549.391 6 136016534.828 6      2858.938          39.000
C27  22730930.258 8 118365909.558 8     -2433.230          51.000
E04  24108721.750 8 126692270.275 8      1601.984          51.000    24108722.688 8  97075870.237 8      1227.498          51.000
E12  22035079.578 8 115795122.909 8     -1396.930          51.000    22035078.844 8  88726138.148 8     -1070.339          51.000
E19  24578011.672 6 129158337.678 6     -1390.902          39.000    24578012.125 7  98965497.128 7     -1065.696          42.000
E33  27679162.328 7 145454956.407 7     -2895.082          45.000    27679163.641 7 111452484.067 7     -2218.328          46.000
> 2020 05 05 21 15 30.0000000  0 16        .000000000000
G01  20742596.453 8 109003081.567 8     -1527.332          50.000    20742599.211 8  84937471.611 8     -1190.126          50.000
G03  20332707.445 7 106849107.968 7       277.703          45.000    20332708.547 7  83259053.937 7       216.392          45.000
G04  22060294.922 8 115927628.603 8      3056.664          50.000    22060296.320 7  90333271.291 7      2381.816          47.000
G11  22492261.406 8 118197614.356 8     -3576.578          51.000    22492261.664 7  92102040.526 7     -2786.944          45.000
G22  21008246.516 8 110399140.633 8     -1161.086          51.000    21008243.305 8  86025315.182 8      -904.742          51.000
R03  20755447.570 5 111105364.144 5     -2917.848          30.000    20755421.023 5  86415252.192 5     -2269.440          32.000
R04  19330329.703 8 103513046.224 8       512.844          48.000    19330331.578 7  80510161.573 7       398.878          45.000
R05  22260677.305 8 118996032.524 8      3406.484          49.000    22260680.547 7  92552520.701 7      2649.488          44.000
R18  21093863.250 8 112600486.171 8     -3541.258          49.000    21093866.062 7  87578159.331 7     -2754.312          46.000
R19  19194931.297 6 102679935.843 6       -43.008          40.000    19194933.117 7  79862175.969 7       -33.451          45.000
C20  26104093.305 6 135930837.547 6      2855.059          40.000
C27  22744985.109 8 118439095.776 8     -2445.281          51.000
E04  24099607.266 8 126644378.153 8      1591.402          51.000    24099609.078 8  97039173.688 8      1219.407          51.000
E12  22043087.805 8 115837206.303 8     -1408.047          51.000    22043086.641 8  88758383.853 8     -1078.881          51.000
E19  24585981.148 6 129200218.460 6     -1400.633          41.000    24585982.305 7  98997587.627 7     -1073.173          43.000
E33  27695703.422 7 145541876.751 7     -2898.996          47.000    27695704.484 7 111519085.353 7     -2221.309          47.000
> 2020 05 05 21 16  0.0000000  0 16        .000000000000
G01  20751361.031 8 109049141.276 8     -1541.156          51.000    20751363.648 8  84973362.297 8     -1200.901          51.000
G03  20331160.703 7 106840978.954 7       266.496          46.000    20331161.812 7  83252719.647 7       207.659          46.000
G04  22042884.289 8 115836132.467 8      3045.516          50.000    22042885.742 7  90261975.635 7      2373.129          47.000
G11  22512711.570 8 118305078.320 8     -3585.309          51.000    22512710.984 7  92185778.638 7     -2793.750          44.000
G22  21014905.930 8 110434136.111 8     -1169.551          51.000    21014902.859 8  86052584.386 8      -911.338          51.000
R03  20771790.477 5 111193054.676 5     -2927.309          31.000    20771797.625 4  86483492.479 4     -2276.796          29.000
R04  19327516.508 8 103497982.768 8       493.746          49.000    19327518.820 7  80498445.569 7       384.025          45.000
R05  22241594.859 8 118894025.737 8      3396.465          49.000    22241597.164 7  92473182.168 7      2641.695          44.000
R18  21113813.805 8 112706984.848 8     -3556.180          51.000    21113817.695 8  87660991.652 8     -2765.918          48.000
R19  19195249.406 6 102681638.041 6       -68.277          40.000    19195251.531 7  79863499.893 7       -53.105          45.000
C20  26087664.812 6 135845285.821 6      2850.969          41.000
C27  22759113.430 8 118512664.320 8     -2456.871          51.000
E04  24090557.258 8 126596823.369 8      1581.246          51.000    24090559.656 8  97002735.630 8      1211.637          51.000
E12  22051163.078 8 115879642.670 8     -1418.699          51.000    22051161.945 8  88790900.001 8     -1087.025          51.000
E19  24594009.484 6 129242407.845 6     -1409.641          41.000    24594010.992 7  99029914.551 7     -1080.120          43.000
E33  27712270.852 8 145628934.638 8     -2902.438          49.000    27712272.188 8 111585792.035 8     -2223.898          48.000
> 2020 05 05 21 16 30.0000000  0 16        .000000000000
G01  20760199.305 8 109095586.806 8     -1555.277          51.000    20760201.828 8  85009553.589 8     -1211.907          51.000
G03  20329673.922 7 106833165.530 7       254.422          45.000    20329675.352 7  83246631.254 7       198.251          45.000
G04  22025531.992 8 115744943.894 8      3033.738          50.000    22025533.312 7  90190919.643 7      2363.952          47.000
G11  22533205.977 8 118412774.920 8     -3594.535          50.000    22533204.562 7  92269698.042 7     -2800.936          44.000
G22  21021608.781 8 110469360.126 8     -1178.648          51.000    21021605.867 8  86080031.678 8      -918.424          51.000
R03  20788229.656 5 111281021.505 5     -2937.004          32.000    20788232.320 5  86551906.329 5     -2284.342          30.000
R04  19324805.422 8 103483464.067 8       474.203          49.000    19324807.711 7  80487153.284 7       368.825          45.000
R05  22222562.961 8 118792294.008 8      3385.672          48.000    22222565.906 7  92394057.548 7      2633.300          44.000
R18  21133843.453 8 112813901.532 8     -3571.523          51.000    21133847.281 7  87744149.127 7     -2777.849          47.000
R19  19195704.664 6 102684073.873 6       -94.246          40.000    19195706.914 7  79865394.424 7       -73.303          45.000
C20  26071251.797 6 135759819.887 6      2846.574          40.000
C27  22773303.078 8 118586553.268 8     -2468.965          51.000
E04  24081560.406 8 126549545.382 8      1570.633          51.000    24081562.766 8  96966509.664 8      1203.463          51.000
E12  22059293.773 8 115922370.942 8     -1429.895          50.000    22059292.945 8  88823639.817 8     -1095.499          51.000
E19  24602084.664 6 129284844.071 6     -1419.328          38.000    24602085.945 7  99062430.612 7     -1087.513          43.000
E33  27728852.492 8 145716068.250 8     -2906.426          49.000    27728854.305 8 111652556.759 8     -2226.918          48.000
> 2020 05 05 21 17  0.0000000  0 15        .000000000000
G01  20769119.719 8 109142462.218 8     -1569.258          51.000    20769121.883 8  85046079.838 8     -1222.801          51.000
G03  20328255.320 7 106825711.577 7       243.035          45.000    20328257.328 7  83240822.992 7       189.381          45.000
G04  22008246.820 8 115654109.403 8      3022.426          49.000    22008248.164 8  90120139.541 8      2355.137          48.000
G11  22553752.055 8 118520745.823 8     -3603.020          48.000    22553750.836 7  92353831.195 7     -2807.548          43.000
G22  21028363.359 8 110504856.017 8     -1187.215          51.000    21028360.594 8  86107690.822 8      -925.102          50.000
R04  19322204.273 8 103469534.274 8       454.969          49.000    19322205.852 7  80476319.013 7       353.868          45.000
R05  22203590.812 7 118690883.809 7      3375.406          47.000    22203595.625 7  92315183.000 7      2625.319          45.000
R18  21153959.438 8 112921278.402 8     -3586.359          51.000    21153962.570 7  87827664.511 7     -2789.391          46.000
R19  19196305.633 6 102687289.682 6      -119.887          40.000    19196307.898 7  79867895.597 7       -93.245          46.000
C20  26054862.602 6 135674484.242 6      2842.840          39.000
C27  22787561.961 8 118660804.933 8     -2480.625          51.000
E04  24072625.180 8 126502588.918 8      1560.328          51.000    24072626.852 8  96930530.061 8      1195.594          51.000
E12  22067488.328 8 115965435.252 8     -1440.520          49.000    22067487.773 8  88856637.155 8     -1103.820          51.000
E19  24610215.023 6 129327569.767 6     -1428.543          37.000    24610215.711 7  99095168.455 7     -1094.430          43.000
E33  27745456.570 8 145803321.034 8     -2909.941          49.000    27745458.562 8 111719412.814 8     -2229.630          48.000
> 2020 05 05 21 17 30.0000000  0 15        .000000000000
G01  20778119.156 8 109189752.395 8     -1583.340          51.000    20778120.977 8  85082929.306 8     -1233.771          51.000
G03  20326902.227 7 106818602.138 7       231.055          44.000    20326904.406 7  83235283.161 7       180.043          44.000
G04  21991026.297 7 115563616.550 7      3010.621          47.000    21991027.992 7  90049625.640 7      2345.939          47.000
G11  22574346.477 7 118628974.245 7     -3611.984          46.000    22574345.586 7  92438165.069 7     -2814.530          42.000
G22  21035166.727 8 110540608.269 8     -1196.020          50.000    21035164.016 8  86135549.724 8      -931.963          49.000
R04  19319710.016 8 103456177.548 8       435.625          49.000    19319711.352 7  80465930.476 7       338.819          45.000
R05  22184676.953 8 118589781.849 8      3364.879          48.000    22184683.203 7  92236548.155 7      2617.128          44.000
R18  21174158.359 8 113029097.660 8     -3601.426          51.000    21174159.508 7  87911523.972 7     -2801.106          42.000
R19  19197049.820 6 102691271.278 6      -145.688          40.000    19197052.203 7  79870992.394 7      -113.312          45.000
C20  26038495.898 6 135589265.104 6      2838.508          40.000
C27  22801886.953 8 118735403.195 8     -2492.523          50.000
E04  24063748.531 8 126455939.652 8      1549.855          51.000    24063749.383 8  96894785.866 8      1187.519          51.000
E12  22075743.891 7 116008820.797 7     -1451.629          47.000    22075743.742 8  88889880.618 8     -1112.263          51.000
E19  24618397.328 6 129370569.231 6     -1437.762          36.000    24618398.242 7  99128116.134 7     -1101.763          44.000
E33  27762080.211 8 145890677.352 8     -2913.684          48.000    27762081.953 7 111786348.211 7     -2232.515          46.000
> 2020 05 05 21 18  0.0000000  0 15        .000000000000
G01  20787197.398 8 109237457.178 8     -1596.648          51.000    20787199.016 8  85120101.837 8     -1244.145          51.000
G03  20325614.617 7 106811836.957 7       220.285          45.000    20325616.922 7  83230011.579 7       171.651          45.000
G04  21973870.969 7 115473467.697 7      2999.613          46.000    21973873.203 7  89979379.773 7      2337.361          46.000
G11  22594989.281 7 118737457.904 7     -3619.984          47.000    22594989.109 7  92522697.798 7     -2820.767          42.000
G22  21042018.859 8 110576616.500 8     -1204.094          50.000    21042016.086 8  86163608.104 8      -938.255          50.000
R04  19317322.586 7 103443392.962 7       417.234          47.000    19317323.664 7  80455986.920 7       324.516          45.000
R05  22165821.930 8 118488989.641 8      3354.910          48.000    22165827.844 7  92158154.235 7      2609.375          43.000
R18  21194439.367 8 113137356.635 8     -3615.508          51.000    21194436.711 5  87995725.347 5     -2812.065          35.000
R19  19197937.211 6 102696019.952 6      -170.770          39.000    19197939.562 7  79874685.795 7      -132.821          45.000
C20  26022151.820 6 135504163.135 6      2835.230          41.000
C27  22816277.930 8 118810346.484 8     -2503.371          48.000
E04  24054930.547 8 126409598.132 8      1540.070          51.000    24054930.719 8  96859277.450 8      1180.081          51.000
E12  22084060.547 7 116052527.504 7     -1461.789          47.000    22084061.227 8  88923370.183 8     -1120.084          51.000
E19  24626631.734 6 129413841.372 6     -1446.590          37.000    24626633.016 7  99161272.678 7     -1108.468          44.000
E33  27778723.117 7 145978136.481 7     -2916.555          47.000    27778724.656 7 111853362.403 7     -2234.763          45.000
> 2020 05 05 21 18 30.0000000  0 16        .000000000000
G01  20796353.609 8 109285572.286 8     -1610.332          51.000    20796354.883 8  85157594.122 8     -1254.804          51.000
G03  20324391.867 7 106805411.835 7       208.668          46.000    20324394.312 7  83225004.996 7       162.595          46.000
G04  21956780.844 7 115383661.163 7      2988.387          46.000    21956783.070 7  89909400.665 7      2328.613          46.000
G11  22615680.203 8 118846190.613 8     -3628.148          48.000    22615680.258 7  92607424.580 7     -2827.129          42.000
G22  21048918.875 8 110612876.430 8     -1212.473          50.000    21048916.008 8  86191862.609 8      -944.784          50.000
R04  19315040.672 8 103431175.709 8       398.238          48.000    19315042.266 7  80446484.626 7       309.741          45.000
R05  22147025.328 8 118388504.800 8      3344.793          49.000    22147028.742 7  92079999.450 7      2601.512          42.000
R18  21214800.820 8 113246048.615 8     -3629.883          50.000    21214794.484 6  88080263.366 6     -2823.242          37.000
R19  19198967.203 6 102701532.474 6      -196.062          39.000    19198969.859 7  79878973.310 7      -152.493          45.000
C20  26005829.828 6 135419175.217 6      2831.172          41.000
C27  22830734.391 7 118885629.464 7     -2514.688          47.000
C30  22277072.219 5 116002572.785 5       525.234          35.000
E04  24046170.461 8 126363560.868 8      1529.820          51.000    24046170.125 8  96824002.167 8      1172.191          51.000
E12  22092437.773 7 116096551.369 7     -1472.359          47.000    22092438.992 8  88957102.768 8     -1128.261          51.000
E19  24634917.305 6 129457380.970 6     -1455.547          37.000    24634918.359 7  99194634.176 7     -1115.214          44.000
E33  27795384.078 7 146065693.604 7     -2919.887          44.000    27795386.188 7 111920451.697 7     -2237.376          45.000
> 2020 05 05 21 19  0.0000000  0 16        .000000000000
G01  20805590.008 8 109334109.635 8     -1624.402          51.000    20805591.367 8  85195415.458 8     -1265.765          51.000
G03  20323236.305 7 106799338.682 7       196.914          47.000    20323238.594 7  83220272.675 7       153.443          47.000
G04  21939758.766 7 115294211.388 7      2976.184          47.000    21939760.234 7  89839699.568 7      2319.104          44.000
G11  22636420.938 8 118955182.481 8     -3636.875          48.000    22636420.766 7  92692353.264 7     -2833.932          42.000
G22  21055869.055 8 110649399.363 8     -1221.277          51.000    21055866.062 8  86220322.035 8      -951.648          51.000
R04  19312867.500 8 103419537.555 8       378.746          48.000    19312868.750 7  80437432.712 7       294.580          45.000
R05  22128288.852 8 118288341.463 8      3333.840          49.000    22128289.906 7  92002094.773 7      2592.993          42.000
R18  21235244.258 7 113355183.307 7     -3644.766          47.000    21235240.688 7  88165145.931 7     -2834.815          43.000
R19  19200142.617 6 102707822.155 6      -222.055          39.000    19200145.828 7  79883865.282 7      -172.709          46.000
C20  25989532.008 6 135334314.073 6      2826.754          39.000
C27  22845259.133 8 118961262.700 8     -2526.480          49.000
C30  22274094.680 4 115987078.553 4       508.453          29.000
E04  24037470.383 8 126317840.469 8      1519.148          51.000    24037470.000 8  96788969.673 8      1164.026          51.000
E12  22100877.922 8 116140904.520 8     -1483.457          49.000    22100879.234 8  88991087.645 8     -1136.663          51.000
E19  24643255.758 6 129501181.826 6     -1464.664          36.000    24643256.359 7  99228208.867 7     -1122.290          44.000
E33  27812065.312 7 146153360.027 7     -2923.535          45.000    27812068.469 7 111987624.750 7     -2239.992          45.000
> 2020 05 05 21 19 30.0000000  0 15        .000000000000
G01  20814905.227 8 109383062.995 8     -1638.633          50.000    20814906.953 8  85233560.975 8     -1276.857          50.000
G03  20322146.469 7 106793611.278 7       185.082          47.000    20322148.453 7  83215809.797 7       144.223          47.000
G04  21922804.117 8 115205114.695 8      2963.965          48.000    21922804.492 7  89770273.653 7      2309.586          44.000
G11  22657209.664 8 119064425.216 8     -3645.609          49.000    22657209.078 7  92777477.471 7     -2840.732          42.000
G22  21062868.062 8 110686178.666 8     -1230.340          51.000    21062864.984 8  86248981.220 8      -958.709          51.000
R04  19310801.203 8 103408471.311 8       359.352          48.000    19310802.234 7  80428825.652 7       279.499          46.000
R05  22109610.820 8 118188494.962 8      3322.875          48.000    22109611.656 6  91924436.474 6      2584.461          41.000
R18  21255768.523 7 113464751.728 7     -3659.500          47.000    21255769.117 7  88250365.899 7     -2846.272          46.000
R19  19201462.641 6 102714884.257 6      -248.266          38.000    19201465.969 7  79889358.024 7      -193.095          45.000
C20  25973257.281 6 135249574.591 6      2822.559          39.000
C27  22859850.445 8 119037238.754 8     -2538.258          51.000
E04  24028829.125 8 126272431.430 8      1508.344          51.000    24028829.180 8  96754175.760 8      1155.771          51.000
E12  22109379.977 8 116185580.922 8     -1494.719          51.000    22109380.773 8  89025320.205 8     -1145.280          51.000
E19  24651645.797 6 129545271.184 6     -1474.273          37.000    24651646.141 7  99261991.620 7     -1129.536          45.000
E33  27828766.945 7 146241129.109 7     -2927.465          47.000    27828770.180 7 112054876.450 7     -2243.045          44.000
> 2020 05 05 21 20  0.0000000  0 15        .000000000000
G01  20824299.031 8 109432429.112 8     -1652.059          51.000    20824300.891 8  85272028.089 8     -1287.318          51.000
G03  20321121.805 8 106788226.401 8       174.074          48.000    20321123.492 8  83211613.791 8       135.642          48.000
G04  21905916.672 8 115116370.375 8      2952.543          49.000    21905916.680 7  89701122.298 7      2300.683          46.000
G11  22678045.047 7 119173913.834 7     -3653.379          47.000    22678044.445 7  92862793.275 7     -2846.789          43.000
G22  21069915.109 8 110723210.616 8     -1238.359          51.000    21069912.055 8  86277837.265 8      -964.955          51.000
R04  19308840.781 8 103397973.051 8       340.887          49.000    19308842.211 7  80420660.346 7       265.131          46.000
R05  22090990.586 7 118088963.755 7      3312.609          45.000    22090992.250 6  91847023.364 6      2576.474          41.000
R18  21276374.047 8 113574748.099 8     -3673.332          49.000    21276377.188 7  88335918.693 7     -2857.036          47.000
R19  19202927.016 6 102722716.582 6      -273.719          39.000    19202929.969 7  79895449.822 7      -212.892          45.000
C20  25957006.297 6 135164954.502 6      2819.039          40.000
C27  22874506.945 8 119113553.084 8     -2549.109          51.000
E04  24020246.258 8 126227331.181 8      1498.477          51.000    24020247.047 8  96719618.456 8      1148.162          51.000
E12  22117943.195 8 116230577.412 8     -1505.023          51.000    22117942.984 8  89059798.027 8     -1153.239          51.000
E19  24660086.547 6 129589627.609 6     -1482.695          36.000    24660087.008 7  99295978.997 7     -1136.106          45.000
E33  27845488.180 8 146328996.935 8     -2930.164          48.000    27845490.531 7 112122203.801 7     -2245.280          44.000
> 2020 05 05 21 20 30.0000000  0 15        .000000000000
G01  20833771.688 8 109482207.835 8     -1666.062          51.000    20833773.414 8  85310816.725 8     -1298.231          51.000
G03  20320162.289 8 106783184.020 8       162.566          48.000    20320164.062 8  83207684.681 8       126.675          48.000
G04  21889096.930 8 115027980.884 8      2940.656          50.000    21889097.461 7  89632247.399 7      2291.423          47.000
G11  22698926.391 7 119283645.728 7     -3661.547          46.000    22698926.172 7  92948298.661 7     -2853.153          43.000
G22  21077010.258 8 110760495.416 8     -1246.852          51.000    21077007.109 8  86306890.356 8      -971.573          50.000
R04  19306986.367 8 103388042.094 8       321.742          48.000    19306987.672 7  80412936.263 7       250.244          46.000
R05  22072429.602 7 117989749.895 7      3302.016          46.000    22072432.719 7  91769857.000 7      2568.231          42.000
R18  21297060.227 8 113685169.852 8     -3687.602          51.000    21297064.227 7  88421802.281 7     -2868.135          46.000
R19  19204535.727 6 102731319.609 6      -299.223          38.000    19204538.047 7  79902141.067 7      -232.729          45.000
C20  25940778.805 6 135080454.696 6      2814.867          40.000
C27  22889228.078 8 119190204.353 8     -2560.477          51.000
E04  24011722.117 8 126182540.392 8      1488.012          51.000    24011723.562 8  96685298.259 8      1140.204          51.000
E12  22126567.227 8 116275894.116 8     -1515.699          51.000    22126566.523 8  89094521.192 8     -1161.401          51.000
E19  24668577.773 6 129634250.325 6     -1491.672          36.000    24668578.750 7  99330170.422 7     -1143.017          45.000
E33  27862228.305 8 146416962.908 8     -2933.668          48.000    27862229.492 7 112189606.330 7     -2247.932          44.000
> 2020 05 05 21 21  0.0000000  0 15        .000000000000
G01  20843322.398 8 109532396.462 8     -1680.113          51.000    20843323.977 8  85349924.742 8     -1309.179          51.000
G03  20319267.391 7 106778481.418 7       150.668          47.000    20319269.391 7  83204020.314 7       117.404          47.000
G04  21872344.734 8 114939946.038 8      2928.258          51.000    21872345.945 8  89563648.822 8      2281.759          48.000
G11  22719852.953 7 119393616.675 7     -3670.043          46.000    22719853.016 6  93033990.338 6     -2859.774          41.000
G22  21084152.781 8 110798029.627 8     -1255.621          51.000    21084149.500 8  86336137.799 8      -978.406          50.000
R04  19305237.031 8 103378675.120 8       302.375          48.000    19305238.539 7  80405650.859 7       235.181          46.000
R05  22053929.719 7 117890851.979 7      3290.988          47.000    22053932.547 6  91692936.423 6      2559.658          41.000
R18  21317825.492 8 113796011.741 8     -3702.109          51.000    21317828.969 7  88508012.600 7     -2879.421          43.000
R19  19206288.148 6 102740692.379 6      -325.523          38.000    19206289.828 7  79909430.992 7      -253.185          44.000
C20  25924574.359 6 134996073.538 6      2810.219          40.000
C27  22904012.750 8 119267188.597 8     -2572.098          51.000
E04  24003256.547 8 126138056.981 8      1477.250          51.000    24003258.578 8  96651213.581 8      1131.982          51.000
E12  22135251.617 8 116321528.464 8     -1526.711          51.000    22135250.508 8  89129487.755 8     -1169.859          51.000
E19  24677118.734 5 129679135.512 5     -1500.754          35.000    24677120.477 7  99364563.000 7     -1150.057          45.000
E33  27878986.227 7 146505023.757 7     -2937.285          47.000    27878986.633 7 112257081.520 7     -2250.641          44.000
> 2020 05 05 21 21 30.0000000  0 16        .000000000000
G01  20852947.594 8 109582977.236 8     -1691.055          51.000    20852948.977 8  85389338.299 8     -1317.708          51.000
G03  20318433.656 7 106774100.863 7       142.184          47.000    20318435.930 7  83200606.901 7       110.792          47.000
G04  21855657.070 8 114852250.646 8      2919.027          51.000    21855658.672 8  89495314.762 8      2274.567          48.000
G11  22740821.383 7 119503806.978 7     -3675.020          47.000    22740820.750 6  93119852.906 6     -2863.652          41.000
G22  21091339.344 8 110835795.373 8     -1261.160          51.000    21091335.906 8  86365565.667 8      -982.722          50.000
R03  20955381.320 5 112175798.951 5     -3023.207          35.000    20955352.781 4  87247760.474 4     -2351.383          26.000
R04  19303589.398 8 103369853.258 8       286.438          49.000    19303591.008 7  80398789.423 7       222.782          45.000
R05  22035486.602 7 117792254.181 7      3283.113          47.000    22035488.164 7  91616249.293 7      2553.536          42.000
R18  21338665.617 8 113907253.198 8     -3713.176          51.000    21338667.344 7  88594533.650 7     -2888.029          42.000
R19  19208181.398 6 102750817.384 6      -348.613          39.000    19208182.344 7  79917306.007 7      -271.144          44.000
C20  25908389.805 6 134911794.449 6      2808.926          41.000
C27  22918857.320 8 119344486.955 8     -2580.336          51.000
E04  23994846.508 8 126093864.003 8      1469.742          51.000    23994848.922 8  96617351.437 8      1126.214          51.000
E12  22143992.977 8 116367462.909 8     -1534.539          51.000    22143991.641 8  89164684.271 8     -1175.837          51.000
E19  24685705.992 6 129724264.517 6     -1506.895          38.000    24685708.281 7  99399142.376 7     -1154.526          46.000
E33  27895758.383 7 146593161.251 7     -2937.598          47.000    27895758.273 7 112324615.423 7     -2250.821          45.000
> 2020 05 05 21 22  0.0000000  0 16        .000000000000
G01  20862652.766 8 109633977.958 8     -1707.402          51.000    20862654.430 8  85429079.088 8     -1330.443          51.000
G03  20317666.828 8 106770070.300 8       128.098          49.000    20317669.008 8  83197466.202 8        99.816          49.000
G04  21839039.719 8 114764925.224 8      2904.258          51.000    21839041.227 7  89427268.985 7      2263.061          47.000
G11  22761836.742 8 119614242.511 8     -3685.566          48.000    22761835.336 6  93205906.524 6     -2871.870          41.000
G22  21098575.133 8 110873820.186 8     -1272.199          51.000    21098571.734 8  86395195.396 8      -991.324          49.000
R03  20972351.750 6 112266665.724 6     -3033.496          36.000    20972344.602 4  87318434.707 4     -2359.377          25.000
R04  19302049.102 8 103361604.330 8       265.047          48.000    19302050.305 7  80392373.594 7       206.148          45.000
R05  22017103.867 7 117693986.432 7      3269.770          46.000    22017104.797 7  91539818.895 7      2543.157          42.000
R18  21359585.180 8 114018920.146 8     -3729.684          51.000    21359587.039 7  88681385.661 7     -2900.865          45.000
R19  19210220.688 6 102761724.395 6      -376.973          39.000    19210221.117 7  79925789.238 7      -293.201          44.000
C20  25892230.648 7 134827645.993 7      2802.500          42.000
C27  22933767.102 8 119422125.778 8     -2593.945          51.000
E04  23986497.523 8 126049989.984 8      1456.805          51.000    23986499.805 8  96583733.700 8      1116.244          51.000
E12  22152796.305 8 116413725.493 8     -1547.992          50.000    22152795.203 8  89200132.206 8     -1186.043          51.000
E19  24694345.148 6 129769664.642 6     -1518.105          39.000    24694347.406 7  99433929.480 7     -1163.290          46.000
E33  27912549.977 7 146681402.693 7     -2943.516          46.000    27912549.508 7 112392228.982 7     -2255.370          45.000
> 2020 05 05 21 22 30.0000000  0 16        .000000000000
G01  20872438.453 8 109685401.618 8     -1720.457          51.000    20872440.062 8  85469149.442 8     -1340.616          51.000
G03  20316967.227 8 106766392.760 8       117.375          49.000    20316969.133 8  83194600.601 8        91.461          49.000
G04  21822493.734 8 114677975.148 8      2892.723          51.000    21822494.953 7  89359515.697 7      2254.070          47.000
G11  22782898.961 7 119724924.373 7     -3692.879          47.000    22782897.789 7  93292152.075 7     -2877.568          43.000
G22  21105860.742 8 110912106.889 8     -1279.988          51.000    21105857.625 8  86425029.200 8      -997.393          50.000
R03  20989373.172 5 112357791.662 5     -3040.820          33.000    20989376.297 4  87389379.488 4     -2365.082          26.000
R04  19300615.898 8 103353930.672 8       246.801          48.000    19300617.398 7  80386405.208 7       191.956          45.000
R05  21998782.227 7 117596053.862 7      3259.664          44.000    21998782.906 6  91463649.151 6      2535.297          41.000
R18  21380583.766 8 114131013.085 8     -3742.867          50.000    21380587.234 8  88768569.043 8     -2911.119          48.000
R19  19212406.984 6 102773417.535 6      -402.469          39.000    19212407.023 7  79934883.919 7      -313.031          44.000
C20  25876097.547 7 134743632.265 7      2798.945          43.000
C27  22948742.438 8 119500106.793 8     -2604.438          51.000
E04  23978210.242 8 126006438.698 8      1446.906          51.000    23978211.859 8  96550363.254 8      1108.680          51.000
E12  22161662.391 8 116460319.378 8     -1558.027          48.000    22161661.516 8  89235834.029 8     -1193.906          51.000
E19  24703036.586 6 129815337.672 6     -1526.277          38.000    24703038.727 7  99468925.725 7     -1169.602          46.000
E33  27929361.328 7 146769750.552 7     -2946.105          47.000    27929361.039 7 112459924.122 7     -2257.388          45.000
> 2020 05 05 21 23  0.0000000  0 15        .000000000000
G01  20882307.164 8 109737262.049 8     -1734.957          51.000    20882308.797 8  85509560.148 8     -1351.915          51.000
G03  20316337.234 8 106763082.167 8       105.566          48.000    20316338.875 8  83192020.934 8        82.260          48.000
G04  21806022.320 8 114591416.847 8      2879.848          50.000    21806023.203 8  89292067.700 8      2244.040          48.000
G11  22804010.195 7 119835864.415 7     -3701.117          46.000    22804009.320 7  93378598.841 7     -2883.987          44.000
G22  21113198.859 8 110950669.184 8     -1288.902          50.000    21113195.977 8  86455077.749 8     -1004.339          50.000
R04  19299292.797 8 103346845.785 8       227.480          48.000    19299294.375 7  80380894.738 7       176.932          45.000
R05  21980526.688 7 117498472.161 7      3248.109          45.000    21980526.961 7  91387752.342 7      2526.310          42.000
R18  21401663.039 7 114243543.404 7     -3757.113          47.000    21401668.578 8  88856092.651 8     -2922.199          48.000
R19  19214743.156 6 102785911.611 6      -428.676          40.000    19214742.625 7  79944601.550 7      -333.411          44.000
C20  25859992.680 7 134659767.985 7      2794.055          43.000
C27  22963785.711 8 119578442.428 8     -2615.906          51.000
E04  23969987.422 8 125963224.681 8      1435.934          51.000    23969987.961 8  96517251.230 8      1100.240          51.000
E12  22170594.039 7 116507258.566 7     -1569.332          47.000    22170593.680 8  89271800.436 8     -1202.457          50.000
E19  24711782.734 6 129861296.683 6     -1535.332          39.000    24711784.695 7  99504141.128 7     -1176.794          46.000
E33  27946195.352 7 146858218.109 7     -2949.844          46.000    27946195.688 7 112527710.989 7     -2260.240          45.000
> 2020 05 05 21 23 30.0000000  0 16        .000000000000
G01  20892246.695 8 109789494.492 8     -1746.258          51.000    20892248.469 8  85550260.741 8     -1360.720          51.000
G03  20315764.633 8 106760073.926 8        96.117          48.000    20315766.031 8  83189676.852 8        74.897          48.000
G04  21789613.594 8 114505188.186 8      2869.867          49.000    21789614.047 8  89224876.582 8      2236.260          48.000
G11  22825157.359 7 119946996.224 7     -3706.527          44.000    22825157.266 7  93465195.040 7     -2888.203          43.000
G22  21120577.062 8 110989442.049 8     -1294.902          51.000    21120574.258 8  86485290.380 8     -1009.015          49.000
R03  21023550.422 5 112540633.940 5     -3055.641          34.000    21023537.758 4  87531590.709 4     -2376.603          27.000
R04  19298067.242 8 103340282.859 8       211.133          48.000    19298068.719 7  80375790.240 7       164.214          45.000
R05  21962326.203 8 117401177.411 8      3239.469          48.000    21962326.594 7  91312078.708 7      2519.590          43.000
R18  21422811.422 7 114356443.068 7     -3768.371          47.000    21422818.672 8  88943903.548 8     -2930.955          48.000
R19  19217216.531 6 102799142.051 6      -452.215          40.000    19217216.055 7  79954891.900 7      -351.723          44.000
C20  25843903.898 7 134575990.048 7      2792.137          43.000
C27  22978884.414 8 119657067.293 8     -2624.633          50.000
E04  23961816.766 8 125920283.970 8      1427.934          51.000    23961816.289 8  96484348.619 8      1094.116          51.000
E12  22179579.039 7 116554478.554 7     -1577.590          47.000    22179579.305 8  89307982.005 8     -1208.740          50.000
E19  24720570.797 7 129907476.295 7     -1541.848          42.000    24720572.289 7  99539525.479 7     -1181.431          45.000
E33  27963040.109 7 146946740.185 7     -2950.605          47.000    27963041.180 7 112595539.646 7     -2260.788          45.000
> 2020 05 05 21 24  0.0000000  0 15        .000000000000
G01  20902262.156 8 109842126.069 8     -1761.891          51.000    20902263.945 8  85591272.351 8     -1372.902          51.000
G03  20315254.852 8 106757395.200 8        83.043          49.000    20315256.242 8  83187589.521 8        64.709          49.000
G04  21773273.117 8 114419318.849 8      2855.629          48.000    21773273.523 8  89157965.452 8      2225.168          48.000
G11  22846345.352 7 120058344.835 7     -3716.086          42.000    22846346.242 7  93551960.257 7     -2895.648          42.000
G22  21128000.430 8 111028452.202 8     -1305.062          51.000    21127997.500 8  86515687.905 8     -1016.932          50.000
R03  21040708.961 6 112632460.977 6     -3065.164          36.000    21040691.414 4  87603011.758 4     -2384.016          27.000
R04  19296944.258 8 103334269.060 8       190.484          48.000    19296945.703 7  80371112.867 7       148.155          44.000
R05  21944185.109 7 117304199.175 7      3226.359          46.000    21944186.211 7  91236651.222 7      2509.394          44.000
R18  21444034.469 7 114469736.947 7     -3783.840          47.000    21444042.180 7  89032021.013 7     -2942.987          47.000
R19  19219832.875 6 102813137.143 6      -480.316          40.000    19219832.484 7  79965776.974 7      -373.579          44.000
C20  25827836.672 7 134492326.346 7      2785.996          42.000
C27  22994043.352 8 119736007.037 8     -2637.328          50.000
E04  23953703.320 8 125877644.425 8      1415.434          51.000    23953702.328 8  96451676.764 8      1084.532          51.000
E12  22188622.656 7 116602006.719 7     -1590.203          46.000    22188623.383 8  89344399.676 8     -1218.527          49.000
E19  24729405.773 7 129953902.773 7     -1552.527          42.000    24729406.656 7  99575099.008 7     -1189.575          45.000
> 2020 05 05 21 24 30.0000000  0 15        .000000000000
G01  20912367.094 8 109895229.278 8     -1776.793          51.000    20912369.141 8  85632651.485 8     -1384.514          51.000
G03  20314821.656 8 106755118.620 8        70.406          48.000    20314823.289 8  83185815.569 8        54.862          48.000
G04  21757015.031 8 114333883.935 8      2841.738          48.000    21757015.867 7  89091392.831 7      2214.345          47.000
G11  22867588.062 7 120169981.174 7     -3724.754          42.000    22867589.672 7  93638949.654 7     -2902.403          42.000
G17  22204159.672 5 116683659.750 5      1046.590          35.000
G22  21135482.711 8 111067772.204 8     -1314.645          50.000    21135479.734 8  86546326.878 8     -1024.398          50.000
R04  19295937.703 8 103328877.494 8       170.449          48.000    19295938.836 7  80366919.449 7       132.572          44.000
R05  21926115.906 7 117207612.914 7      3214.199          44.000    21926118.609 7  91161528.562 7      2499.933          44.000
R18  21465345.734 8 114583496.137 8     -3798.438          49.000    21465352.531 7  89120500.389 7     -2954.340          46.000
R19  19222605.625 6 102827971.897 6      -507.469          39.000    19222605.742 7  79977315.122 7      -394.698          44.000
C20  25811805.547 7 134408849.889 7      2780.441          43.000
C27  23009276.258 8 119815332.276 8     -2649.410          51.000
E04  23945660.898 8 125835379.308 8      1403.723          51.000    23945659.828 8  96419291.822 8      1075.610          51.000
E12  22197739.062 7 116649915.749 7     -1602.199          47.000    22197740.180 8  89381109.157 8     -1227.608          49.000
E19  24738301.062 7 130000647.666 7     -1562.309          42.000    24738301.930 7  99610916.539 7     -1197.094          45.000
> 2020 05 05 21 25  0.0000000  0 15        .000000000000
G01  20922540.883 8 109948694.847 8     -1788.641          51.000    20922543.477 8  85674312.972 8     -1393.746          51.000
G03  20314444.250 8 106753135.009 8        60.801          49.000    20314446.008 8  83184269.907 8        47.377          49.000
G04  21740819.289 8 114248776.749 8      2830.797          48.000    21740820.625 7  89025075.576 7      2205.816          47.000
G11  22888865.492 7 120281793.715 7     -3730.539          45.000    22888865.875 6  93726076.302 6     -2906.917          38.000
G14  23684539.086 5 124463071.795 5     -2871.605          32.000
G22  21143003.070 8 111107292.742 8     -1321.199          50.000    21143000.195 8  86577122.100 8     -1029.506          50.000
R04  19295026.070 8 103323996.335 8       153.742          48.000    19295027.477 7  80363123.000 7       119.577          44.000
R05  21908100.070 7 117111309.510 7      3204.859          45.000    21908103.039 7  91086625.894 7      2492.668          44.000
R18  21486723.305 8 114697607.384 8     -3810.125          50.000    21486728.688 7  89209253.567 7     -2963.434          43.000
R19  19225514.680 6 102843535.807 6      -531.320          39.000    19225515.406 7  79989420.389 7      -413.249          44.000
C20  25795790.234 7 134325453.433 7      2778.145          43.000
C27  23024562.477 8 119894933.492 8     -2658.418          51.000
E04  23937668.758 8 125793380.108 8      1395.160          51.000    23937667.930 8  96387110.638 8      1069.019          51.000
E12  22206907.805 8 116698096.554 8     -1610.977          48.000    22206908.859 8  89418026.911 8     -1234.391          49.000
E19  24747235.906 7 130047601.051 7     -1569.113          43.000    24747237.117 7  99646893.802 7     -1202.254          45.000
> 2020 05 05 21 25 30.0000000  0 15        .000000000000
G01  20932793.055 8 110002571.560 8     -1802.441          50.000    20932796.008 8  85716294.832 8     -1404.503          50.000
G03  20314131.914 8 106751493.352 8        49.211          49.000    20314133.531 8  83182990.702 8        38.346          49.000
G04  21724695.820 8 114164048.622 8      2818.152          48.000    21724697.414 7  88959053.690 7      2195.963          46.000
G11  22910185.844 7 120393829.671 7     -3737.934          46.000    22910182.672 5  93813376.968 5     -2912.682          35.000
G14  23700966.969 5 124549368.158 5     -2880.430          35.000
G22  21150570.852 8 111147062.245 8     -1329.641          50.000    21150567.984 8  86608111.335 8     -1036.081          49.000
R04  19294219.016 8 103319674.445 8       134.879          48.000    19294220.375 7  80359761.536 7       104.906          43.000
R05  21890147.328 8 117015340.050 8      3193.770          48.000    21890149.562 7  91011983.068 7      2484.049          44.000
R18  21508175.781 8 114812117.805 8     -3823.367          49.000    21508179.281 7  89298317.212 7     -2973.730          42.000
R19  19228569.406 6 102859879.841 6      -557.465          39.000    19228570.953 7  80002132.404 7      -433.584          44.000
C20  25779800.328 7 134242186.398 7      2773.598          44.000
C27  23039910.969 8 119974857.825 8     -2669.242          50.000
E04  23929736.156 8 125751696.369 8      1384.504          51.000    23929735.898 8  96355171.164 8      1060.872          51.000
E12  22216137.703 8 116746598.148 8     -1621.770          49.000    22216138.688 8  89455190.468 8     -1242.571          50.000
E19  24756219.688 7 130094811.101 7     -1577.773          43.000    24756220.969 7  99683067.729 7     -1208.770          45.000
> 2020 05 05 21 26  0.0000000  0 15        .000000000000
G01  20943121.711 8 110056848.863 8     -1816.172          51.000    20943124.641 8  85758588.832 8     -1415.199          51.000
G03  20313882.555 8 106750183.149 8        37.785          49.000    20313884.078 8  83181969.785 8        29.443          49.000
G04  21708642.953 8 114079691.639 8      2805.297          48.000    21708644.625 7  88893320.997 7      2185.946          46.000
G11  22931546.328 7 120506076.736 7     -3745.398          47.000    22931540.703 6  93900842.138 6     -2918.495          36.000
G14  23717435.289 5 124635909.324 5     -2888.852          32.000
G22  21158184.023 8 111187070.018 8     -1337.824          50.000    21158181.070 8  86639286.225 8     -1042.463          48.000
R04  19293514.305 7 103315900.394 7       116.336          47.000    19293515.523 7  80356826.170 7        90.484          43.000
R05  21872255.203 8 116919696.056 8      3182.430          48.000    21872257.141 7  90937593.364 7      2475.223          45.000
R18  21529700.438 8 114927014.045 8     -3836.586          50.000    21529703.062 7  89387680.934 7     -2984.011          43.000
R19  19231768.250 6 102876993.783 6      -583.570          39.000    19231770.164 7  80015443.240 7      -453.888          44.000
C20  25763833.789 7 134159039.451 7      2769.340          44.000
C27  23055319.070 8 120055093.565 8     -2679.945          49.000
E04  23921861.281 8 125710318.278 8      1373.945          51.000    23921861.922 8  96323465.909 8      1052.706          51.000
E12  22225426.750 8 116795410.204 8     -1632.465          49.000    22225427.438 8  89492591.913 8     -1250.904          51.000
E19  24765250.070 7 130142266.168 7     -1586.254          43.000    24765251.281 7  99719429.420 7     -1215.381          45.000
> 2020 05 05 21 26 30.0000000  0 15        .000000000000
G01  20953529.156 8 110111539.526 8     -1831.570          51.000    20953531.555 8  85801204.939 8     -1427.198          51.000
G03  20313698.617 8 106749217.254 8        26.211          49.000    20313700.297 8  83181217.143 8        20.424          49.000
G04  21692663.562 7 113995720.955 7      2792.410          47.000    21692665.312 7  88827889.299 7      2175.904          47.000
G11  22952948.656 7 120618545.318 7     -3752.840          45.000    22952943.852 6  93988480.002 6     -2924.291          40.000
G14  23733952.805 5 124722761.550 5     -2897.062          30.000
G22  21165844.945 8 111227328.560 8     -1346.383          50.000    21165841.922 8  86670656.510 8     -1049.129          48.000
R04  19292913.844 7 103312686.404 7        97.574          46.000    19292915.148 7  80354326.418 7        75.891          42.000
R05  21854425.641 7 116824391.906 7      3171.008          47.000    21854428.703 7  90863467.960 7      2466.339          46.000
R18  21551299.414 8 115042306.538 8     -3849.773          51.000    21551301.852 7  89477352.887 7     -2994.268          43.000
R19  19235113.719 6 102894891.352 6      -609.863          40.000    19235116.078 7  80029363.561 7      -474.338          44.000
C20  25747892.742 7 134076026.191 7      2764.988          43.000
C27  23070789.469 8 120135652.025 8     -2690.871          50.000
E04  23914047.219 8 125669259.265 8      1363.047          51.000    23914048.742 8  96292005.126 8      1044.430          51.000
E12  22234777.703 8 116844545.556 8     -1643.461          50.000    22234777.617 8  89530241.097 8     -1259.296          51.000
E19  24774329.492 7 130189978.280 7     -1595.008          44.000    24774330.648 7  99755988.062 7     -1222.101          45.000
> 2020 05 05 21 27  0.0000000  0 14        .000000000000
G01  20964015.953 8 110166646.738 8     -1843.734          51.000    20964017.719 8  85844145.610 8     -1436.676          51.000
G03  20313580.898 8 106748599.120 8        14.980          49.000    20313582.656 8  83180735.477 8        11.673          49.000
G04  21676759.070 8 113912142.515 8      2779.504          48.000    21676760.859 7  88762763.236 7      2165.847          47.000
G11  22974393.016 7 120731237.229 7     -3760.184          46.000    22974390.211 7  94076291.923 7     -2930.013          42.000
G22  21173554.320 8 111267841.217 8     -1354.473          50.000    21173551.180 7  86702224.814 7     -1055.433          47.000
R04  19292419.078 7 103310035.312 7        79.125          46.000    19292419.734 7  80352264.445 7        61.542          42.000
R05  21836660.500 7 116729433.377 7      3159.629          46.000    21836664.938 7  90789611.346 7      2457.489          46.000
R18  21572972.586 8 115157996.221 8     -3862.719          50.000    21572974.852 7  89567333.760 7     -3004.340          43.000
R19  19238606.844 6 102913576.868 6      -635.770          40.000    19238609.180 7  80043896.730 7      -494.487          45.000
C20  25731977.297 6 133993151.100 6      2760.484          39.000
C27  23086322.969 8 120216535.293 8     -2701.418          51.000
E04  23906294.852 8 125628523.441 8      1352.625          51.000    23906297.094 8  96260791.992 8      1036.400          51.000
E12  22244190.812 8 116894007.810 8     -1654.105          51.000    22244189.953 8  89568140.750 8     -1267.440          51.000
E19  24783458.352 7 130237949.990 7     -1603.258          45.000    24783459.367 7  99792745.603 7     -1228.566          45.000
> 2020 05 05 21 27 30.0000000  0 15        .000000000000
G01  20974581.016 8 110222165.559 8     -1857.004          51.000    20974582.555 8  85887407.009 8     -1447.016          51.000
G03  20313528.625 8 106748324.108 8         3.906          50.000    20313530.164 8  83180521.176 8         3.044          50.000
G04  21660929.234 8 113828953.985 8      2766.988          49.000    21660930.742 7  88697941.008 7      2156.098          47.000
G11  22995879.141 8 120844145.889 8     -3766.738          48.000    22995877.375 7  94164272.727 7     -2935.121          43.000
G22  21181311.055 8 111308602.964 8     -1362.371          50.000    21181307.906 7  86733987.206 7     -1061.588          47.000
R04  19292028.008 7 103307941.253 7        60.980          47.000    19292028.867 7  80350635.759 7        47.429          43.000
R05  21818960.609 8 116634816.924 8      3148.664          48.000    21818964.703 7  90716020.813 7      2448.964          46.000
R18  21594718.484 8 115274075.435 8     -3875.285          50.000    21594720.484 7  89657617.568 7     -3014.111          44.000
R19  19242246.734 6 102933046.115 6      -661.535          41.000    19242249.000 7  80059039.451 7      -514.527          44.000
C20  25716086.789 6 133910410.418 6      2756.414          38.000
C27  23101917.828 8 120297737.355 8     -2711.578          51.000
C30  22238202.164 5 115800162.254 5       223.387          34.000
E04  23898603.445 8 125588106.696 8      1342.434          51.000    23898605.602 8  96229823.345 8      1028.627          51.000
E12  22253664.938 8 116943792.330 8     -1664.367          51.000    22253663.562 8  89606287.328 8     -1275.270          51.000
E19  24792635.352 7 130286175.520 7     -1611.230          45.000    24792636.164 7  99829697.624 7     -1234.648          45.000
> 2020 05 05 21 28  0.0000000  0 15        .000000000000
G01  20985220.703 8 110278077.548 8     -1870.863          50.000    20985222.328 8  85930974.784 8     -1457.816          50.000
G03  20313538.156 8 106748373.793 8        -7.719          49.000    20313539.367 8  83180559.901 8        -6.015          50.000
G04  21645170.680 8 113746139.399 8      2753.703          49.000    21645171.742 7  88633410.198 7      2145.746          47.000
G11  23017402.852 8 120957250.813 8     -3774.047          50.000    23017401.359 7  94252406.440 7     -2940.813          44.000
G22  21189111.711 8 111349595.315 8     -1370.898          50.000    21189108.461 7  86765929.308 7     -1068.233          45.000
R04  19291737.867 7 103306384.812 7        42.410          46.000    19291738.469 7  80349425.198 7        32.986          43.000
R05  21801321.273 7 116540525.760 7      3137.020          47.000    21801324.930 7  90642683.306 7      2439.907          45.000
R18  21616533.008 8 115390523.101 8     -3888.344          48.000    21616535.422 7  89748187.955 7     -3024.267          46.000
R19  19246029.789 6 102953280.878 6      -688.016          40.000    19246031.695 7  80074777.602 7      -535.123          44.000
C20  25700219.609 6 133827786.902 6      2751.449          39.000
C27  23117570.000 8 120379238.610 8     -2722.277          51.000
C30  22236958.289 5 115793704.737 5       206.086          33.000
E04  23890969.914 8 125547991.313 8      1331.527          51.000    23890970.984 8  96199085.605 8      1020.291          51.000
E12  22263196.609 8 116993880.793 8     -1675.344          51.000    22263194.875 8  89644666.778 8     -1283.633          51.000
E19  24801857.016 7 130334635.745 7     -1619.727          45.000    24801857.531 7  99866829.499 7     -1241.197          45.000
> 2020 05 05 21 28 30.0000000  0 15        .000000000000
G01  20995936.336 8 110334389.954 8     -1884.051          50.000    20995938.094 8  85974854.587 8     -1468.092          50.000
G03  20313610.828 8 106748755.609 8       -18.492          50.000    20313611.766 8  83180857.442 8       -14.409          50.000
G04  21629485.008 8 113663708.607 8      2741.105          49.000    21629485.883 8  88569178.446 8      2135.926          48.000
G11  23038964.906 8 121070557.478 8     -3780.414          51.000    23038963.570 7  94340697.334 7     -2945.777          44.000
G22  21196957.555 8 111390825.209 8     -1378.473          50.000    21196954.117 7  86798056.499 7     -1074.138          45.000
R04  19291548.891 7 103305372.443 7        24.547          47.000    19291549.414 7  80348637.821 7        19.092          42.000
R05  21783744.875 8 116446568.944 8      3126.121          48.000    21783747.820 7  90569605.795 7      2431.431          45.000
R18  21638417.273 7 115507344.004 7     -3900.383          47.000    21638420.539 8  89839048.655 8     -3033.631          48.000
R19  19249957.141 6 102974289.315 6      -713.176          40.000    19249959.242 7  80091117.477 7      -554.692          44.000
C20  25684377.414 6 133745288.864 6      2747.703          39.000
C27  23133280.273 8 120461045.018 8     -2732.156          51.000
C30  22235814.070 6 115787750.843 6       190.176          37.000
E04  23883395.594 8 125508185.281 8      1321.500          51.000    23883395.703 8  96168584.899 8      1012.578          51.000
E12  22272787.398 8 117044280.642 8     -1685.438          51.000    22272785.523 8  89683284.815 8     -1291.457          51.000
E19  24811124.625 7 130383337.297 7     -1627.555          46.000    24811124.984 7  99904146.257 7     -1247.078          45.000
> 2020 05 05 21 29  0.0000000  0 16        .000000000000
G01  21006728.086 8 110391101.830 8     -1888.238          51.000    21006730.188 8  86019045.669 8     -1471.355          50.000
G03  20313746.656 8 106749468.898 8       -20.477          51.000    20313747.312 8  83181413.265 8       -15.956          51.000
G04  21613872.398 8 113581663.278 8      2737.219          49.000    21613873.430 8  88505247.039 8      2132.898          48.000
G11  23060564.609 8 121184063.016 8     -3777.934          50.000    23060563.281 7  94429143.190 7     -2943.847          44.000
G14  23817237.438 5 125160425.599 5     -2928.332          30.000
G22  21204848.445 8 111432291.735 8     -1377.301          50.000    21204844.742 7  86830368.061 7     -1073.224          45.000
R04  19291461.656 7 103304902.669 7        15.598          46.000    19291461.500 7  80348272.461 7        12.132          42.000
R05  21766232.055 8 116352947.433 8      3124.082          51.000    21766234.633 7  90496789.127 7      2429.845          46.000
R18  21660371.016 7 115624534.852 7     -3903.598          46.000    21660374.953 8  89930197.119 8     -3036.128          49.000
R19  19254029.086 6 102996071.116 6      -729.688          40.000    19254031.094 7  80108058.870 7      -567.535          44.000
C20  25668558.305 6 133662916.575 6      2752.066          37.000
C27  23149048.508 8 120543154.448 8     -2733.277          51.000
C30  22234768.828 6 115782300.807 6       182.148          38.000
E04  23875880.242 8 125468688.507 8      1320.160          51.000    23875879.930 8  96138321.165 8      1011.566          51.000
E12  22282437.359 8 117094991.209 8     -1686.723          51.000    22282435.391 8  89722140.930 8     -1292.454          51.000
E19  24820437.773 7 130432278.507 7     -1626.391          46.000    24820438.305 7  99941646.664 7     -1246.336          45.000
> 2020 05 05 21 29 30.0000000  0 15        .000000000000
G01  21017603.391 8 110448252.219 8     -1911.074          51.000    21017605.828 8  86063578.424 8     -1489.149          51.000
G03  20313952.875 8 106750552.795 8       -41.078          51.000    20313953.734 8  83182257.879 8       -32.009          51.000
G04  21598340.828 8 113500044.992 8      2714.699          49.000    21598342.125 8  88441648.391 8      2115.350          48.000
G11  23082209.023 8 121297805.118 8     -3794.188          50.000    23082207.859 7  94517773.405 7     -2956.510          44.000
G22  21212791.820 8 111474034.098 8     -1394.695          51.000    21212787.828 7  86862894.561 7     -1086.776          44.000
R04  19291482.297 7 103305014.370 7       -12.008          46.000    19291482.367 6  80348359.380 6        -9.339          41.000
R05  21748789.742 8 116259702.584 8      3103.133          50.000    21748792.070 7  90424265.402 7      2413.548          47.000
R18  21682400.336 7 115742132.459 7     -3925.305          43.000    21682405.414 8  90021661.979 8     -3053.012          49.000
R19  19258253.344 6 103018666.971 6      -765.750          39.000    19258254.836 7  80125633.427 7      -595.583          44.000
C20  25652769.789 6 133580709.691 6      2738.973          40.000
C27  23164881.969 8 120625604.317 8     -2752.688          51.000
C30  22233826.711 6 115777394.363 6       156.215          36.000
E04  23868431.180 8 125429540.684 8      1300.445          51.000    23868430.805 8  96108324.793 8       996.415          51.000
E12  22292153.805 8 117146051.694 8     -1706.566          51.000    22292151.664 8  89761265.180 8     -1307.590          51.000
E19  24829803.727 7 130481497.631 7     -1643.961          46.000    24829804.602 7  99979360.029 7     -1259.661          45.000
> 2020 05 05 21 30  0.0000000  0 16        .000000000000
G01  21028551.234 8 110505782.990 8     -1925.125          51.000    21028553.609 8  86108407.568 8     -1500.097          51.000
G03  20314218.469 8 106751949.431 8       -52.762          50.000    20314219.852 8  83183346.187 8       -41.113          50.000
G04  21582879.797 8 113418798.215 8      2700.930          49.000    21582881.148 8  88378339.224 8      2104.621          48.000
G11  23103886.461 7 121411723.672 7     -3801.324          47.000    23103885.945 7  94606541.101 7     -2962.071          44.000
G14  23850873.391 5 125337185.170 5     -2954.602          32.000
G22  21220776.578 8 111515994.029 8     -1403.289          50.000    21220772.297 7  86895590.596 7     -1093.472          43.000
R04  19291600.578 7 103305647.706 7       -30.902          45.000    19291600.555 6  80348851.979 6       -24.035          41.000
R05  21731406.219 8 116166777.506 8      3091.062          49.000    21731409.023 7  90351990.382 7      2404.160          47.000
R18  21704493.633 7 115860075.730 7     -3938.328          44.000    21704500.195 8  90113395.697 8     -3063.144          48.000
R19  19262618.758 6 103042018.271 6      -791.883          38.000    19262620.148 7  80143795.528 7      -615.912          45.000
C20  25637002.984 7 133498611.946 7      2733.672          43.000
C27  23180769.594 8 120708335.888 8     -2763.469          51.000
C30  22232977.609 6 115772975.022 6       138.125          40.000
E04  23861037.414 8 125390684.569 8      1289.234          51.000    23861037.234 8  96078551.916 8       987.891          51.000
E12  22301925.578 8 117197404.244 8     -1717.684          50.000    22301923.719 8  89800613.236 8     -1316.162          51.000
E19  24839211.500 7 130530935.794 7     -1652.652          46.000    24839212.422 7 100017241.232 7     -1266.318          46.000
> 2020 05 05 21 30 30.0000000  0 16        .000000000000
G01  21039576.672 8 110563721.721 8     -1937.879          51.000    21039578.633 8  86153554.600 8     -1510.039          51.000
G03  20314548.945 8 106753686.551 8       -63.410          49.000    20314550.461 8  83184699.801 8       -49.411          49.000
G04  21567495.133 8 113337953.061 8      2688.398          49.000    21567496.445 7  88315343.016 7      2094.856          47.000
G11  23125601.609 7 121525844.339 7     -3807.191          43.000    23125602.281 7  94695466.317 7     -2966.643          42.000
G14  23867755.406 5 125425900.455 5     -2960.262          32.000
G22  21228807.961 8 111558198.954 8     -1410.781          50.000    21228803.422 7  86928477.552 7     -1099.310          43.000
R04  19291820.984 7 103306829.956 7       -48.344          43.000    19291821.172 6  80349771.525 6       -37.601          41.000
R05  21714087.047 8 116074202.067 8      3080.117          48.000    21714090.547 7  90279987.279 7      2395.647          46.000
R18  21726657.742 8 115978390.030 8     -3949.820          48.000    21726663.305 7  90205417.894 7     -3072.082          44.000
R19  19267130.727 6 103066153.520 6      -817.348          38.000    19267131.828 7  80162567.400 7      -635.715          44.000
C20  25621263.461 7 133416651.721 7      2729.910          45.000
C27  23196716.273 8 120791375.256 8     -2772.945          51.000
C30  22232228.008 6 115769071.047 6       121.965          38.000
E04  23853704.289 8 125352148.473 8      1279.457          51.000    23853704.688 8  96049024.252 8       980.384          51.000
E12  22311758.000 8 117249076.641 8     -1727.500          48.000    22311756.727 8  89840206.391 8     -1323.624          51.000
E19  24848666.188 7 130580620.073 7     -1659.906          47.000    24848667.102 7 100055311.007 7     -1271.945          46.000
> 2020 05 05 21 31  0.0000000  0 16        .000000000000
G01  21050677.570 8 110622057.482 8     -1951.508          51.000    21050679.664 8  86199011.001 8     -1520.658          51.000
G03  20314942.266 8 106755753.538 8       -74.754          50.000    20314943.508 8  83186310.438 8       -58.250          50.000
G04  21552185.641 8 113257501.232 8      2674.789          49.000    21552186.539 7  88252653.295 7      2084.254          45.000
G11  23147352.414 6 121640154.604 6     -3813.738          41.000    23147354.484 6  94784539.310 6     -2971.741          41.000
G14  23884680.164 5 125514840.848 5     -2969.023          34.000
G22  21236883.891 8 111600638.215 8     -1418.867          51.000    21236879.250 7  86961547.106 7     -1105.611          43.000
R04  19292141.469 7 103308549.409 7       -66.574          43.000    19292142.305 6  80351108.857 6       -51.780          40.000
R05  21696832.297 8 115981966.787 8      3068.520          50.000    21696835.727 7  90208248.781 7      2386.629          46.000
R18  21748889.836 8 116097061.958 8     -3961.949          51.000    21748892.922 7  90297718.185 7     -3081.519          43.000
R19  19271787.344 6 103091062.237 6      -843.602          38.000    19271788.047 7  80181940.869 7      -656.135          46.000
C20  25605548.797 7 133334819.422 7      2725.266          46.000
C27  23212719.516 8 120874710.437 8     -2783.027          51.000
C30  22231574.531 6 115765672.856 6       104.445          39.000
E04  23846430.008 8 125313922.295 8      1268.652          51.000    23846430.961 8  96019734.073 8       972.072          51.000
E12  22321648.844 7 117301058.261 7     -1738.285          47.000    22321648.531 8  89880036.501 8     -1331.978          51.000
E19  24858165.328 7 130630538.612 7     -1668.219          47.000    24858166.578 7 100093560.277 7     -1278.332          46.000
> 2020 05 05 21 31 30.0000000  0 16        .000000000000
G01  21061854.195 8 110680791.120 8     -1963.871          51.000    21061856.438 8  86244777.456 8     -1530.289          51.000
G03  20315398.648 8 106758151.489 8       -84.918          50.000    20315399.305 8  83188178.973 8       -66.170          50.000
G04  21536951.773 8 113177446.119 8      2662.344          50.000    21536952.078 7  88190272.703 7      2074.554          44.000
G11  23169140.805 7 121754653.708 7     -3819.391          43.000    23169142.734 7  94873759.415 7     -2976.149          43.000
G14  23901647.820 5 125604008.716 5     -2975.898          34.000
G22  21245004.500 8 111643312.410 8     -1425.922          51.000    21245000.062 7  86994799.736 7     -1111.108          43.000
R04  19292562.805 7 103310806.214 7       -83.582          43.000    19292563.766 6  80352864.160 6       -65.005          40.000
R05  21679642.578 8 115890074.524 8      3057.824          51.000    21679645.219 7  90136777.052 7      2378.308          46.000
R18  21771188.555 8 116216089.649 8     -3972.992          51.000    21771190.453 7  90390295.193 7     -3090.108          45.000
R19  19276588.758 6 103116746.069 6      -868.590          40.000    19276589.719 7  80201917.168 7      -675.570          46.000
C20  25589858.812 7 133253117.103 7      2721.738          46.000
C27  23228779.109 8 120958341.080 8     -2792.180          50.000
C30  22231019.344 6 115762782.215 6        88.434          38.000
E04  23839214.953 8 125276007.715 8      1259.043          51.000    23839216.195 8  95990682.648 8       964.730          51.000
E12  22331599.008 8 117353350.191 8     -1747.738          49.000    22331599.633 8  89920104.361 8     -1339.203          51.000
E19  24867709.016 7 130680691.845 7     -1675.301          47.000    24867710.734 7 100131989.387 7     -1283.630          46.000
> 2020 05 05 21 32  0.0000000  0 17        .000000000000
G01  21073098.445 8 110739879.927 8     -1977.586          50.000    21073100.625 8  86290820.708 8     -1540.973          50.000
G03  20315909.914 8 106760837.880 8       -96.410          50.000    20315910.250 8  83190272.286 8       -75.122          49.000
G04  21521785.828 8 113097747.579 8      2648.734          50.000    21521785.391 7  88128169.977 7      2063.952          44.000
G11  23190957.547 7 121869296.969 7     -3825.957          46.000    23190958.781 6  94963091.822 6     -2981.265          40.000
G14  23918649.422 5 125693356.025 5     -2984.035          34.000    23918654.609 5  97942890.758 5     -2325.222          30.000
G22  21253161.766 8 111686179.030 8     -1433.992          51.000    21253157.664 7  87028202.277 7     -1117.400          43.000
R03  21320906.430 6 114132429.481 6     -3179.637          37.000    21320905.422 4  88769703.323 4     -2473.051          24.000
R04  19293075.922 7 103313555.815 7      -101.844          44.000    19293077.227 6  80355002.757 6       -79.212          39.000
R05  21662509.172 8 115798483.566 8      3046.020          51.000    21662511.727 7  90065539.684 7      2369.129          46.000
R18  21793544.938 8 116335427.292 8     -3985.055          51.000    21793547.039 7  90483113.313 7     -3099.487          47.000
R19  19281526.984 6 103143161.825 6      -894.496          41.000    19281527.766 7  80222462.789 7      -695.719          45.000
C20  25574185.625 7 133171503.519 7      2717.109          45.000
C27  23244887.094 8 121042223.635 8     -2802.215          48.000
C30  22230553.477 6 115760357.947 6        71.086          37.000
E04  23832051.023 8 125238362.755 8      1248.477          51.000    23832052.414 8  95961837.826 8       956.598          51.000
E12  22341600.875 8 117405909.947 8     -1758.336          50.000    22341601.898 8  89960377.440 8     -1347.269          51.000
E19  24877289.164 8 130731036.375 8     -1683.293          48.000    24877291.109 7 100170565.068 7     -1289.643          46.000
> 2020 05 05 21 32 30.0000000  0 17        .000000000000
G01  21084428.109 8 110799416.264 8     -1990.836          51.000    21084430.344 8  86337212.659 8     -1551.301          51.000
G03  20316493.688 8 106763905.363 8      -107.578          49.000    20316494.156 8  83192662.563 8       -83.824          49.000
G04  21506705.773 8 113018500.574 8      2635.062          49.000    21506704.734 7  88066419.096 7      2053.295          44.000
G11  23212819.250 7 121984175.172 7     -3831.891          47.000    23212819.562 6  95052607.263 6     -2985.889          38.000
G14  23935702.594 5 125782966.301 5     -2990.480          33.000
G22  21261373.258 8 111729330.282 8     -1441.996          51.000    21261369.234 7  87061826.633 7     -1123.633          43.000
R03  21338746.117 5 114227931.932 5     -3185.598          31.000
R04  19293699.250 7 103316891.902 7      -119.863          44.000    19293700.078 6  80357597.485 6       -93.227          38.000
R05  21645448.844 8 115707289.942 8      3034.355          48.000    21645452.539 7  89994611.322 7      2360.054          46.000
R18  21815975.984 8 116455166.207 8     -3996.812          50.000    21815978.969 8  90576243.574 8     -3108.632          48.000
R19  19286619.781 7 103170404.170 7      -920.754          42.000    19286620.539 7  80243651.292 7      -716.142          47.000
C20  25558547.680 8 133090071.487 8      2712.453          48.000
C27  23261061.273 8 121126448.450 8     -2812.059          48.000
C30  22230195.633 6 115758492.535 6        53.812          38.000
E04  23824955.852 8 125201080.613 8      1237.949          51.000    23824957.594 8  95933271.020 8       948.538          51.000
E12  22351671.570 8 117458830.153 8     -1768.746          50.000    22351672.719 8  90000926.705 8     -1355.300          51.000
E19  24886923.078 8 130781663.856 8     -1691.137          48.000    24886925.219 7 100209357.550 7     -1295.797          46.000
> 2020 05 05 21 33  0.0000000  0 17        .000000000000
G01  21095832.352 8 110859343.187 8     -2004.355          51.000    21095834.039 8  86383908.949 8     -1561.835          51.000
G03  20317139.211 8 106767297.232 8      -118.672          50.000    20317140.078 8  83195305.588 8       -92.472          50.000
G04  21491701.078 8 112939650.614 8      2621.480          49.000    21491700.117 7  88004977.615 7      2042.715          46.000
G11  23234714.391 7 122099229.537 7     -3838.227          46.000    23234713.328 6  95142259.981 6     -2990.826          37.000
G14  23952796.586 5 125872799.941 5     -2997.055          32.000
G22  21269628.047 8 111772709.373 8     -1450.051          50.000    21269624.172 7  87095628.518 7     -1129.910          42.000
R03  21356620.898 6 114323617.104 6     -3192.816          36.000
R04  19294420.586 7 103320755.343 7      -137.707          45.000    19294421.602 6  80360602.424 6      -107.102          39.000
R05  21628451.734 7 115616437.198 7      3022.352          47.000    21628457.188 7  89923948.095 7      2350.718          46.000
R18  21838470.484 8 116575246.102 8     -4008.621          49.000    21838474.906 8  90669639.058 8     -3117.816          50.000
R19  19291856.273 7 103198415.509 7      -946.738          42.000    19291857.164 7  80265437.866 7      -736.352          46.000
C20  25542934.359 8 133008765.615 8      2707.840          49.000
C27  23277290.586 7 121210957.862 7     -2821.879          46.000
C30  22229934.477 5 115757130.581 5        37.203          35.000
E04  23817919.273 8 125164105.096 8      1227.051          51.000    23817921.320 8  95904939.153 8       940.178          51.000
E12  22361799.945 8 117512054.071 8     -1779.547          50.000    22361801.383 8  90041708.686 8     -1363.585          51.000
E19  24896599.906 7 130832516.719 7     -1699.086          47.000    24896602.125 7 100248322.732 7     -1302.002          45.000
> 2020 05 05 21 33 30.0000000  0 16        .000000000000
G01  21107313.570 8 110919674.710 8     -2020.090          51.000    21107314.398 8  86430920.511 8     -1574.096          51.000
G03  20317849.062 8 106771027.812 8      -132.348          50.000    20317850.219 8  83198212.525 8      -103.128          50.000
G04  21476774.875 8 112861214.396 8      2605.191          49.000    21476774.867 7  87943858.530 7      2030.019          46.000
G11  23256644.984 7 122214472.519 7     -3846.914          44.000    23256642.992 6  95232059.661 6     -2997.598          36.000
G22  21277928.898 8 111816330.499 8     -1460.371          50.000    21277924.984 6  87129619.000 6     -1137.952          41.000
R03  21374528.359 4 114419460.094 4     -3201.188          29.000
R04  19295243.445 7 103325159.929 7      -158.223          43.000    19295244.039 6  80364028.242 6      -123.062          39.000
R05  21611522.164 8 115525941.761 8      3008.172          48.000    21611527.742 7  89853562.792 7      2339.692          44.000
R18  21861031.141 8 116695679.021 8     -4022.703          50.000    21861036.781 8  90763309.125 8     -3128.769          50.000
R19  19297239.055 7 103227210.812 7      -975.270          42.000    19297239.664 7  80287834.237 7      -758.543          44.000
C20  25527348.180 8 132927601.111 8      2700.812          48.000
C27  23293577.070 7 121295764.675 7     -2834.301          46.000
C30  22229772.805 6 115756287.109 6        17.035          37.000
E04  23810944.219 8 125127451.095 8      1214.105          51.000    23810946.383 8  95876853.642 8       930.301          51.000
E12  22371988.789 8 117565595.964 8     -1792.355          50.000    22371990.547 8  90082734.285 8     -1373.327          51.000
E19  24906322.281 7 130883608.319 7     -1709.281          47.000    24906324.047 7 100287470.843 7     -1309.703          45.000
> 2020 05 05 21 34  0.0000000  0 15        .000000000000
G01  21118875.500 8 110980431.149 8     -2030.723          51.000    21118875.664 8  86478263.177 8     -1582.381          51.000
G03  20318627.352 8 106775117.666 8      -140.730          50.000    20318628.438 8  83201399.423 8      -109.660          50.000
G04  21461931.633 8 112783214.828 8      2594.176          49.000    21461932.633 7  87883079.662 7      2021.436          46.000
G11  23278614.648 7 122329922.736 7     -3850.301          43.000    23278612.305 6  95322020.837 6     -3000.234          36.000
G22  21286279.609 8 111860213.989 8     -1465.652          50.000    21286275.664 7  87163813.917 7     -1142.067          42.000
R04  19296170.055 7 103330125.546 7      -173.328          44.000    19296171.086 6  80367890.390 6      -134.814          39.000
R05  21594664.375 8 115435826.152 8      2998.941          48.000    21594668.109 7  89783472.943 7      2332.513          42.000
R18  21883661.586 8 116816482.850 8     -4031.379          49.000    21883667.742 8  90857267.664 8     -3135.517          49.000
R19  19302771.992 6 103256811.013 6      -998.543          41.000    19302772.867 7  80310856.608 7      -776.645          45.000
C20  25511793.023 8 132846599.276 8      2698.793          48.000
C27  23309924.367 7 121380887.781 7     -2841.074          47.000
C30  22229714.156 6 115755983.239 6         2.566          36.000
E04  23804034.438 8 125091139.696 8      1206.117          51.000    23804036.695 8  95849030.661 8       924.165          51.000
E12  22382241.969 8 117619476.415 8     -1800.129          49.000    22382243.477 8  90124019.319 8     -1379.349          50.000
E19  24916093.875 7 130934958.396 7     -1714.535          47.000    24916094.953 7 100326816.998 7     -1313.681          45.000
> 2020 05 05 21 34 30.0000000  0 15        .000000000000
G01  21130506.016 8 111041549.708 8     -2044.281          51.000    21130506.328 8  86525888.000 8     -1592.946          51.000
G03  20319462.180 8 106779504.315 8      -152.215          50.000    20319463.250 8  83204817.586 8      -118.609          50.000
G04  21447160.195 8 112705591.647 8      2580.203          50.000    21447161.570 7  87822594.072 7      2010.548          45.000
G11  23300611.344 6 122445515.732 6     -3856.594          41.000    23300608.969 6  95412093.262 6     -3005.138          37.000
G22  21294668.266 8 111904297.011 8     -1473.656          49.000    21294664.586 7  87198164.316 7     -1148.304          42.000
R04  19297190.516 7 103335587.328 7      -191.215          43.000    19297191.008 6  80372138.445 6      -148.720          39.000
R05  21577866.336 8 115346028.133 8      2986.965          49.000    21577869.422 7  89713630.116 7      2323.198          44.000
R18  21906349.086 8 116937591.345 8     -4042.957          49.000    21906355.273 8  90951463.178 8     -3144.519          48.000
R19  19308443.531 6 103287152.456 6     -1024.918          41.000    19308445.180 7  80334455.447 7      -797.161          44.000
C20  25496257.422 8 132765699.082 8      2694.062          49.000
C27  23326320.383 8 121466263.826 8     -2850.984          49.000
C30  22229747.047 5 115756157.652 5       -14.500          35.000
E04  23797178.273 8 125055108.886 8      1195.387          51.000    23797180.312 8  95821422.677 8       915.997          51.000
E12  22392547.344 7 117673632.850 7     -1810.727          47.000    22392548.289 8  90165515.795 8     -1387.443          48.000
E19  24925902.602 7 130986503.502 7     -1722.355          47.000    24925903.367 7 100366312.577 7     -1319.634          45.000
> 2020 05 05 21 35  0.0000000  0 15        .000000000000
G01  21142211.578 8 111103063.498 8     -2056.887          51.000    21142212.258 8  86573820.823 8     -1602.769          51.000
G03  20320359.750 8 106784221.207 8      -162.684          50.000    20320361.117 8  83208493.095 8      -126.766          50.000
G04  21432467.508 8 112628380.507 8      2566.902          51.000    21432468.250 7  87762429.591 7      2000.184          43.000
G11  23322641.242 6 122561283.116 6     -3861.762          38.000    23322639.039 6  95502301.603 6     -3009.165          38.000
G22  21303101.344 8 111948612.995 8     -1481.062          49.000    21303097.648 7  87232696.223 7     -1154.075          42.000
R04  19298309.273 7 103341578.444 7      -208.605          45.000    19298309.984 6  80376798.227 6      -162.249          39.000
R05  21561134.266 8 115256583.268 8      2975.688          49.000    21561137.898 7  89644061.939 7      2314.424          44.000
R18  21929099.570 8 117059035.989 8     -4053.578          49.000    21929105.906 7  91045920.140 7     -3152.783          47.000
R19  19314260.211 6 103318269.479 6     -1050.098          40.000    19314261.492 7  80358657.598 7      -816.740          43.000
C20  25480747.938 8 132684934.638 8      2690.000          49.000
C27  23342771.180 8 121551924.493 8     -2859.953          51.000
C30  22229877.852 5 115756844.207 5       -31.316          34.000
E04  23790382.148 8 125019392.673 8      1185.398          51.000    23790383.812 8  95794055.738 8       908.295          51.000
E12  22402911.188 7 117728098.717 7     -1820.551          46.000    22402911.062 7  90207249.347 7     -1395.081          46.000
E19  24935754.766 7 131038276.283 7     -1729.355          47.000    24935755.531 7 100405982.642 7     -1325.210          45.000
> 2020 05 05 21 35 30.0000000  0 15        .000000000000
G01  21153993.500 8 111164980.838 8     -2071.227          49.000    21153994.891 8  86622068.097 8     -1613.943          49.000
G03  20321321.797 8 106789276.974 8      -174.645          51.000    20321323.328 8  83212432.660 8      -136.087          51.000
G04  21417855.461 8 112551592.294 8      2551.977          50.000    21417855.219 7  87702594.676 7      1988.556          43.000
G11  23344703.469 5 122677231.183 5     -3868.891          32.000    23344703.664 5  95592650.818 5     -3014.720          33.000
G22  21311580.305 8 111993170.304 8     -1489.707          49.000    21311576.438 7  87267416.187 7     -1160.811          43.000
R04  19299528.578 7 103348106.576 7      -226.996          42.000    19299528.906 6  80381875.640 6      -176.553          39.000
R05  21544469.875 8 115167502.025 8      2962.793          48.000    21544473.508 7  89574776.558 7      2304.398          44.000
R18  21951914.484 8 117180822.669 8     -4065.637          49.000    21951920.414 7  91140643.122 7     -3162.162          44.000
R19  19320223.891 6 103350170.796 6     -1077.133          39.000    19320225.578 7  80383469.732 7      -837.770          44.000
C20  25465266.070 8 132604315.300 8      2684.359          49.000
C27  23359277.805 8 121637876.843 8     -2870.484          51.000
C30  22230108.336 5 115758052.246 5       -49.680          34.000
E04  23783647.594 8 124984000.161 8      1173.785          51.000    23783648.883 8  95766936.806 8       899.436          51.000
E12  22413335.828 7 117782882.556 7     -1831.914          47.000    22413334.266 7  90249226.546 7     -1403.776          46.000
E19  24945651.914 8 131090284.474 8     -1737.996          48.000    24945652.555 7 100445833.056 7     -1331.756          45.000
> 2020 05 05 21 36  0.0000000  0 15        .000000000000
G01  21165852.008 7 111227303.275 7     -2083.234          47.000    21165854.461 7  86670631.045 7     -1623.300          47.000
G03  20322348.656 8 106794673.537 8      -184.734          51.000    20322350.039 8  83216637.779 8      -143.949          51.000
G04  21403324.438 8 112475231.133 8      2539.023          49.000    21403323.953 7  87643092.530 7      1978.460          45.000
G11  23366798.688 5 122793360.029 5     -3873.227          35.000    23366802.695 6  95683140.984 6     -3018.096          36.000
G22  21320105.516 8 112037970.626 8     -1496.449          50.000    21320101.492 7  87302325.519 7     -1166.064          43.000
R04  19300847.844 7 103355172.527 7      -243.496          43.000    19300848.547 6  80387371.368 6      -189.386          39.000
R05  21527873.828 8 115078787.818 8      2951.820          49.000    21527877.594 7  89505776.657 7      2295.860          43.000
R18  21974793.812 8 117302950.443 8     -4075.738          49.000    21974798.141 6  91235631.354 6     -3170.022          40.000
R19  19326334.484 6 103382858.123 6     -1101.680          38.000    19326336.547 7  80408893.188 7      -856.862          44.000
C20  25449812.453 8 132523843.998 8      2680.664          49.000
C27  23375840.461 8 121724121.242 8     -2878.758          51.000
C30  22230439.727 5 115759784.444 5       -65.961          35.000
E04  23776974.914 8 124948933.774 8      1164.266          51.000    23776975.680 8  95740067.762 8       892.133          51.000
E12  22423821.914 8 117837986.204 8     -1841.250          48.000    22423819.781 8  90291448.799 8     -1410.822          48.000
E19  24955594.023 8 131142528.977 8     -1744.551          48.000    24955594.508 7 100485864.527 7     -1336.572          45.000
> 2020 05 05 21 36 30.0000000  0 15        .000000000000
G01  21177783.852 7 111290009.612 7     -2096.867          47.000    21177787.156 8  86719493.134 8     -1633.922          48.000
G03  20323436.375 8 106800389.912 8      -195.969          51.000    20323437.609 8  83221092.110 8      -152.703          51.000
G04  21388871.055 8 112399278.329 8      2524.836          49.000    21388870.805 7  87583908.570 7      1967.405          46.000
G11  23388926.906 6 122909647.018 6     -3878.898          36.000    23388932.266 5  95773754.300 5     -3022.512          34.000
G22  21328673.008 8 112082992.842 8     -1504.488          49.000    21328668.938 7  87337407.761 7     -1172.325          43.000
R04  19302263.172 7 103362753.833 7      -261.500          42.000    19302264.172 6  80393267.959 6      -203.386          38.000
R05  21511343.008 8 114990420.875 8      2939.695          49.000    21511346.789 7  89437046.845 7      2286.430          44.000
R18  21997732.711 8 117425395.107 8     -4086.785          48.000    21997735.023 6  91330865.989 6     -3178.614          40.000
R19  19332588.148 6 103416310.421 6     -1127.727          38.000    19332590.133 7  80434911.656 7      -877.121          44.000
C20  25434382.938 8 132443500.892 8      2675.879          48.000
C27  23392454.719 8 121810635.490 8     -2888.359          51.000
C30  22230869.945 6 115762020.356 6       -83.203          37.000
E04  23770360.281 8 124914173.046 8      1153.430          51.000    23770360.586 8  95713432.919 8       883.815          51.000
E12  22434365.102 8 117893388.691 8     -1851.773          49.000    22434362.930 8  90333900.048 8     -1418.945          49.000
E19  24965576.695 7 131194988.010 7     -1752.391          47.000    24965577.305 7 100526060.423 7     -1342.738          45.000
> 2020 05 05 21 37  0.0000000  0 15        .000000000000
G01  21189790.359 8 111353105.050 8     -2109.465          49.000    21189793.828 8  86768658.404 8     -1643.739          48.000
G03  20324586.047 8 106806431.712 8      -206.445          51.000    20324587.391 8  83225799.998 8      -160.866          51.000
G04  21374496.836 8 112323741.780 8      2511.121          49.000    21374497.180 7  87525048.945 7      1956.718          47.000
G11  23411086.781 5 123026095.440 5     -3884.492          35.000    23411092.609 6  95864493.296 6     -3026.877          36.000
G22  21337283.766 8 112128242.436 8     -1511.871          48.000    21337279.828 7  87372667.187 7     -1178.081          44.000
R04  19303776.227 7 103370855.150 7      -278.367          43.000    19303776.438 6  80399568.955 6      -216.508          39.000
R05  21494878.281 8 114902408.396 8      2928.012          49.000    21494882.352 7  89368592.714 7      2277.342          45.000
R18  22020731.727 7 117548159.928 7     -4097.289          47.000    22020733.125 7  91426349.684 7     -3186.780          43.000
R19  19338986.133 6 103450532.959 6     -1153.121          39.000    19338987.875 7  80461529.190 7      -896.872          45.000
C20  25418979.266 8 132363292.369 8      2671.633          49.000
C27  23409121.469 8 121897423.601 8     -2897.227          51.000
C30  22231397.359 5 115764766.480 5       -99.996          35.000
E04  23763804.883 8 124879724.035 8      1143.422          51.000    23763805.172 8  95687036.937 8       876.122          51.000
E12  22444966.109 8 117949095.497 8     -1861.637          50.000    22444963.977 8  90376584.486 8     -1426.443          49.000
E19  24975600.961 7 131247666.366 7     -1759.336          47.000    24975601.625 7 100566424.349 7     -1348.039          45.000
> 2020 05 05 21 37 30.0000000  0 15        .000000000000
G01  21201871.344 8 111416589.606 8     -2121.906          50.000    21201874.781 8  86818126.862 8     -1653.433          50.000
G03  20325797.711 8 106812799.278 8      -217.090          51.000    20325799.273 8  83230761.733 8      -169.161          51.000
G04  21360202.125 8 112248623.919 8      2497.523          49.000    21360203.344 8  87466515.551 8      1946.119          48.000
G11  23433277.602 6 123142703.640 6     -3889.242          38.000    23433283.203 6  95955356.833 6     -3030.578          36.000
G22  21345937.789 8 112173719.498 8     -1519.109          48.000    21345933.969 7  87408103.856 7     -1183.719          44.000
R04  19305385.781 7 103379475.495 7      -295.391          42.000    19305386.516 6  80406273.725 6      -229.742          38.000
R05  21478480.516 8 114814752.049 8      2916.559          50.000    21478484.984 7  89300415.571 7      2268.434          43.000
R18  22043790.094 7 117671242.416 7     -4107.477          46.000    22043791.414 7  91522080.512 7     -3194.704          45.000
R19  19345528.141 6 103485526.247 6     -1178.699          40.000    19345529.289 7  80488746.192 7      -916.766          44.000
C20  25403601.945 8 132283219.682 8      2667.527          49.000
C27  23425840.367 8 121984484.416 8     -2905.871          51.000
C30  22232022.852 6 115768023.508 6      -116.406          38.000
E04  23757308.766 8 124845587.538 8      1133.406          51.000    23757309.203 8  95660880.422 8       868.430          51.000
E12  22455625.031 8 118005106.827 8     -1871.512          50.000    22455623.039 8  90419502.279 8     -1433.947          50.000
E19  24985666.836 7 131300563.281 7     -1766.184          47.000    24985667.305 7 100606955.755 7     -1353.351          45.000
> 2020 05 05 21 38  0.0000000  0 15        .000000000000
G01  21214026.320 8 111480462.230 8     -2135.348          51.000    21214029.805 8  86867897.709 8     -1663.907          51.000
G03  20327071.219 8 106819491.879 8      -228.227          51.000    20327072.820 8  83235976.753 8      -177.839          51.000
G04  21345987.469 8 112173926.276 8      2482.945          48.000    21345989.453 8  87408309.600 8      1934.763          48.000
G11  23455498.586 6 123259469.381 6     -3894.660          37.000    23455503.969 5  96046343.159 5     -3034.800          33.000
G22  21354634.797 7 112219423.111 7     -1527.047          46.000    21354631.203 7  87443717.087 7     -1189.907          43.000
R04  19307092.109 7 103388613.126 7      -312.988          45.000    19307092.023 6  80413380.745 6      -243.435          37.000
R05  21462149.852 8 114727452.615 8      2904.207          49.000    21462153.469 6  89232516.054 6      2258.831          40.000
R18  22066905.438 6 117794638.875 6     -4118.316          39.000    22066908.727 7  91618055.568 7     -3203.135          47.000
R19  19352213.750 6 103521289.498 6     -1204.695          40.000    19352214.562 7  80516562.044 7      -936.985          45.000
C20  25388250.617 8 132203283.083 8      2662.418          48.000
C27  23442611.219 8 122071815.762 8     -2915.387          50.000
C30  22232747.258 6 115771791.489 6      -133.961          36.000
E04  23750871.836 8 124811763.348 8      1122.535          51.000    23750872.203 8  95634963.211 8       860.064          51.000
E12  22466341.664 8 118061421.945 8     -1882.121          50.000    22466340.008 8  90462652.836 8     -1442.073          50.000
E19  24995774.141 7 131353677.485 7     -1773.887          46.000    24995774.422 7 100647653.657 7     -1359.212          45.000
> 2020 05 05 21 38 30.0000000  0 15        .000000000000
G01  21226256.359 8 111544729.061 8     -2148.684          51.000    21226259.625 8  86917975.759 8     -1674.302          51.000
G03  20328407.906 8 106826516.126 8      -239.473          51.000    20328409.312 8  83241450.205 8      -186.602          51.000
G04  21331854.617 8 112099657.543 8      2468.547          49.000    21331857.094 8  87350437.881 8      1923.543          49.000
G11  23477750.008 6 123376397.082 6     -3900.062          37.000    23477755.242 5  96137455.614 5     -3039.016          32.000
G22  21363375.930 7 112265359.685 7     -1535.109          45.000    21363372.625 7  87479511.840 7     -1196.189          43.000
R04  19308896.039 7 103398273.634 7      -330.508          44.000    19308896.430 6  80420894.516 6      -257.059          39.000
R05  21445886.930 7 114640518.541 7      2891.781          47.000    21445887.438 6  89164900.754 6      2249.166          37.000
R18  22090077.289 6 117918352.977 6     -4128.988          38.000    22090085.336 7  91714277.808 7     -3211.429          47.000
R19  19359044.531 6 103557828.841 6     -1230.844          41.000    19359044.875 7  80544981.540 7      -957.323          44.000
C20  25372926.781 8 132123489.923 8      2657.371          48.000
C27  23459434.844 8 122159422.659 8     -2924.734          50.000
C30  22233569.797 5 115776077.531 5      -151.477          35.000
E04  23744495.703 8 124778258.520 8      1111.574          51.000    23744495.922 8  95609290.692 8       851.741          51.000
E12  22477117.227 8 118118047.310 8     -1892.492          50.000    22477115.961 8  90506041.117 8     -1450.109          49.000
E19  25005923.766 7 131407014.468 7     -1781.484          46.000    25005924.211 7 100688522.261 7     -1365.004          45.000
> 2020 05 05 21 39  0.0000000  0 15        .000000000000
G01  21238560.602 8 111609386.617 8     -2161.816          51.000    21238563.695 8  86968358.271 8     -1684.532          51.000
G03  20329807.180 8 106833868.832 8      -250.496          51.000    20329808.391 8  83247179.586 8      -195.192          51.000
G04  21317803.539 8 112025816.781 8      2454.117          49.000    21317805.734 8  87292899.627 8      1912.299          49.000
G11  23500030.750 5 123493481.355 5     -3906.023          35.000    23500036.117 5  96228690.150 5     -3043.655          35.000
G22  21372160.836 7 112311525.657 7     -1542.574          45.000    21372157.664 7  87515485.361 7     -1202.003          42.000
R04  19310797.109 7 103408452.637 7      -348.016          46.000    19310797.984 6  80428811.526 6      -270.679          38.000
R05  21429691.305 7 114553947.726 7      2879.625          47.000    21429692.695 6  89097567.973 6      2239.711          40.000
R18  22113313.078 7 118042379.193 7     -4139.551          44.000    22113320.141 7  91810742.695 7     -3219.651          46.000
R19  19366019.344 6 103595140.905 6     -1256.520          40.000    19366019.898 7  80574002.033 7      -977.296          44.000
C20  25357630.125 8 132043837.971 8      2652.656          48.000
C27  23476310.422 8 122247300.425 8     -2933.785          50.000
C30  22234491.172 5 115780878.876 5      -168.234          32.000
E04  23738179.930 8 124745070.300 8      1100.906          51.000    23738180.578 8  95583860.779 8       843.525          51.000
E12  22487951.289 8 118174979.648 8     -1902.969          51.000    22487950.320 8  90549664.593 8     -1458.119          49.000
E19  25016114.984 7 131460570.187 7     -1788.875          46.000    25016115.719 7 100729558.481 7     -1370.687          45.000
> 2020 05 05 21 39 30.0000000  0 15        .000000000000
G01  21250938.938 8 111674434.180 8     -2174.656          51.000    21250941.820 8  87019044.693 8     -1694.537          51.000
G03  20331268.875 8 106841549.749 8      -261.434          51.000    20331270.086 8  83253164.714 8      -203.714          51.000
G04  21303834.281 8 111952405.878 8      2439.844          50.000    21303835.844 8  87235696.342 8      1901.177          49.000
G11  23522340.789 5 123610720.111 5     -3910.438          35.000
G22  21380989.586 7 112357920.987 7     -1550.391          44.000    21380986.617 7  87551637.570 7     -1208.097          43.000
R04  19312794.953 7 103419148.643 7      -365.039          44.000    19312795.305 6  80437130.667 6      -283.919          40.000
R05  21413564.992 8 114467741.407 8      2867.473          50.000    21413567.828 7  89030518.642 7      2230.260          42.000
R18  22136607.242 7 118166714.153 7     -4149.477          46.000    22136612.500 7  91907447.682 7     -3227.371          43.000
R19  19373138.781 6 103633225.264 6     -1282.398          41.000    19373139.320 7  80603623.211 7      -997.418          45.000
C20  25342360.602 7 131964327.928 7      2647.988          46.000
C27  23493237.727 8 122335447.320 8     -2942.664          50.000
C30  22235512.867 5 115786196.116 5      -185.520          34.000
E04  23731924.664 8 124712198.939 8      1090.469          51.000    23731925.883 8  95558673.660 8       835.551          51.000
E12  22498843.586 8 118232218.583 8     -1913.020          50.000    22498842.969 8  90593522.963 8     -1465.838          48.000
E19  25026347.773 7 131514343.530 7     -1796.125          46.000    25026348.547 7 100770761.430 7     -1376.174          45.000
> 2020 05 05 21 40  0.0000000  0 15        .000000000000
G01  21263390.656 8 111739867.816 8     -2187.367          51.000    21263393.078 8  87070031.940 8     -1704.439          51.000
G03  20332792.297 8 106849555.295 8      -272.141          51.000    20332793.570 8  83259402.806 8      -212.058          51.000
G04  21289946.422 8 111879423.363 8      2425.730          50.000    21289947.305 7  87178826.878 7      1890.183          47.000
G11  23544679.617 5 123728107.869 5     -3915.066          34.000
G22  21389861.492 7 112404541.763 7     -1557.488          44.000    21389858.633 6  87587965.447 6     -1213.627          41.000
R04  19314888.188 7 103430356.754 7      -381.906          45.000    19314889.000 6  80445848.111 6      -297.038          40.000
R05  21397506.875 8 114381897.423 8      2855.641          50.000    21397510.031 7  88963751.107 7      2221.057          43.000
R18  22159957.688 7 118291351.674 7     -4159.539          46.000    22159961.234 6  92004387.989 6     -3235.197          39.000
R19  19380401.773 6 103672077.780 6     -1307.637          41.000    19380402.438 7  80633841.837 7     -1017.051          44.000
C20  25327117.555 7 131884957.039 7      2643.656          46.000
C27  23510215.789 8 122423858.238 8     -2951.234          50.000
C30  22236633.648 6 115792026.023 6      -202.715          38.000
E04  23725729.430 8 124679641.259 8      1080.176          51.000    23725730.562 8  95533726.874 8       827.697          51.000
E12  22509793.430 8 118289760.387 8     -1922.906          50.000    22509792.977 8  90637613.392 8     -1473.432          48.000
E19  25036621.180 7 131568330.077 7     -1802.961          45.000    25036621.773 7 100812127.742 7     -1381.442          44.000
> 2020 05 05 21 40 30.0000000  0 15        .000000000000
G01  21275915.656 8 111805686.178 8     -2200.234          51.000    21275917.305 8  87121318.984 8     -1714.468          51.000
G03  20334377.266 8 106857884.531 8      -282.906          51.000    20334378.555 8  83265893.138 8      -220.446          51.000
G04  21276139.930 8 111806870.406 8      2411.359          49.000    21276140.531 8  87122292.142 8      1878.981          48.000
G11  23567047.188 5 123845641.897 5     -3919.707          32.000
G22  21398776.031 7 112451387.151 7     -1565.051          44.000    21398773.211 7  87624468.365 7     -1219.520          42.000
R04  19317076.164 7 103442074.867 7      -399.047          45.000    19317077.555 6  80454962.198 6      -310.370          41.000
R05  21381516.570 8 114296416.110 8      2843.465          50.000    21381519.344 7  88897265.674 7      2211.584          43.000
R18  22183363.539 7 118416287.697 7     -4169.453          45.000    22183366.711 5  92101560.471 5     -3242.908          32.000
R19  19387808.211 6 103711697.417 6     -1333.414          41.000    19387808.883 7  80664657.114 7     -1037.100          44.000
C20  25311901.633 7 131805725.394 7      2638.805          46.000
C27  23527244.391 8 122512530.752 8     -2960.004          50.000
C30  22237854.250 6 115798368.311 6      -219.738          38.000
E04  23719593.812 8 124647396.749 8      1069.762          51.000    23719594.625 8  95509020.058 8       819.670          51.000
E12  22520800.836 8 118347604.025 8     -1933.074          49.000    22520800.391 8  90681935.101 8     -1481.208          49.000
E19  25046934.656 7 131622527.896 7     -1809.910          44.000    25046935.258 7 100853655.948 7     -1386.901          44.000
> 2020 05 05 21 41  0.0000000  0 16        .000000000000
G01  21288509.047 8 111871863.977 8     -2213.219          51.000    21288510.266 8  87172886.055 8     -1724.589          51.000
G03  20336019.062 8 106866512.607 8      -293.879          51.000    20336020.273 8  83272616.322 8      -228.997          51.000
G04  21262410.508 8 111734724.309 8      2396.773          48.000    21262411.602 7  87066074.430 7      1867.616          47.000
G11  23589437.867 6 123963295.185 6     -3925.012          36.000
G22  21407728.211 7 112498431.604 7     -1572.812          43.000    21407725.672 6  87661126.392 6     -1225.568          40.000
R03  21647092.656 6 115878550.130 6     -3282.629          36.000    21647099.898 4  90127813.154 4     -2553.156          24.000
R04  19319354.883 7 103454276.199 7      -416.047          44.000    19319356.211 6  80464452.117 6      -323.592          40.000
R05  21365589.336 8 114211273.701 8      2831.078          50.000    21365591.719 7  88831043.827 7      2201.953          44.000
R18  22206820.344 7 118541494.261 7     -4179.504          42.000
R19  19395352.953 6 103752058.171 6     -1359.004          41.000    19395354.086 7  80696048.805 7     -1057.003          43.000
C20  25296707.891 7 131726609.122 7      2634.070          46.000
C27  23544318.570 8 122601438.711 8     -2968.789          50.000
C30  22239167.492 6 115805198.767 6      -236.664          39.000
E04  23713512.883 8 124615441.012 8      1059.004          51.000    23713513.789 8  95484534.516 8       811.427          51.000
E12  22531860.867 8 118405724.458 8     -1943.305          49.000    22531860.508 8  90726468.924 8     -1489.035          50.000
E19  25057283.398 7 131676911.365 7     -1817.133          43.000    25057284.289 7 100895326.408 7     -1392.366          44.000
> 2020 05 05 21 41 30.0000000  0 16        .000000000000
G01  21301181.164 8 111938455.355 8     -2225.938          51.000    21301181.750 8  87224775.379 8     -1734.500          51.000
G03  20337728.117 8 106875494.089 8      -304.586          51.000    20337729.312 8  83279614.879 8      -237.340          51.000
G04  21248769.094 8 111663041.807 8      2382.348          48.000    21248771.008 8  87010217.935 8      1856.375          48.000
G11  23611861.164 6 124081120.421 6     -3929.676          36.000    23611860.648 5  96686623.639 5     -3062.082          33.000
G22  21416728.586 7 112545730.030 7     -1580.137          42.000    21416726.250 6  87697982.323 6     -1231.272          40.000
R03  21665499.258 5 115977103.427 5     -3287.035          33.000    21665512.961 4  90204465.597 4     -2556.583          24.000
R04  19321733.484 7 103467015.359 7      -432.918          43.000    19321735.258 6  80474360.373 6      -336.714          40.000
R05  21349735.531 8 114126527.099 8      2819.062          49.000    21349738.234 7  88765129.805 7      2192.604          43.000
R18  22230338.477 6 118667023.987 6     -4189.438          37.000    22230341.992 6  92296629.952 6     -3258.454          36.000
R19  19403046.656 7 103793215.334 7     -1384.453          42.000    19403048.117 7  80728059.931 7     -1076.797          43.000
C20  25281547.438 7 131647663.306 7      2629.410          47.000
C27  23561448.398 8 122690634.624 8     -2977.277          51.000
C30  22240584.703 6 115812571.968 6      -254.473          40.000
E04  23707497.383 8 124583829.007 8      1048.707          51.000    23707498.227 8  95460312.341 8       803.513          51.000
E12  22542983.734 8 118464176.102 8     -1953.121          49.000    22542983.664 8  90771256.569 8     -1496.601          51.000
E19  25067677.719 7 131731534.180 7     -1824.082          44.000    25067678.836 7 100937180.265 7     -1397.577          43.000
> 2020 05 05 21 42  0.0000000  0 17        .000000000000
G01  21313924.102 8 112005419.682 8     -2236.391          50.000    21313924.664 8  87276955.318 8     -1742.642          50.000
G03  20339496.820 8 106884788.804 8      -313.039          51.000    20339498.078 8  83286857.524 8      -243.923          51.000
G04  21235209.180 8 111591784.748 8      2370.078          49.000    21235211.289 8  86954692.958 8      1846.814          48.000
G11  23634308.688 6 124199075.650 6     -3932.898          36.000    23634309.133 5  96778536.810 5     -3064.596          34.000
G22  21425769.680 6 112593242.202 6     -1585.121          38.000    21425767.336 6  87735004.760 6     -1235.159          38.000
R03  21683932.672 5 116075792.107 5     -3289.723          35.000
R04  19324205.016 7 103480250.354 7      -447.328          42.000    19324206.430 6  80484654.252 6      -347.919          40.000
R05  21333948.039 8 114042136.915 8      2809.148          49.000    21333951.227 7  88699493.001 7      2184.893          43.000
R18  22253912.430 5 118792833.566 5     -4195.902          35.000    22253908.086 6  92394481.629 6     -3263.486          41.000
R19  19410881.406 7 103835127.388 7     -1407.695          42.000    19410883.469 7  80760658.147 7     -1094.877          43.000
C20  25266412.359 7 131568848.946 7      2626.953          47.000
C27  23578625.625 8 122780077.192 8     -2983.512          51.000
C30  22242096.938 6 115820448.515 6      -268.637          36.000
E04  23701539.711 8 124552521.048 8      1040.535          51.000    23701540.055 8  95436323.133 8       797.299          51.000
E09  25298904.102 6 132946646.078 6      2750.805          41.000    25298914.672 6 101868233.409 6      2107.741          40.000
E12  22554161.922 8 118522918.698 8     -1960.906          49.000    22554162.047 8  90816267.166 8     -1502.554          51.000
E19  25078109.867 7 131786355.474 7     -1828.625          44.000    25078110.898 7 100979186.198 7     -1401.145          43.000
> 2020 05 05 21 42 30.0000000  0 18        .000000000000
G01  21326738.281 7 112072760.783 7     -2251.855          47.000    21326739.875 7  87329428.861 7     -1754.693          47.000
G03  20341325.984 8 106894401.013 8      -326.480          51.000    20341327.352 8  83294347.567 8      -254.400          51.000
G04  21221731.984 8 111520959.430 8      2352.770          51.000    21221733.695 8  86899504.416 8      1833.330          48.000
G11  23656780.922 6 124317162.843 6     -3938.965          36.000    23656781.234 5  96870552.805 5     -3069.323          32.000
G17  22057405.844 5 115912467.866 5       374.645          35.000
G22  21434852.305 6 112640971.695 6     -1595.625          37.000    21434849.453 6  87772196.579 6     -1243.341          37.000
R03  21702393.695 4 116174618.555 4     -3297.832          29.000    21702412.117 4  90358101.585 4     -2564.977          28.000
R04  19326769.469 7 103493984.029 7      -466.867          44.000    19326770.867 6  80495336.012 6      -363.119          40.000
R05  21318228.773 8 113958108.773 8      2794.090          49.000    21318231.172 7  88634137.821 7      2173.184          42.000
R18  22277532.641 6 118918923.896 6     -4208.309          41.000    22277528.164 7  92492551.843 7     -3273.129          43.000
R19  19418858.422 7 103877798.410 7     -1435.863          42.000    19418860.109 7  80793846.694 7     -1116.783          43.000
C20  25251303.125 7 131490171.111 7      2619.469          46.000
C27  23595850.805 8 122869769.056 8     -2994.801          51.000
C30  22243706.680 6 115828833.151 6      -288.801          39.000
E04  23695640.477 8 124521521.720 8      1027.461          50.000    23695640.438 8  95412570.415 8       787.260          51.000
E09  25283223.695 6 132864243.963 6      2743.992          39.000    25283233.953 6 101805094.189 6      2102.444          40.000
E12  22565396.469 8 118581956.309 8     -1973.641          50.000    22565396.492 8  90861503.795 8     -1512.267          51.000
E19  25088580.453 7 131841378.274 7     -1838.348          43.000    25088581.336 7 101021346.529 7     -1408.463          42.000
> 2020 05 05 21 43  0.0000000  0 17        .000000000000
G01  21339627.609 7 112140498.583 7     -2264.332          47.000    21339630.258 8  87382211.616 8     -1764.412          48.000
G03  20343219.445 8 106904351.184 8      -337.098          51.000    20343220.867 8  83302100.961 8      -262.673          51.000
G04  21208341.469 8 111450588.380 8      2338.316          51.000    21208342.367 8  86844669.846 8      1822.065          48.000
G11  23679282.086 5 124435400.566 5     -3943.785          33.000
G22  21443980.203 5 112688939.176 5     -1602.758          33.000    21443976.828 5  87809573.836 5     -1248.899          31.000
R03  21720884.758 5 116273601.659 5     -3302.020          33.000    21720903.164 4  90435088.364 4     -2568.234          29.000
R04  19329431.359 7 103508235.998 7      -483.336          43.000    19329432.273 6  80506420.876 6      -375.928          40.000
R05  21302581.250 8 113874464.704 8      2781.941          50.000    21302582.633 7  88569081.379 7      2163.735          42.000
R18  22301208.422 7 119045313.012 7     -4217.742          42.000    22301205.133 7  92590854.491 7     -3280.466          43.000
R19  19426981.203 6 103921248.640 6     -1460.953          41.000    19426982.406 7  80827641.301 7     -1136.300          44.000
C20  25236223.898 7 131411651.020 7      2614.957          46.000
C27  23613126.961 8 122959728.862 8     -3002.789          50.000
C30  22245418.195 6 115837746.405 6      -305.449          38.000
E04  23689803.453 8 124490851.873 8      1017.113          49.000    23689803.930 8  95389070.168 8       779.412          51.000
E09  25267569.719 6 132781981.497 6      2739.883          37.000    25267579.125 6 101742061.936 6      2099.573          40.000
E12  22576691.203 8 118641309.166 8     -1983.309          51.000    22576690.586 8  90906981.972 8     -1519.666          51.000
E19  25099093.031 7 131896622.256 7     -1844.820          43.000    25099094.164 7 101063676.323 7     -1413.537          42.000
> 2020 05 05 21 43 30.0000000  0 17        .000000000000
G01  21352589.844 8 112208617.881 8     -2277.664          49.000    21352592.977 8  87435291.643 8     -1774.803          49.000
G03  20345174.359 8 106914624.458 8      -348.512          51.000    20345175.766 8  83310106.114 8      -271.568          51.000
G04  21195034.633 8 111380658.861 8      2322.891          50.000    21195034.883 7  86790179.342 7      1810.045          47.000
G11  23701808.258 5 124553772.298 5     -3949.602          31.000
G14  24320673.516 5 127805986.248 5     -3133.758          33.000    24320668.648 5  99589071.222 5     -2441.889          31.000
G22  21453149.898 5 112737129.409 5     -1610.734          34.000    21453147.062 5  87847124.796 5     -1255.115          35.000
R04  19332186.352 7 103522989.834 7      -500.816          43.000    19332187.227 6  80517896.086 6      -389.524          40.000
R05  21287002.781 8 113791191.079 8      2768.840          48.000    21287003.359 6  88504313.071 6      2153.545          39.000
R18  22324935.836 6 119171983.169 6     -4227.855          39.000    22324935.180 7  92689375.716 7     -3288.329          42.000
R19  19435246.477 6 103965462.154 6     -1486.930          40.000    19435247.789 7  80862029.575 7     -1156.501          45.000
C20  25221172.375 7 131333274.797 7      2609.465          45.000
C27  23630450.992 8 123049940.432 8     -3011.898          49.000
C30  22247228.078 6 115847174.171 6      -323.562          39.000
E04  23684026.570 8 124460497.130 8      1005.840          49.000    23684027.836 8  95365811.371 8       770.711          51.000
E09  25251939.125 5 132699836.288 5      2734.871          33.000    25251948.414 6 101679126.363 6      2095.664          39.000
E12  22588043.078 8 118700962.399 8     -1994.168          51.000    22588041.719 8  90952690.293 8     -1527.963          51.000
E19  25109644.594 7 131952071.740 7     -1852.332          42.000    25109646.195 6 101106163.585 6     -1419.298          41.000
> 2020 05 05 21 44  0.0000000  0 18        .000000000000
G01  21365629.266 8 112277139.861 8     -2289.375          50.000    21365632.664 8  87488685.388 8     -1783.932          50.000
G03  20347194.789 8 106925242.465 8      -358.445          51.000    20347196.211 8  83318379.883 8      -279.308          51.000
G04  21181815.883 8 111311194.505 8      2309.102          49.000    21181815.820 7  86736051.302 7      1799.300          46.000
G11  23724363.297 5 124672367.448 5     -3952.410          32.000
G14  24338581.977 5 127900096.657 5     -3138.844          33.000
G22  21462366.844 6 112785564.086 6     -1617.387          38.000    21462364.164 6  87884866.089 6     -1260.304          38.000
R03  21757944.211 4 116471977.925 4     -3310.621          28.000
R04  19335038.969 7 103538266.444 7      -516.598          44.000    19335040.023 6  80529777.892 6      -401.801          39.000
R05  21271497.891 8 113708311.317 8      2757.438          48.000    21271497.508 6  88439851.093 6      2144.674          39.000
R18  22348717.500 6 119298953.240 6     -4235.762          36.000    22348721.445 6  92788130.307 6     -3294.478          41.000
R19  19443658.500 6 104010460.637 6     -1511.922          39.000    19443660.156 7  80897028.390 7     -1175.939          45.000
C20  25206152.969 7 131255064.800 7      2605.480          45.000
C27  23647827.180 8 123140423.634 8     -3019.223          50.000
C30  22249141.055 6 115857138.182 6      -339.934          37.000
E04  23678314.516 8 124430479.451 8       996.336          51.000    23678316.078 8  95342810.814 8       763.435          51.000
E09  25236337.109 5 132617845.945 5      2731.551          33.000    25236346.484 6 101616304.905 6      2093.075          38.000
E12  22599455.891 8 118760937.326 8     -2003.145          51.000    22599454.359 8  90998645.100 8     -1534.850          51.000
E19  25120239.188 7 132007747.612 7     -1858.086          42.000    25120240.828 6 101148824.321 6     -1423.851          41.000
> 2020 05 05 21 44 30.0000000  0 17        .000000000000
G01  21378734.953 8 112346009.123 8     -2302.184          51.000    21378738.312 8  87542349.738 8     -1793.909          51.000
G03  20349270.391 8 106936150.366 8      -369.297          51.000    20349271.953 8  83326879.549 8      -287.764          51.000
G04  21168675.414 8 111242142.536 8      2293.973          49.000    21168675.477 7  86682244.607 7      1787.514          46.000
G11  23746936.008 5 124790989.202 5     -3956.559          32.000
G14  24356516.297 5 127994342.687 5     -3145.039          33.000
G22  21471620.164 6 112834188.293 6     -1624.906          40.000    21471616.812 6  87922755.107 6     -1266.161          39.000
R04  19337978.867 7 103554008.507 7      -533.355          44.000    19337979.891 6  80542021.741 6      -414.832          40.000
R05  21256056.578 7 113625770.803 7      2744.984          46.000    21256057.188 6  88375652.972 6      2134.991          41.000
R18  22372545.289 6 119426164.838 6     -4245.293          37.000    22372553.148 6  92887072.746 6     -3301.895          37.000
R19  19452206.844 6 104056187.337 6     -1537.445          39.000    19452208.406 7  80932593.643 7     -1195.791          45.000
C20  25191154.930 7 131176967.480 7      2600.598          42.000
C27  23665244.742 8 123231122.559 8     -3027.691          50.000
C30  22251146.680 6 115867584.484 6      -357.031          39.000
E04  23672656.523 8 124400744.369 8       985.672          51.000    23672658.000 8  95320026.790 8       755.219          51.000
E09  25220754.125 5 132535953.968 5      2727.195          34.000    25220763.203 5 101553556.476 5      2089.834          35.000
E12  22610919.422 8 118821178.931 8     -2013.363          51.000    22610917.953 8  91044804.236 8     -1542.662          51.000
E19  25130866.398 7 132063594.054 7     -1865.094          42.000    25130867.203 6 101191615.779 6     -1429.161          40.000
> 2020 05 05 21 45  0.0000000  0 17        .000000000000
G01  21391916.867 8 112415278.380 8     -2314.828          51.000    21391919.758 8  87596325.784 8     -1803.759          51.000
G03  20351411.367 8 106947401.379 8      -379.949          51.000    20351413.172 8  83335646.580 8      -296.064          51.000
G04  21155624.180 8 111173558.093 8      2279.172          50.000    21155624.359 7  86628802.208 7      1775.978          47.000
G11  23769535.164 6 124909758.888 6     -3960.336          36.000
G14  24374486.359 5 128088775.870 5     -3150.152          31.000
G22  21480919.797 7 112883054.880 7     -1632.051          42.000    21480915.523 6  87960832.943 6     -1271.731          39.000
R04  19341015.164 7 103570269.000 7      -549.641          43.000    19341016.508 6  80554668.829 6      -427.498          39.000
R05  21240688.930 7 113543625.099 7      2732.449          46.000    21240691.922 7  88311761.865 7      2125.235          43.000
R18  22396431.070 6 119553669.313 6     -4254.004          41.000    22396439.289 4  92986242.973 4     -3308.664          24.000
R19  19460900.828 6 104102695.832 6     -1562.402          39.000    19460902.953 7  80968766.919 7     -1215.202          46.000
C20  25176187.562 6 131099036.486 6      2595.809          38.000
C27  23682713.203 8 123322088.330 8     -3035.734          50.000
C30  22253255.922 6 115878566.099 6      -374.473          40.000
E04  23667062.211 8 124371345.425 8       975.234          51.000    23667063.773 8  95297500.348 8       747.237          51.000
E09  25205209.086 5 132454266.618 5      2723.098          32.000    25205210.508 5 101490937.791 5      2086.508          30.000
E12  22622443.609 8 118881740.202 8     -2023.227          50.000    22622442.406 8  91091208.333 8     -1550.253          51.000
E19  25141536.117 7 132119663.348 7     -1871.805          42.000    25141535.859 6 101234577.953 6     -1434.237          39.000
> 2020 05 05 21 45 30.0000000  0 16        .000000000000
G01  21405174.141 8 112484945.502 8     -2327.207          51.000    21405176.789 8  87650611.871 8     -1813.408          51.000
G03  20353617.359 8 106958993.895 8      -390.531          51.000    20353619.273 8  83344679.711 8      -304.310          51.000
G04  21142662.281 8 111105441.604 8      2264.344          50.000    21142662.375 7  86575724.453 7      1764.424          47.000
G11  23792162.133 6 125028672.776 6     -3964.789          38.000    23792160.461 4  97424916.486 4     -3089.443          27.000
G14  24392491.359 5 128183407.543 5     -3155.855          30.000
G22  21490264.938 6 112932162.032 6     -1639.320          41.000    21490260.281 6  87999098.307 6     -1277.389          36.000
R04  19344148.375 7 103587044.964 7      -566.102          44.000    19344148.602 6  80567716.781 6      -440.301          39.000
R05  21225396.008 7 113461873.897 7      2720.004          45.000    21225400.203 7  88248177.614 7      2115.559          44.000
R18  22420371.781 7 119681461.892 7     -4262.699          43.000    22420378.594 5  93085602.669 5     -3315.433          30.000
R19  19469740.867 6 104149983.863 6     -1587.715          40.000    19469742.984 7  81005546.489 7     -1234.889          45.000
C20  25161252.484 6 131021271.117 6      2590.820          39.000
C27  23700232.266 8 123413317.796 8     -3043.773          50.000
C30  22255467.203 6 115890081.841 6      -391.316          41.000
E04  23661531.492 8 124342281.471 8       964.777          51.000    23661533.008 8  95275230.580 8       739.248          51.000
E12  22634027.922 8 118942619.321 8     -2033.031          48.000    22634027.664 8  91137855.987 8     -1557.807          51.000
E19  25152247.844 7 132175953.099 7     -1878.484          42.000    25152247.234 6 101277709.049 6     -1439.283          39.000
> 2020 05 05 21 46  0.0000000  0 17        .000000000000
G01  21418490.242 8 112554923.540 8     -2337.871          49.000    21418493.031 8  87705140.217 8     -1821.718          49.000
G03  20355871.922 8 106970841.424 8      -399.195          51.000    20355873.672 8  83353911.550 8      -311.061          51.000
G04  21129773.438 8 111037708.618 8      2251.215          51.000    21129773.188 7  86522945.505 7      1754.193          47.000
G09  23585165.328 6 123940869.313 6      3573.555          36.000
G11  23814800.984 6 125147642.866 6     -3966.418          39.000    23814796.336 5  97517620.426 5     -3090.718          34.000
G22  21499639.070 6 112981423.527 6     -1644.648          41.000    21499634.758 6  88037483.907 6     -1281.544          38.000
R04  19347360.797 7 103604247.010 7      -580.406          43.000    19347361.672 6  80581096.197 6      -451.424          39.000
R05  21210160.906 7 113380430.395 7      2709.488          46.000    21210164.578 7  88184832.706 7      2107.380          42.000
R18  22444349.836 7 119809452.155 7     -4269.465          44.000    22444354.656 6  93185150.724 6     -3320.692          37.000
R19  19478709.969 6 104197962.525 6     -1610.723          41.000    19478711.539 7  81042863.240 7     -1252.784          45.000
C20  25146333.117 6 130943586.410 6      2588.211          38.000
C27  23717785.430 8 123504723.710 8     -3049.832          50.000
C30  22257764.648 6 115902046.302 6      -406.352          41.000
E04  23656048.102 8 124313466.367 8       956.281          51.000    23656049.320 8  95253151.488 8       732.723          51.000
E09  25174173.453 5 132291176.836 5      2716.547          35.000
E12  22645655.945 7 119003729.646 7     -2040.789          46.000    22645657.195 8  91184680.775 8     -1563.841          51.000
E19  25162984.961 6 132232376.171 6     -1883.059          41.000    25162985.031 6 101320942.310 6     -1442.866          40.000
> 2020 05 05 21 46 30.0000000  0 17        .000000000000
G01  21431883.117 8 112625305.139 8     -2352.480          50.000    21431886.000 8  87759983.039 8     -1833.102          50.000
G03  20358192.742 8 106983037.237 8      -412.125          51.000    20358194.273 8  83363414.789 8      -321.133          51.000
G04  21116975.703 8 110970454.310 8      2234.129          51.000    21116974.812 7  86470539.550 7      1740.880          47.000
G09  23564799.836 5 123833864.077 5      3563.961          35.000    23564793.094 5  96493874.291 5      2777.115          35.000
G11  23837468.211 6 125266760.608 6     -3972.762          41.000    23837460.164 5  97610439.430 5     -3095.649          31.000
G22  21509060.023 6 113030932.464 6     -1654.055          39.000    21509056.500 6  88076062.311 6     -1288.874          38.000
R04  19350670.312 7 103621968.796 7      -599.129          44.000    19350671.258 6  80594879.792 6      -465.992          38.000
R05  21195000.828 7 113299390.677 7      2694.945          45.000    21195003.492 6  88121801.824 6      2096.066          40.000
R18  22468381.703 7 119937731.877 7     -4280.398          44.000    22468386.188 6  93284923.856 6     -3329.199          41.000
R19  19487825.781 6 104246725.802 6     -1638.277          41.000    19487827.453 7  81080790.242 7     -1274.216          45.000
C20  25131448.492 7 130866075.714 7      2581.191          43.000
C27  23735390.164 8 123596396.922 8     -3060.031          51.000
C30  22260166.656 7 115914552.160 7      -425.711          44.000
E04  23650630.023 8 124284993.710 8       943.648          51.000    23650630.445 8  95231334.797 8       723.100          51.000
E09  25158688.430 6 132209806.694 6      2709.949          37.000
E12  22657346.227 8 119065164.182 8     -2052.934          48.000    22657348.367 8  91231753.982 8     -1573.030          51.000
E19  25173764.836 6 132289024.742 6     -1891.742          41.000    25173766.273 6 101364348.355 6     -1449.304          40.000
> 2020 05 05 21 47  0.0000000  0 17        .000000000000
G01  21445349.523 8 112696070.709 8     -2365.180          51.000    21445351.914 8  87815125.031 8     -1842.997          51.000
G03  20360576.188 8 106995562.188 8      -422.844          51.000    20360577.633 8  83373174.493 8      -329.489          51.000
G04  21104265.539 8 110903661.480 8      2218.766          50.000    21104264.375 7  86418493.195 7      1728.908          47.000
G09  23544468.453 6 123727021.767 6      3558.281          37.000    23544467.820 6  96410627.601 6      2772.684          37.000
G11  23860159.812 7 125386004.516 7     -3976.766          42.000
G22  21518524.203 6 113080669.542 6     -1661.324          38.000    21518520.633 6  88114818.546 6     -1294.532          36.000
R04  19354073.367 7 103640189.546 7      -615.414          43.000    19354073.273 6  80609051.501 6      -478.652          38.000
R05  21179912.367 7 113218736.905 7      2682.188          44.000    21179914.500 6  88059071.052 6      2086.143          40.000
R18  22492463.414 7 120066278.516 7     -4289.207          43.000    22492467.445 7  93384904.599 7     -3336.047          43.000
R19  19497084.062 6 104296253.657 6     -1663.469          41.000    19497086.203 7  81119311.886 7     -1293.812          45.000
C20  25116594.391 7 130788720.933 7      2575.992          43.000
C27  23753042.445 8 123688316.800 8     -3067.945          51.000
C30  22262669.227 7 115927580.705 7      -442.746          45.000
E04  23645273.617 8 124256844.681 8       933.078          51.000    23645273.148 8  95209766.088 8       714.917          51.000
E09  25143229.297 6 132128577.237 6      2705.656          37.000
E12  22669095.125 8 119126903.536 8     -2062.906          50.000    22669097.289 8  91279060.757 8     -1580.644          51.000
E19  25184583.656 6 132345878.930 6     -1898.633          41.000    25184586.312 6 101407911.965 6     -1454.740          39.000
> 2020 05 05 21 47 30.0000000  0 17        .000000000000
G01  21458883.586 8 112767189.746 8     -2376.898          51.000    21458885.484 8  87870542.423 8     -1852.129          51.000
G03  20363016.547 8 107008386.325 8      -432.828          51.000    20363018.000 8  83383167.335 8      -337.269          51.000
G04  21091637.312 8 110837302.126 8      2204.254          48.000    21091636.688 7  86366784.620 7      1717.600          46.000
G09  23524167.000 6 123620354.010 6      3552.699          38.000    23524167.789 5  96327509.819 5      2768.334          35.000
G11  23882869.688 6 125505343.067 6     -3979.910          41.000
G22  21528026.562 6 113130604.716 6     -1667.746          38.000    21528023.172 6  88153729.089 6     -1299.539          38.000
R04  19357563.188 7 103658877.255 7      -631.066          43.000    19357563.508 6  80623586.415 6      -490.832          38.000
R05  21164891.570 7 113138439.626 7      2670.211          46.000    21164893.195 6  87996617.653 6      2076.834          40.000
R18  22516588.719 7 120195059.032 7     -4296.914          42.000    22516592.352 7  93485067.251 7     -3342.044          44.000
R19  19506479.641 6 104346514.791 6     -1687.852          40.000    19506481.898 7  81158403.873 7     -1312.773          44.000
C20  25101764.742 7 130711493.209 7      2571.875          43.000
C27  23770736.227 8 123780452.115 8     -3075.105          51.000
C30  22265265.719 7 115941102.626 7      -459.352          44.000
E04  23639973.062 8 124228989.678 8       923.207          51.000    23639972.531 8  95188422.674 8       707.377          51.000
E09  25127789.898 6 132047459.684 6      2701.570          38.000    25127777.469 6 101179151.880 6      2069.951          37.000
E12  22680896.305 8 119188917.524 8     -2072.031          50.000    22680898.461 8  91326577.975 8     -1587.729          51.000
E19  25195435.641 6 132402907.512 6     -1904.340          41.000    25195438.539 6 101451609.231 6     -1459.044          38.000
> 2020 05 05 21 48  0.0000000  0 17        .000000000000
G01  21472493.945 8 112838709.573 8     -2389.996          51.000    21472495.422 8  87926272.119 8     -1862.335          51.000
G03  20365522.883 8 107021557.479 8      -444.242          51.000    20365524.406 8  83393430.575 8      -346.163          51.000
G04  21079100.641 7 110771426.072 7      2188.227          47.000    21079101.031 7  86315452.621 7      1705.112          47.000
G09  23503906.156 6 123513902.177 6      3545.016          38.000    23503908.828 6  96244560.328 6      2762.350          39.000
G11  23905606.312 6 125624821.774 6     -3984.191          41.000
G22  21537575.609 6 113180785.509 6     -1676.418          41.000    21537573.047 6  88192831.024 6     -1306.300          36.000
R04  19361148.953 6 103678079.495 6      -648.613          39.000    19361149.875 6  80638521.525 6      -504.474          38.000
R05  21149946.977 7 113058548.684 7      2656.727          45.000    21149947.492 6  87934480.303 6      2066.346          39.000
R18  22540766.102 6 120324119.244 6     -4306.191          41.000    22540769.367 7  93585447.438 7     -3349.260          44.000
R19  19516020.922 6 104397556.779 6     -1713.418          39.000    19516023.211 7  81198103.179 7     -1332.658          44.000
C20  25086969.031 6 130634440.882 6      2566.188          41.000
C27  23788480.180 8 123872848.735 8     -3083.695          51.000
C30  22267966.359 7 115955165.507 7      -477.324          45.000
E04  23634737.547 8 124201476.909 8       911.855          51.000    23634737.672 8  95167341.481 8       698.703          51.000
E09  25112379.906 7 131966503.243 7      2696.270          42.000    25112373.219 6 101117120.380 6      2066.104          40.000
E12  22692758.570 8 119251253.779 8     -2082.719          49.000    22692760.859 8  91374342.108 8     -1595.864          51.000
E19  25206329.875 7 132460157.959 7     -1911.457          42.000    25206332.062 6 101495476.469 6     -1464.530          38.000
> 2020 05 05 21 48 30.0000000  0 17        .000000000000
G01  21486174.836 8 112910600.978 8     -2402.477          51.000    21486176.055 8  87982291.365 8     -1872.060          51.000
G03  20368089.820 8 107035047.080 8      -454.980          51.000    20368091.375 8  83403941.947 8      -354.533          51.000
G04  21066651.281 8 110706006.535 8      2173.070          49.000    21066652.031 7  86264476.381 7      1693.302          46.000
G09  23483682.641 6 123407640.028 6      3538.441          41.000    23483687.227 6  96161758.643 6      2757.224          41.000
G11  23928363.773 6 125744410.213 6     -3988.133          38.000
G22  21547165.977 6 113231183.342 6     -1683.582          41.000    21547163.766 6  88232102.083 6     -1311.885          37.000
R04  19364824.242 7 103697765.657 7      -664.430          42.000    19364826.953 6  80653833.002 6      -516.782          39.000
R05  21135072.094 7 112979036.275 7      2644.191          44.000    21135073.930 6  87872637.401 6      2056.593          41.000
R18  22564990.102 6 120453426.682 6     -4314.246          40.000    22564992.680 7  93686019.955 7     -3355.519          44.000
R19  19525703.352 6 104449349.538 6     -1738.965          40.000    19525705.570 7  81238386.434 7     -1352.528          46.000
C20  25072201.367 6 130557536.341 6      2561.238          39.000
C27  23806268.703 8 123965476.645 8     -3091.340          51.000
C30  22270764.836 7 115969741.239 7      -494.438          44.000
E04  23629561.922 8 124174278.082 8       901.402          51.000    23629562.734 8  95146500.833 8       690.673          51.000
E09  25096996.172 7 131885680.417 7      2691.965          45.000    25096994.586 7 101055191.267 7      2062.585          42.000
E12  22704676.664 8 119313883.402 8     -2092.445          48.000    22704678.852 8  91422331.038 8     -1603.335          51.000
E19  25217260.719 7 132517600.675 7     -1917.977          43.000    25217261.969 6 101539490.998 6     -1469.648          37.000
> 2020 05 05 21 49  0.0000000  0 17        .000000000000
G01  21499923.500 8 112982849.608 8     -2414.613          51.000    21499924.656 8  88038588.980 8     -1881.517          51.000
G03  20370714.773 8 107048841.341 8      -465.328          51.000    20370716.305 8  83414690.713 8      -362.593          51.000
G04  21054287.234 8 110641031.663 8      2158.016          51.000    21054287.547 7  86213846.652 7      1681.571          47.000
G09  23463493.984 7 123301556.216 7      3532.426          42.000    23463500.219 7  96079095.941 7      2752.540          42.000
G11  23951139.109 5 125864092.671 5     -3992.176          34.000
G22  21556795.227 7 113281784.320 7     -1690.465          43.000    21556792.844 5  88271531.442 5     -1317.242          34.000
R04  19368588.555 6 103717920.459 6      -680.152          40.000    19368591.281 6  80669508.939 6      -529.007          38.000
R05  21120265.852 7 112899889.804 7      2631.578          44.000    21120269.086 6  87811079.046 6      2046.783          41.000
R18  22589257.430 6 120582964.938 6     -4322.285          39.000    22589259.336 7  93786771.996 7     -3361.774          43.000
R19  19535523.234 6 104501878.133 6     -1763.621          39.000    19535525.406 7  81279242.005 7     -1371.705          45.000
C20  25057459.586 6 130480766.935 6      2555.777          38.000
C27  23824098.828 8 124058320.677 8     -3098.867          51.000
C30  22273659.555 7 115984816.338 7      -511.219          45.000
E04  23624443.383 8 124147379.721 8       891.129          51.000    23624444.727 8  95125890.414 8       682.768          51.000
E09  25081636.609 7 131804978.689 7      2687.539          46.000    25081638.992 7 100993354.929 7      2059.175          43.000
E12  22716647.852 8 119376792.430 8     -2102.191          48.000    22716649.516 8  91470534.050 8     -1610.734          51.000
E19  25228225.594 7 132575221.102 7     -1924.145          43.000    25228226.062 6 101583641.695 6     -1474.371          37.000
> 2020 05 05 21 49 30.0000000  0 17        .000000000000
G01  21513742.281 8 113055468.938 8     -2428.367          50.000    21513743.680 8  88095175.461 8     -1892.234          50.000
G03  20373400.328 8 107062954.334 8      -477.168          51.000    20373401.945 8  83425687.853 8      -371.819          51.000
G04  21042011.125 8 110576517.401 8      2141.211          51.000    21042011.070 7  86163575.847 7      1668.476          47.000
G09  23443343.117 7 123195667.167 7      3525.211          43.000    23443350.500 7  95996585.011 7      2746.918          43.000
G22  21566465.781 7 113332602.375 7     -1699.125          44.000    21566464.555 5  88311129.935 5     -1323.994          33.000
R03  21963498.523 5 117572263.519 5     -3357.406          32.000
R04  19372441.664 6 103738556.632 6      -697.473          41.000    19372444.555 6  80685559.289 6      -542.482          38.000
R05  21105531.578 7 112821124.319 7      2617.629          45.000    21105534.328 6  87749817.025 6      2035.934          40.000
R18  22613570.266 6 120712745.382 6     -4331.852          38.000    22613571.391 7  93887712.360 7     -3369.218          42.000
R19  19545482.703 6 104555155.868 6     -1789.922          41.000    19545484.789 7  81320680.258 7     -1392.158          46.000
C20  25042746.555 6 130404147.182 6      2549.898          39.000
C27  23841972.477 8 124151393.053 8     -3107.715          51.000
C30  22276652.438 7 116000404.929 7      -529.609          43.000
E04  23619384.672 8 124120796.178 8       879.363          51.000    23619386.422 8  95105521.223 8       673.813          51.000
E09  25066303.953 7 131724413.224 7      2681.727          47.000    25066309.062 7 100931622.987 7      2054.800          44.000
E12  22728675.062 8 119439994.528 8     -2113.090          49.000    22728675.547 8  91518961.632 8     -1619.112          50.000
E19  25239226.891 7 132633032.271 7     -1931.801          42.000    25239226.836 6 101627938.525 6     -1480.136          37.000
> 2020 05 05 21 50  0.0000000  0 16        .000000000000
G01  21527631.328 8 113128458.807 8     -2440.434          50.000    21527633.102 8  88152050.684 8     -1901.637          50.000
G03  20376146.625 8 107077386.483 8      -487.609          51.000    20376148.398 8  83436933.703 8      -379.955          51.000
G04  21029823.008 8 110512466.058 8      2126.125          51.000    21029822.781 8  86113665.741 8      1656.721          48.000
G09  23423230.414 7 123089975.792 7      3518.914          43.000    23423238.469 7  95914228.130 7      2742.011          44.000
G22  21576177.727 7 113383637.794 7     -1705.992          45.000    21576176.992 5  88350897.748 5     -1329.345          35.000
R04  19376385.672 7 103759673.480 7      -713.113          42.000    19376388.039 6  80701983.468 6      -554.644          37.000
R05  21090868.867 7 112742741.922 7      2605.102          45.000    21090869.703 6  87688852.975 6      2026.190          39.000
R18  22637928.016 6 120842765.466 6     -4338.934          38.000    22637928.266 6  93988839.090 6     -3374.726          41.000
R19  19555582.406 6 104609181.944 6     -1814.672          41.000    19555584.766 7  81362700.556 7     -1411.411          46.000
C20  25028062.312 6 130327678.525 6      2545.387          40.000
C27  23859889.141 8 124244692.621 8     -3114.785          49.000
C30  22279743.656 7 116016507.681 7      -546.566          44.000
E04  23614386.148 8 124094528.241 8       869.219          51.000    23614388.039 8  95085393.863 8       666.022          51.000
E09  25050998.320 7 131643985.704 7      2677.320          47.000    25051004.969 7 100869996.763 7      2051.522          44.000
E12  22740758.117 8 119503489.916 8     -2122.602          49.000    22740757.328 8  91567613.957 8     -1626.430          50.000
E19  25250264.469 6 132691033.978 6     -1937.750          41.000    25250263.953 6 101672381.396 6     -1484.725          36.000
> 2020 05 05 21 50 30.0000000  0 17        .000000000000
G01  21541585.398 8 113201789.247 8     -2449.406          51.000    21541587.031 8  88209191.307 8     -1908.628          51.000
G03  20378948.031 8 107092108.439 8      -494.840          51.000    20378949.898 8  83448405.372 8      -385.589          51.000
G04  21017717.414 8 110448850.153 8      2113.941          51.000    21017717.180 8  86064094.925 8      1647.227          48.000
G09  23403150.711 7 122984455.175 7      3515.129          42.000    23403158.773 7  95832004.311 7      2739.065          43.000
G11  24019580.273 5 126223738.010 5     -3999.301          33.000
G22  21585925.359 7 113434861.286 7     -1709.902          46.000    21585924.102 5  88390812.155 5     -1332.388          33.000
R04  19380413.125 6 103781239.388 6      -725.434          39.000    19380415.547 6  80718757.005 6      -564.223          36.000
R05  21076272.266 7 112664713.802 7      2595.828          45.000    21076272.406 6  87628164.488 6      2018.977          39.000
R18  22662324.094 6 120972992.371 6     -4343.328          38.000    22662323.586 6  94090126.695 6     -3378.144          39.000
R19  19565816.398 6 104663925.765 6     -1835.895          41.000    19565818.414 7  81405279.045 7     -1427.921          44.000
C20  25013401.523 6 130251332.713 6      2543.395          40.000
C27  23877842.992 8 124338188.728 8     -3119.117          49.000
C30  22282929.398 7 116033095.626 7      -560.406          44.000
E04  23609442.031 8 124068546.882 8       862.051          51.000    23609444.047 8  95065486.084 8       660.488          51.000
E09  25035714.023 7 131563667.924 7      2676.121          46.000    25035721.055 7 100808454.625 7      2050.648          44.000
E12  22752891.281 8 119567248.930 8     -2128.922          49.000    22752890.016 8  91616468.285 8     -1631.288          50.000
E19  25261332.461 7 132749195.859 7     -1940.680          42.000    25261331.641 6 101716946.989 6     -1486.916          36.000
> 2020 05 05 21 51  0.0000000  0 18        .000000000000
G01  21555611.750 8 113275498.127 8     -2463.438          50.000    21555613.086 8  88266626.786 8     -1919.562          50.000
G03  20381811.977 8 107107158.627 8      -507.438          51.000    20381813.664 8  83460132.787 8      -395.406          51.000
G04  21005702.047 8 110385709.940 8      2096.453          50.000    21005701.875 8  86014894.742 8      1633.600          48.000
G09  23383111.805 6 122879146.160 6      3506.312          41.000    23383119.359 6  95749945.340 6      2732.192          41.000
G22  21595715.891 7 113486311.252 7     -1719.000          45.000    21595712.477 5  88430903.057 5     -1339.481          34.000
G31  23277214.953 5 122322579.699 5      -117.734          35.000
R03  22020006.047 5 117874776.479 5     -3366.867          31.000    22019998.742 4  91680394.243 4     -2618.668          24.000
R04  19384530.594 6 103803292.362 6      -743.301          41.000    19384533.320 6  80735909.275 6      -578.129          36.000
R05  21061749.820 7 112587080.099 7      2581.035          45.000    21061750.023 6  87567782.721 6      2007.472          40.000
R18  22686765.273 6 121103462.406 6     -4353.738          36.000    22686764.375 6  94191603.391 6     -3386.241          38.000
R19  19576192.016 7 104719424.967 7     -1862.703          42.000    19576192.969 7  81448445.107 7     -1448.769          44.000
C20  24998770.852 6 130175148.577 6      2536.945          38.000
C27  23895841.914 8 124431917.809 8     -3128.312          49.000
C30  22286216.000 7 116050206.937 7      -579.402          45.000
E04  23604559.492 8 124042890.716 8       849.523          51.000    23604561.891 8  95045827.475 8       650.934          51.000
E09  25020458.438 7 131483499.467 7      2669.539          45.000    25020464.594 7 100747026.920 7      2045.383          43.000
E12  22765081.672 8 119631309.747 8     -2140.680          48.000    22765080.438 8  91665553.854 8     -1640.234          50.000
E19  25272437.883 7 132807555.622 7     -1948.844          42.000    25272437.445 6 101761664.210 6     -1493.213          36.000
> 2020 05 05 21 51 30.0000000  0 17        .000000000000
G01  21569712.602 8 113349598.351 8     -2475.172          50.000    21569713.898 8  88324367.192 8     -1928.705          50.000
G03  20384741.062 8 107122550.587 8      -517.285          51.000    20384742.336 8  83472126.530 8      -403.079          51.000
G04  20993779.953 8 110323060.762 8      2081.527          50.000    20993780.078 8  85966077.193 8      1621.969          49.000
G09  23363116.578 6 122774064.708 6      3500.445          40.000    23363123.383 6  95668063.707 6      2727.620          40.000
G11  24065303.266 5 126464038.268 5     -4007.062          34.000
G22  21605551.969 7 113538000.989 7     -1725.340          45.000    21605547.844 5  88471180.775 5     -1344.418          34.000
R04  19388743.172 6 103825844.740 6      -758.621          38.000    19388745.102 6  80753450.038 6      -590.036          37.000
R05  21047302.961 6 112509855.979 6      2568.641          41.000    21047303.969 6  87507719.511 6      1997.829          39.000
R18  22711253.305 5 121234186.367 5     -4360.031          34.000    22711253.094 6  94293277.570 6     -3391.135          38.000
R19  19586710.766 6 104775692.299 6     -1887.090          41.000    19586711.703 7  81492208.555 7     -1467.740          45.000
C20  24984173.039 6 130099140.512 6      2531.648          36.000
C27  23913888.641 8 124525891.631 8     -3134.930          50.000
C30  22289605.875 7 116067855.146 7      -595.895          45.000
E04  23599741.617 8 124017573.617 8       839.625          51.000    23599743.906 8  95026428.665 8       643.379          51.000
E09  25005234.258 7 131403495.134 7      2665.434          44.000    25005238.914 7 100685724.944 7      2042.363          44.000
E12  22777331.656 8 119695685.564 8     -2149.730          48.000    22777330.906 8  91714880.790 8     -1647.166          50.000
E19  25283583.406 7 132866125.982 7     -1954.395          42.000    25283583.828 6 101806542.799 6     -1497.643          37.000
> 2020 05 05 21 52  0.0000000  0 18        .000000000000
G01  21583872.602 8 113424009.691 8     -2486.953          50.000    21583873.812 8  88382350.057 8     -1937.883          49.000
G03  20387719.961 8 107138204.717 8      -527.582          51.000    20387721.180 8  83484324.555 8      -411.100          51.000
G04  20981936.578 8 110260824.830 8      2066.219          50.000    20981937.148 8  85917581.670 8      1610.041          49.000
G09  23343150.469 6 122669133.677 6      3493.832          38.000    23343156.219 6  95586299.247 6      2722.463          37.000
G11  24088183.359 5 126584276.255 5     -4010.445          35.000
G22  21615418.656 7 113589850.628 7     -1732.500          46.000    21615414.414 5  88511583.103 5     -1350.000          33.000
R03  22057772.648 5 118076939.603 5     -3372.504          32.000
R04  19393032.547 6 103848813.999 6      -773.953          41.000    19393034.023 6  80771315.007 6      -601.967          37.000
R05  21032916.281 7 112432961.578 7      2556.047          43.000    21032917.797 6  87447912.728 6      1988.036          37.000
R18  22735773.773 5 121365080.523 5     -4367.789          31.000    22735773.750 6  94395084.116 6     -3397.169          37.000
R19  19597358.008 7 104832645.452 7     -1911.168          42.000    19597358.539 7  81536505.453 7     -1486.464          45.000
C20  24969592.727 5 130023230.334 5      2527.523          34.000
C27  23931967.164 8 124620029.798 8     -3142.086          49.000
C30  22293082.867 7 116085961.545 7      -612.496          44.000
E04  23594973.406 8 123992516.297 8       829.480          51.000    23594975.039 8  95007228.892 8       635.630          51.000
E09  24990026.344 7 131323576.482 7      2661.238          43.000    24990029.742 7 100624488.614 7      2039.008          44.000
E12  22789626.414 8 119760296.512 8     -2159.078          49.000    22789626.406 8  91764387.880 8     -1654.326          50.000
E19  25294753.711 6 132924826.488 6     -1960.355          40.000    25294754.969 6 101851521.077 6     -1501.998          36.000
> 2020 05 05 21 52 30.0000000  0 18        .000000000000
G01  21598109.477 8 113498826.227 8     -2499.316          49.000    21598110.977 8  88440648.690 8     -1947.519          49.000
G03  20390766.766 8 107154215.771 8      -538.270          51.000    20390768.062 8  83496800.703 8      -419.431          51.000
G04  20970190.312 8 110199098.681 8      2050.344          50.000    20970191.305 8  85869483.402 8      1597.670          49.000
G09  23323231.367 6 122564450.199 6      3486.688          38.000    23323236.898 6  95504727.674 6      2716.899          38.000
G11  24111087.391 5 126704647.036 5     -4012.336          34.000
G22  21625333.922 7 113641955.082 7     -1739.797          46.000    21625329.977 5  88552184.002 5     -1355.686          33.000
R03  22076686.180 5 118178195.609 5     -3375.602          31.000
R04  19397417.594 6 103872295.339 6      -789.852          41.000    19397419.031 6  80789578.292 6      -614.326          37.000
R05  21018612.766 7 112356494.262 7      2543.043          45.000    21018612.617 6  87388438.236 6      1977.925          38.000
R18  22760344.781 5 121496238.287 5     -4374.551          30.000    22760344.227 6  94497095.698 6     -3402.428          36.000
R19  19608151.133 6 104890379.755 6     -1936.266          41.000    19608151.062 7  81581409.916 7     -1505.984          45.000
C20  24955049.883 5 129947512.856 5      2521.734          35.000
C27  23950094.641 8 124714424.534 8     -3149.387          48.000
C30  22296665.844 7 116104620.038 7      -629.836          43.000
E04  23590272.602 8 123967813.738 8       818.895          51.000    23590273.766 8  94988300.973 8       627.420          51.000
E09  24974852.711 7 131243839.515 7      2656.266          42.000    24974855.781 7 100563391.457 7      2035.296          45.000
E12  22801984.461 8 119825237.024 8     -2168.848          51.000    22801984.891 8  91814147.486 8     -1661.880          50.000
E19  25305966.547 6 132983750.903 6     -1966.754          37.000    25305968.625 6 101896670.981 6     -1506.637          36.000
> 2020 05 05 21 53  0.0000000  0 17        .000000000000
G01  21612418.055 8 113574020.668 8     -2511.320          48.000    21612420.094 8  88499241.793 8     -1956.873          48.000
G03  20393876.477 8 107170557.135 8      -548.695          51.000    20393877.867 8  83509534.240 8      -427.552          51.000
G04  20958536.547 8 110137857.449 8      2034.742          51.000    20958537.430 8  85821762.988 8      1585.516          49.000
G09  23303355.180 6 122459989.972 6      3479.961          39.000    23303360.430 6  95423330.053 6      2711.655          40.000
G11  24134012.180 6 126825122.077 6     -4015.656          37.000    24134011.945 5  98824745.081 5     -3129.086          31.000
G22  21635292.398 7 113694287.576 7     -1746.750          44.000    21635288.844 5  88592962.559 5     -1361.104          34.000
R04  19401892.242 7 103896260.003 7      -805.305          43.000    19401895.250 6  80808217.534 6      -626.348          37.000
R05  21004384.227 7 112280428.072 7      2530.449          43.000    21004384.375 6  87329275.713 6      1968.130          40.000
R18  22784958.484 5 121627629.410 5     -4381.945          35.000    22784958.969 6  94599288.765 6     -3408.180          36.000
R19  19619084.477 7 104948866.621 7     -1960.414          42.000    19619084.078 7  81626899.702 7     -1524.763          45.000
C20  24940540.164 6 129871962.374 6      2516.617          36.000
C27  23968265.711 7 124809047.721 7     -3156.406          47.000
C30  22300349.672 7 116123804.261 7      -646.566          43.000
E04  23585634.164 8 123943439.547 8       808.480          51.000    23585634.867 8  94969624.672 8       619.497          51.000
E09  24959708.727 6 131164258.643 6      2651.434          40.000    24959712.250 7 100502413.916 7      2031.768          46.000
E12  22814400.328 8 119890480.083 8     -2178.355          51.000    22814400.773 8  91864138.901 8     -1669.085          48.000
E19  25317216.906 6 133042871.789 6     -1972.512          36.000    25317219.375 5 101941971.418 5     -1511.435          35.000
> 2020 05 05 21 53 30.0000000  0 17        .000000000000
G01  21626788.859 8 113649541.008 8     -2523.316          50.000    21626791.219 8  88558088.779 8     -1966.221          50.000
G03  20397039.180 8 107187177.052 8      -559.312          51.000    20397040.648 8  83522484.840 8      -435.828          51.000
G04  20946965.656 8 110077051.124 8      2018.945          51.000    20946966.148 8  85774381.453 8      1573.207          48.000
G09  23283512.367 6 122355703.652 6      3473.043          41.000    23283514.062 6  95342067.935 6      2706.264          39.000
G11  24156946.031 6 126945647.594 6     -4018.680          38.000    24156943.180 5  98918661.078 5     -3131.442          30.000
G22  21645284.461 7 113746796.442 7     -1754.031          46.000    21645281.242 5  88633878.546 5     -1366.778          33.000
R04  19406447.133 7 103920654.046 7      -820.914          42.000    19406448.367 6  80827190.616 6      -638.492          36.000
R05  20990219.977 6 112204711.498 6      2517.371          41.000    20990221.375 6  87270385.131 6      1957.958          39.000
R18  22809605.352 5 121759198.850 5     -4389.656          35.000    22809607.438 6  94701620.509 6     -3414.177          36.000
R19  19630148.789 7 105008052.448 7     -1985.113          42.000    19630148.375 7  81672933.152 7     -1543.977          45.000
C20  24926054.367 6 129796528.430 6      2511.727          39.000
C27  23986470.531 7 124903846.482 7     -3163.516          46.000
C30  22304124.586 7 116143463.025 7      -663.875          44.000
E04  23581048.609 8 123919342.263 8       798.027          51.000    23581048.641 8  94951160.526 8       611.431          51.000
E09  24944584.875 6 131084783.293 6      2646.523          37.000    24944589.500 7 100441517.225 7      2028.098          47.000
E12  22826863.953 8 119955973.624 8     -2187.918          51.000    22826863.914 8  91914322.216 8     -1676.346          48.000
E19  25328494.578 6 133102136.712 6     -1978.562          37.000    25328497.297 6 101987382.229 6     -1516.233          36.000
> 2020 05 05 21 54  0.0000000  0 19        .000000000000
G01  21641227.719 8 113725416.379 8     -2536.871          51.000    21641229.961 8  88617212.409 8     -1976.783          51.000
G03  20400260.648 8 107204106.064 8      -571.371          51.000    20400262.195 8  83535676.278 8      -445.224          51.000
G04  20935483.680 8 110016712.026 8      2001.699          51.000    20935483.898 8  85727364.000 8      1559.766          48.000
G09  23263708.633 6 122251624.224 6      3463.953          40.000    23263702.508 6  95260966.974 6      2699.181          39.000
G11  24179895.188 6 127066252.418 6     -4023.523          38.000    24179894.023 5  99012638.879 5     -3135.213          30.000
G22  21655315.727 7 113799511.912 7     -1762.453          46.000    21655312.594 5  88674955.602 5     -1373.337          34.000
G31  23283291.172 5 122354511.932 5      -237.891          33.000
R03  22133536.539 4 118482497.291 4     -3387.297          28.000
R04  19411087.625 7 103945507.018 7      -837.922          43.000    19411090.219 6  80846520.733 6      -651.717          39.000
R05  20976127.312 6 112129376.975 6      2502.848          41.000    20976128.336 6  87211791.683 6      1946.662          38.000
R18  22834291.297 6 121890974.360 6     -4397.438          37.000    22834294.352 6  94804112.581 6     -3420.226          36.000
R19  19641348.875 7 105067966.581 7     -2011.195          42.000    19641349.133 7  81719533.018 7     -1564.263          45.000
C20  24911597.930 7 129721242.163 7      2505.254          42.000
C27  24004714.523 7 124998849.474 7     -3171.871          45.000
C30  22307997.016 7 116163626.618 7      -682.473          45.000
E04  23576521.742 8 123895552.666 8       785.996          51.000    23576521.406 8  94932932.134 8       602.263          51.000
E09  24929487.250 6 131005445.208 6      2640.547          37.000    24929493.141 7 100380725.687 7      2023.237          47.000
E12  22839380.945 8 120021747.877 8     -2199.008          51.000    22839380.188 7  91964720.640 7     -1684.978          47.000
E19  25339805.117 6 133161575.232 6     -1985.820          38.000    25339807.820 6 102032926.052 6     -1521.893          36.000
> 2020 05 05 21 54 30.0000000  0 18        .000000000000
G01  21655737.641 8 113801664.981 8     -2547.020          51.000    21655739.977 8  88676626.872 8     -1984.691          51.000
G03  20403544.391 8 107221362.600 8      -579.750          51.000    20403546.047 8  83549122.930 8      -451.753          51.000
G04  20924094.164 8 109956860.300 8      1987.793          50.000    20924094.492 7  85680726.332 7      1548.930          47.000
G09  23243947.773 6 122147772.388 6      3458.492          37.000    23243933.891 6  95180043.448 6      2694.929          37.000
G11  24202862.828 6 127186953.059 6     -4023.773          38.000    24202861.000 5  99106691.299 5     -3135.411          30.000
G22  21665389.883 7 113852452.441 7     -1767.637          45.000    21665386.523 5  88716207.948 5     -1377.376          35.000
R03  22152497.094 5 118584072.981 5     -3388.492          31.000    22152512.859 4  92232105.113 4     -2635.494          26.000
R04  19415817.781 7 103970836.220 7      -851.441          42.000    19415820.289 6  80866221.230 6      -662.235          36.000
R05  20962109.945 6 112054443.961 6      2491.535          37.000    20962111.430 6  87153510.509 6      1937.864          40.000
R18  22859018.625 5 122022971.914 5     -4402.992          35.000    22859023.047 5  94906777.398 5     -3424.546          34.000
R19  19652688.797 7 105128626.599 7     -2033.570          43.000    19652689.281 7  81766713.039 7     -1581.666          43.000
C20  24897173.609 7 129646122.633 7      2502.105          42.000
C27  24023000.234 7 125094073.296 7     -3176.762          43.000
C30  22311969.891 7 116184313.208 7      -697.184          44.000
E04  23572056.820 8 123872089.403 8       777.574          51.000    23572056.453 8  94914953.798 8       595.789          51.000
E09  24914419.594 6 130926263.896 6      2637.703          39.000    24914426.578 7 100320054.293 7      2021.028          47.000
E12  22851954.398 8 120087820.865 8     -2206.496          51.000    22851952.977 8  92015347.965 8     -1690.650          48.000
E19  25351152.031 6 133221205.149 6     -1989.957          38.000    25351154.195 6 102078616.470 6     -1524.757          36.000
> 2020 05 05 21 55  0.0000000  0 17        .000000000000
G01  21670314.094 8 113878264.313 8     -2559.133          51.000    21670317.148 8  88736314.643 8     -1994.129          51.000
G03  20406886.391 8 107238924.959 8      -590.504          51.000    20406888.141 8  83562807.883 8      -460.133          51.000
G04  20912793.398 8 109897475.946 8      1971.691          48.000    20912793.938 7  85634452.845 7      1536.383          47.000
G09  23224225.867 5 122044129.936 5      3450.582          33.000    23224208.609 5  95099282.377 5      2688.768          30.000
G11  24225844.508 6 127307725.883 6     -4027.090          36.000    24225841.375 4  99200800.023 4     -3137.992          29.000
G22  21675503.023 7 113905596.199 7     -1774.883          47.000    21675499.117 5  88757618.650 5     -1383.023          31.000
R04  19420632.438 7 103996618.145 7      -866.996          42.000    19420633.109 6  80886273.790 6      -674.333          37.000
R05  20948153.148 5 111979845.836 5      2478.617          31.000    20948166.727 6  87095511.367 6      1927.792          40.000
R18  22883781.992 5 122155166.669 5     -4409.496          35.000    22883789.367 5  95009595.565 5     -3429.608          33.000
R19  19664163.406 7 105190009.122 7     -2058.219          42.000    19664164.492 7  81814454.956 7     -1600.840          42.000
C20  24882776.945 7 129571149.160 7      2496.570          42.000
C27  24041324.047 7 125189494.778 7     -3184.074          43.000
C30  22316038.438 7 116205501.431 7      -714.711          44.000
E04  23567649.922 8 123848931.049 8       766.887          51.000    23567649.188 8  94897209.080 8       587.671          51.000
E09  24899378.250 6 130847218.879 6      2632.551          40.000    24899385.609 7 100259487.326 7      2017.191          47.000
E12  22864580.242 8 120154170.558 8     -2216.266          49.000    22864578.672 8  92066187.332 8     -1698.142          49.000
E19  25362531.664 6 133281003.814 6     -1996.113          37.000    25362532.406 6 102124436.226 6     -1529.531          36.000
> 2020 05 05 21 55 30.0000000  0 18        .000000000000
G01  21684958.773 8 113955222.239 8     -2571.359          51.000    21684962.164 8  88796281.860 8     -2003.657          51.000
G03  20410288.289 8 107256801.671 8      -601.250          51.000    20410290.062 8  83576737.800 8      -468.506          51.000
G04  20901583.578 8 109838569.200 8      1955.426          48.000    20901584.281 7  85588551.519 7      1523.708          46.000
G09  23204543.422 6 121940705.632 6      3443.578          36.000    23204526.648 5  95018692.184 5      2683.311          35.000
G11  24248841.422 5 127428521.497 5     -4030.086          32.000
G19  22329338.086 5 117341462.053 5      1147.348          35.000
G22  21685656.445 8 113958951.667 8     -1782.383          48.000    21685651.641 5  88799194.378 5     -1388.867          32.000
R04  19425533.531 7 104022860.051 7      -882.543          42.000    19425534.383 6  80906684.199 6      -686.419          39.000
R05  20934295.086 7 111905684.080 7      2465.516          42.000    20934291.430 6  87037829.869 6      1917.623          39.000
R18  22908584.352 6 122287563.989 6     -4416.508          38.000    22908594.250 5  95112571.366 5     -3435.059          33.000
R19  19675774.758 6 105252121.488 6     -2082.625          41.000    19675776.047 7  81862764.497 7     -1619.822          42.000
C20  24868408.930 6 129496330.977 6      2491.324          39.000
C27  24059687.938 6 125285120.744 6     -3191.125          41.000
C30  22320205.422 7 116227199.575 7      -731.949          46.000
E04  23563302.828 8 123826086.350 8       755.996          51.000    23563301.797 8  94879704.688 8       579.288          51.000
E09  24884365.000 6 130768319.797 6      2627.281          41.000    24884371.953 7 100199032.210 7      2013.094          47.000
E12  22877259.945 8 120220805.121 8     -2226.074          48.000    22877258.438 8  92117245.014 8     -1705.759          50.000
E19  25373945.195 6 133340978.882 6     -2002.500          37.000    25373944.570 5 102170391.164 5     -1534.410          35.000
> 2020 05 05 21 56  0.0000000  0 18        .000000000000
G01  21699667.266 8 114032515.900 8     -2581.016          51.000    21699670.477 8  88856510.701 8     -2011.181          51.000
G03  20413745.859 8 107274970.608 8      -609.539          51.000    20413747.484 8  83590895.425 8      -474.966          51.000
G04  20890460.641 7 109780119.596 7      1941.547          46.000    20890461.500 7  85543006.419 7      1512.894          46.000
G09  23184898.141 6 121837480.975 6      3438.523          39.000    23184882.859 6  94938257.485 6      2679.372          40.000
G11  24271849.023 5 127549427.054 5     -4030.152          33.000
G19  22322842.484 6 117307331.270 6      1128.766          36.000
G22  21695845.797 7 114012496.540 7     -1787.012          47.000    21695840.789 5  88840917.659 5     -1392.477          34.000
R04  19430515.289 7 104049537.870 7      -895.652          43.000    19430516.102 6  80927433.628 6      -696.618          37.000
R05  20920494.148 7 111831891.121 7      2454.559          42.000    20920486.469 6  86980435.405 6      1909.104          39.000
R18  22933420.664 6 122420138.974 6     -4421.277          36.000    22933431.602 5  95215685.304 5     -3438.771          32.000
R19  19687518.219 6 105314939.387 6     -2104.754          41.000    19687519.188 7  81911622.815 7     -1637.031          42.000
C20  24854066.727 6 129421647.016 6      2488.141          38.000
C27  24078086.844 6 125380927.650 6     -3195.855          40.000
C30  22324466.445 7 116249385.722 7      -746.773          46.000
E04  23559011.297 8 123803533.385 8       747.746          51.000    23559010.312 8  94862423.865 8       572.963          51.000
E09  24869375.617 7 130689545.591 7      2624.750          42.000    24869381.539 7 100138672.835 7      2011.094          47.000
E12  22889989.469 7 120287702.048 7     -2233.305          47.000    22889988.344 8  92168503.728 8     -1711.353          51.000
E19  25385387.742 5 133401107.516 5     -2006.164          35.000    25385386.836 5 102216463.731 5     -1537.008          35.000
> 2020 05 05 21 56 30.0000000  0 19        .000000000000
G01  21714447.602 8 114110186.741 8     -2594.801          50.000    21714450.719 8  88917033.428 8     -2021.926          50.000
G03  20417267.047 8 107293473.839 8      -621.824          51.000    20417268.422 8  83605313.523 8      -484.538          51.000
G04  20879433.047 7 109722170.901 7      1923.520          45.000    20879433.711 7  85497851.631 7      1498.846          44.000
G09  23165299.555 6 121734500.283 6      3429.504          41.000    23165286.141 6  94858012.905 6      2672.344          41.000
G11  24294875.758 6 127670428.431 6     -4033.879          36.000
G17  22040200.438 5 115822030.433 5      -159.844          35.000
G19  22316471.414 5 117273855.719 5      1105.488          34.000
G22  21706079.109 7 114066273.139 7     -1795.875          46.000    21706074.141 5  88882821.497 5     -1399.383          32.000
R04  19435586.547 7 104076692.928 7      -912.512          44.000    19435586.781 6  80948554.225 6      -709.728          38.000
R05  20906762.539 6 111758510.894 6      2440.094          37.000    20906758.742 6  86923361.958 6      1897.851          37.000
R18  22958297.484 6 122552931.168 6     -4429.613          39.000    22958309.367 5  95318968.147 5     -3445.252          33.000
R19  19699400.844 6 105378504.341 6     -2130.648          39.000    19699401.891 7  81961062.221 7     -1657.171          43.000
C20  24839758.109 6 129347139.708 6      2481.074          38.000
C27  24096529.727 7 125476955.452 7     -3204.086          42.000
C30  22328829.086 7 116272101.499 7      -765.527          47.000
E04  23554783.086 8 123781314.428 8       735.543          51.000    23554782.359 8  94845398.973 8       563.646          51.000
E09  24854418.555 7 130610939.570 7      2617.852          44.000    24854422.820 7 100078442.337 7      2005.991          45.000
E12  22902776.953 8 120354903.067 8     -2244.566          48.000    22902776.164 8  92219995.430 8     -1719.881          51.000
E19  25396866.984 5 133461430.915 5     -2013.191          34.000    25396866.625 5 102262685.607 5     -1542.647          35.000
> 2020 05 05 21 57  0.0000000  0 18        .000000000000
G01  21729302.109 8 114188246.369 8     -2608.160          50.000    21729305.320 8  88977859.102 8     -2032.333          50.000
G03  20420854.156 8 107312323.779 8      -633.785          51.000    20420855.336 8  83620001.769 8      -493.859          51.000
G04  20868503.648 7 109664737.161 7      1906.219          45.000    20868503.891 7  85453098.078 7      1485.362          45.000
G09  23145750.289 7 121631778.447 7      3420.004          42.000    23145739.211 6  94777970.014 6      2664.941          40.000
G11  24317922.992 5 127791535.332 5     -4038.320          34.000
G17  22041166.906 5 115827151.940 5      -180.559          35.000
G22  21716358.664 7 114120293.677 7     -1804.191          44.000    21716353.469 6  88924915.429 6     -1405.863          37.000
R04  19440749.383 7 104104336.571 7      -929.078          43.000    19440749.938 6  80970054.869 6      -722.613          38.000
R05  20893110.062 6 111685557.391 6      2424.816          37.000    20893111.344 6  86866620.306 6      1885.968          38.000
R18  22983217.398 6 122685950.206 6     -4437.180          40.000    22983227.758 6  95422427.456 6     -3451.140          37.000
R19  19711425.062 6 105442827.106 6     -2156.191          40.000    19711426.148 7  82011091.071 7     -1677.038          44.000
C20  24825485.258 5 129272822.251 5      2474.281          35.000
C27  24115017.516 7 125573214.907 7     -3212.242          46.000
C30  22333295.484 7 116295359.091 7      -783.934          46.000
E04  23550620.719 8 123759442.108 8       723.641          51.000    23550620.250 8  94828639.695 8       554.430          51.000
E09  24839496.398 7 130532515.286 7      2611.371          45.000    24839498.578 7 100018351.078 7      2000.846          44.000
E12  22915624.656 8 120422420.184 8     -2255.520          48.000    22915624.242 8  92271729.328 8     -1728.312          51.000
E19  25408385.258 5 133521960.697 5     -2020.695          35.000    25408385.789 5 102309065.601 5     -1548.295          35.000
> 2020 05 05 21 57 30.0000000  0 18        .000000000000
G01  21744215.617 8 114266616.843 8     -2617.695          50.000    21744218.805 8  89038926.978 8     -2039.763          50.000
G03  20424492.469 8 107331443.184 8      -641.805          51.000    20424493.656 8  83634900.016 8      -500.108          51.000
G04  20857657.852 7 109607742.801 7      1892.457          46.000    20857657.891 7  85408686.852 7      1474.642          45.000
G09  23126236.094 7 121529240.424 7      3414.754          42.000    23126228.305 6  94698070.394 6      2660.853          41.000
G11  24340974.961 5 127912668.426 5     -4038.352          35.000
G17  22042239.305 5 115832814.628 5      -196.973          34.000
G22  21726670.031 7 114174480.747 7     -1808.980          44.000    21726664.703 6  88967139.068 6     -1409.598          37.000
R04  19445988.125 7 104132388.480 7      -941.938          43.000    19445988.195 6  80991873.024 6      -732.618          38.000
R05  20879527.656 6 111612952.744 6      2414.211          41.000    20879529.383 6  86810150.072 6      1877.720          36.000
R18  23008164.156 6 122819114.996 6     -4441.168          40.000    23008173.508 6  95526000.064 6     -3454.242          36.000
R19  19723575.898 6 105507827.803 6     -2178.059          40.000    19723576.758 7  82061647.194 7     -1694.046          45.000
C20  24811234.883 6 129198618.708 6      2471.645          36.000
C27  24133534.602 7 125669627.749 7     -3216.367          47.000
C30  22337850.734 7 116319081.832 7      -798.508          46.000
E04  23546509.727 8 123737839.383 8       715.477          51.000    23546509.602 8  94812086.979 8       548.195          51.000
E09  24824593.812 7 130454196.619 7      2608.688          45.000    24824594.570 7  99958340.676 7      1998.882          42.000
E12  22928517.641 8 120490175.763 8     -2262.641          48.000    22928517.656 8  92323645.921 8     -1733.751          51.000
E19  25419928.078 5 133582618.735 5     -2024.762          34.000    25419928.766 5 102355543.824 5     -1550.959          35.000
> 2020 05 05 21 58  0.0000000  0 18        .000000000000
G01  21759190.156 8 114345309.536 8     -2636.172          49.000    21759193.281 8  89100245.958 8     -2054.157          49.000
G03  20428184.312 8 107350844.239 8      -659.176          51.000    20428185.609 8  83650017.715 8      -513.643          51.000
G04  20846898.328 7 109551201.548 7      1869.379          47.000    20846898.953 7  85364628.720 7      1456.659          47.000
G09  23106760.062 6 121426900.877 6      3399.879          38.000    23106756.961 6  94618325.435 6      2649.262          37.000
G11  24364032.438 5 128033837.922 5     -4047.566          34.000
G22  21737015.461 7 114228846.417 7     -1823.070          45.000    21737010.609 5  89009501.921 5     -1420.577          35.000
R04  19451304.969 7 104160859.649 7      -964.000          42.000    19451305.344 6  81014017.277 6      -749.775          39.000
R05  20866013.664 6 111540710.365 6      2394.250          39.000    20866015.539 6  86753961.603 6      1862.191          36.000
R18  23033139.320 6 122952434.665 6     -4454.543          40.000    23033147.984 6  95629693.160 6     -3464.641          36.000
R19  19735855.422 6 105573517.018 6     -2208.863          40.000    19735856.617 7  82112738.804 7     -1718.005          46.000
C20  24797010.031 6 129124542.031 6      2459.348          38.000
C27  24152082.266 7 125766204.405 7     -3229.695          47.000
C30  22342497.648 7 116343281.646 7      -822.371          47.000
E04  23542452.320 8 123716518.645 8       698.176          51.000    23542453.008 8  94795750.325 8       535.002          51.000
E09  24809712.180 7 130375996.872 7      2596.867          43.000    24809713.438 6  99898421.386 6      1989.819          41.000
E11  22749124.547 7 119547454.695 7       479.008          42.000    22749121.000 6  91601283.386 6       367.146          40.000
E12  22941458.422 8 120558181.518 8     -2278.781          48.000    22941458.953 8  92375754.237 8     -1746.043          51.000
E19  25431497.617 5 133643416.568 5     -2036.621          34.000    25431497.641 5 102402129.179 5     -1560.525          35.000
> 2020 05 05 21 58 30.0000000  0 17        .000000000000
G01  21774244.023 8 114424420.701 8     -2640.586          49.000    21774247.094 8  89161891.043 8     -2057.599          49.000
G03  20431948.203 8 107370623.918 8      -662.184          51.000    20431949.523 8  83665430.444 8      -515.987          51.000
G04  20836244.062 8 109495211.934 8      1860.609          49.000    20836245.305 8  85321000.490 8      1449.829          48.000
G11  24387114.797 5 128155139.093 5     -4041.918          33.000
G22  21747413.141 7 114283487.803 7     -1822.305          44.000    21747408.508 6  89052079.605 6     -1419.981          37.000
R04  19456717.820 7 104189847.334 7      -971.262          42.000    19456718.859 6  81036563.246 6      -755.426          39.000
R05  20852585.719 6 111468930.095 6      2388.645          38.000    20852588.656 6  86698132.484 6      1857.835          37.000
R18  23058161.312 6 123086004.746 6     -4453.082          39.000    23058169.945 6  95733580.997 6     -3463.508          37.000
R19  19748281.367 6 105639991.871 6     -2225.492          40.000    19748283.695 7  82164441.488 7     -1730.938          46.000
C20  24782829.305 6 129050688.997 6      2461.547          40.000
C27  24170678.344 7 125863039.216 7     -3228.621          46.000
C30  22347254.711 7 116368054.452 7      -831.895          47.000
E04  23538466.758 8 123695576.990 8       695.289          51.000    23538468.688 8  94779704.147 8       532.718          51.000
E09  24794869.656 7 130298014.063 7      2599.473          42.000    24794873.461 6  99838668.314 6      1991.777          41.000
E11  22746395.367 7 119533112.574 7       474.023          43.000    22746391.828 6  91590294.000 6       363.123          41.000
E12  22954465.391 8 120626534.044 8     -2280.676          49.000    22954466.523 8  92428128.254 8     -1747.465          51.000
E19  25443111.648 6 133704450.202 6     -2034.719          36.000    25443111.312 5 102448895.188 5     -1559.004          34.000
> 2020 05 05 21 59  0.0000000  0 17        .000000000000
G01  21789351.594 8 114503812.907 8     -2651.883          50.000    21789355.023 8  89223755.098 8     -2066.402          50.000
G03  20435758.156 8 107390645.554 8      -672.176          51.000    20435759.414 8  83681031.717 8      -523.773          51.000
G04  20825669.156 8 109439638.897 8      1844.695          50.000    20825670.680 8  85277696.865 8      1437.428          48.000
G11  24410197.539 5 128276452.138 5     -4044.246          32.000
G22  21757837.664 7 114338268.092 7     -1828.992          45.000    21757833.078 6  89094765.534 6     -1425.189          37.000
R04  19462201.031 7 104219210.723 7      -985.914          42.000    19462202.086 6  81059401.425 6      -766.822          39.000
R05  20839219.969 6 111397473.596 6      2376.027          37.000    20839222.148 5  86642555.215 5      1848.021          33.000
R18  23083203.820 6 123219683.956 6     -4458.910          38.000    23083211.727 6  95837553.704 6     -3468.041          37.000
R19  19760828.055 6 105707111.702 6     -2248.867          39.000    19760831.469 7  82216645.805 7     -1749.119          46.000
C20  24768666.828 6 128976925.122 6      2456.469          41.000
C27  24189296.742 7 125959995.119 7     -3234.742          44.000
C30  22352096.039 8 116393264.755 8      -848.398          48.000
E04  23534527.664 8 123674878.008 8       685.156          51.000    23534530.297 8  94763843.883 8       525.050          51.000
E09  24780043.359 7 130220112.724 7      2594.551          44.000    24780048.172 6  99778977.708 6      1988.086          41.000
E11  22743725.273 7 119519082.186 7       461.602          42.000    22743723.242 7  91579543.425 7       353.946          42.000
E12  22967512.617 8 120695096.240 8     -2289.633          49.000    22967514.070 8  92480662.946 8     -1754.403          51.000
E19  25454744.242 5 133765582.204 5     -2039.578          35.000    25454744.367 5 102495736.624 5     -1563.237          33.000
> 2020 05 05 21 59 30.0000000  0 18        .000000000000
G01  21804522.266 8 114583534.402 8     -2664.781          51.000    21804525.570 8  89285875.729 8     -2076.453          51.000
G03  20439623.578 8 107410958.106 8      -683.816          51.000    20439624.727 8  83696859.686 8      -532.844          51.000
G04  20815183.078 8 109384532.961 8      1827.207          50.000    20815184.891 8  85234757.196 8      1423.798          48.000
G09  23048619.250 6 121121306.300 6      3382.773          37.000    23048614.258 6  94380227.127 6      2635.933          38.000
G11  24433287.805 4 128397793.378 4     -4047.328          28.000
G22  21768297.984 7 114393236.132 7     -1837.465          43.000    21768293.742 6  89137597.763 6     -1431.791          39.000
R04  19467763.688 7 104248998.277 7     -1001.930          43.000    19467764.891 6  81082569.543 6      -779.279          39.000
R05  20825921.266 5 111326391.868 5      2361.059          35.000    20825921.422 4  86587269.561 4      1836.379          25.000
R18  23108275.484 6 123353518.772 6     -4465.496          38.000    23108282.422 6  95941647.478 6     -3473.161          37.000
R19  19773505.297 6 105774924.483 6     -2273.969          40.000    19773508.609 7  82269389.063 7     -1768.642          46.000
C20  24754530.820 6 128903299.603 6      2450.012          40.000
C27  24207947.266 7 126057118.926 7     -3242.012          45.000
C30  22357031.117 8 116418960.807 8      -866.473          48.000
E04  23530644.516 8 123654470.776 8       673.457          51.000    23530647.273 8  94748207.174 8       516.040          51.000
E09  24765243.961 7 130142342.813 7      2588.164          46.000    24765247.102 6  99719387.838 6      1983.190          41.000
E11  22741123.977 7 119505413.744 7       447.688          43.000    22741123.336 7  91569070.174 7       343.228          43.000
E12  22980609.266 8 120763916.670 8     -2300.234          51.000    22980610.516 8  92533395.479 8     -1762.466          51.000
E19  25466405.000 5 133826860.644 5     -2046.996          33.000    25466405.875 5 102542690.275 5     -1568.870          33.000
