     3.02           OBSERVATION DATA    M (MIXED)           RINEX VERSION / TYPE
SAVERINEX           SC600               20200501 205931 LCL PGM / RUN BY / DATE
       G = GPS       R = GLONASS       C = COMPASS          COMMENT
       S = SBAS      J = QZSS          E = GALILEO          COMMENT
BEAN                                                        MARKER NAME
1                                                           MARKER NUMBER
GEODETIC                                                    MARKER TYPE
Unige DICCA         GTER                                    OBSERVER / AGENCY
SC60291900056       SC600               2.12(191226)        REC # / TYPE / VERS
                    HEMA45          NONE                    ANT # / TYPE
  4509407.8091   693652.4678  4442337.6214                  APPROX POSITION XYZ
        0.0000        0.0000        0.0000                  ANTENNA: DELTA H/E/N
G    8 C1C L1C D1C S1C C2Y L2Y D2Y S2Y                      SYS / # / OBS TYPES
R    8 C1C L1C D1C S1C C2P L2P D2P S2P                      SYS / # / OBS TYPES
C    8 C1I L1I D1I S1I C7I L7I D7I S7I                      SYS / # / OBS TYPES
E    8 C1C L1C D1C S1C C7Q L7Q D7Q S7Q                      SYS / # / OBS TYPES
DBHZ                                                        COMMENT
     30.000                                                 INTERVAL
  2020    05    01    18    00    0.0000000     GPS         TIME OF FIRST OBS
  2020    05    01    18    59   30.0000000     GPS         TIME OF LAST OBS
     0                                                      RCV CLOCK OFFS APPL
G L1C  0.00000                                              SYS / PHASE SHIFT
G L2Y  0.00000                                              SYS / PHASE SHIFT
R L1C  0.00000                                              SYS / PHASE SHIFT
R L2P  0.25000                                              SYS / PHASE SHIFT
C L1I  0.00000                                              SYS / PHASE SHIFT
C L7I  0.00000                                              SYS / PHASE SHIFT
E L1C  0.50000                                              SYS / PHASE SHIFT
E L7Q -0.25000                                              SYS / PHASE SHIFT
 13 R03  5 R04  6 R05  1 R06 -4 R07  5 R09 -2 R10 -5 R11  0 GLONASS SLOT / FRQ #
    R16 -1 R18 -3 R19  3 R20  2 R21  4                      GLONASS SLOT / FRQ #
 C1C   71.950 C2C   71.950 C2P   71.950                     GLONASS COD/PHS/BIS
    18                                                      LEAP SECONDS
*** Above antenna height is from mark to ANTENNA BOTTOM.    COMMENT
    17     4        0.0000        ANT MEASURE TYPE/HEIGT    COMMENT
    0.0000    0.0000    0.0458    0.0405    0.0000          COMMENT
                    BASE STATION                            COMMENT
                                                            END OF HEADER
> 2020 05 01 18 00  0.0000000  0 18        .000000000000
G08  20446826.609 8 107448800.923 8       809.699          48.000    20446826.961 8  83726342.210 8       630.938          48.000
G10  21402455.250 6 112470665.269 6     -1690.578          40.000    21402455.898 6  87639474.578 6     -1317.331          40.000
G14  24554522.617 6 129034888.206 6      2985.883          37.000    24554522.453 6 100546678.989 6      2326.662          37.000
G16  24003531.969 5 126139396.050 5     -3709.508          35.000
G22  23949561.016 6 125855762.590 6      3459.695          36.000
G27  20683500.594 8 108692516.651 8     -1458.223          51.000    20683502.000 8  84695460.238 8     -1136.280          51.000
G32  23372027.102 7 122820858.572 7      2590.008          42.000    23372029.141 7  95704577.398 7      2018.191          42.000
R05  21056972.008 6 112561585.552 6     -2223.215          36.000
R06  20090610.852 7 107207398.954 7      2397.832          47.000
R11  23043682.992 7 123138447.008 7     -3552.375          46.000    23043685.062 6  95774356.559 6     -2762.961          41.000
R21  19646195.562 5 105130720.489 5       518.957          33.000
C05  39624487.117 6 206335100.438 6       -19.281          37.000    39624486.094 6 159551388.904 6       -15.094          38.000
C19  22723974.844 5 118329866.556 5     -1046.402          31.000
C22  22881702.695 8 119151102.374 8      2142.094          51.000
E04  25641392.289 8 134746464.668 8      2379.738          51.000    25641394.195 8 103247281.017 8      1823.427          49.000
E11  22751526.047 6 119560064.032 6       542.457          37.000    22751526.367 5  91610967.737 5       415.601          35.000
E12  23136170.352 5 121581397.675 5     -1595.062          33.000    23136162.688 6  93159751.488 6     -1221.787          37.000
E25  25949676.781 7 136366461.050 7     -1971.082          42.000    25949677.094 6 104488595.125 6     -1510.202          41.000
> 2020 05 01 18 00 30.0000000  0 18        .000000000000
G01  23207000.148 6 121953623.232 6      2863.746          36.000
G08  20442248.773 7 107424745.818 7       792.758          47.000    20442249.719 7  83707597.969 7       617.730          47.000
G10  21412149.844 7 112521616.492 7     -1707.359          44.000    21412152.211 7  87679176.793 7     -1330.413          44.000
G14  24537480.734 6 128945341.316 6      2982.770          38.000    24537482.383 6 100476902.234 6      2324.236          36.000
G16  24024720.406 5 126250739.154 5     -3714.840          35.000
G22  23929828.711 6 125752076.527 6      3451.941          37.000
G27  20691869.672 8 108736498.650 8     -1475.199          50.000    20691871.125 8  84729731.924 8     -1149.506          50.000
G32  23357269.648 7 122743308.836 7      2578.934          42.000    23357272.289 7  95644149.116 7      2009.562          43.000
R06  20077196.984 7 107135821.179 7      2372.867          47.000
R11  23063654.727 7 123245169.050 7     -3563.551          45.000    23063657.344 6  95857362.487 6     -2771.654          41.000
R21  19643323.438 6 105115350.445 6       504.887          37.000
C05  39624602.156 6 206335699.217 6       -21.613          37.000    39624601.031 6 159551851.934 6       -16.728          38.000
C19  22730052.047 6 118361503.304 6     -1063.746          37.000
C22  22869401.469 8 119087050.417 8      2126.895          50.000
E04  25627832.586 8 134675210.805 8      2369.258          51.000    25627834.547 8 103192683.953 8      1815.456          51.000
E11  22748448.250 6 119543889.805 6       534.977          37.000    22748446.523 5  91598574.490 5       409.893          35.000
E12                                                                  23145278.922 6  93196454.502 6     -1226.040          38.000
E25  25960964.094 7 136425766.301 7     -1983.699          44.000    25960962.352 6 104534036.768 6     -1519.867          41.000
> 2020 05 01 18 01  0.0000000  0 17        .000000000000
G08  20437741.117 7 107401059.641 7       780.270          47.000    20437742.617 7  83689141.186 7       608.002          47.000
G10  21421915.078 7 112572936.257 7     -1719.797          42.000    21421918.234 7  87719166.173 7     -1340.098          42.000
G14  24520434.102 6 128855764.002 6      2983.223          40.000    24520436.914 6 100407101.739 6      2324.592          39.000
G16  24045908.344 6 126362081.671 6     -3714.074          36.000
G22  23910115.523 5 125648489.550 5      3448.574          35.000    23910108.109 4  97907894.927 4      2687.201          28.000
G27  20700308.805 8 108780847.593 8     -1487.426          51.000    20700310.250 8  84764289.542 8     -1159.033          51.000
G32  23342550.977 7 122665961.047 7      2571.852          43.000    23342554.203 7  95583878.167 7      2004.040          43.000
R06  20063897.359 7 107064854.807 7      2352.191          45.000
R11  23083662.203 7 123352084.523 7     -3570.047          43.000    23083665.930 6  95940518.899 6     -2776.703          41.000
R21  19640503.758 6 105100259.397 6       495.219          36.000
C05  39624702.555 6 206336222.114 6       -18.992          37.000    39624701.281 6 159552256.293 6       -14.840          38.000
C19  22736204.648 5 118393534.284 5     -1077.742          34.000
C22  22857162.133 8 119023319.022 8      2116.078          50.000
E04  25614306.102 8 134604132.260 8      2363.379          50.000    25614308.383 8 103138221.236 8      1810.886          51.000
E11  22745384.484 6 119527791.522 6       532.453          37.000    22745382.078 5  91586239.431 5       407.858          35.000
E12                                                                  23154402.094 6  93233185.980 6     -1227.264          38.000
E25  25972296.914 7 136485310.805 7     -1991.812          44.000    25972293.859 7 104579661.679 7     -1526.083          42.000
> 2020 05 01 18 01 30.0000000  0 18        .000000000000
G08  20433331.883 8 107377889.456 8       766.660          49.000    20433333.516 8  83671086.498 8       597.401          49.000
G10  21431778.398 6 112624768.111 6     -1733.188          40.000    21431781.422 6  87759554.695 6     -1350.530          41.000
G11  21303300.188 5 111949593.767 5      2454.117          35.000
G14  24503410.555 6 128766304.431 6      2982.758          41.000    24503413.852 6 100337393.045 6      2324.227          40.000
G16  24067123.031 6 126473566.604 6     -3715.234          36.000
G22  23890449.531 5 125545149.075 5      3443.320          33.000
G27  20708845.680 8 108825708.758 8     -1500.891          51.000    20708847.125 8  84799246.274 8     -1169.525          51.000
G32  23327899.555 7 122588963.687 7      2563.859          44.000    23327903.102 7  95523880.306 7      1997.816          44.000
R06  20050740.320 7 106994651.044 7      2330.535          43.000
R11  23103732.273 7 123459336.541 7     -3577.566          43.000    23103737.047 6  96023937.109 6     -2782.555          40.000
R21  19637761.789 5 105085596.716 5       485.324          31.000    19637760.672 4  81733258.061 4       377.474          25.000
C05  39624815.969 6 206336813.393 6       -17.867          37.000    39624814.797 6 159552713.503 6       -13.722          38.000
C19  22742459.992 5 118426102.575 5     -1091.391          35.000
C22  22845012.891 8 118960054.122 8      2104.059          51.000
E04  25600841.297 8 134533376.497 8      2356.105          50.000    25600843.844 8 103084005.799 8      1805.346          51.000
E11  22742363.086 6 119511915.080 6       528.484          37.000    22742360.336 5  91574074.368 5       404.814          35.000
E12                                                                  23163559.039 6  93270057.550 6     -1229.201          38.000
E25  25983702.438 7 136545238.386 7     -2001.148          45.000    25983698.453 7 104625580.175 7     -1533.222          43.000
> 2020 05 01 18 02  0.0000000  0 17        .000000000000
G08  20429003.695 8 107355144.985 8       751.113          48.000    20429005.562 8  83653363.536 8       585.283          48.000
G10  21441721.484 7 112677018.536 7     -1748.457          43.000    21441724.602 7  87800269.274 7     -1362.434          43.000
G14  24486392.961 7 128676874.040 7      2980.621          42.000    24486395.820 6 100267707.124 6      2322.565          40.000
G16  24088346.016 5 126585099.595 5     -3718.184          33.000
G22  23870814.586 5 125441977.382 5      3436.484          31.000
G27  20717462.477 8 108870989.941 8     -1516.262          51.000    20717463.922 8  84834530.271 8     -1181.503          51.000
G32  23313298.023 7 122512227.906 7      2553.691          43.000    23313301.109 7  95464086.298 7      1989.892          43.000
R06  20037709.234 7 106925119.615 7      2306.539          44.000
R11  23123847.602 7 123566827.319 7     -3586.832          45.000    23123852.383 6  96107540.980 6     -2789.761          40.000
R21  19635083.750 5 105071269.978 5       472.332          35.000    19635084.781 4  81722116.591 4       367.372          27.000
C05  39624925.109 6 206337382.144 6       -18.023          36.000    39624924.031 6 159553153.329 6       -14.185          38.000
C19  22748800.336 5 118459115.925 5     -1107.750          31.000
C22  22832936.180 8 118897166.255 8      2090.047          51.000
E04  25587420.445 7 134462853.536 7      2346.965          47.000    25587424.188 8 103029968.723 8      1798.312          51.000
E11  22739366.383 6 119496168.794 6       523.293          37.000    22739363.656 5  91562009.055 5       400.734          35.000
E12                                                                  23172733.297 6  93306998.878 6     -1232.544          37.000
E25  25995162.469 7 136605455.465 7     -2012.074          43.000    25995158.008 7 104671720.503 7     -1541.755          43.000
> 2020 05 01 18 02 30.0000000  0 16        .000000000000
G08  20424766.266 8 107332877.842 8       735.336          48.000    20424768.469 8  83636012.503 8       572.989          48.000
G10  21451753.352 6 112729735.602 6     -1764.027          40.000    21451756.234 6  87841347.483 6     -1374.564          40.000
G14  24469390.875 7 128587525.692 7      2977.781          42.000    24469393.328 6 100198085.110 6      2320.352          40.000
G16  24109586.594 5 126696727.730 5     -3721.570          31.000    24109587.359 5  98724728.749 5     -2899.925          30.000
G27  20726168.703 8 108916740.816 8     -1531.773          51.000    20726170.195 8  84870180.285 8     -1193.593          51.000
G32  23298756.305 6 122435806.894 6      2543.293          41.000    23298758.648 6  95404537.547 6      1981.790          41.000
R06  20024814.984 7 106856313.789 7      2282.441          47.000
R11  23144017.062 7 123674603.570 7     -3596.145          45.000    23144020.703 6  96191366.842 6     -2797.004          39.000
R21  19632478.438 5 105057331.929 5       459.129          34.000    19632482.750 5  81711275.870 5       357.097          30.000
C05  39625039.438 6 206337978.086 6       -19.012          36.000    39625038.523 6 159553614.170 6       -15.073          38.000
C19  22755235.008 6 118492623.125 6     -1124.062          37.000
C22  22820941.844 8 118834706.722 8      2075.941          51.000
E04  25574053.383 8 134392615.297 8      2337.668          48.000    25574058.648 8 102976149.801 8      1791.083          51.000
E11  22736404.359 6 119480603.259 6       516.844          37.000    22736402.281 6  91550082.212 6       395.879          36.000
E12                                                                  23181933.930 6  93344048.434 6     -1236.055          37.000
E25  26006684.242 6 136666010.429 6     -2022.953          38.000    26006680.305 7 104718119.795 7     -1550.052          43.000
> 2020 05 01 18 03  0.0000000  0 15        .000000000000
G08  20420614.328 8 107311059.310 8       719.195          49.000    20420616.508 8  83619011.051 8       560.412          49.000
G10  21461868.234 6 112782887.707 6     -1779.523          41.000    21461870.406 6  87882764.740 6     -1386.645          41.000
G14  24452399.195 6 128498232.417 6      2974.684          41.000    24452401.305 6 100128506.023 6      2317.938          41.000
G27  20734958.469 8 108962931.426 8     -1547.652          51.000    20734960.375 8  84906172.962 8     -1205.963          51.000
G32  23284267.219 5 122359674.027 5      2532.520          32.000    23284270.641 5  95345213.281 5      1973.392          33.000
R06  20012052.281 7 106788206.774 7      2257.992          47.000
R11  23164233.375 7 123782630.464 7     -3605.633          43.000    23164236.102 6  96275387.690 6     -2804.381          39.000
R21  19629940.945 6 105043753.353 6       446.137          36.000    19629946.234 5  81700714.784 5       346.998          32.000
C05  39625153.453 6 206338571.932 6       -20.363          37.000    39625152.516 6 159554073.359 6       -15.562          38.000
C19  22761757.547 5 118526593.350 5     -1140.441          31.000
C22  22809024.258 8 118772647.758 8      2061.359          51.000
E04  25560736.156 8 134322633.992 8      2327.730          51.000    25560741.133 8 102922527.729 8      1783.655          51.000
E11  22733471.133 6 119465188.985 6       510.660          38.000    22733470.141 6  91538271.271 6       391.210          37.000
E12                                                                  23191156.516 6  93381183.580 6     -1239.718          38.000
E25  26018262.297 6 136726872.090 6     -2034.258          37.000    26018260.492 7 104764754.062 7     -1558.720          44.000
> 2020 05 01 18 03 30.0000000  0 18        .000000000000
G08  20416547.555 8 107289688.389 8       706.887          49.000    20416549.766 8  83602358.380 8       550.821          49.000
G10  21472064.875 7 112836470.148 7     -1791.141          42.000    21472067.195 7  87924517.205 7     -1395.697          42.000
G14  24435417.734 6 128408994.576 6      2975.984          41.000    24435419.859 6 100058970.137 6      2318.952          40.000
G16  24152098.969 5 126920138.002 5     -3723.473          33.000
G22  23812115.016 5 125133527.907 5      3418.750          31.000
G27  20743831.141 8 109009558.401 8     -1559.484          50.000    20743833.742 8  84942505.662 8     -1215.183          50.000
G32  23269831.617 6 122283829.455 6      2525.160          37.000    23269837.500 6  95286113.508 6      1967.654          38.000
R05  21147465.070 5 113045276.748 5     -2379.531          34.000
R06  19999420.461 7 106720798.425 7      2237.422          47.000
R11  23184494.578 7 123890900.394 7     -3610.934          43.000    23184497.406 6  96359597.530 6     -2808.507          38.000
R21  19627469.391 5 105030532.668 5       437.148          30.000    19627475.953 5  81690431.927 5       339.998          33.000
C05  39625266.508 6 206339160.828 6       -17.594          37.000    39625265.742 6 159554528.744 6       -13.469          38.000
C19  22768367.398 6 118561022.460 6     -1153.152          37.000
C22  22797183.047 8 118710987.976 8      2050.691          51.000
E04  25547468.359 8 134252908.419 8      2321.934          51.000    25547472.148 8 102869101.664 8      1779.135          51.000
E11  22730566.422 6 119449923.353 6       508.434          39.000    22730565.758 6  91526574.256 6       389.657          36.000
E12                                                                  23200400.359 5  93418402.090 5     -1240.206          35.000
E25  26029898.859 5 136788035.804 5     -2041.605          34.000    26029898.484 7 104811619.714 7     -1564.437          43.000
> 2020 05 01 18 04  0.0000000  0 18        .000000000000
G08  20412561.469 8 107268741.828 8       690.266          49.000    20412563.758 8  83586036.386 8       537.869          49.000
G10  21482337.906 6 112890456.449 6     -1807.508          39.000    21482340.859 6  87966584.428 6     -1408.448          39.000
G14  24418442.461 7 128319790.436 7      2972.070          42.000    24418445.109 6  99989460.511 6      2315.902          40.000
G16  24173373.281 5 127031917.256 5     -3727.492          33.000
G22  23792620.500 6 125031066.173 6      3412.176          37.000
G27  20752782.117 8 109056596.919 8     -1575.688          50.000    20752785.117 8  84979159.062 8     -1227.808          50.000
G32  23255450.375 7 122208251.447 7      2513.996          42.000    23255455.508 7  95227221.594 7      1958.961          42.000
R05  21160880.508 5 113117013.951 5     -2404.031          34.000
R06  19986915.266 7 106654066.861 7      2212.086          45.000
R11  23204795.773 7 123999384.210 7     -3620.695          43.000    23204798.805 6  96443973.703 6     -2816.102          37.000
R21  19625062.430 6 105017646.409 6       422.969          37.000    19625065.875 5  81680409.324 5       328.979          33.000
C05  39625374.055 6 206339720.723 6       -19.145          37.000    39625373.266 6 159554961.702 6       -14.635          38.000
C19  22775061.562 5 118595885.321 5     -1170.402          35.000
C22  22785414.148 8 118649704.844 8      2035.605          51.000
E04  25534245.062 8 134183416.073 8      2311.652          51.000    25534247.477 8 102815854.318 8      1771.236          51.000
E11  22727685.273 6 119434782.334 6       501.918          39.000    22727684.086 6  91514972.691 6       384.799          36.000
E12                                                                  23209658.625 5  93455678.476 5     -1244.400          33.000
E25  26041588.719 6 136849475.454 6     -2053.582          36.000    26041589.734 7 104858696.760 7     -1573.584          44.000
> 2020 05 01 18 04 30.0000000  0 17        .000000000000
G08  20408666.625 8 107248273.883 8       674.500          50.000    20408668.961 8  83570087.316 8       525.584          50.000
G10  21492697.727 6 112944897.757 6     -1822.293          41.000    21492699.391 6  88009006.172 6     -1419.975          41.000
G14  24401484.422 7 128230675.973 7      2969.051          42.000    24401487.477 7  99920020.750 7      2313.549          42.000
G16  24194661.086 5 127143777.416 5     -3729.605          35.000
G22  23773164.891 6 124928820.469 6      3404.891          36.000
G27  20761821.859 8 109104099.730 8     -1590.934          51.000    20761824.438 8  85016174.236 8     -1239.689          51.000
G32  23241130.961 6 122132996.206 6      2503.379          41.000    23241134.992 6  95168581.243 6      1950.688          41.000
R06  19974547.109 7 106588069.393 7      2187.945          42.000
R11  23225145.820 7 124108131.441 7     -3628.969          42.000    23225149.758 6  96528554.777 6     -2822.531          37.000
R21  19622727.281 6 105005149.803 6       410.246          38.000    19622731.164 5  81670689.725 5       319.080          34.000
C05  39625486.070 6 206340304.206 6       -19.898          37.000    39625485.359 6 159555412.910 6       -14.982          38.000
C19  22781848.141 5 118631059.972 5     -1186.484          30.000
C22  22773728.227 8 118588852.549 8      2021.344          51.000
E04  25521076.211 8 134114211.885 8      2302.188          51.000    25521077.281 8 102762827.751 8      1764.068          51.000
E11  22724838.031 6 119419819.298 6       496.059          39.000    22724836.391 6  91503507.567 6       379.917          37.000
E12                                                                  23218945.203 5  93493067.386 5     -1247.599          35.000
E25  26053341.680 6 136911235.223 6     -2064.168          37.000    26053343.898 7 104906024.526 7     -1581.635          45.000
> 2020 05 01 18 05  0.0000000  0 17        .000000000000
G08  20404857.547 8 107228255.793 8       660.344          51.000    20404859.852 8  83554488.822 8       514.557          51.000
G10  21503137.727 6 112999762.164 6     -1835.273          37.000    21503139.094 6  88051757.527 6     -1430.086          37.000
G14  24384538.531 7 128141624.332 7      2967.699          43.000    24384541.758 7  99850629.935 7      2312.496          42.000
G16  24215957.484 5 127255685.649 5     -3730.184          35.000
G22  23753743.727 6 124826758.718 6      3399.445          38.000
G27  20770944.281 8 109152036.307 8     -1604.531          51.000    20770946.312 8  85053527.415 8     -1250.284          51.000
G32  23226867.492 7 122058036.666 7      2494.227          42.000    23226870.344 7  95110171.328 7      1943.553          42.000
R06  19962310.906 7 106522777.302 7      2165.117          43.000
R11  23245538.461 7 124217107.229 7     -3635.949          44.000    23245543.055 6  96613313.614 6     -2827.964          36.000
R21  19620458.750 6 104993013.360 6       399.008          38.000    19620463.281 5  81661250.292 5       310.342          33.000
C05  39625596.961 6 206340881.605 6       -18.855          37.000    39625596.305 6 159555859.409 6       -14.523          38.000
C19  22788724.359 6 118666861.731 6     -1200.383          38.000
C22  22762118.969 8 118528402.848 8      2008.801          50.000
E04  25507956.336 8 134045267.644 8      2294.258          51.000    25507956.656 8 102710000.393 8      1757.971          51.000
E11  22722018.789 6 119405004.611 6       491.879          39.000    22722017.516 6  91492156.052 6       376.795          38.000
E12                                                                  23228254.242 5  93530538.888 5     -1249.919          35.000
E25  26065150.938 6 136973297.394 6     -2073.348          37.000    26065154.961 7 104953578.683 7     -1588.528          45.000
> 2020 05 01 18 05 30.0000000  0 18        .000000000000
G01  23044931.062 5 121101906.115 5      2812.332          32.000
G08  20401134.766 8 107208691.958 8       644.809          51.000    20401137.188 8  83539244.275 8       502.448          51.000
G10  21513658.398 6 113055050.205 6     -1849.562          37.000    21513660.492 6  88094839.143 6     -1441.218          37.000
G14  24367605.938 7 128052641.101 7      2965.062          45.000    24367608.906 6  99781292.410 6      2310.441          41.000
G16  24237262.609 5 127367642.004 5     -3731.938          35.000
G22  23734357.891 6 124724885.444 6      3392.996          39.000
G27  20780149.695 8 109200408.950 8     -1619.379          51.000    20780151.555 8  85091220.349 8     -1261.854          51.000
G32  23212661.500 6 121983378.649 6      2483.824          41.000    23212663.297 6  95051996.284 6      1935.450          41.000
R06  19950208.828 7 106458196.549 7      2141.023          47.000
R11  23265974.008 7 124326309.621 7     -3643.508          44.000    23265978.023 5  96698248.737 5     -2833.842          35.000
R21  19618257.641 6 104981241.633 6       386.559          39.000    19618262.328 5  81652094.421 5       300.654          32.000
C05  39625707.289 6 206341455.812 6       -18.758          37.000    39625706.500 6 159556303.434 6       -14.580          38.000
C19  22795687.008 5 118703118.923 5     -1215.676          35.000
C22  22750586.891 8 118468360.003 8      1994.926          48.000
E04  25494886.969 8 133976587.856 8      2285.160          51.000    25494886.266 8 102657375.666 8      1750.982          49.000
E11  22719228.500 6 119390341.186 6       486.504          38.000    22719227.641 6  91480920.425 6       372.734          38.000
E12  23237578.945 5 122114308.710 5     -1635.203          33.000
E25  26077017.195 6 137035655.972 6     -2083.207          39.000    26077022.555 7 105001359.935 7     -1596.164          45.000
> 2020 05 01 18 06  0.0000000  0 18        .000000000000
G08  20397500.961 8 107189595.962 8       628.980          51.000    20397503.398 8  83524364.277 8       490.115          51.000
G10  21524262.055 7 113110772.318 7     -1864.273          42.000    21524263.938 7  88138258.865 7     -1452.684          42.000
G14  24350689.281 7 127963741.110 7      2962.176          46.000    24350691.594 6  99712019.752 6      2308.192          39.000
G16  24258578.438 5 127479656.197 5     -3734.285          35.000
G20  23571955.836 5 123871448.681 5     -3268.719          32.000
G22  23715010.492 6 124623214.554 6      3385.887          39.000
G27  20789440.188 8 109249229.292 8     -1634.488          51.000    20789441.672 8  85129262.124 8     -1273.627          51.000
G32  23198515.648 6 121909037.171 6      2472.758          38.000    23198517.016 6  94994067.897 6      1926.827          37.000
R06  19938243.352 8 106394342.703 8      2116.543          49.000
R11  23286454.062 7 124435746.460 7     -3651.457          44.000    23286456.297 5  96783366.191 5     -2840.025          33.000
R21  19616129.250 6 104969847.777 6       373.812          41.000    19616131.086 5  81643232.567 5       290.746          30.000
C05  39625819.180 6 206342038.733 6       -19.480          37.000    39625818.383 6 159556754.225 6       -15.015          39.000
C19  22802738.719 5 118739842.152 5     -1231.621          35.000
C22  22739135.273 7 118408737.530 7      1980.641          46.000
E04  25481870.953 8 133908186.434 8      2275.691          51.000    25481869.508 8 102604964.241 8      1743.688          49.000
E11  22716469.617 6 119375841.479 6       481.000          39.000    22716468.609 6  91469810.236 6       368.600          39.000
E12  23246929.789 5 122163440.572 5     -1639.312          34.000
E25  26088941.719 6 137098321.436 6     -2093.559          38.000    26088947.922 7 105049376.288 7     -1604.057          44.000
> 2020 05 01 18 06 30.0000000  0 17        .000000000000
G08  20393955.195 8 107170963.218 8       613.492          51.000    20393957.773 8  83509845.245 8       478.046          51.000
G10  21534946.977 6 113166921.089 6     -1878.820          37.000    21534949.086 6  88182011.138 6     -1464.013          37.000
G14  24333787.789 7 127874922.512 7      2959.391          46.000    24333789.500 6  99642810.509 6      2306.019          39.000
G16  24279903.625 5 127591720.529 5     -3736.008          31.000
G20  23590634.508 5 123969602.954 5     -3274.020          32.000
G22  23695700.633 6 124521742.529 6      3379.242          39.000
G27  20798814.664 8 109298491.623 8     -1649.328          51.000    20798815.492 8  85167648.311 8     -1285.194          51.000
G32  23184429.484 6 121835009.800 6      2462.410          40.000    23184430.852 6  94936384.263 6      1918.764          40.000
R06  19926413.352 8 106331212.849 8      2092.270          49.000
R11  23306976.320 7 124545408.086 7     -3659.105          44.000    23306975.992 5  96868658.464 5     -2845.974          32.000
R21  19614070.484 7 104958827.797 7       361.188          43.000    19614070.117 5  81634661.524 5       280.927          34.000
C05  39625931.836 6 206342625.308 6       -19.434          37.000    39625930.961 6 159557207.825 6       -15.127          38.000
C19  22809880.648 6 118777025.108 6     -1246.715          37.000
C22  22727765.289 8 118349531.696 8      1966.672          49.000
E04  25468907.312 8 133840059.938 8      2266.414          51.000    25468905.734 8 102552763.475 8      1736.651          49.000
E11  22713741.039 6 119361500.587 6       475.629          39.000    22713739.117 6  91458821.750 6       364.458          39.000
E25  26100923.766 6 137161286.725 6     -2103.750          39.000    26100930.477 7 105097622.352 7     -1611.955          44.000
> 2020 05 01 18 07  0.0000000  0 18        .000000000000
G08  20390497.914 8 107152795.215 8       598.227          51.000    20390500.625 8  83495688.362 8       466.151          51.000
G10  21545712.898 7 113223494.219 7     -1892.625          43.000    21545714.609 7  88226094.113 7     -1474.776          43.000
G14  24316902.188 7 127786187.640 7      2956.801          46.000    24316903.062 6  99573666.527 6      2304.004          38.000
G16  24301238.148 5 127703831.592 5     -3737.281          32.000
G20  23609344.242 5 124067919.557 5     -3279.930          34.000
G22  23676428.758 6 124420471.039 6      3372.477          37.000
G27  20808272.984 8 109348195.140 8     -1663.730          51.000    20808273.383 8  85206378.305 8     -1296.413          51.000
G32  23170403.781 6 121761299.298 6      2452.379          39.000    23170405.094 6  94878947.548 6      1910.945          39.000
R06  19914718.977 7 106268808.959 7      2068.637          47.000
R11  23327539.672 7 124655289.613 7     -3665.941          43.000    23327537.461 5  96954121.727 5     -2851.294          33.000
R21  19612081.070 6 104948183.015 6       349.000          41.000    19612082.953 6  81626382.233 6       271.444          36.000
C05  39626045.180 6 206343215.280 6       -19.109          37.000    39626044.219 6 159557664.027 6       -14.831          38.000
C19  22817109.164 5 118814666.143 5     -1261.629          35.000
C22  22716476.641 8 118290743.735 8      1953.059          51.000
E04  25455995.844 8 133772209.858 8      2257.512          51.000    25455994.961 8 102500774.506 8      1729.848          50.000
E11  22711042.344 6 119347318.606 6       470.492          38.000    22711039.664 6  91447955.061 6       360.327          39.000
E12  23265695.023 6 122262057.601 6     -1647.223          36.000
E25  26112962.688 6 137224549.728 6     -2113.273          39.000    26112969.398 7 105146096.542 7     -1619.261          44.000
> 2020 05 01 18 07 30.0000000  0 20        .000000000000
G08  20387121.758 8 107135053.551 8       579.543          51.000    20387124.430 8  83481863.687 8       451.592          51.000
G10  21556551.500 7 113280450.208 7     -1909.641          46.000    21556553.391 7  88270475.317 7     -1488.032          45.000
G14  24300025.570 7 127697499.851 7      2950.801          45.000    24300025.375 6  99504559.257 6      2299.328          37.000
G16  24322573.828 5 127815986.417 5     -3741.504          31.000
G20  23628076.773 6 124166357.135 6     -3287.961          37.000    23628072.820 4  96753008.347 4     -2562.047          29.000
G22  23657187.992 5 124319362.088 5      3363.215          35.000
G27  20817807.414 8 109398299.683 8     -1681.617          51.000    20817808.141 8  85245420.793 8     -1310.354          51.000
G32  23156430.734 6 121687868.858 6      2437.859          36.000    23156432.445 6  94821729.138 6      1899.637          36.000
R05  21258324.758 6 113637876.041 6     -2559.258          36.000
R06  19903153.281 7 106207093.892 7      2040.891          45.000
R07  22904816.391 6 122611267.937 6      4479.191          36.000    22904822.727 4  95364346.471 4      3483.819          28.000
R11  23348136.156 7 124765346.404 7     -3676.457          43.000    23348133.203 5  97039721.328 5     -2859.470          34.000
R21  19610152.992 6 104937873.898 6       333.324          39.000    19610157.531 6  81618364.019 6       259.252          36.000
C05  39626151.664 6 206343769.434 6       -22.508          37.000    39626150.617 6 159558092.558 6       -17.456          39.000
C19  22824418.078 5 118852724.562 5     -1280.469          34.000
C22  22705261.102 8 118232335.792 8      1935.906          51.000
E04  25443129.094 8 133704598.305 8      2245.004          48.000    25443129.680 8 102448968.300 8      1720.141          51.000
E11  22708366.008 6 119333256.041 6       461.906          36.000    22708363.430 6  91437179.845 6       354.048          40.000
E12  23275105.094 6 122311507.685 6     -1654.402          36.000
E25  26125050.641 6 137288068.948 6     -2126.641          41.000    26125057.102 7 105194767.094 7     -1629.321          44.000
> 2020 05 01 18 08  0.0000000  0 19        .000000000000
G08  20383847.727 8 107117848.780 8       566.902          51.000    20383850.148 8  83468457.370 8       441.742          51.000
G10  21567483.383 7 113337896.264 7     -1920.516          43.000    21567485.781 7  88315238.460 7     -1496.506          43.000
G14  24283179.188 7 127608971.374 7      2950.633          44.000    24283178.617 6  99435576.129 6      2299.197          38.000
G20  23646852.703 6 124265022.599 6     -3290.320          37.000    23646850.836 5  96829898.645 5     -2563.852          33.000
G22  23637999.453 5 124218527.079 5      3359.645          35.000
G27  20827438.898 8 109448914.145 8     -1693.277          51.000    20827440.242 8  85284860.613 8     -1319.437          51.000
G32  23142533.211 5 121614830.801 5      2430.516          34.000    23142534.656 5  94764816.498 5      1893.911          35.000
R05  21272736.977 6 113714923.446 6     -2577.484          36.000
R06  19891737.703 7 106146181.301 7      2019.344          44.000
R07  22879718.500 5 122476917.366 5      4477.125          35.000
R11  23368785.672 7 124875685.002 7     -3679.980          43.000    23368782.445 5  97125540.134 5     -2862.210          34.000
R21  19608309.680 6 104928013.472 6       323.461          40.000    19608315.312 6  81610694.754 6       251.581          36.000
C05  39626272.156 6 206344396.286 6       -19.980          37.000    39626271.000 6 159558577.270 6       -15.287          39.000
C19  22831828.094 5 118891307.503 5     -1292.133          34.000
C22  22694139.484 8 118174417.754 8      1924.820          51.000
E04  25430328.391 7 133637336.507 7      2238.441          47.000    25430330.914 8 102397430.039 8      1715.256          51.000
E11  22705733.203 6 119319422.715 6       459.535          37.000    22705731.547 6  91426580.284 6       352.288          41.000
E12  23284551.242 6 122361145.316 6     -1655.539          37.000    23284553.359 5  93757245.412 5     -1268.099          32.000
E25  26137207.195 6 137351951.977 6     -2133.051          40.000    26137214.406 7 105243716.427 7     -1634.499          45.000
> 2020 05 01 18 08 30.0000000  0 18        .000000000000
G08  20380656.773 8 107101080.907 8       550.434          51.000    20380659.023 8  83455391.490 8       428.906          51.000
G10  21578488.531 7 113395729.110 7     -1935.387          45.000    21578490.812 7  88360303.021 7     -1508.094          45.000
G14  24266344.625 7 127520503.893 7      2946.832          45.000    24266344.125 6  99366640.542 6      2296.236          38.000
G20  23665652.133 6 124363812.447 6     -3295.918          38.000    23665649.438 5  96906877.709 5     -2568.251          35.000
G22  23618844.531 6 124117866.459 6      3350.305          36.000
G27  20837148.203 8 109499936.667 8     -1708.656          51.000    20837149.867 8  85324618.409 8     -1331.420          51.000
G32  23128692.898 5 121542086.877 5      2418.488          34.000    23128690.094 5  94708133.206 5      1884.545          34.000
R06  19880454.094 7 106085970.618 7      1994.066          45.000
R07  22854643.781 6 122342693.133 6      4470.672          37.000
R11  23389467.484 6 124986197.891 6     -3687.871          41.000    23389465.133 6  97211494.486 6     -2868.347          37.000
R21  19606531.703 6 104918499.414 6       310.293          40.000    19606537.258 6  81603294.931 6       241.339          36.000
C05  39626387.180 6 206344995.317 6       -20.406          37.000    39626385.992 6 159559040.537 6       -16.145          38.000
C19  22839319.492 5 118930313.265 5     -1308.281          34.000
C22  22683092.883 8 118116890.680 8      1909.855          51.000
E04  25417576.055 8 133570324.849 8      2228.297          49.000    25417579.695 8 102346083.444 8      1707.435          51.000
E11  22703124.742 6 119305717.598 6       453.863          37.000    22703124.445 6  91416078.986 6       347.535          41.000
E12  23294013.617 6 122410869.036 6     -1660.176          38.000    23294014.031 5  93795342.474 5     -1272.110          33.000
E25  26149412.852 6 137416095.805 6     -2143.594          40.000    26149420.367 7 105292865.596 7     -1642.491          44.000
> 2020 05 01 18 09  0.0000000  0 18        .000000000000
G08  20377554.203 8 107084777.428 8       535.984          51.000    20377556.586 8  83442687.469 8       417.650          51.000
G10  21589571.695 7 113453972.503 7     -1948.117          44.000    21589573.719 7  88405687.431 7     -1518.013          44.000
G14  24249527.117 7 127432126.239 7      2944.621          42.000    24249526.859 6  99297774.971 6      2294.516          41.000
G20  23684479.836 6 124462751.030 6     -3300.230          37.000    23684477.234 5  96983972.708 5     -2571.602          31.000
G22  23599727.820 6 124017407.963 6      3345.625          38.000    23599724.336 4  96636925.269 4      2606.981          27.000
G27  20846939.898 8 109551392.656 8     -1722.082          51.000    20846941.664 8  85364713.968 8     -1341.882          51.000
G32  23114913.094 6 121469665.739 6      2408.711          39.000    23114907.133 6  94651701.399 6      1876.921          38.000
R06  19869307.492 7 106026490.987 7      1970.621          46.000
R07  22829598.875 6 122208625.248 6      4466.441          37.000
R11  23410185.234 6 125096907.269 6     -3693.203          39.000    23410185.031 6  97297601.676 6     -2872.497          37.000
R21  19604823.516 6 104909359.754 6       298.793          41.000    19604828.008 6  81596186.321 6       232.395          36.000
C05  39626501.773 6 206345593.427 6       -19.332          37.000    39626500.680 6 159559502.273 6       -15.520          38.000
C19  22846897.031 5 118969766.249 5     -1322.152          33.000
C22  22672126.414 8 118059781.695 8      1896.832          51.000
E04  25404877.641 8 133503591.023 8      2220.000          51.000    25404880.961 8 102294949.757 8      1701.093          51.000
E11  22700545.711 6 119292167.070 6       449.102          37.000    22700546.320 6  91405696.059 6       344.150          40.000
E12  23303497.609 5 122460706.115 5     -1662.910          34.000    23303497.445 6  93833528.469 6     -1273.977          36.000
E25  26161672.758 6 137480524.528 6     -2151.984          41.000    26161679.938 7 105342233.081 7     -1649.073          45.000
> 2020 05 01 18 09 30.0000000  0 17        .000000000000
G08  20374540.828 8 107068942.275 8       520.395          51.000    20374543.391 8  83430348.382 8       405.502          51.000
G10  21600733.125 7 113512627.926 7     -1961.703          42.000    21600735.508 7  88451392.999 7     -1528.597          42.000
G14  24232728.422 7 127343844.609 7      2941.566          43.000    24232727.391 6  99228984.205 6      2292.133          39.000
G20  23703335.492 5 124561839.075 5     -3304.480          33.000    23703333.297 5  97061184.126 5     -2574.935          33.000
G22  23580650.516 6 123917156.181 6      3338.656          37.000    23580653.734 4  96558814.161 4      2601.559          29.000
G27  20856814.523 8 109603284.779 8     -1736.660          51.000    20856816.422 8  85405149.373 8     -1353.242          51.000
G32  23101194.539 6 121397573.737 6      2397.684          39.000    23101187.258 6  94595525.907 6      1868.328          37.000
R06  19858299.086 7 105967748.051 7      1946.133          47.000
R07  22804584.242 6 122074721.099 6      4461.266          37.000    22804590.688 4  94947034.414 4      3469.876          28.000
R11  23430938.977 6 125207811.769 6     -3699.363          38.000    23430941.289 6  97383860.634 6     -2877.289          37.000
R21  19603186.477 6 104900599.037 6       286.133          41.000    19603189.141 6  81589372.453 6       222.548          37.000
C05  39626616.617 6 206346190.917 6       -19.266          37.000    39626615.688 6 159559965.071 6       -15.453          38.000
C22  22661240.625 8 118003095.477 8      1882.859          51.000
E04  25392233.375 8 133437139.988 8      2210.684          51.000    25392235.930 8 102244032.762 8      1693.870          51.000
E11  22697996.906 6 119278774.631 6       443.520          37.000    22697997.664 6  91395434.264 6       340.163          41.000
E12  23313003.469 6 122510657.695 6     -1666.555          36.000    23313005.148 6  93871803.035 6     -1277.081          38.000
E25  26173987.586 7 137545239.628 7     -2161.645          42.000    26173993.562 7 105391819.976 7     -1656.352          46.000
> 2020 05 01 18 10  0.0000000  0 18        .000000000000
G08  20371607.586 8 107053527.878 8       510.555          51.000    20371610.078 8  83418337.158 8       397.835          51.000
G10  21611963.430 7 113571644.214 7     -1969.582          45.000    21611965.711 7  88497379.711 7     -1534.739          45.000
G14  24215938.273 6 127255612.966 6      2943.789          41.000    24215937.055 6  99160232.336 6      2293.865          38.000
G20  23722205.961 5 124661043.319 5     -3304.176          30.000
G22  23561603.578 6 123817064.411 6      3337.625          38.000    23561605.727 5  96480820.642 5      2600.753          34.000
G27  20866762.680 8 109655563.319 8     -1745.254          50.000    20866764.680 8  85445885.891 8     -1359.938          51.000
G32  23087529.203 6 121325764.601 6      2392.535          37.000    23087520.055 5  94539570.802 5      1864.316          34.000
R06  19847419.898 7 105909694.609 7      1927.332          47.000
R07  22779590.945 6 121940934.246 6      4461.570          37.000    22779598.953 5  94842977.124 5      3470.113          31.000
R11  23451718.680 5 125318857.094 5     -3700.684          32.000    23451723.523 6  97470229.121 6     -2878.309          37.000
R21  19601611.414 7 104892168.260 7       279.145          43.000    19601613.297 6  81582815.180 6       217.109          38.000
C05  39626722.570 6 206346742.168 6       -13.812          37.000    39626721.531 6 159560386.319 6       -10.445          38.000
C19  22862315.000 5 119050015.973 5     -1346.270          32.000
C22  22650426.469 8 117946784.764 8      1874.484          51.000
E04  25379633.641 8 133370924.422 8      2206.949          51.000    25379635.570 8 102193296.198 8      1691.039          51.000
E11  22695469.219 6 119265491.358 6       444.559          38.000    22695469.469 6  91385256.177 6       340.788          40.000
E12  23322521.617 5 122560677.907 5     -1664.719          30.000    23322523.070 6  93910128.606 6     -1275.486          37.000
E25  26186347.766 7 137610190.180 7     -2165.168          43.000    26186352.609 7 105441587.249 7     -1659.201          46.000
> 2020 05 01 18 10 30.0000000  0 16        .000000000000
G08  20368780.938 8 107038673.835 8       487.195          51.000    20368783.227 8  83406762.575 8       379.630          51.000
G10  21623288.602 7 113631157.734 7     -1990.488          44.000    21623291.016 7  88543753.865 7     -1551.030          44.000
G14  24199182.617 6 127167572.763 6      2933.004          40.000    24199182.281 6  99091629.646 6      2285.461          38.000
G22  23542613.312 6 123717272.735 6      3322.727          36.000    23542616.016 5  96403060.934 5      2589.141          35.000
G27  20876810.383 8 109708366.221 8     -1767.457          50.000    20876812.805 8  85487031.002 8     -1377.239          50.000
R06  19836696.617 7 105852473.404 7      1894.785          47.000
R07  22754647.734 5 121807410.325 5      4447.672          35.000    22754654.969 5  94739125.257 5      3459.303          33.000
R11  23472550.141 5 125430179.614 5     -3713.848          34.000    23472557.016 5  97556813.228 5     -2888.551          35.000
R21  19600124.570 7 104884209.902 7       258.859          44.000    19600126.312 6  81576625.353 6       201.335          38.000
C05  39626845.727 6 206347383.469 6       -21.781          36.000    39626844.727 6 159560882.222 6       -16.417          38.000
C19  22870157.688 6 119090851.937 6     -1368.789          36.000
C22  22639710.828 8 117890988.207 8      1852.738          51.000
E04  25367105.062 8 133305084.590 8      2189.676          51.000    25367106.750 8 102142847.531 8      1677.801          51.000
E11  22692988.797 6 119252456.199 6       431.867          39.000    22692988.367 6  91375268.233 6       330.842          41.000
E12  23332089.594 5 122610965.358 5     -1676.672          34.000    23332077.961 6  93948611.434 6     -1284.178          38.000
E25  26198779.141 7 137675512.883 7     -2182.293          43.000    26198783.016 7 105491639.658 7     -1672.185          47.000
> 2020 05 01 18 11  0.0000000  0 17        .000000000000
G08  20366035.266 8 107024244.890 8       473.742          51.000    20366037.516 8  83395519.242 8       369.150          51.000
G10  21634682.023 7 113691029.719 7     -2001.961          45.000    21634684.750 7  88590407.381 7     -1559.970          45.000
G14  24182438.609 7 127079590.211 7      2931.598          43.000    24182438.867 6  99023071.875 6      2284.368          40.000
G22  23523654.031 5 123617646.248 5      3317.766          35.000    23523657.062 5  96325429.921 5      2585.272          33.000
G27  20886931.617 8 109761556.173 8     -1779.648          50.000    20886934.242 8  85528477.730 8     -1386.739          50.000
G32  23060410.812 5 121183273.855 5      2364.109          31.000    23060417.867 4  94428555.250 4      1842.163          29.000
R06  19826103.945 7 105795948.510 7      1872.477          47.000
R07  22729728.000 5 121674013.201 5      4444.898          32.000    22729734.273 5  94635372.076 5      3457.149          33.000
R11  23493407.438 5 125541635.926 5     -3718.008          35.000    23493415.109 5  97643501.314 5     -2891.793          34.000
R21  19598700.312 7 104876586.095 7       248.387          46.000    19598701.500 6  81570695.720 6       193.190          39.000
C05  39626960.258 6 206347979.355 6       -19.434          37.000    39626959.156 6 159561343.044 6       -15.051          38.000
C19  22878077.445 5 119132085.741 5     -1380.762          33.000
C22  22629068.195 8 117835571.694 8      1840.652          51.000
E04  25354621.875 8 133239485.493 8      2182.336          51.000    25354623.727 8 102092583.321 8      1672.156          51.000
E11  22690529.797 6 119239532.838 6       428.867          41.000    22690528.648 6  91365365.937 6       328.475          41.000
E12                                                                  23341647.891 6  93987146.810 6     -1285.522          39.000
E25  26211254.812 7 137741069.174 7     -2189.348          44.000    26211257.984 7 105541871.041 7     -1677.489          47.000
> 2020 05 01 18 11 30.0000000  0 15        .000000000000
G01  22854689.930 5 120102171.266 5      2739.914          33.000    22854690.961 5  93586138.563 5      2134.998          31.000
G08  20363381.188 8 107010297.441 8       454.828          51.000    20363383.547 8  83384651.098 8       354.412          51.000
G10  21646154.000 7 113751313.664 7     -2018.379          47.000    21646155.953 7  88637381.876 7     -1572.766          47.000
G14  24165717.648 7 126991723.580 7      2925.031          44.000    24165718.945 6  98954604.431 6      2279.248          41.000
G22  23504736.734 5 123518241.951 5      3307.676          34.000    23504741.250 5  96247972.084 5      2577.413          34.000
G27  20897137.391 8 109815188.090 8     -1797.016          51.000    20897139.594 8  85570268.830 8     -1400.272          51.000
R06  19815652.828 8 105740178.345 8      1844.320          48.000
R11  23514301.414 6 125653277.792 6     -3726.695          36.000    23514307.828 5  97730333.746 5     -2898.547          33.000
R21  19597349.367 7 104869354.388 7       232.504          45.000    19597350.227 6  81565071.077 6       180.839          39.000
C05  39627076.586 6 206348584.974 6       -22.289          36.000    39627075.383 6 159561811.355 6       -17.317          38.000
C22  22618509.914 8 117780591.622 8      1823.438          51.000
E04  25342194.852 8 133174184.318 8      2169.734          50.000    25342197.344 8 102042547.393 8      1662.539          51.000
E11  22688102.812 7 119226777.119 7       420.285          42.000    22688100.906 6  91355592.067 6       321.899          41.000
E12                                                                  23351241.961 6  94025777.314 6     -1290.607          37.000
E25  26223785.133 7 137806912.672 7     -2201.504          46.000    26223787.734 7 105592322.501 7     -1686.771          47.000
> 2020 05 01 18 12  0.0000000  0 16        .000000000000
G08  20360818.000 8 106996827.790 8       438.938          51.000    20360820.305 8  83374155.261 8       342.026          51.000
G10  21657702.828 7 113812002.305 7     -2031.648          44.000    21657704.250 7  88684671.693 7     -1583.103          43.000
G14  24149018.727 7 126903970.829 7      2920.992          43.000    24149021.195 7  98886225.731 7      2276.098          42.000
G22  23485861.977 5 123419056.651 5      3301.066          33.000    23485866.078 5  96170684.813 5      2572.260          32.000
G27  20907426.570 8 109869256.185 8     -1811.582          51.000    20907428.078 8  85612399.797 8     -1411.622          51.000
G32  23033549.047 5 121042116.069 5      2338.598          30.000    23033560.055 5  94318549.777 5      1822.287          30.000
R06  19805342.430 7 105685160.021 7      1819.223          47.000
R11  23535228.141 5 125765095.696 5     -3732.711          32.000    23535233.273 5  97817303.094 5     -2903.226          30.000
R21  19596070.922 7 104862510.997 7       219.422          45.000    19596071.469 6  81559748.436 6       170.661          39.000
C05  39627193.734 6 206349196.220 6       -22.391          37.000    39627192.562 6 159562283.230 6       -17.299          38.000
C19  22894157.445 6 119215880.980 6     -1414.188          39.000
C22  22608034.766 8 117726044.158 8      1808.977          51.000
E04  25329823.836 8 133109177.674 8      2159.918          49.000    25329827.156 8 101992737.143 8      1655.002          51.000
E11  22685706.875 7 119214184.133 7       415.094          42.000    22685704.273 7  91345942.883 7       317.882          42.000
E12                                                                  23360858.367 6  94064499.165 6     -1293.956          37.000
E25  26236368.430 7 137873036.408 7     -2210.875          46.000    26236370.867 7 105642988.688 7     -1693.999          47.000
> 2020 05 01 18 12 30.0000000  0 15        .000000000000
G08  20358348.859 8 106983852.204 8       425.625          51.000    20358351.125 8  83364044.405 8       331.656          51.000
G10  21669331.109 7 113873108.746 7     -2042.348          45.000    21669332.695 7  88732287.137 7     -1591.440          45.000
G14  24132345.188 7 126816350.158 7      2919.727          42.000    24132348.422 6  98817949.914 6      2275.112          40.000
G22  23467034.359 5 123320107.472 5      3295.816          34.000    23467036.680 5  96093581.524 5      2568.169          33.000
G27  20917801.625 8 109923775.038 8     -1823.520          51.000    20917802.633 8  85654882.002 8     -1420.924          51.000
G32  23020223.711 6 120972081.372 6      2329.762          36.000    23020232.203 6  94263977.254 6      1815.393          37.000
R06  19795176.180 7 105630911.648 7      1796.691          47.000
R21  19594867.797 7 104856072.694 7       209.219          44.000    19594868.664 6  81554740.881 6       162.726          39.000
C05  39627314.734 6 206349826.215 6       -20.211          36.000    39627313.609 6 159562770.406 6       -15.468          38.000
C19  22902338.875 6 119258469.834 6     -1425.836          38.000
C22  22597645.742 8 117671945.751 8      1797.105          51.000
E04  25317511.914 8 133044482.475 8      2152.617          48.000    25317515.945 8 101943165.533 8      1649.477          51.000
E11  22683344.820 7 119201769.476 7       412.305          42.000    22683342.023 7  91336430.322 7       315.934          42.000
E12                                                                  23370500.977 6  94103324.001 6     -1295.142          37.000
E25  26249007.109 7 137939453.768 7     -2217.449          46.000    26249010.000 7 105693879.866 7     -1699.171          47.000
> 2020 05 01 18 13  0.0000000  0 16        .000000000000
G08  20355962.289 8 106971310.456 8       409.375          51.000    20355964.469 8  83354271.617 8       318.994          51.000
G10  21681026.961 7 113934569.670 7     -2056.020          46.000    21681028.305 7  88780178.746 7     -1602.093          47.000
G14  24115685.766 7 126728803.004 7      2915.473          42.000    24115689.648 6  98749731.395 6      2271.803          40.000
G22  23448241.383 5 123221334.292 5      3287.461          35.000    23448240.211 5  96016615.536 5      2561.661          33.000
G27  20928250.570 8 109978682.628 8     -1838.141          51.000    20928251.297 8  85697667.101 8     -1432.317          51.000
G32  23006955.766 6 120902352.658 6      2317.535          37.000    23006967.977 5  94209643.041 5      1805.859          34.000
R06  19785142.875 7 105577372.729 7      1771.309          46.000
R07  22630407.516 5 121142334.902 5      4418.617          32.000    22630398.430 5  94221793.863 5      3436.708          32.000
R21  19593728.383 7 104849977.986 7       195.980          45.000    19593730.242 6  81550000.532 6       152.426          40.000
C05  39627427.797 6 206350415.258 6       -20.426          37.000    39627426.672 6 159563225.910 6       -15.643          38.000
C19  22910590.320 5 119301454.860 5     -1441.203          33.000
C22  22587331.555 8 117618236.925 8      1782.352          51.000
E04  25305247.922 7 132980039.049 7      2142.410          47.000    25305252.352 8 101893786.835 8      1641.647          51.000
E11  22681004.773 7 119189472.133 7       406.551          42.000    22681002.750 7  91327007.701 7       311.459          43.000
E12                                                                  23380156.555 6  94142204.885 6     -1298.045          36.000
E25  26261689.305 7 138006101.527 7     -2226.914          46.000    26261692.992 7 105744947.584 7     -1706.238          45.000
> 2020 05 01 18 13 30.0000000  0 16        .000000000000
G08  20353671.664 8 106959272.376 8       393.449          51.000    20353673.703 8  83344891.287 8       306.584          51.000
G10  21692802.844 7 113996451.620 7     -2069.230          45.000    21692803.828 7  88828398.422 7     -1612.390          45.000
G14  24099054.266 7 126641401.301 7      2911.273          43.000    24099058.008 6  98681626.237 6      2268.528          38.000
G22  23429496.203 6 123122807.788 6      3280.656          38.000    23429490.906 6  95939841.751 6      2556.359          36.000
G27  20938786.367 8 110034046.959 8     -1852.547          51.000    20938786.930 8  85740808.130 8     -1443.543          51.000
R06  19775256.188 7 105524615.519 7      1745.941          45.000
R07  22605663.930 5 121009885.837 5      4412.656          32.000    22605655.844 5  94118778.066 5      3432.069          33.000
R11  23598186.414 5 126101544.598 5     -3746.277          32.000    23598194.078 5  98079000.193 5     -2913.774          30.000
R21  19592666.812 7 104844298.288 7       182.855          45.000    19592669.258 6  81545582.953 6       142.221          40.000
C05  39627546.172 6 206351031.480 6       -20.574          37.000    39627545.023 6 159563702.380 6       -15.595          38.000
C19  22918932.422 6 119344902.969 6     -1455.191          39.000
C22  22577105.672 8 117564987.106 8      1767.883          51.000
E04  25293045.156 7 132915917.784 7      2132.469          46.000    25293050.070 8 101844654.994 8      1634.005          50.000
E11  22678700.008 7 119177361.204 7       400.738          42.000    22678699.125 7  91317727.902 7       307.176          42.000
E12  23389840.977 6 122914432.546 6     -1697.961          36.000    23389841.641 6  94181194.567 6     -1301.134          36.000
E25  26274428.133 7 138073046.484 7     -2235.992          46.000    26274432.672 7 105796243.043 7     -1713.230          45.000
> 2020 05 01 18 14  0.0000000  0 16        .000000000000
G01  22776832.914 5 119693058.462 5      2712.832          35.000
G08  20351466.148 8 106947681.697 8       377.945          51.000    20351468.008 8  83335859.593 8       294.503          51.000
G10  21704647.391 7 114058695.193 7     -2081.734          43.000    21704648.094 7  88876899.883 7     -1622.131          43.000
G14  24082439.812 7 126554090.308 7      2907.777          43.000    24082442.898 6  98613591.799 6      2265.804          36.000
G22  23410787.242 6 123024472.604 6      3273.621          41.000    23410778.586 6  95863217.000 6      2550.877          36.000
G27  20949398.016 8 110089810.114 8     -1866.496          51.000    20949398.453 8  85784259.925 8     -1454.413          51.000
R06  19765505.500 7 105472584.139 7      1721.156          44.000
R07  22580949.039 5 120877603.397 5      4405.500          33.000    22580944.375 5  94015891.937 5      3426.506          34.000
R21  19591671.828 7 104838976.447 7       170.395          43.000    19591675.156 6  81541443.747 6       132.529          41.000
C05  39627658.789 6 206351618.105 6       -19.922          36.000    39627657.719 6 159564156.053 6       -15.495          38.000
C19  22927353.281 5 119388755.861 5     -1469.246          35.000
C22  22566957.227 8 117512140.820 8      1753.844          51.000
E04  25280893.703 7 132852063.076 7      2123.082          47.000    25280898.539 8 101795727.384 8      1626.735          50.000
E11  22676420.016 7 119165379.684 7       396.230          44.000    22676419.766 7  91308547.277 7       303.563          42.000
E12  23399542.297 6 122965402.195 6     -1701.355          36.000    23399543.172 5  94220249.154 5     -1303.031          32.000
E25  26287212.758 7 138140229.513 7     -2244.301          47.000    26287217.383 7 105847720.896 7     -1719.602          45.000
> 2020 05 01 18 14 30.0000000  0 17        .000000000000
G01  22761363.688 5 119611788.112 5      2708.273          33.000
G08  20349354.289 8 106936583.614 8       363.082          51.000    20349355.852 8  83327211.744 8       282.921          51.000
G10  21716568.336 7 114121342.142 7     -2093.410          43.000    21716569.594 7  88925715.731 7     -1631.226          43.000
G14  24065851.664 7 126466917.024 7      2904.938          45.000    24065853.750 6  98545664.685 6      2263.594          37.000
G22  23392122.891 6 122926374.268 6      3267.004          41.000    23392111.594 6  95786776.830 6      2545.720          38.000
G27  20960093.656 8 110146015.233 8     -1879.465          51.000    20960094.359 8  85828056.080 8     -1464.521          51.000
R05  21470649.680 5 114772874.667 5     -2842.836          32.000
R06  19755899.555 7 105421325.088 7      1697.004          44.000
R07  22556273.945 5 120745536.178 5      4399.789          35.000    22556273.523 6  93913173.188 6      3422.064          36.000
R21  19590752.859 7 104834058.473 7       158.535          45.000    19590756.414 6  81537618.632 6       123.305          41.000
C05  39627774.164 6 206352218.690 6       -18.906          36.000    39627773.062 6 159564620.477 6       -14.698          38.000
C19  22935860.102 6 119433055.382 6     -1482.785          38.000
C22  22556894.438 8 117459742.795 8      1740.422          51.000
E04  25268802.484 8 132788520.477 8      2114.176          49.000    25268806.250 8 101747038.949 8      1619.944          50.000
E11  22674173.250 7 119153571.845 7       392.027          44.000    22674172.836 7  91299499.708 7       300.423          42.000
E12  23409264.852 5 123016500.746 5     -1704.203          35.000
E25  26300050.953 7 138207692.645 7     -2251.988          47.000    26300054.445 7 105899413.398 7     -1725.675          44.000
> 2020 05 01 18 15  0.0000000  0 17        .000000000000
G08  20347339.133 8 106925993.835 8       339.824          51.000    20347340.664 8  83318959.970 8       264.798          51.000
G10  21728568.500 7 114184405.215 7     -2113.840          44.000    21728570.758 7  88974855.804 7     -1647.148          44.000
G14  24049293.188 7 126379899.263 7      2893.340          44.000    24049293.938 6  98477858.802 6      2254.554          38.000
G22  23373505.492 6 122828529.069 6      3252.594          40.000    23373492.422 6  95710533.908 6      2534.492          37.000
G27  20970876.016 8 110202676.362 8     -1900.871          51.000    20970877.102 8  85872207.543 8     -1481.198          51.000
G32  22954568.859 5 120627075.492 5      2264.766          33.000    22954566.953 5  93995100.577 5      1764.731          31.000
R05  21486667.523 4 114858515.522 4     -2869.773          29.000
R06  19746441.586 7 105370855.961 7      1664.422          45.000
R07  22531643.344 6 120613703.386 6      4386.055          36.000    22531646.938 6  93810636.699 6      3411.382          37.000
R21  19589912.367 7 104829560.461 7       138.121          46.000    19589916.203 6  81534120.174 6       107.428          41.000
C05  39627894.867 6 206352847.942 6       -25.965          36.000    39627893.914 6 159565107.054 6       -20.171          38.000
C19  22944456.195 6 119477814.861 6     -1504.301          39.000
C22  22546920.609 8 117407808.870 8      1718.734          51.000
E04  25256774.219 8 132725306.375 8      2097.090          50.000    25256776.875 8 101698602.226 8      1606.810          51.000
E11  22671962.383 7 119141952.731 7       379.789          44.000    22671961.320 6  91290596.766 6       290.962          41.000
E12  23419016.539 6 123067742.861 6     -1715.117          37.000
E25  26312944.531 7 138275448.688 7     -2267.980          46.000    26312947.336 7 105951330.321 7     -1737.818          45.000
> 2020 05 01 18 15 30.0000000  0 16        .000000000000
G08  20345409.914 8 106915855.966 8       331.621          51.000    20345411.648 8  83311060.332 8       258.406          51.000
G10  21740636.883 7 114247824.800 7     -2118.582          46.000    21740639.195 7  89024273.643 7     -1650.843          46.000
G14  24032753.875 7 126292982.596 7      2896.613          45.000    24032753.828 6  98410131.628 6      2257.101          38.000
G22  23354924.117 6 122730881.837 6      3252.844          40.000    23354910.867 6  95634445.270 6      2534.690          39.000
G27  20981733.969 8 110259735.319 8     -1907.242          51.000    20981734.969 8  85916669.026 8     -1486.163          51.000
G32  22941639.445 5 120559137.180 5      2259.930          35.000    22941642.102 5  93942161.604 5      1760.981          35.000
R06  19737121.023 7 105321119.774 7      1646.855          45.000
R07  22507045.852 6 120482050.162 6      4386.488          37.000    22507053.531 5  93708239.879 5      3411.713          35.000
R21  19589139.891 7 104825425.294 7       132.988          46.000    19589142.703 6  81530903.917 6       103.435          41.000
C05  39628010.227 6 206353448.982 6       -18.910          36.000    39628009.320 6 159565571.789 6       -14.136          38.000
C19  22953128.484 5 119522975.633 5     -1510.980          35.000
C22  22537025.430 8 117356283.402 8      1711.922          51.000
E04  25244798.109 8 132662365.009 8      2094.613          51.000    25244800.000 8 101650374.471 8      1604.999          51.000
E11  22669776.461 7 119130465.323 7       381.730          43.000    22669774.477 6  91281794.720 6       292.573          41.000
E12  23428784.148 5 123119071.202 5     -1711.129          34.000
E25  26325882.016 7 138343438.301 7     -2269.020          45.000    26325885.328 7 106003426.221 7     -1738.695          46.000
> 2020 05 01 18 16  0.0000000  0 17        .000000000000
G08  20343575.625 8 106906216.891 8       313.109          51.000    20343577.430 8  83303549.357 8       243.981          51.000
G10  21752781.445 7 114311644.458 7     -2133.633          45.000    21752783.156 7  89074003.238 7     -1662.571          45.000
G14  24016242.469 7 126206215.633 7      2889.641          44.000    24016242.984 6  98342521.063 6      2251.671          41.000
G20  23950855.398 5 125862593.718 5     -3363.324          32.000
G22  23336388.711 6 122633479.182 6      3242.691          41.000    23336375.234 6  95558547.189 6      2526.779          36.000
G27  20992676.008 8 110317237.115 8     -1923.945          51.000    20992676.977 8  85961475.577 8     -1499.181          51.000
G32  22928784.469 5 120491580.084 5      2245.652          35.000    22928788.344 6  93889519.683 6      1749.865          37.000
R06  19727947.008 7 105272164.885 7      1618.895          47.000
R07  22482493.617 6 120350627.059 6      4376.973          38.000    22482502.305 5  93606021.940 5      3404.312          32.000
R21  19588444.148 7 104821700.546 7       117.523          46.000    19588445.516 6  81528006.913 6        91.407          40.000
C05  39628128.945 6 206354066.009 6       -20.551          36.000    39628127.945 6 159566049.728 6       -16.024          38.000
C19  22961886.281 6 119568581.592 6     -1527.461          38.000
C22  22527217.625 8 117305212.884 8      1694.910          51.000
E04  25232882.609 8 132599743.682 8      2082.082          51.000    25232884.094 8 101602391.925 8      1595.338          51.000
E11  22667624.180 7 119119155.553 7       374.051          43.000    22667621.617 7  91273128.810 7       286.619          42.000
E12  23438576.742 6 123170531.668 6     -1717.461          36.000
E25  26338872.180 7 138411705.313 7     -2280.410          44.000    26338876.500 7 106055734.684 7     -1747.157          47.000
> 2020 05 01 18 16 30.0000000  0 16        .000000000000
G08  20341834.562 8 106897067.536 8       296.941          51.000    20341836.523 8  83296419.995 8       231.386          51.000
G10  21764999.680 7 114375851.949 7     -2146.707          45.000    21765001.398 7  89124035.055 7     -1672.762          45.000
G14  23999757.656 7 126119591.082 7      2885.512          43.000    23999759.805 7  98275021.469 7      2248.454          42.000
G20  23970079.125 5 125963596.036 5     -3366.680          31.000
G22  23317898.477 6 122536312.789 6      3235.246          40.000    23317884.023 5  95482833.194 5      2520.974          34.000
G27  21003700.133 8 110375170.748 8     -1938.148          50.000    21003701.477 8  86006618.653 8     -1510.246          50.000
R06  19718917.828 7 105223983.632 7      1593.223          46.000
R07  22457984.227 6 120219427.532 6      4369.695          39.000    22457992.750 5  93503977.897 5      3398.655          30.000
R21  19587822.961 7 104818377.272 7       104.266          47.000    19587823.594 6  81525422.159 6        81.095          40.000
C05  39628249.055 6 206354691.204 6       -21.035          37.000    39628247.984 6 159566533.146 6       -15.982          38.000
C19  22970727.516 5 119614621.224 5     -1541.719          32.000
C22  22517495.492 8 117254588.476 8      1680.176          51.000
E04  25221025.891 8 132537433.897 8      2071.902          51.000    25221027.445 8 101554648.078 8      1587.550          51.000
E11  22665503.883 7 119108013.764 7       368.809          43.000    22665501.148 7  91264591.615 7       282.438          42.000
E12  23448393.203 5 123222137.112 5     -1721.395          33.000
E25  26351913.703 7 138480237.616 7     -2288.535          46.000    26351918.688 8 106108246.451 8     -1753.634          49.000
> 2020 05 01 18 17  0.0000000  0 16        .000000000000
G08  20340190.344 8 106888427.554 8       279.316          51.000    20340192.406 8  83289687.540 8       217.649          51.000
G10  21777294.797 7 114440463.939 7     -2160.605          42.000    21777297.000 6  89174382.035 6     -1683.589          41.000
G14  23983303.219 6 126033130.637 6      2878.973          39.000    23983307.562 6  98207649.658 6      2243.352          40.000
G20  23989320.836 5 126064730.397 5     -3372.984          31.000
G22  23299457.625 5 122439403.379 5      3226.469          34.000    23299441.008 5  95407319.546 5      2514.138          33.000
G27  21014809.414 8 110433554.215 8     -1953.730          49.000    21014811.383 8  86052112.292 8     -1522.387          50.000
G32  22903292.289 5 120357614.460 5      2219.555          34.000    22903284.250 5  93785129.078 5      1729.523          35.000
R05  21551834.273 5 115206862.915 5     -2942.750          31.000    21551843.352 4  89605350.276 4     -2288.809          28.000
R06  19710037.266 7 105176596.650 7      1566.117          46.000
R07  22433521.523 6 120088474.700 6      4361.012          38.000    22433529.703 4  93402125.748 4      3391.898          26.000
R21  19587280.562 7 104815475.849 7        89.586          47.000    19587281.586 6  81523165.480 6        69.678          41.000
C05  39628374.109 6 206355342.099 6       -22.469          36.000    39628372.953 6 159567036.495 6       -17.311          37.000
C22  22507862.977 8 117204429.976 8      1664.121          51.000
E04  25209231.781 8 132475456.086 8      2060.285          50.000    25209233.664 8 101507158.569 8      1578.660          51.000
E11  22663419.109 7 119097059.017 7       362.023          42.000    22663416.727 7  91256197.690 7       277.323          42.000
E25  26365009.391 8 138549052.195 8     -2298.621          48.000    26365014.633 8 106160974.479 8     -1761.287          49.000
> 2020 05 01 18 17 30.0000000  0 17        .000000000000
G08  20338632.430 8 106880241.112 8       265.254          51.000    20338634.672 8  83283308.484 8       206.691          51.000
G10  21789655.625 7 114505421.240 7     -2171.012          45.000    21789657.891 7  89224998.127 7     -1691.697          44.000
G14  23966870.555 7 125946780.030 7      2876.617          42.000    23966876.086 7  98140363.495 7      2241.520          42.000
G20  24008577.719 5 126165926.613 5     -3373.496          30.000
G22  23281055.367 5 122342769.725 5      3219.637          33.000    23281036.102 5  95331951.259 5      2508.826          33.000
G27  21025993.469 8 110492329.845 8     -1965.676          50.000    21025995.664 8  86097911.488 8     -1531.695          50.000
G32  22890647.250 6 120291167.418 6      2209.027          41.000    22890640.039 4  93733352.392 4      1721.326          29.000
R05  21568395.742 5 115295386.856 5     -2959.633          35.000    21568402.430 4  89674202.212 4     -2301.940          26.000
R06  19701295.102 7 105129948.187 7      1542.562          46.000
R07  22409094.711 6 119957714.486 6      4355.348          39.000
R21  19586806.812 8 104812939.301 8        78.480          48.000    19586808.289 6  81521192.595 6        61.040          41.000
C05  39628493.195 6 206355962.272 6       -20.422          36.000    39628492.062 6 159567516.058 6       -15.595          38.000
C19  22988662.742 6 119707977.037 6     -1569.176          36.000
C22  22498309.305 8 117154682.105 8      1651.375          51.000
E04  25197490.000 8 132413754.831 8      2052.105          51.000    25197492.617 8 101459881.013 8      1572.345          51.000
E11  22661359.133 7 119086234.680 7       358.652          42.000    22661357.391 7  91247903.716 7       274.815          43.000
E25  26378147.664 8 138618090.049 8     -2304.824          48.000    26378152.523 8 106213873.593 8     -1766.133          49.000
> 2020 05 01 18 18  0.0000000  0 18        .000000000000
G01  22654026.008 5 119047709.756 5      2662.398          34.000
G08  20337167.438 8 106872542.696 8       246.172          51.000    20337169.766 8  83277309.724 8       191.822          51.000
G10  21802088.328 7 114570755.251 7     -2186.367          46.000    21802090.102 7  89275907.702 7     -1703.666          46.000
G14  23950467.078 7 125860575.746 7      2868.652          44.000    23950471.930 7  98073191.360 7      2235.314          44.000
G20  24027856.648 5 126267238.603 5     -3381.758          32.000
G22  23262696.961 6 122246300.003 6      3209.559          36.000    23262677.273 5  95256777.392 5      2500.961          31.000
G27  21037258.977 8 110551530.303 8     -1982.703          51.000    21037260.828 8  86144041.707 8     -1544.960          51.000
G32  22878075.320 6 120225097.646 6      2193.781          40.000    22878070.805 6  93681869.680 6      1709.446          38.000
R05  21585063.812 6 115384480.239 6     -2981.387          37.000
R06  19692698.133 7 105084073.531 7      1513.816          47.000
R07  22384711.883 6 119827185.093 6      4344.703          40.000    22384718.766 4  93198894.406 4      3379.214          25.000
R21  19586408.109 8 104810803.043 8        62.199          49.000    19586409.430 7  81519531.049 7        48.377          42.000
C05  39628612.789 6 206356584.916 6       -23.086          36.000    39628611.633 6 159567997.524 6       -17.755          38.000
C19  22997751.977 4 119755284.154 4     -1586.230          29.000
C22  22488841.133 8 117105379.195 8      1633.703          51.000
E04  25185807.406 8 132352365.201 8      2038.781          50.000    25185810.617 8 101412842.252 8      1562.180          51.000
E11  22659330.406 7 119075574.559 7       350.242          42.000    22659329.297 7  91239735.581 7       268.290          43.000
E25  26391334.102 8 138687382.759 8     -2316.305          48.000    26391338.258 8 106266967.962 8     -1774.807          50.000
> 2020 05 01 18 18 30.0000000  0 18        .000000000000
G01  22638830.203 5 118967853.054 5      2668.207          33.000    22638830.945 5  92702227.662 5      2079.122          30.000
G08  20335791.727 8 106865313.153 8       241.922          51.000    20335793.977 8  83271676.311 8       188.511          51.000
G10  21814588.578 7 114636443.590 7     -2186.715          46.000    21814590.070 7  89327093.373 7     -1703.934          46.000
G14  23934088.469 7 125774500.798 7      2875.859          46.000    23934092.359 7  98006120.007 7      2240.932          44.000
G22  23244364.141 6 122149966.504 6      3213.633          37.000    23244355.578 5  95181743.483 5      2504.129          33.000
G27  21048601.578 8 110611134.568 8     -1984.844          51.000    21048603.008 8  86190486.555 8     -1546.631          51.000
G32  22865571.305 6 120159387.581 6      2193.141          40.000    22865571.078 6  93630667.147 6      1708.944          39.000
R05  21601834.594 5 115474119.040 5     -2988.117          32.000
R06  19684243.109 7 105038954.890 7      1500.359          47.000
R07  22360368.891 6 119696869.159 6      4348.934          38.000
R21  19586080.562 8 104809047.459 8        61.094          49.000    19586082.031 7  81518165.597 7        47.517          43.000
C05  39628729.000 6 206357190.092 6       -11.160          36.000    39628727.844 6 159568465.486 6        -8.521          37.000
C19  23006934.367 5 119803148.309 5     -1588.160          31.000
C21  25485827.750 6 132711393.242 6      3452.535          37.000
C22  22479455.039 8 117056502.378 8      1630.859          51.000
E04  25174180.781 8 132291268.607 8      2040.383          50.000    25174183.992 8 101366028.021 8      1563.392          51.000
E11  22657329.273 7 119065058.832 7       356.641          42.000    22657328.578 7  91231678.076 7       273.378          43.000
E25  26404564.336 7 138756908.125 7     -2312.609          47.000    26404567.984 8 106320240.594 8     -1772.092          49.000
> 2020 05 01 18 19  0.0000000  0 16        .000000000000
G08  20334522.266 8 106858642.019 8       210.504          51.000    20334524.469 8  83266478.029 8       164.029          51.000
G10  21827172.734 7 114702572.935 7     -2213.996          44.000    21827174.250 7  89378622.743 7     -1725.192          44.000
G14  23917751.633 7 125688647.018 7      2855.512          44.000    23917754.516 7  97939221.010 7      2225.074          43.000
G22  23226104.328 5 122054022.604 5      3190.770          33.000    23226105.273 5  95107017.047 5      2486.314          34.000
G27  21060037.664 8 110671230.687 8     -2014.000          51.000    21060038.734 8  86237314.663 8     -1569.354          51.000
G32  22853150.367 6 120094128.809 6      2165.285          36.000    22853151.242 6  93579816.217 6      1687.235          37.000
R06  19675946.742 7 104994683.984 7      1458.859          47.000
R07  22336082.469 6 119566861.851 6      4325.840          38.000
R21  19585840.922 8 104807764.665 8        32.301          49.000    19585842.734 7  81517167.848 7        25.123          43.000
C05  39628858.766 6 206357866.884 6       -26.297          36.000    39628857.648 6 159568988.097 6       -20.274          38.000
C19  23016190.320 5 119851347.139 5     -1617.168          34.000
C21  25466010.461 6 132608203.208 6      3434.117          37.000
C22  22470167.547 8 117008140.884 8      1600.867          49.000
E04  25162627.180 8 132230555.555 8      2014.887          49.000    25162629.992 8 101319507.652 8      1543.856          51.000
E11  22655372.688 7 119054776.776 7       336.508          42.000    22655371.984 7  91223799.621 7       257.892          43.000
E25  26417854.969 7 138826753.123 7     -2335.996          47.000    26417858.406 8 106373758.158 8     -1789.895          49.000
> 2020 05 01 18 19 30.0000000  0 16        .000000000000
G08  20333333.203 8 106852393.843 8       200.910          50.000    20333335.453 8  83261609.317 8       156.550          50.000
G10  21839814.430 7 114769004.382 7     -2219.637          47.000    21839816.133 7  89430387.482 7     -1729.590          47.000
G14  23901430.398 6 125602880.459 6      2857.262          41.000    23901433.156 6  97872389.967 6      2226.438          40.000
G22  23207878.133 5 121958252.300 5      3188.484          35.000    23207880.617 5  95032385.989 5      2484.536          34.000
G27  21071540.859 8 110731680.930 8     -2021.125          50.000    21071541.914 8  86284418.727 8     -1574.903          50.000
G32  22840790.484 7 120029187.429 7      2159.156          42.000    22840792.047 6  93529212.633 6      1682.456          41.000
R06  19667783.398 7 104951123.313 7      1439.977          46.000
R07  22311828.844 6 119437027.560 6      4324.582          37.000    22311825.859 4  92895403.808 4      3363.567          27.000
R21  19585663.852 8 104806816.285 8        25.922          50.000    19585665.141 7  81516430.221 7        20.161          43.000
C05  39628976.039 6 206358477.814 6       -19.430          36.000    39628975.023 6 159569460.523 6       -15.323          38.000
C19  23025515.133 5 119899897.810 5     -1625.090          30.000
C21  25446200.383 6 132505043.681 6      3438.262          37.000
C22  22460952.477 7 116960160.197 7      1592.910          47.000
E04  25151120.734 8 132170090.776 8      2011.066          48.000    25151123.203 8 101273177.477 8      1540.971          51.000
E11  22653434.680 7 119044591.863 7       337.871          42.000    22653433.617 7  91215995.587 7       258.933          43.000
E25  26431179.977 7 138896778.967 7     -2337.426          47.000    26431183.391 8 106427414.293 8     -1790.958          48.000
> 2020 05 01 18 20  0.0000000  0 16        .000000000000
G08  20332240.375 8 106846651.254 8       181.121          51.000    20332242.656 8  83257134.558 8       141.133          51.000
G10  21852528.773 7 114835817.685 7     -2235.430          46.000    21852530.359 7  89482449.757 7     -1741.893          46.000
G14  23885140.797 6 125517285.779 6      2848.410          38.000    23885144.648 6  97805692.928 6      2219.546          38.000
G22  23189701.438 5 121862739.082 5      3178.055          34.000    23189708.352 5  94957960.209 5      2476.412          32.000
G27  21083126.578 8 110792566.405 8     -2038.520          49.000    21083128.367 8  86331861.932 8     -1588.457          49.000
G32  22828508.188 7 119964647.983 7      2142.816          43.000    22828510.453 7  93478922.185 7      1669.727          43.000
R06  19659768.977 7 104908357.929 7      1410.254          44.000
R07  22287623.898 5 119307453.318 5      4312.852          33.000    22287625.266 4  92794623.965 4      3354.443          29.000
R21  19585564.438 8 104806286.843 8         8.676          49.000    19585565.328 7  81516018.442 7         6.748          42.000
C05  39629096.539 6 206359104.913 6       -23.199          36.000    39629095.367 6 159569945.443 6       -17.855          38.000
C21  25426410.891 6 132401997.851 6      3431.262          38.000
C22  22451826.789 8 116912642.649 8      1574.254          49.000
E04  25139677.180 8 132109957.759 8      1996.992          48.000    25139679.867 8 101227101.533 8      1530.232          51.000
E11  22651530.836 7 119034586.385 7       328.586          43.000    22651529.141 7  91208329.066 7       251.813          42.000
E12  23517721.156 5 123586486.910 5     -1750.027          34.000
E25  26444555.062 8 138967065.626 8     -2348.922          49.000    26444558.250 8 106481270.288 8     -1799.961          48.000
> 2020 05 01 18 20 30.0000000  0 14        .000000000000
G01  22578417.852 5 118650400.344 5      2632.961          33.000
G08  20331239.836 8 106841393.119 8       166.617          51.000    20331241.828 8  83253037.314 8       129.832          51.000
G10  21865311.117 7 114902988.652 7     -2245.641          46.000    21865312.141 7  89534790.760 7     -1749.853          46.000
G14  23868881.086 6 125431844.137 6      2844.801          41.000    23868885.148 6  97739115.069 6      2216.728          40.000
G27  21094791.102 8 110853864.307 8     -2050.797          50.000    21094793.281 8  86379626.537 8     -1598.024          50.000
G32  22816298.836 6 119900491.003 6      2131.652          41.000    22816300.875 6  93428929.739 6      1661.028          41.000
R06  19651899.133 7 104866367.190 7      1385.875          42.000
R21  19585539.297 8 104806155.312 8        -2.938          48.000    19585540.109 7  81515916.151 7        -2.285          43.000
C05  39629215.859 6 206359726.652 6       -21.211          36.000    39629214.727 6 159570426.215 6       -16.302          38.000
C21  25406638.898 6 132299045.918 6      3429.379          36.000
C22  22442787.078 8 116865567.532 8      1561.055          51.000
E04  25128293.547 8 132050136.090 8      1988.156          51.000    25128295.742 8 101181264.162 8      1523.363          51.000
E11  22649657.281 7 119024738.800 7       324.711          44.000    22649654.766 7  91200783.502 7       248.906          42.000
E25  26457975.594 8 139037589.264 8     -2355.422          49.000    26457978.531 8 106535307.832 8     -1804.795          48.000
> 2020 05 01 18 21  0.0000000  0 13        .000000000000
G08  20330331.953 8 106836621.442 8       147.215          51.000    20330333.820 8  83249319.136 8       114.713          51.000
G10  21878161.148 7 114970515.786 7     -2260.559          46.000    21878161.984 7  89587409.276 7     -1761.477          46.000
G14  23852652.305 7 125346559.032 7      2836.527          43.000    23852656.117 7  97672659.193 7      2210.284          42.000
G27  21106534.586 8 110915574.353 8     -2067.578          51.000    21106536.609 8  86427712.271 8     -1611.100          51.000
G32  22804162.852 6 119836719.792 6      2115.746          40.000    22804166.109 6  93379237.933 6      1648.636          40.000
R06  19644174.453 6 104825153.580 6      1357.363          40.000
R21  19585588.844 8 104806423.387 8       -19.289          48.000    19585590.484 7  81516124.652 7       -15.003          43.000
C05  39629334.297 6 206360342.576 6       -24.348          36.000    39629333.180 6 159570903.254 6       -18.845          38.000
C21  25386885.414 6 132196190.250 6      3423.664          36.000
C22  22433832.719 8 116818936.413 8      1543.281          51.000
E04  25116970.383 8 131990627.899 8      1974.648          51.000    25116971.469 8 101135667.020 8      1513.003          51.000
E11  22647814.000 7 119015049.980 7       316.629          44.000    22647810.945 7  91193359.615 7       242.516          43.000
E25  26471440.938 8 139108348.419 8     -2366.391          49.000    26471443.977 8 106589525.819 8     -1813.146          49.000
> 2020 05 01 18 21 30.0000000  0 17        .000000000000
G08  20329526.352 8 106832388.010 8       134.215          50.000    20329528.312 8  83246020.366 8       104.583          51.000
G10  21891088.195 7 115038448.355 7     -2269.203          45.000    21891089.609 7  89640343.729 7     -1768.210          45.000
G14  23836464.039 7 125261485.006 7      2834.406          45.000    23836467.062 6  97606367.794 6      2208.628          39.000
G22  23135464.633 6 121577698.923 6      3155.484          37.000
G27  21118366.414 8 110977747.114 8     -2078.180          51.000    21118368.117 8  86476158.546 8     -1619.361          51.000
G32  22792110.469 6 119773388.537 6      2106.363          38.000    22792115.320 6  93329888.945 6      1641.322          38.000
R06  19636606.266 7 104784770.992 7      1334.258          42.000
R07  22215288.961 5 118920158.001 5      4289.633          34.000    22215293.547 4  92493489.271 4      3336.381          29.000
R21  19585723.586 8 104807144.705 8       -29.547          49.000    19585725.289 7  81516685.668 7       -22.981          44.000
C05  39629461.641 5 206361005.696 5       -20.949          35.000    39629460.586 6 159571416.034 6       -16.178          38.000
C19  23063627.820 5 120098326.202 5     -1680.859          32.000
C21  25367161.000 5 132093483.986 5      3422.770          33.000
C22  22424973.281 8 116772801.390 8      1531.582          51.000
E04  25105717.109 8 131931486.198 8      1967.184          51.000    25105716.484 8 101090350.705 8      1507.299          50.000
E11  22646010.492 7 119005571.785 7       314.434          43.000    22646007.484 7  91186097.090 7       241.040          43.000
E12                                                                  23547772.289 5  94817123.746 5     -1348.859          32.000
E25  26484960.312 8 139179392.596 8     -2370.992          48.000    26484963.617 8 106643962.205 8     -1816.755          48.000
> 2020 05 01 18 22  0.0000000  0 16        .000000000000
G08  20328811.648 8 106828632.851 8       116.934          50.000    20328813.797 8  83243094.258 8        91.117          50.000
G10  21904080.203 7 115106722.975 7     -2281.766          43.000    21904082.203 7  89693544.729 7     -1777.999          43.000
G14  23820304.844 7 125176563.333 7      2828.090          46.000    23820306.852 6  97540195.128 6      2203.709          40.000
G22  23117476.445 7 121483186.084 7      3146.496          42.000    23117477.031 5  94662206.751 5      2451.821          31.000
G27  21130274.398 8 111040320.474 8     -2092.602          51.000    21130275.859 8  86524916.987 8     -1630.599          51.000
G32  22780130.875 6 119710438.740 6      2092.047          38.000    22780136.484 6  93280837.182 6      1630.166          39.000
R06  19629183.508 7 104745158.860 7      1307.512          45.000
R07  22191282.219 6 118791618.853 6      4280.477          37.000    22191284.492 5  92393514.455 5      3329.263          31.000
R21  19585931.875 8 104808258.170 8       -43.840          49.000    19585933.578 7  81517551.683 7       -34.098          45.000
C05  39629586.180 5 206361654.364 5       -21.602          35.000    39629585.109 6 159571917.678 6       -16.818          38.000
C19  23073353.227 5 120148973.595 5     -1694.566          31.000
C21  25347453.922 5 131990868.144 5      3419.250          34.000
C22  22416197.734 8 116727102.930 8      1515.805          51.000
E04  25094521.961 8 131872651.342 8      1955.832          51.000    25094519.898 8 101045269.516 8      1498.666          49.000
E11  22644235.219 7 118996243.432 7       308.379          43.000    22644232.609 7  91178949.399 7       236.284          44.000
E25  26498521.203 7 139250658.613 7     -2379.344          46.000    26498525.320 8 106698568.593 8     -1823.196          48.000
> 2020 05 01 18 22 30.0000000  0 16        .000000000000
G08  20328190.875 8 106825370.988 8       100.934          50.000    20328192.992 8  83240552.539 8        78.647          50.000
G10  21917139.352 6 115175351.693 6     -2292.996          40.000    21917141.625 6  89747021.661 6     -1786.750          40.000
G14  23804177.930 7 125091811.555 7      2822.691          47.000    23804178.680 6  97474154.816 6      2199.500          39.000
G22  23099537.203 7 121388921.817 7      3138.297          42.000    23099535.930 5  94588754.205 5      2445.429          35.000
G27  21142260.883 8 111103307.811 8     -2106.074          51.000    21142262.375 8  86573998.001 8     -1641.097          51.000
G32  22768227.164 5 119647887.190 5      2078.770          34.000    22768232.695 5  93232095.703 5      1619.820          35.000
R06  19621908.648 7 104706332.690 7      1281.520          47.000
R07  22167320.453 6 118663342.481 6      4271.844          36.000    22167323.383 5  92293744.039 5      3322.551          31.000
R21  19586216.117 8 104809779.244 8       -56.980          50.000    19586217.969 7  81518734.751 7       -44.318          45.000
C05  39629710.680 6 206362302.810 6       -21.527          36.000    39629709.578 6 159572419.069 6       -16.163          38.000
C19  23083157.898 5 120200027.620 5     -1708.238          33.000
C21  25327768.281 5 131888359.052 5      3415.703          34.000
C22  22407508.773 8 116681856.148 8      1501.164          51.000
E04  25083387.578 8 131814139.075 8      1945.461          51.000    25083385.164 8 101000435.532 8      1490.696          49.000
E11  22642490.930 7 118987079.582 7       303.133          42.000    22642489.078 7  91171927.737 7       232.253          44.000
E25  26512126.352 7 139322158.777 7     -2386.582          45.000    26512131.422 8 106753354.399 8     -1828.811          49.000
> 2020 05 01 18 23  0.0000000  0 15        .000000000000
G08  20327663.172 8 106822597.658 8        84.422          51.000    20327665.219 8  83238391.497 8        65.783          51.000
G10  21930264.609 6 115244326.753 6     -2304.477          41.000    21930266.812 6  89800768.457 6     -1795.696          41.000
G14  23788082.695 7 125007227.220 7      2816.801          47.000    23788082.828 6  97408244.976 6      2194.913          40.000
G22  23081644.797 7 121294901.860 7      3129.941          42.000    23081642.836 5  94515492.044 5      2438.921          33.000
G27  21154324.648 8 111166702.522 8     -2119.730          51.000    21154326.156 8  86623396.459 8     -1651.738          51.000
R06  19614779.984 8 104668288.521 8      1255.223          48.000
R07  22143405.562 5 118535326.928 5      4262.797          34.000    22143408.594 5  92194176.490 5      3315.512          31.000
R21  19586575.445 8 104811703.550 8       -70.633          50.000    19586577.469 7  81520231.423 7       -54.937          45.000
C05  39629834.102 6 206362945.437 6       -21.016          36.000    39629833.055 6 159572916.022 6       -16.278          38.000
C19  23093041.422 5 120251480.933 5     -1722.004          32.000
C21  25308102.711 5 131785952.854 5      3411.871          32.000
C22  22398905.578 8 116637056.434 8      1486.062          51.000
E04  25072313.586 8 131755945.328 8      1934.707          51.000    25072311.656 8 100955845.597 8      1482.414          50.000
E11  22640776.883 7 118978074.942 7       297.637          42.000    22640775.672 7  91165028.055 7       227.943          44.000
E25  26525775.227 7 139393885.480 7     -2394.324          47.000    26525780.461 8 106808313.782 8     -1834.678          48.000
> 2020 05 01 18 23 30.0000000  0 15        .000000000000
G08  20327229.266 8 106820316.616 8        67.984          51.000    20327231.102 8  83236614.051 8        52.975          51.000
G10  21943456.008 6 115313648.554 6     -2316.539          40.000    21943458.023 6  89854785.440 6     -1805.095          41.000
G14  23772019.938 7 124922815.226 7      2810.906          46.000    23772019.984 6  97342469.456 6      2190.323          38.000
G22  23063800.422 6 121201130.556 6      3121.422          41.000    23063797.586 5  94442423.523 5      2432.277          34.000
G27  21166466.055 8 111230506.237 8     -2133.555          51.000    21166467.469 8  86673113.610 8     -1662.510          51.000
R06  19607798.602 8 104631030.439 8      1228.941          48.000
R07  22119540.398 5 118407578.548 5      4253.871          32.000    22119541.945 5  92094816.607 5      3308.566          30.000
R21  19587011.227 8 104814034.955 8       -84.441          50.000    19587013.078 7  81522044.729 7       -65.677          45.000
C05  39629956.984 6 206363584.849 6       -21.305          36.000    39629955.836 6 159573410.472 6       -16.559          38.000
C19  23102999.562 5 120303334.184 5     -1735.207          34.000
C21  25288457.852 5 131683654.033 5      3408.289          32.000
C22  22390389.164 8 116592707.357 8      1470.898          51.000
E04  25061300.703 8 131698074.191 8      1923.758          49.000    25061299.836 8 100911502.817 8      1474.018          51.000
E11  22639093.680 7 118969232.360 7       292.141          42.000    22639092.797 7  91158252.538 7       223.953          44.000
E25  26539467.742 8 139465839.306 8     -2402.109          48.000    26539472.477 8 106863447.202 8     -1840.604          48.000
> 2020 05 01 18 24  0.0000000  0 15        .000000000000
G08  20326891.211 8 106818540.035 8        50.676          51.000    20326892.867 8  83235229.696 8        39.488          51.000
G10  21956715.539 6 115383326.842 6     -2328.746          41.000    21956716.617 6  89909080.228 6     -1814.604          41.000
G14  23755992.492 7 124838590.751 7      2804.141          45.000    23755992.031 6  97276840.063 6      2185.048          38.000
G22  23046006.430 6 121107621.277 6      3112.371          41.000    23046003.523 6  94369559.161 6      2425.224          38.000
G27  21178687.414 8 111294730.035 8     -2147.758          51.000    21178688.766 8  86723158.089 8     -1673.578          51.000
G32  22732973.719 5 119462581.553 5      2037.613          32.000    22732976.469 5  93087723.298 5      1587.760          31.000
R06  19600966.758 8 104594571.983 8      1201.797          48.000
R07  22095729.648 5 118280113.946 5      4244.602          31.000    22095731.016 5  91995677.488 5      3301.360          33.000
R21  19587525.758 8 104816786.688 8       -98.812          51.000    19587527.188 7  81524184.968 7       -76.854          46.000
C05  39630081.430 6 206364232.993 6       -21.797          36.000    39630080.289 6 159573911.668 6       -16.746          38.000
C19  23113035.523 5 120355597.765 5     -1748.930          32.000
C22  22381961.883 8 116548821.813 8      1455.059          51.000
E04  25050350.898 7 131640539.204 7      1912.227          46.000    25050351.945 8 100867417.561 8      1465.180          51.000
E11  22637443.969 7 118960564.320 7       286.258          43.000    22637443.125 7  91151610.791 7       219.301          44.000
E25  26553205.578 8 139538030.287 8     -2410.348          48.000    26553209.727 8 106918762.308 8     -1846.809          49.000
> 2020 05 01 18 24 30.0000000  0 14        .000000000000
G08  20326651.914 8 106817282.329 8        34.711          51.000    20326653.383 8  83234249.653 8        27.044          51.000
G10  21970045.266 6 115453372.600 6     -2339.852          39.000    21970045.633 6  89963661.335 6     -1823.261          39.000
G14  23740003.281 7 124754569.585 7      2799.098          44.000    23740001.859 5  97211369.202 5      2181.121          35.000
G22  23028265.148 7 121014388.780 7      3104.492          44.000    23028262.945 6  94296910.547 6      2419.088          40.000
G27  21190990.953 8 111359385.997 8     -2160.988          51.000    21190992.273 8  86773539.327 8     -1683.887          51.000
G32  22721383.336 5 119401670.961 5      2024.539          34.000    22721384.273 5  93040260.485 5      1577.566          35.000
R06  19594287.258 8 104558927.661 8      1176.031          48.000
R21  19588121.406 8 104819973.315 8      -111.992          51.000    19588122.719 7  81526663.468 7       -87.105          46.000
C05  39630210.047 6 206364902.877 6       -20.852          36.000    39630208.945 6 159574429.664 6       -16.344          38.000
C19  23123153.203 4 120408282.868 4     -1762.699          29.000
C22  22373626.031 8 116505413.677 8      1440.422          51.000
E04  25039467.344 7 131583354.899 7      1901.793          46.000    25039470.953 8 100823600.990 8      1457.173          51.000
E11  22635830.352 7 118952084.271 7       280.973          43.000    22635829.461 7  91145113.089 7       215.393          44.000
E25  26566990.422 7 139610469.452 7     -2417.355          47.000    26566994.328 8 106974267.603 8     -1852.238          48.000
> 2020 05 01 18 25  0.0000000  0 12        .000000000000
G08  20326501.531 8 106816492.067 8        17.500          51.000    20326503.180 8  83233633.855 8        13.636          51.000
G10  21983434.398 6 115523731.839 6     -2351.488          41.000    21983435.625 6  90018486.734 6     -1832.329          40.000
G14  23724043.406 7 124670703.378 7      2791.609          42.000    23724040.414 6  97146018.971 6      2175.283          38.000
G22  23010567.195 7 120921383.084 7      3095.078          45.000    23010565.391 6  94224438.638 6      2411.749          39.000
G27  21203366.477 8 111424421.500 8     -2175.250          51.000    21203367.734 8  86824216.310 8     -1695.000          51.000
R06  19587750.508 7 104524046.251 7      1148.887          47.000
R21  19588788.734 8 104823543.223 8      -126.527          51.000    19588790.203 7  81529440.051 7       -98.410          47.000
C05  39630333.039 5 206365543.235 5       -21.801          35.000    39630331.852 6 159574924.847 6       -16.779          38.000
C22  22365371.711 8 116462432.709 8      1424.438          51.000
E04  25028642.242 8 131526471.033 8      1890.086          49.000    25028646.781 8 100780014.624 8      1448.308          51.000
E11  22634242.789 7 118943740.917 7       274.465          44.000    22634241.883 7  91138720.134 7       210.460          44.000
E25  26580811.797 7 139683103.121 7     -2425.375          47.000    26580815.680 7 107029921.952 7     -1858.380          47.000
> 2020 05 01 18 25 30.0000000  0 13        .000000000000
G08  20326448.219 8 106816211.946 8          .746          51.000    20326450.008 8  83233415.569 8          .581          51.000
G10  21996890.578 7 115594443.689 7     -2362.969          44.000    21996892.680 7  90073586.860 7     -1841.274          44.000
G14  23708120.227 7 124587036.357 7      2785.613          42.000    23708119.250 6  97080823.878 6      2170.605          38.000
G22  22992920.297 7 120828646.960 7      3086.562          44.000    22992918.570 6  94152176.739 6      2405.114          39.000
G27  21215821.578 8 111489876.652 8     -2188.895          49.000    21215823.008 8  86875220.302 8     -1705.632          49.000
R06  19581364.578 7 104489971.257 7      1122.332          46.000
R07  22024610.570 5 117899438.160 5      4216.027          33.000    22024613.328 6  91699579.161 6      3279.132          37.000
R21  19589535.484 8 104827539.499 8      -140.418          51.000    19589537.141 7  81532548.291 7      -109.214          47.000
C05  39630458.234 5 206366195.913 5       -22.156          35.000    39630456.945 6 159575428.774 6       -16.858          38.000
C22  22357207.273 8 116419920.588 8      1409.133          51.000
E04  25017883.398 8 131469930.198 8      1878.914          51.000    25017887.672 8 100736691.154 8      1439.619          51.000
E11  22632689.094 7 118935575.762 7       268.945          44.000    22632688.242 7  91132463.730 7       206.069          45.000
E25  26594677.875 8 139755970.484 8     -2432.836          48.000    26594681.523 7 107085755.373 7     -1864.097          47.000
> 2020 05 01 18 26  0.0000000  0 14        .000000000000
G08  20326488.578 8 106816424.205 8       -14.758          51.000    20326490.414 8  83233580.960 8       -11.500          51.000
G10  22010409.898 6 115665487.884 6     -2373.184          41.000    22010411.375 7  90128945.923 7     -1849.237          42.000
G14  23692233.219 7 124503553.116 7      2780.242          42.000    23692234.062 6  97015772.020 6      2166.426          39.000
G22  22975321.398 7 120736163.309 7      3079.051          45.000    22975319.852 7  94080111.542 7      2399.260          42.000
G27  21228352.609 8 111555732.428 8     -2201.297          49.000    21228354.555 8  86926536.497 8     -1715.293          49.000
G32  22687069.898 6 119221356.335 6      1983.289          37.000    22687077.039 6  92899785.313 6      1545.420          36.000
R06  19575126.547 7 104456685.230 7      1097.020          45.000
R07  22001008.328 6 117773107.227 6      4207.168          36.000    22001012.766 6  91601321.824 6      3272.242          38.000
R21  19590358.375 8 104831944.971 8      -153.082          51.000    19590360.523 8  81535974.758 8      -119.064          48.000
C05  39630582.148 6 206366841.143 6       -20.871          36.000    39630580.883 6 159575927.742 6       -16.187          38.000
C22  22349129.719 8 116377860.419 8      1395.055          51.000
E04  25007186.969 8 131413715.893 8      1868.891          51.000    25007190.594 8 100693617.867 8      1432.019          51.000
E11  22631166.008 7 118927571.183 7       264.875          44.000    22631165.203 7  91126330.351 7       202.875          45.000
E25  26608585.070 8 139829051.544 8     -2438.914          48.000    26608588.320 7 107141752.504 7     -1868.844          47.000
> 2020 05 01 18 26 30.0000000  0 16        .000000000000
G08  20326626.289 8 106817148.395 8       -32.918          51.000    20326628.219 8  83234145.255 8       -25.650          51.000
G10  22023995.477 6 115736880.879 6     -2385.938          38.000    22023996.234 6  90184576.848 6     -1859.172          38.000
G11  20669755.203 5 108620295.924 5      1963.234          32.000
G14  23676386.125 7 124420275.235 7      2772.387          45.000    23676388.750 7  96950880.227 7      2160.304          42.000
G22  22957774.547 7 120643952.660 7      3068.879          47.000    22957772.820 6  94008259.118 6      2391.337          41.000
G27  21240963.758 8 111622006.667 8     -2216.277          50.000    21240965.688 8  86978178.744 8     -1726.969          51.000
G32  22675792.789 6 119162093.963 6      1967.801          37.000    22675799.859 5  92853606.686 5      1533.345          35.000
R06  19569040.242 7 104424208.792 7      1068.773          44.000
R07  21977463.227 6 117647082.708 6      4195.227          36.000    21977468.633 6  91503302.723 6      3262.951          39.000
R21  19591261.750 8 104836779.816 8      -168.578          51.000    19591264.023 8  81539735.195 8      -131.116          48.000
C05  39630708.391 5 206367497.553 5       -22.434          35.000    39630707.070 6 159576436.091 6       -17.510          38.000
C19  23164325.406 4 120622720.671 4     -1816.051          29.000
C22  22341142.922 8 116336271.687 8      1378.195          51.000
E04  24996556.531 8 131357848.343 8      1856.125          51.000    24996559.508 8 100650810.300 8      1422.244          51.000
E11  22629677.062 7 118919746.391 7       257.637          45.000    22629676.336 7  91120334.720 7       197.419          46.000
E25  26622536.211 8 139902363.027 8     -2447.793          49.000    26622538.766 7 107197926.167 7     -1875.540          47.000
> 2020 05 01 18 27  0.0000000  0 15        .000000000000
G08  20326857.789 8 106818365.543 8       -48.629          51.000    20326859.844 8  83235093.667 8       -37.893          51.000
G10  22037643.141 6 115808600.502 6     -2395.672          38.000    22037644.477 6  90240462.293 6     -1866.757          38.000
G14  23660575.383 7 124337186.009 7      2766.574          46.000    23660578.797 7  96886135.449 7      2155.775          42.000
G22  22940276.242 8 120551996.862 8      3061.086          49.000    22940273.688 6  93936605.286 6      2385.265          40.000
G27  21253651.219 8 111688678.303 8     -2228.895          51.000    21253652.680 8  87030130.631 8     -1736.804          51.000
G32  22664594.656 5 119103245.130 5      1954.090          33.000    22664603.156 5  92807750.380 5      1522.673          35.000
R06  19563101.977 7 104392522.481 7      1043.090          44.000
R07  21953970.570 6 117521347.998 6      4186.457          37.000    21953979.852 6  91405509.037 6      3256.136          39.000
R21  19592241.883 8 104842024.754 8      -181.504          51.000    19592244.172 8  81543814.579 8      -141.173          48.000
C05  39630833.195 5 206368148.257 5       -21.086          35.000    39630831.789 6 159576938.526 6       -16.710          38.000
C19  23174822.281 5 120677358.489 5     -1827.980          31.000
C22  22333243.148 8 116295135.427 8      1363.801          51.000
E04  24985988.203 8 131302308.987 8      1845.938          51.000    24985990.719 8 100608254.207 8      1414.369          51.000
E11  22628218.586 7 118912081.696 7       252.902          46.000    22628217.898 7  91114461.772 7       193.812          46.000
E25  26636526.992 8 139975882.883 8     -2454.066          49.000    26636528.453 7 107254259.513 7     -1880.418          46.000
> 2020 05 01 18 27 30.0000000  0 14        .000000000000
G08  20327184.102 8 106820080.268 8       -65.172          51.000    20327186.219 8  83236429.804 8       -50.783          51.000
G10  22051353.312 6 115880648.678 6     -2406.680          41.000    22051355.242 6  90296603.735 6     -1875.335          41.000
G14  23644802.188 8 124254291.978 8      2760.172          48.000    23644805.398 7  96821542.748 7      2150.786          43.000
G22  22922827.500 8 120460301.384 8      3052.438          48.000    22922823.641 6  93865154.306 6      2378.526          40.000
G27  21266415.102 8 111755750.319 8     -2242.172          51.000    21266415.836 8  87082394.534 8     -1747.147          51.000
R06  19557312.938 7 104361631.674 7      1016.773          46.000
R07  21930537.320 7 117395911.146 7      4176.586          42.000    21930545.930 6  91307947.015 6      3248.453          38.000
R21  19593299.453 8 104847685.126 8      -195.285          51.000    19593301.867 8  81548217.099 8      -151.885          48.000
C05  39630957.141 5 206368793.401 5       -21.020          35.000    39630955.812 6 159577438.143 6       -16.535          38.000
C19  23185394.320 5 120732381.951 5     -1839.777          35.000
C22  22325431.023 8 116254456.482 8      1348.594          51.000
E04  24975482.945 8 131247103.297 8      1834.938          51.000    24975485.266 8 100565953.793 8      1405.958          51.000
E11  22626791.508 7 118904581.624 7       247.426          47.000    22626790.750 7  91108714.956 7       189.565          47.000
E25  26650557.695 8 140049613.157 8     -2461.027          49.000    26650558.531 7 107310754.084 7     -1885.719          47.000
> 2020 05 01 18 28  0.0000000  0 15        .000000000000
G08  20327607.227 8 106822303.469 8       -82.172          51.000    20327609.398 8  83238162.164 8       -64.030          51.000
G10  22065127.500 7 115953033.689 7     -2417.875          42.000    22065128.594 6  90353007.590 6     -1884.061          41.000
G14  23629068.828 8 124171606.451 8      2753.250          48.000    23629071.227 7  96757112.557 7      2145.393          43.000
G22  22905430.242 7 120368878.377 7      3043.395          47.000    22905425.758 6  93793915.656 6      2371.482          40.000
G27  21279256.891 8 111823232.185 8     -2255.703          51.000    21279257.406 8  87134977.792 8     -1757.691          51.000
R06  19551675.461 7 104331547.961 7       989.785          47.000
R07  21907164.336 7 117270786.621 7      4165.938          44.000    21907170.688 6  91210627.985 6      3240.177          39.000
R21  19594436.938 8 104853772.680 8      -209.598          51.000    19594439.383 8  81552951.843 8      -163.020          48.000
C05                                                                  39631081.227 6 159577943.023 6       -16.595          38.000
C19  23196037.289 5 120787799.666 5     -1853.461          32.000
C21  25112676.195 5 130768286.013 5      3371.441          35.000
C22  22317709.008 8 116214246.095 8      1333.012          51.000
E04  24965043.234 8 131192243.180 8      1823.410          51.000    24965044.656 8 100523918.142 8      1397.137          51.000
E11  22625397.977 7 118897256.987 7       241.586          47.000    22625396.781 7  91103102.570 7       185.180          47.000
E25  26664629.953 8 140123562.286 8     -2468.117          49.000    26664631.125 8 107367416.339 8     -1891.089          48.000
> 2020 05 01 18 28 30.0000000  0 16        .000000000000
G08  20328126.086 8 106825030.578 8       -99.102          51.000    20328128.352 8  83240287.162 8       -77.222          51.000
G10  22078964.602 7 116025747.725 7     -2428.961          42.000    22078964.141 6  90409667.822 6     -1892.697          40.000
G14  23613374.414 8 124089127.163 8      2746.027          48.000    23613375.938 7  96692843.072 7      2139.765          44.000
G22  22888083.695 7 120277723.778 7      3034.258          46.000    22888079.531 7  93722886.135 7      2364.360          42.000
G27  21292175.336 8 111891117.223 8     -2269.379          51.000    21292175.953 8  87187875.211 8     -1768.347          51.000
G32  22631486.211 5 118929272.767 5      1912.234          34.000
R06  19546188.484 7 104302266.678 7       962.887          47.000
R07  21883849.203 7 117145972.760 7      4155.488          45.000    21883853.844 6  91113550.629 6      3232.049          37.000
R21  19595653.430 8 104860282.856 8      -223.895          51.000    19595656.039 8  81558015.291 8      -174.140          49.000
C05  39631208.047 6 206370099.486 6       -21.836          36.000    39631206.828 6 159578448.888 6       -16.849          38.000
C19  23206751.430 6 120843604.339 6     -1866.086          36.000
C21  25093269.281 6 130667211.901 6      3367.012          36.000
C22  22310076.266 8 116174499.605 8      1317.359          51.000
E04  24954668.477 8 131137724.504 8      1811.762          51.000    24954669.562 8 100482144.123 8      1388.254          51.000
E11  22624036.766 8 118890102.644 8       235.984          48.000    22624035.109 7  91097620.674 7       180.801          47.000
E25  26678742.344 8 140197722.717 8     -2475.266          49.000    26678744.438 8 107424240.510 8     -1896.602          48.000
> 2020 05 01 18 29  0.0000000  0 16        .000000000000
G08  20328741.016 8 106828262.233 8      -117.008          51.000    20328743.383 8  83242805.331 8       -91.175          51.000
G10  22092863.844 6 116098788.418 6     -2441.055          40.000    22092864.219 6  90466582.617 6     -1902.121          40.000
G14  23597719.148 8 124006856.570 8      2737.930          48.000    23597720.047 7  96628736.185 7      2133.455          43.000
G22  22870788.188 7 120186838.763 7      3024.102          45.000    22870785.305 7  93652066.657 7      2356.443          44.000
G27  21305170.422 8 111959404.187 8     -2283.758          51.000    21305170.812 8  87241085.834 8     -1779.552          51.000
G32  22620614.945 6 118872134.923 6      1896.195          37.000    22620610.305 6  92627631.436 6      1477.564          37.000
R06  19540851.828 7 104273788.617 7       934.973          47.000
R07  21860592.766 7 117021473.158 7      4143.793          44.000    21860595.266 6  91016717.678 6      3222.953          36.000
R21  19596949.430 8 104867216.507 8      -239.078          51.000    19596951.898 8  81563408.136 8      -185.950          49.000
C05  39631334.016 6 206370755.847 6       -22.664          36.000    39631332.734 6 159578955.672 6       -17.631          38.000
C19  23217542.547 5 120899794.222 5     -1880.203          35.000
C21  25073885.656 6 130566270.237 6      3361.605          37.000
C22  22302532.445 8 116135217.635 8      1300.801          51.000
E04  24944359.062 8 131083548.514 8      1799.211          51.000    24944359.953 8 100440632.656 8      1378.673          51.000
E11  22622707.875 8 118883118.805 8       229.293          48.000    22622705.977 7  91092269.432 7       175.590          47.000
E25  26692894.383 8 140272092.225 8     -2483.246          48.000    26692897.531 8 107481224.885 8     -1902.708          48.000
> 2020 05 01 18 29 30.0000000  0 16        .000000000000
G08  20329453.398 8 106832005.496 8      -132.828          51.000    20329455.664 8  83245722.155 8      -103.502          51.000
G10  22106826.055 6 116172160.098 6     -2450.852          41.000    22106828.406 6  90523755.399 6     -1909.751          40.000
G14  23582105.062 8 123924804.424 8      2731.953          48.000    23582105.609 7  96564799.471 7      2128.795          44.000
G22  22853545.789 7 120096231.364 7      3016.051          46.000    22853544.352 7  93581463.494 7      2350.169          46.000
G27  21318242.953 8 112028098.675 8     -2296.078          51.000    21318243.227 8  87294613.983 8     -1789.152          51.000
G32  22609828.352 6 118815442.898 6      1882.367          36.000    22609823.781 5  92583456.050 5      1466.786          35.000
R06  19535667.109 7 104246121.586 7       909.332          46.000
R07  21837396.367 7 116897298.506 7      4134.234          42.000    21837398.508 6  90920137.485 6      3215.519          37.000
R21  19598325.867 8 104874581.548 8      -252.266          51.000    19598328.234 8  81569136.498 8      -196.207          48.000
C05  39631461.383 6 206371418.929 6       -21.844          36.000    39631460.156 6 159579468.427 6       -16.948          38.000
C19  23228407.078 5 120956373.862 5     -1892.129          34.000
C21  25054529.766 6 130465469.457 6      3358.387          38.000
C22  22295079.445 8 116096407.600 8      1286.266          51.000
E04  24934116.344 8 131029723.138 8      1788.746          51.000    24934117.422 8 100399389.897 8      1370.634          51.000
E11  22621412.625 8 118876312.551 8       224.273          48.000    22621410.742 7  91087054.239 7       171.912          47.000
E25  26707086.867 7 140346675.383 7     -2489.219          46.000    26707090.742 8 107538372.974 8     -1907.356          48.000
> 2020 05 01 18 30  0.0000000  0 16        .000000000000
G08  20330261.711 8 106836253.363 8      -150.062          51.000    20330263.969 8  83249032.174 8      -116.935          51.000
G10  22120849.406 6 116245853.298 6     -2461.762          41.000    22120851.734 6  90581178.605 6     -1918.259          39.000
G14  23566531.188 7 123842966.132 7      2724.191          46.000    23566531.836 7  96501029.400 7      2122.747          44.000
G22  22836355.672 7 120005895.960 7      3006.730          47.000    22836355.023 7  93511072.278 7      2342.907          45.000
G27  21331391.289 8 112097192.082 8     -2309.844          51.000    21331391.109 8  87348452.975 8     -1799.878          51.000
G32  22599123.664 6 118759187.212 6      1867.547          37.000    22599123.234 5  92539620.624 5      1455.237          35.000
R06  19530632.727 7 104219259.187 7       881.898          43.000
R07  21814259.172 6 116773445.013 6      4122.848          41.000    21814261.961 6  90823807.037 6      3206.659          37.000
R21  19599781.555 8 104882371.474 8      -266.883          51.000    19599783.773 8  81575195.327 8      -207.572          49.000
C05  39631588.812 6 206372082.420 6       -21.793          36.000    39631587.516 6 159579981.508 6       -17.105          38.000
C19  23239344.055 5 121013334.236 5     -1904.996          35.000
C21  25035199.781 6 130364804.176 6      3353.184          37.000
C22  22287715.531 8 116058062.924 8      1270.277          51.000
E04  24923939.500 8 130976242.427 8      1776.875          51.000    24923940.203 8 100358411.197 8      1361.493          51.000
E11  22620149.758 8 118869676.824 8       218.023          48.000    22620147.945 7  91081969.725 7       167.087          47.000
E25  26721317.789 7 140421462.728 7     -2496.371          45.000    26721322.164 8 107595677.538 8     -1912.942          48.000
> 2020 05 01 18 30 30.0000000  0 17        .000000000000
G08  20331166.000 8 106841005.950 8      -166.734          51.000    20331168.508 8  83252735.472 8      -129.923          51.000
G10  22134933.164 6 116319864.822 6     -2472.102          40.000    22134934.531 6  90638849.811 6     -1926.316          40.000
G14  23550998.398 7 123761343.489 7      2717.242          46.000    23550999.336 7  96437427.360 7      2117.335          44.000
G22  22819217.508 8 119915832.604 8      2997.695          49.000    22819216.539 7  93440893.047 7      2335.866          44.000
G27  21344614.945 8 112166682.415 8     -2322.773          51.000    21344614.328 8  87402601.221 8     -1809.953          51.000
G32  22588503.695 5 118703369.588 5      1853.570          33.000    22588502.609 5  92496126.372 5      1444.337          35.000
R06  19525749.141 7 104193200.753 7       855.395          44.000
R07  21791181.406 6 116649915.750 6      4112.340          40.000    21791185.789 6  90727728.742 6      3198.487          38.000
R21  19601316.625 8 104890586.504 8      -280.793          51.000    19601319.102 8  81581584.767 8      -218.398          49.000
C05  39631716.102 5 206372745.487 5       -21.754          35.000    39631714.766 6 159580494.205 6       -16.970          38.000
C19  23250354.875 6 121070672.618 6     -1917.582          36.000
C21  25015895.422 6 130264275.282 6      3349.215          36.000
C22  22280440.508 8 116020183.385 8      1255.086          50.000
E04  24913828.531 8 130923106.772 8      1765.609          51.000    24913829.086 8 100317696.886 8      1352.908          51.000
E11  22618919.117 8 118863211.042 8       212.875          48.000    22618917.406 8  91077015.424 8       163.073          48.000
E12  23732264.820 5 124713899.757 5     -1830.746          32.000
E25  26735587.141 7 140496451.284 7     -2502.836          46.000    26735591.438 7 107653136.268 7     -1917.790          47.000
> 2020 05 01 18 31  0.0000000  0 17        .000000000000
G01  22270745.039 5 117033551.933 5      2498.156          35.000    22270743.133 5  91194974.357 5      1946.621          35.000
G08  20332165.664 8 106846258.853 8      -183.164          51.000    20332168.188 8  83256828.626 8      -142.725          51.000
G10  22149076.227 6 116394187.515 6     -2482.055          40.000    22149078.523 6  90696763.616 6     -1934.069          39.000
G14  23535506.508 7 123679934.686 7      2710.387          47.000    23535507.391 7  96373991.928 7      2111.987          43.000
G22  22802130.391 8 119826038.153 8      2989.000          50.000    22802128.648 7  93370923.391 7      2329.091          43.000
G27  21357912.727 8 112236563.649 8     -2335.488          51.000    21357911.906 8  87457054.052 8     -1819.861          51.000
G32  22577960.367 6 118648014.830 6      1839.125          36.000
R06  19521015.359 7 104167942.109 7       828.883          44.000
R07  21768164.336 6 116526709.392 6      4101.715          40.000    21768169.727 6  90631901.580 6      3190.223          39.000
R21  19602930.766 8 104899222.644 8      -294.578          51.000    19602933.172 8  81588301.776 8      -229.116          49.000
C05  39631842.469 5 206373403.219 5       -21.500          35.000    39631841.078 6 159581002.829 6       -16.734          38.000
C19  23261436.758 5 121128382.315 5     -1929.875          32.000
C21  24996615.297 5 130163879.929 5      3343.809          32.000
C22  22273254.328 8 115982764.977 8      1239.914          51.000
E04  24903782.422 8 130870312.684 8      1754.434          51.000    24903782.703 8 100277244.301 8      1344.303          51.000
E11  22617720.000 8 118856910.788 8       207.770          49.000    22617718.375 8  91072187.961 8       159.164          48.000
E25  26749893.664 7 140571634.148 7     -2508.922          46.000    26749897.836 7 107710743.877 7     -1922.394          47.000
> 2020 05 01 18 31 30.0000000  0 16        .000000000000
G08  20333263.734 8 106852028.210 8      -201.625          51.000    20333266.000 8  83261324.228 8      -157.110          51.000
G10  22163281.156 7 116468834.637 7     -2494.270          42.000    22163284.719 6  90754930.244 6     -1943.587          41.000
G14  23520058.828 7 123598758.109 7      2701.531          46.000    23520059.641 7  96310737.481 7      2105.089          43.000
G22  22785097.664 8 119736529.875 8      2978.121          51.000    22785095.023 7  93301176.759 7      2320.617          42.000
G27  21371287.180 8 112306850.087 8     -2350.406          51.000    21371286.914 8  87511822.655 8     -1831.485          51.000
G32  22567509.141 5 118593085.833 5      1822.137          35.000    22567519.625 6  92410188.585 6      1419.850          36.000
R06  19516434.797 7 104143500.082 7       800.199          46.000
R07  21745211.141 6 116403845.740 6      4088.895          40.000    21745217.531 6  90536340.996 6      3180.254          39.000
R21  19604626.414 8 104908296.592 8      -310.508          51.000    19604628.953 8  81595359.296 8      -241.506          49.000
C05  39631970.727 5 206374070.946 5       -22.992          35.000    39631969.281 6 159581519.197 6       -17.909          38.000
C19  23272592.367 5 121186476.701 5     -1943.152          35.000
C21  24977361.328 5 130063635.172 5      3338.148          30.000
C22  22266160.078 8 115945823.686 8      1222.680          51.000
E04  24893804.289 8 130817876.970 8      1741.090          51.000    24893804.758 8 100237066.322 8      1334.028          51.000
E11  22616555.492 8 118850791.910 8       200.199          49.000    22616554.062 8  91067499.462 8       153.411          48.000
E25  26764239.984 8 140647024.731 8     -2517.141          48.000    26764244.297 7 107768510.637 7     -1928.751          47.000
> 2020 05 01 18 32  0.0000000  0 15        .000000000000
G08  20334462.719 8 106858328.369 8      -217.891          51.000    20334464.742 8  83266233.429 8      -169.785          51.000
G10  22177550.234 6 116543818.135 6     -2504.152          41.000    22177553.969 6  90813358.936 6     -1951.288          41.000
G14  23504658.391 7 123517830.693 7      2694.309          45.000    23504659.125 7  96247677.222 7      2099.464          43.000
G22  22768122.219 8 119647323.021 8      2969.484          51.000    22768118.562 7  93231665.012 7      2313.887          42.000
G27  21384740.961 8 112377554.675 8     -2362.801          49.000    21384741.781 8  87566917.119 8     -1841.143          49.000
R06  19512010.219 7 104119889.649 7       774.090          46.000
R07  21722324.570 6 116281342.679 6      4078.406          41.000    21722333.016 6  90441060.870 6      3172.094          38.000
R21  19606406.586 8 104917823.911 8      -324.176          50.000    19606409.086 8  81602769.424 8      -252.134          49.000
C05  39632103.633 5 206374763.715 5       -22.781          35.000    39632102.023 6 159582054.133 6       -17.640          38.000
C19  23283825.367 6 121244968.227 6     -1955.203          37.000
C21  24958138.195 5 129963556.813 5      3334.344          31.000
C22  22259160.555 8 115909374.156 8      1207.746          51.000
E04  24883897.062 8 130765815.059 8      1730.117          51.000    24883897.688 8 100197174.739 8      1325.722          51.000
E11  22615428.336 8 118844868.915 8       195.074          49.000    22615427.102 8  91062961.056 8       149.511          48.000
E25  26778628.344 8 140722634.998 8     -2522.980          48.000    26778632.750 7 107826445.749 7     -1933.220          47.000
> 2020 05 01 18 32 30.0000000  0 17        .000000000000
G08  20335751.891 8 106865102.600 8      -232.770          51.000    20335753.734 8  83271512.046 8      -181.379          51.000
G10  22191871.789 6 116619078.066 6     -2512.227          40.000    22191874.727 6  90872003.003 6     -1957.582          39.000
G14  23489294.883 7 123437097.514 7      2688.641          44.000    23489295.680 7  96184768.321 7      2095.045          42.000
G22  22751193.164 8 119558361.251 8      2962.230          49.000    22751189.117 7  93162344.217 7      2308.235          43.000
G27  21398263.273 8 112448618.535 8     -2373.758          49.000    21398265.438 8  87622291.567 8     -1849.675          49.000
G32  22546856.523 5 118484528.039 5      1795.094          33.000    22546864.594 5  92325636.855 5      1398.774          34.000
R05  22111417.227 5 118198149.625 5     -3468.188          32.000    22111414.344 5  91931869.016 5     -2697.479          30.000
R06  19507730.914 7 104097053.028 7       749.375          47.000
R07  21699497.016 7 116159145.916 7      4069.074          44.000    21699504.352 5  90346018.978 5      3164.839          35.000
R21  19608260.734 8 104927746.868 8      -336.387          50.000    19608263.430 8  81610487.280 8      -261.634          49.000
C05  39632230.047 6 206375421.371 6       -20.117          36.000    39632228.469 6 159582563.467 6       -15.918          38.000
C19  23295123.133 5 121303797.747 5     -1965.914          35.000
C21  24938938.969 5 129863589.699 5      3331.117          32.000
C22  22252244.664 8 115873359.956 8      1194.180          51.000
E04  24874050.125 8 130714070.583 8      1720.523          51.000    24874050.805 8 100157526.386 8      1318.347          51.000
E11  22614327.586 8 118839084.553 8       191.473          49.000    22614326.328 8  91058528.876 8       146.611          48.000
E25  26793047.273 8 140798405.281 8     -2527.348          48.000    26793051.625 8 107884503.449 8     -1936.536          48.000
> 2020 05 01 18 33  0.0000000  0 17        .000000000000
G08  20337139.297 8 106872392.571 8      -251.855          51.000    20337140.875 8  83277192.533 8      -196.251          51.000
G10  22206253.414 6 116694653.367 6     -2524.758          38.000    22206255.680 6  90930892.807 6     -1967.344          38.000
G14  23473976.539 7 123356602.679 7      2678.852          43.000    23473977.797 7  96122045.145 7      2087.420          42.000
G22  22734318.656 8 119469687.177 8      2950.711          48.000    22734315.453 7  93093247.558 7      2299.258          45.000
G27  21411861.867 8 112520081.675 8     -2388.938          49.000    21411865.062 8  87677977.139 8     -1861.507          49.000
G32  22536659.984 5 118430945.867 5      1778.078          32.000    22536661.516 5  92283868.491 5      1385.506          33.000
R05  22130933.102 5 118302476.101 5     -3485.043          33.000    22130931.477 5  92013011.855 5     -2710.589          32.000
R06  19503604.523 8 104075032.082 8       720.172          48.000
R07  21676736.773 7 116037300.743 7      4055.391          46.000    21676740.242 6  90251250.608 6      3154.196          37.000
R21  19610197.297 8 104938108.447 8      -352.965          51.000    19610199.914 8  81618546.261 8      -274.525          49.000
C05  39632358.070 5 206376087.710 5       -22.234          35.000    39632356.352 6 159583078.709 6       -17.290          38.000
C19  23306491.523 4 121363004.105 4     -1979.988          29.000
C21  24919770.922 5 129763776.295 5      3324.133          34.000
C22  22245420.375 8 115837822.533 8      1176.363          51.000
E04  24864271.555 8 130662685.999 8      1706.613          51.000    24864272.430 8 100118153.805 8      1307.617          51.000
E11  22613261.172 8 118833480.271 8       183.535          50.000    22613259.664 8  91054234.680 8       140.631          48.000
E25  26807504.148 8 140874374.616 8     -2535.922          48.000    26807508.062 8 107942713.676 8     -1943.109          48.000
> 2020 05 01 18 33 30.0000000  0 16        .000000000000
G08  20338623.602 8 106880191.492 8      -269.566          51.000    20338624.961 8  83283269.603 8      -210.052          51.000
G10  22220693.000 6 116770534.839 6     -2535.621          38.000    22220695.445 6  90990021.311 6     -1975.806          38.000
G14  23458702.734 7 123276342.358 7      2670.078          42.000    23458704.375 6  96059504.689 6      2080.583          38.000
G22  22717497.836 7 119381295.497 7      2940.480          47.000    22717496.109 7  93024370.938 7      2291.283          46.000
G27  21425535.195 8 112591936.069 8     -2402.602          50.000    21425538.984 8  87733967.576 8     -1872.157          50.000
R05  22150531.633 5 118407247.880 5     -3501.500          32.000    22150531.047 5  92094500.986 5     -2723.389          31.000
R06  19499629.977 8 104053821.338 8       692.355          48.000
R07  21654041.648 7 115915804.063 7      4042.996          47.000    21654043.961 6  90156753.279 6      3144.556          41.000
R21  19612214.461 8 104948902.535 8      -368.141          50.000    19612217.164 8  81626941.681 8      -286.332          49.000
C05  39632486.211 5 206376756.022 5       -23.336          35.000    39632484.414 6 159583594.721 6       -17.888          38.000
C19  23317931.586 5 121422595.591 5     -1993.160          30.000
C21  24900632.289 5 129664111.929 5      3318.559          34.000
C22  22238686.328 8 115802755.780 8      1159.980          51.000
E04  24854560.477 8 130611655.807 8      1694.059          51.000    24854561.875 8 100079052.774 8      1298.045          51.000
E11  22612227.914 8 118828049.730 8       177.129          50.000    22612226.125 8  91050073.619 8       135.725          49.000
E25  26821997.078 7 140950534.157 7     -2542.898          47.000    26822000.414 8 108001069.630 8     -1948.464          48.000
> 2020 05 01 18 34  0.0000000  0 17        .000000000000
G08  20340211.719 8 106888536.155 8      -286.895          51.000    20340213.031 8  83289771.936 8      -223.557          51.000
G10  22235197.305 6 116846756.386 6     -2546.273          39.000    22235200.211 6  91049414.692 6     -1984.112          38.000
G14  23443481.375 7 123196355.120 7      2661.902          44.000    23443483.055 7  95997176.999 7      2074.213          42.000
G22  22700738.148 8 119293223.433 8      2930.773          48.000    22700736.648 7  92955743.377 7      2283.720          45.000
G27  21439289.914 8 112664216.369 8     -2416.074          50.000    21439293.562 8  87790289.876 8     -1882.655          50.000
G32  22516535.367 5 118325184.658 5      1747.008          35.000    22516542.602 5  92201443.263 5      1361.305          35.000
R06  19495813.812 8 104033457.078 8       664.863          48.000
R07  21631418.539 8 115794696.014 8      4030.730          49.000    21631421.047 7  90062558.191 7      3135.013          44.000
R21  19614319.328 8 104960166.891 8      -382.973          50.000    19614322.312 8  81635702.814 8      -297.868          48.000
C05  39632621.258 5 206377458.797 5       -23.289          35.000    39632619.703 6 159584138.963 6       -18.438          38.000
C19  23329447.711 5 121482572.291 5     -2005.754          31.000
C21  24881529.203 5 129564633.832 5      3312.965          34.000
C22  22232049.617 8 115768195.879 8      1143.914          51.000
E04  24844923.898 8 130561017.128 8      1681.734          51.000    24844925.633 8 100040251.752 8      1288.572          51.000
E11  22611234.609 8 118822829.194 8       170.988          50.000    22611232.570 8  91046073.471 8       131.020          49.000
E12  23805974.867 5 125101236.631 5     -1859.609          35.000
E25  26836532.242 7 141026917.614 7     -2549.340          47.000    26836535.609 8 108059597.165 8     -1953.474          48.000
> 2020 05 01 18 34 30.0000000  0 17        .000000000000
G08  20341892.117 8 106897366.506 8      -304.000          51.000    20341893.352 8  83296652.718 8      -236.883          51.000
G10  22249753.945 5 116923255.366 5     -2555.945          35.000    22249756.805 4  91109024.185 4     -1991.652          29.000
G14  23428301.500 7 123116583.258 7      2653.957          46.000    23428302.859 6  95935017.136 6      2068.022          41.000
G22  22684028.336 8 119205412.000 8      2921.332          49.000    22684025.906 7  92887318.921 7      2276.366          44.000
G27  21453114.234 8 112736860.997 8     -2429.051          51.000    21453116.992 8  87846896.077 8     -1892.767          51.000
G32  22506596.727 5 118272976.440 5      1731.984          34.000    22506604.633 5  92160760.954 5      1349.598          34.000
R06  19492144.938 7 104013878.946 7       637.988          47.000
R07  21608857.289 8 115673919.284 8      4018.781          50.000    21608859.539 7  89968620.771 7      3125.719          45.000
R21  19616500.898 8 104971840.812 8      -397.535          50.000    19616503.664 8  81644782.533 8      -309.194          48.000
C05  39632751.867 5 206378139.239 5       -23.613          35.000    39632750.398 6 159584665.128 6       -18.483          38.000
C19  23341029.844 4 121542889.303 4     -2016.648          29.000
C21  24862450.766 5 129465284.045 5      3307.992          33.000
C22  22225498.695 8 115734083.652 8      1128.109          51.000
E04  24835350.742 8 130510710.915 8      1669.785          51.000    24835352.617 8 100001705.460 8      1279.458          51.000
E11  22610269.836 8 118817758.698 8       164.945          51.000    22610267.547 8  91042188.280 8       126.393          49.000
E12  23816593.672 5 125157047.383 5     -1863.125          35.000
E25  26851098.070 7 141103462.579 7     -2555.672          47.000    26851102.133 8 108118248.447 8     -1958.152          48.000
> 2020 05 01 18 35  0.0000000  0 18        .000000000000
G08  20343670.578 8 106906712.715 8      -318.219          51.000    20343672.031 8  83303935.470 8      -247.963          51.000
G10  22264368.273 5 117000041.924 5     -2562.895          33.000    22264370.211 5  91168869.187 5     -1997.058          31.000
G11  20488604.258 5 107668310.641 5      1768.012          32.000
G14  23413169.234 8 123037059.530 8      2648.527          48.000    23413170.234 6  95873050.637 6      2063.788          41.000
G22  22667374.133 8 119117892.487 8      2914.238          50.000    22667370.781 7  92819121.941 7      2270.838          45.000
G27  21467013.273 8 112809898.369 8     -2439.301          51.000    21467015.273 8  87903808.285 8     -1900.754          51.000
G32  22496752.305 6 118221232.618 6      1718.891          41.000    22496752.078 5  92120441.263 5      1339.407          32.000
R06  19488629.000 7 103995117.214 7       613.629          46.000
R07  21586364.000 8 115553507.758 8      4009.555          50.000    21586365.852 7  89874967.413 7      3118.543          47.000
R21  19618765.062 8 104983955.544 8      -409.262          51.000    19618767.188 8  81654205.098 8      -318.312          48.000
C05  39632883.680 5 206378825.718 5       -21.383          35.000    39632882.266 6 159585195.944 6       -16.263          38.000
C19  23352685.664 5 121603553.020 5     -2027.316          33.000
C21  24843402.797 5 129366093.838 5      3305.020          32.000
C22  22219039.641 8 115700449.052 8      1114.996          51.000
E04  24825846.859 8 130460768.038 8      1660.602          51.000    24825848.719 8  99963437.573 8      1272.340          51.000
E11  22609339.234 8 118812868.310 8       161.742          51.000    22609336.922 8  91038441.090 8       123.983          50.000
E12  23827236.875 6 125212974.273 6     -1864.441          36.000
E25  26865700.125 7 141180196.578 7     -2559.016          47.000    26865704.938 8 108177044.573 8     -1960.843          48.000
> 2020 05 01 18 35 30.0000000  0 17        .000000000000
G08  20345540.570 8 106916539.895 8      -336.148          51.000    20345542.391 8  83311593.000 8      -261.934          51.000
G10  22279037.148 5 117077112.785 5     -2573.816          35.000    22279034.680 5  91228924.490 5     -2005.571          32.000
G14  23398077.961 8 122957751.417 8      2639.414          48.000    23398078.289 6  95811252.168 6      2056.686          41.000
G22  22650769.047 8 119030630.842 8      2903.883          51.000    22650765.211 7  92751125.902 7      2262.766          45.000
G27  21480979.977 8 112883291.996 8     -2452.922          51.000    21480981.617 8  87960998.088 8     -1911.368          51.000
G32  22486989.102 6 118169921.215 6      1702.652          39.000    22486983.617 5  92080458.381 5      1326.742          34.000
R06  19485259.328 7 103977136.656 7       585.746          45.000
R07  21563932.031 8 115433429.134 8      3996.488          49.000    21563934.289 7  89781572.982 7      3108.380          46.000
R21  19621104.914 8 104996476.332 8      -424.586          50.000    19621106.977 8  81663943.489 8      -330.234          48.000
C05  39633009.945 5 206379482.317 5       -21.594          35.000    39633008.594 6 159585704.469 6       -16.921          38.000
C19  23364404.109 5 121664568.746 5     -2039.719          34.000
C21  24824378.719 5 129267030.026 5      3300.410          31.000
C22  22212665.891 8 115667257.742 8      1098.469          51.000
E04  24816405.664 8 130411154.548 8      1647.711          51.000    24816407.539 8  99925422.071 8      1262.556          51.000
E11  22608436.289 8 118808123.167 8       155.176          51.000    22608434.109 8  91034805.205 8       118.904          50.000
E12  23837897.773 5 125268997.010 5     -1869.812          35.000
E25  26880331.375 8 141257082.310 8     -2565.953          48.000    26880336.445 8 108235956.942 8     -1966.069          48.000
> 2020 05 01 18 36  0.0000000  0 16        .000000000000
G08  20347511.633 8 106926898.012 8      -353.059          51.000    20347513.547 8  83319664.257 8      -275.111          51.000
G10  22293764.758 5 117154498.422 5     -2583.543          35.000    22293761.492 5  91289224.940 5     -2013.147          34.000
G14  23383037.625 8 122878711.332 8      2631.324          48.000    23383036.961 6  95749662.537 6      2050.386          40.000
G22  22634222.570 8 118943677.833 8      2894.402          51.000    22634218.922 7  92683370.353 7      2255.378          46.000
G27  21495023.648 8 112957090.096 8     -2465.523          51.000    21495025.195 8  88018503.060 8     -1921.187          51.000
R05  22249767.156 5 118937689.960 5     -3570.176          32.000    22249767.281 4  92507144.239 4     -2776.803          25.000
R06  19482044.852 7 103959987.710 7       558.785          44.000
R07  21541571.414 8 115313737.826 8      3984.469          48.000    21541574.430 7  89688479.770 7      3099.031          45.000
R21  19623529.852 8 105009454.555 8      -439.012          50.000    19623532.500 8  81674037.621 8      -341.454          48.000
C05  39633140.094 5 206380161.081 5       -22.020          35.000    39633138.680 6 159586228.558 6       -16.764          38.000
C19  23376194.703 5 121725962.589 5     -2051.492          34.000
C21  24805387.820 5 129168163.568 5      3294.469          30.000
C22  22206386.633 8 115634559.313 8      1082.871          51.000
E04  24807036.797 8 130361921.139 8      1635.977          51.000    24807038.609 8  99887697.798 8      1253.508          51.000
E11  22607570.422 8 118803573.148 8       149.738          51.000    22607568.422 8  91031318.815 8       114.764          50.000
E25  26895000.625 7 141334167.185 7     -2571.652          47.000    26895005.367 8 108295021.918 8     -1970.487          48.000
> 2020 05 01 18 36 30.0000000  0 17        .000000000000
G08  20349577.664 8 106937755.561 8      -370.871          51.000    20349579.570 8  83328124.698 8      -288.990          51.000
G10  22308544.211 5 117232164.882 5     -2594.227          34.000    22308543.023 5  91349744.128 5     -2021.481          35.000
G14  23368042.625 8 122799910.379 8      2622.141          48.000    23368041.625 7  95688259.255 7      2043.226          42.000
G22  22617728.836 8 118857003.290 8      2883.883          51.000    22617726.023 8  92615831.780 8      2247.181          48.000
G27  21509137.781 8 113031259.833 8     -2479.027          51.000    21509139.078 8  88076297.606 8     -1931.710          51.000
G32  22467740.594 6 118068781.630 6      1671.125          37.000    22467733.930 6  92001601.896 6      1302.172          37.000
R05  22269846.594 5 119045044.395 5     -3586.188          32.000    22269845.391 4  92590619.386 4     -2789.260          25.000
R06  19478980.820 7 103943638.869 7       531.016          45.000
R07  21519277.992 8 115194405.426 8      3971.156          48.000    21519281.391 7  89595665.713 7      3088.680          45.000
R21  19626035.000 8 105022858.733 8      -454.516          49.000    19626037.570 8  81684463.100 8      -353.512          48.000
C05  39633268.016 5 206380826.716 5       -23.059          35.000    39633266.703 6 159586744.034 6       -17.380          38.000
C19  23388052.227 6 121787701.517 6     -2063.973          36.000
C21  24786428.055 5 129069425.108 5      3288.160          35.000
C22  22200196.219 8 115602323.043 8      1066.320          51.000
E04  24797734.602 8 130313037.496 8      1623.082          51.000    24797736.422 8  99850241.515 8      1243.687          51.000
E11  22606735.727 8 118799187.097 8       143.066          51.000    22606733.883 8  91027958.075 8       109.667          51.000
E25  26909701.227 7 141411417.516 7     -2578.242          46.000    26909705.148 8 108354213.688 8     -1975.521          48.000
> 2020 05 01 18 37  0.0000000  0 17        .000000000000
G08  20351744.977 8 106949145.225 8      -388.441          51.000    20351747.109 8  83336999.760 8      -302.682          51.000
G10  22323382.547 5 117310141.190 5     -2604.848          32.000    22323382.047 5  91410504.935 5     -2029.748          30.000
G14  23353099.500 7 122721382.893 7      2612.949          47.000    23353098.633 7  95627069.056 7      2036.064          42.000
G22  22601294.344 8 118770640.097 8      2873.672          50.000    22601292.484 8  92548535.797 8      2239.225          48.000
G27  21523328.266 8 113105831.401 8     -2492.246          51.000    21523329.055 8  88134405.281 8     -1942.010          51.000
G32  22458238.266 5 118018837.713 5      1655.266          33.000
R05  22290006.805 4 119152837.326 4     -3599.594          29.000    22290008.000 4  92674432.446 4     -2799.687          27.000
R06  19476073.094 7 103928122.329 7       503.473          46.000
R07  21497058.953 8 115075467.719 8      3958.094          49.000    21497062.297 7  89503158.642 7      3078.520          45.000
R21  19628625.969 8 105036722.352 8      -469.715          51.000    19628628.320 8  81695245.900 8      -365.334          48.000
C05                                                                  39633398.570 6 159587275.101 6       -17.903          38.000
C19  23399980.812 5 121849814.757 5     -2076.641          34.000
C21  24767504.219 5 128970867.494 5      3282.414          34.000
C22  22194100.609 8 115570580.682 8      1049.953          51.000
E04  24788505.203 8 130264536.331 8      1610.438          51.000    24788507.000 8  99813078.295 8      1233.978          51.000
E11  22605938.273 8 118794996.956 8       136.543          51.000    22605936.609 8  91024747.447 8       104.591          51.000
E25  26924438.445 7 141488862.638 7     -2584.602          45.000    26924441.477 7 108413554.732 7     -1980.307          47.000
> 2020 05 01 18 37 30.0000000  0 15        .000000000000
G08  20354009.461 8 106961045.188 8      -403.730          51.000    20354011.609 8  83346272.455 8      -314.595          51.000
G10  22338275.039 5 117388403.846 5     -2611.996          34.000    22338273.664 5  91471488.797 5     -2035.322          34.000
G14  23338204.797 8 122643110.515 8      2606.027          48.000    23338204.164 7  95566077.621 7      2030.671          42.000
G22  22584915.406 8 118684568.133 8      2865.664          50.000    22584914.055 8  92481466.748 8      2232.985          48.000
G27  21537590.906 8 113180781.996 8     -2503.277          51.000    21537591.383 8  88192808.341 8     -1950.606          51.000
R05  22310250.789 5 119261061.489 5     -3611.824          33.000    22310256.719 4  92758622.906 4     -2809.197          27.000
R06  19473317.227 7 103913416.420 7       478.062          45.000
R07  21474910.570 8 114956906.933 8      3947.121          49.000    21474913.820 7  89410944.751 7      3069.983          45.000
R21  19631298.672 8 105051024.173 8      -482.711          50.000    19631300.844 8  81706369.547 8      -375.442          48.000
C05  39633531.445 5 206382197.998 5       -21.340          35.000    39633530.156 6 159587805.214 6       -16.782          38.000
C21  24748611.844 5 128872471.412 5      3278.609          35.000
C22  22188095.570 8 115539311.440 8      1035.805          51.000
E04  24779344.742 8 130216397.352 8      1599.953          51.000    24779346.594 8  99776192.608 8      1225.914          51.000
E11  22605174.125 8 118790981.603 8       132.133          51.000    22605172.625 8  91021670.742 8       101.224          51.000
E25  26939208.109 7 141566478.976 7     -2588.598          45.000    26939210.188 7 108473026.979 7     -1983.531          47.000
> 2020 05 01 18 38  0.0000000  0 17        .000000000000
G08  20356373.539 8 106973468.508 8      -422.945          51.000    20356375.602 8  83355952.968 8      -329.568          51.000
G10  22353224.102 5 117466963.077 5     -2623.570          32.000    22353222.398 5  91532703.718 5     -2044.344          34.000
G14  23323361.258 7 122565108.166 7      2595.602          47.000    23323360.914 7  95505296.591 7      2022.550          42.000
G22  22568594.688 8 118598800.958 8      2853.773          50.000    22568593.508 8  92414635.214 8      2223.720          48.000
G27  21551927.789 8 113256122.686 8     -2517.855          51.000    21551928.211 8  88251515.371 8     -1961.968          51.000
G32  22439528.609 5 117920521.191 5      1623.234          31.000    22439533.078 5  91886108.214 5      1264.864          31.000
R05  22330570.594 6 119369693.591 6     -3627.465          37.000    22330573.641 4  92843101.782 4     -2821.362          26.000
R06  19470715.750 7 103899533.755 7       448.922          46.000
R07  21452836.328 8 114838738.930 8      3932.168          50.000    21452839.406 7  89319036.362 7      3058.356          46.000
R21  19634055.609 8 105065777.719 8      -499.395          51.000    19634058.086 8  81717844.509 8      -388.418          48.000
C05  39633665.266 6 206382895.514 6       -23.727          36.000    39633663.914 6 159588343.829 6       -18.250          38.000
C19  23424044.688 5 121975140.431 5     -2100.309          35.000
C21  24729753.766 5 128774250.897 5      3271.445          32.000
C22  22182183.789 8 115508528.029 8      1017.918          51.000
E04  24770255.953 8 130168634.114 8      1585.836          51.000    24770257.555 8  99739594.820 8      1215.091          51.000
E11  22604445.672 8 118787153.859 8       124.387          51.000    22604444.195 8  91018737.790 8        95.303          51.000
E25  26954012.711 7 141644276.836 7     -2596.332          45.000    26954013.719 7 108532638.281 7     -1989.361          46.000
> 2020 05 01 18 38 30.0000000  0 19        .000000000000
G01  22061214.375 5 115932463.707 5      2395.031          31.000
G08  20358831.133 8 106986383.273 8      -440.355          51.000    20358833.250 8  83366016.401 8      -343.134          51.000
G10  22368221.000 5 117545794.306 5     -2632.762          31.000    22368224.648 5  91594136.860 5     -2051.506          32.000
G11  20419695.461 4 107306223.756 4      1679.551          29.000
G14  23308563.117 7 122487346.802 7      2586.473          46.000    23308563.422 7  95444703.349 7      2015.433          43.000
G22  22552325.992 8 118513308.044 8      2843.508          49.000    22552324.891 7  92348017.388 7      2215.723          47.000
G27  21566332.633 8 113331820.078 8     -2530.781          51.000    21566333.117 8  88310500.340 8     -1972.037          51.000
G32  22430300.086 5 117872034.618 5      1606.434          35.000    22430305.789 5  91848332.509 5      1251.760          32.000
R05  22350961.891 6 119478689.472 6     -3641.375          39.000
R06  19468262.562 7 103886442.102 7       421.551          47.000
R07  21430829.562 8 114720934.935 8      3919.090          49.000    21430833.234 7  89227411.084 7      3048.184          46.000
R21  19636891.250 8 105080951.264 8      -514.473          51.000    19636893.672 8  81729646.151 8      -400.148          48.000
C05                                                                  39633793.695 6 159588866.355 6       -18.359          38.000
C19  23436173.023 6 122038293.749 6     -2111.977          36.000
C21  24710920.641 4 128676250.022 4      3264.902          28.000
C22  22176359.297 8 115478199.163 8      1001.719          51.000
E04  24761232.758 8 130121215.697 8      1573.254          51.000    24761234.008 8  99703261.239 8      1205.531          51.000
E11  22603746.828 8 118783481.931 8       118.363          51.000    22603745.203 8  91015924.234 8        90.703          51.000
E25  26968845.586 7 141722222.013 7     -2602.230          46.000    26968846.055 7 108592362.445 7     -1993.938          47.000
> 2020 05 01 18 39  0.0000000  0 18        .000000000000
G01  22047558.305 4 115860700.558 4      2388.281          29.000
G08  20361393.391 8 106999847.867 8      -457.211          51.000    20361395.305 8  83376508.289 8      -356.268          51.000
G10  22383280.523 5 117624933.338 5     -2642.426          34.000    22383285.961 5  91655803.677 5     -2059.036          34.000
G14  23293822.305 7 122409886.809 7      2577.723          45.000    23293823.367 7  95384344.931 7      2008.615          43.000
G22  22536120.523 8 118428148.839 8      2833.949          48.000    22536119.320 7  92281659.606 7      2208.272          46.000
G27  21580815.969 8 113407930.761 8     -2543.086          50.000    21580816.773 8  88369807.338 8     -1981.628          50.000
G32  22421169.383 5 117824069.595 5      1591.457          35.000    22421177.203 5  91810957.188 5      1240.093          34.000
R05  22371434.023 6 119588130.614 6     -3654.324          39.000
R06  19465968.508 7 103874200.258 7       394.586          46.000
R07  21408901.930 7 114603557.590 7      3906.168          47.000    21408906.539 7  89136117.604 7      3038.131          46.000
R21  19639816.516 8 105096604.698 8      -528.977          51.000    19639818.844 7  81741821.040 7      -411.426          47.000
C05  39633932.039 5 206384284.651 5       -23.453          35.000    39633930.453 6 159589417.237 6       -18.120          38.000
C19  23448371.758 5 122101830.263 5     -2123.680          35.000
C21  24692122.070 5 128578379.789 5      3259.270          35.000
C22  22170633.047 8 115448382.709 8       986.102          51.000
E04  24752286.258 8 130074201.214 8      1561.266          51.000    24752287.633 8  99667237.192 8      1196.312          51.000
E11  22603088.711 8 118780024.238 8       112.668          51.000    22603086.984 8  91013274.834 8        86.366          51.000
E25  26983717.148 7 141800370.274 7     -2607.449          46.000    26983718.078 8 108652242.207 8     -1997.808          48.000
> 2020 05 01 18 39 30.0000000  0 18        .000000000000
G08  20364047.531 8 107013795.255 8      -472.020          51.000    20364048.977 8  83387376.379 8      -367.807          51.000
G10  22398386.875 5 117704320.910 5     -2649.484          35.000    22398392.562 5  91717664.176 5     -2064.530          35.000
G11  20400646.648 5 107206106.083 5      1656.934          33.000
G14  23279126.883 7 122332663.994 7      2570.957          45.000    23279128.023 7  95324171.350 7      2003.346          42.000
G22  22519965.742 8 118343256.928 8      2826.176          48.000    22519963.922 7  92215510.151 7      2202.218          43.000
G27  21595364.625 8 113484386.323 8     -2553.250          49.000    21595365.672 8  88429383.067 8     -1989.545          49.000
G32  22412125.125 6 117776553.413 6      1577.051          41.000    22412135.430 6  91773931.600 6      1228.874          40.000
R05  22391974.930 6 119697909.679 6     -3665.117          37.000
R06  19463820.945 7 103862740.597 7       369.926          46.000
R07  21387042.711 8 114486542.252 8      3895.359          48.000    21387046.672 7  89045105.715 7      3029.727          44.000
R21  19642818.820 8 105112670.768 8      -541.488          51.000    19642821.086 7  81754316.862 7      -421.158          47.000
C05  39634063.141 5 206384967.270 5       -20.898          35.000    39634061.406 6 159589945.117 6       -16.553          38.000
C19  23460631.125 4 122165662.986 4     -2133.516          27.000
C21  24673349.727 6 128480649.558 6      3256.500          39.000
C22  22164992.508 8 115419012.653 8       972.430          51.000
E04  24743404.141 8 130027524.791 8      1551.172          51.000    24743405.734 8  99631472.166 8      1188.584          51.000
E11  22602458.688 8 118776714.146 8       108.789          51.000    22602457.008 8  91010738.531 8        83.406          51.000
E25  26998614.031 7 141878652.475 7     -2610.625          45.000    26998616.266 8 108712224.607 8     -2000.268          49.000
> 2020 05 01 18 40  0.0000000  0 17        .000000000000
G08  20366801.930 8 107028270.068 8      -490.324          51.000    20366803.219 8  83398655.446 8      -382.071          51.000
G10  22413549.086 5 117783998.910 5     -2659.969          35.000    22413553.312 5  91779750.879 5     -2072.709          34.000
G14  23264485.719 7 122255725.178 7      2560.844          46.000    23264486.328 6  95264219.075 6      1995.463          41.000
G22  22503870.734 8 118258678.051 8      2814.832          48.000    22503867.945 7  92149604.606 7      2193.379          42.000
G27  21609986.906 7 113561229.462 7     -2567.012          47.000    21609987.789 7  88489260.819 7     -2000.272          47.000
G32  22403176.352 6 117729531.956 6      1560.270          37.000    22403182.484 6  91737291.494 6      1215.797          37.000
R05  22412589.922 6 119808138.896 6     -3679.398          36.000
R06  19461828.234 7 103852107.091 7       341.703          45.000
R07  21365260.641 8 114369937.781 8      3880.922          49.000    21365262.789 7  88954413.473 7      3018.498          44.000
R21  19645906.820 8 105129195.183 8      -557.434          51.000    19645909.023 7  81767169.160 7      -433.562          47.000
C05  39634196.719 5 206385662.676 5       -22.828          35.000    39634195.164 6 159590483.604 6       -17.456          38.000
C19  23472965.961 5 122229893.070 5     -2145.312          31.000
C21  24654613.695 6 128383104.901 6      3249.348          40.000
C22  22159446.445 8 115390133.046 8       955.430          51.000
E04  24734594.711 8 129981231.608 8      1537.629          51.000    24734596.336 8  99596000.788 8      1178.177          51.000
E11  22601865.211 8 118773596.065 8       101.520          51.000    22601863.617 8  91008349.352 8        77.818          51.000
E25  27013544.000 7 141957110.531 7     -2617.133          45.000    27013548.094 8 108772341.776 8     -2005.374          49.000
> 2020 05 01 18 40 30.0000000  0 17        .000000000000
G08  20369655.516 8 107043266.636 8      -506.895          51.000    20369657.023 8  83410341.057 8      -394.983          51.000
G10  22428765.430 5 117863959.448 5     -2668.531          33.000    22428767.125 5  91842057.738 5     -2079.372          33.000
G14  23249898.039 7 122179067.600 7      2552.199          46.000    23249898.578 7  95204485.933 7      1988.727          43.000
G22  22487834.336 7 118174407.717 7      2805.586          46.000    22487831.539 7  92083939.461 7      2186.174          44.000
G27  21624681.430 7 113638453.148 7     -2578.688          46.000    21624682.422 7  88549435.078 7     -2009.370          46.000
G32  22394321.680 6 117683001.783 6      1544.422          37.000    22394324.594 6  91701034.130 6      1203.443          36.000
R05  22433281.562 6 119918743.995 6     -3691.230          37.000
R06  19459989.289 7 103842294.541 7       315.254          45.000
R07  21343554.727 8 114253742.071 8      3868.047          49.000    21343556.234 7  88864039.151 7      3008.484          45.000
R21  19649079.625 8 105146173.013 8      -571.727          51.000    19649081.820 7  81780374.133 7      -444.676          47.000
C05  39634332.008 5 206386367.276 5       -21.945          35.000    39634330.492 6 159591028.469 6       -16.891          38.000
C19  23485363.695 5 122294449.722 5     -2156.324          32.000
C21  24635913.234 6 128285741.919 6      3243.984          41.000
C22  22153993.664 8 115361738.683 8       940.051          51.000
E04  24725857.273 8 129935317.108 8      1525.910          51.000    24725858.969 8  99560819.579 8      1169.129          51.000
E11  22601307.336 8 118770664.787 8        96.172          51.000    22601305.773 8  91006103.310 8        73.666          51.000
E25  27028505.484 7 142035736.713 7     -2622.000          42.000    27028511.492 8 108832587.735 8     -2009.092          48.000
> 2020 05 01 18 41  0.0000000  0 17        .000000000000
G08  20372603.359 8 107058758.526 8      -524.508          51.000    20372604.961 8  83422412.634 8      -408.707          51.000
G10  22444029.984 5 117944173.012 5     -2677.906          34.000    22444031.148 5  91904561.818 5     -2086.683          34.000
G14  23235359.617 7 122102667.064 7      2542.539          47.000    23235360.375 7  95144953.080 7      1981.202          43.000
G22  22471851.898 7 118090420.406 7      2794.910          47.000    22471849.758 7  92018494.821 7      2177.852          43.000
G27  21639443.203 7 113716028.974 7     -2591.668          47.000    21639444.633 7  88609883.720 7     -2019.482          47.000
G32  22385556.562 5 117636937.877 5      1527.961          35.000    22385559.555 6  91665140.213 6      1190.625          36.000
R05  22454040.852 6 120029714.791 6     -3704.691          38.000
R06  19458298.828 7 103833274.840 7       287.469          45.000
R07  21321920.227 8 114137931.019 8      3853.949          49.000    21321922.680 7  88773963.978 7      2997.519          47.000
R21  19652331.727 8 105163577.782 8      -587.238          51.000    19652334.023 7  81793911.147 7      -456.744          46.000
C05  39634463.734 5 206387053.216 5       -22.617          35.000    39634462.211 6 159591558.881 6       -17.480          38.000
C19  23497820.961 5 122359326.593 5     -2167.695          33.000
C21  24617244.109 6 128188535.630 6      3237.648          40.000
C22  22148628.992 8 115333803.106 8       923.637          51.000
E04  24717187.195 8 129889755.373 8      1512.961          51.000    24717189.242 8  99525908.663 8      1159.234          51.000
E11  22600780.000 8 118767893.623 8        89.836          51.000    22600778.508 8  91003979.940 8        68.862          51.000
E25  27043492.602 6 142114501.692 6     -2627.980          40.000    27043500.312 7 108892940.074 7     -2013.528          47.000
> 2020 05 01 18 41 30.0000000  0 16        .000000000000
G08  20375651.305 8 107074776.175 8      -541.504          51.000    20375652.875 8  83434893.903 8      -421.951          51.000
G10  22459348.164 5 118024668.499 5     -2686.660          34.000    22459350.266 5  91967285.538 5     -2093.504          33.000
G14  23220876.562 7 122026557.005 7      2533.367          47.000    23220877.578 7  95085646.578 7      1974.055          43.000
G22  22455929.578 8 118006748.043 8      2784.945          48.000    22455928.102 7  91953295.593 7      2170.087          44.000
G27  21654278.188 8 113793986.404 8     -2603.746          50.000    21654279.883 8  88670629.755 8     -2028.890          50.000
G32  22376892.492 4 117591362.761 4      1510.840          29.000    22376885.930 5  91629606.252 5      1177.278          31.000
R05  22474871.250 6 120141056.157 6     -3717.305          37.000
R06  19456763.125 7 103825079.843 7       260.605          45.000
R07  21300364.117 8 114022539.958 8      3840.562          48.000    21300367.727 8  88684215.434 8      2987.107          48.000
R21  19655670.117 8 105181441.439 8      -601.910          51.000    19655672.117 7  81807805.081 7      -468.152          47.000
C05  39634597.797 5 206387751.157 5       -22.426          35.000    39634596.281 6 159592098.603 6       -17.522          38.000
C21  24598612.758 6 128091518.427 6      3231.789          39.000
C22  22143358.477 8 115306357.340 8       907.879          51.000
E04  24708590.289 8 129844578.406 8      1500.605          51.000    24708592.859 8  99491292.584 8      1149.758          51.000
E11  22600289.117 8 118765313.896 8        84.082          51.000    22600287.742 8  91002003.274 8        64.462          51.000
E25  27058512.000 7 142193434.270 7     -2632.809          42.000    27058519.523 7 108953420.849 7     -2017.326          47.000
> 2020 05 01 18 42  0.0000000  0 18        .000000000000
G08  20378795.531 8 107091299.087 8      -556.559          51.000    20378797.148 8  83447768.881 8      -433.682          51.000
G10  22474715.164 5 118105422.162 5     -2693.531          31.000    22474719.172 5  92030210.474 5     -2098.852          31.000
G11  20354282.383 5 106962492.730 5      1595.367          32.000
G14  23206445.266 8 121950718.827 8      2525.941          48.000    23206446.188 7  95026551.930 7      1968.266          43.000
G22  22440063.594 8 117923370.475 8      2776.855          48.000    22440062.648 7  91888326.070 7      2163.783          45.000
G27  21669181.750 8 113872302.555 8     -2613.969          51.000    21669184.039 8  88731655.327 8     -2036.856          51.000
G32  22368313.188 5 117546278.418 5      1497.277          30.000    22368313.594 4  91594517.771 4      1166.704          29.000
R05  22495773.258 6 120252784.218 6     -3727.652          36.000
R06  19455377.766 7 103817687.037 7       235.695          46.000
R07  21278882.336 7 113907550.585 7      3828.855          47.000    21278887.227 8  88594779.302 8      2977.999          48.000
R21  19659090.422 8 105199743.345 8      -614.766          51.000    19659092.320 7  81822039.890 7      -478.151          47.000
C05  39634730.016 5 206388439.761 5       -19.660          35.000    39634728.547 6 159592631.077 6       -15.722          38.000
C19  23522957.906 5 122490163.727 5     -2188.062          32.000
C21  24580015.164 6 127994670.839 6      3227.613          38.000
C22  22138178.086 8 115279380.471 8       894.000          51.000
E04  24700062.758 8 129799765.834 8      1490.250          51.000    24700065.406 8  99456955.707 8      1141.889          51.000
E11  22599830.664 8 118762904.598 8        80.051          51.000    22599829.352 8  91000157.197 8        61.344          51.000
E25  27073559.945 7 142272510.950 7     -2635.613          45.000    27073565.008 7 109014011.989 7     -2019.475          46.000
> 2020 05 01 18 42 30.0000000  0 18        .000000000000
G08  20382041.508 8 107108356.662 8      -576.652          51.000    20382043.133 8  83461060.492 8      -449.339          51.000
G10  22490136.602 5 118186461.095 5     -2705.176          35.000    22490140.883 5  92093357.675 5     -2107.932          33.000
G11  20345231.328 5 106914920.700 5      1579.504          34.000
G14  23192071.617 7 121875184.659 7      2513.422          47.000    23192072.117 7  94967694.168 7      1958.514          42.000
G22  22424259.672 8 117840318.455 8      2763.758          50.000    22424258.148 7  91823610.226 7      2153.578          43.000
G27  21684158.961 8 113951005.417 8     -2629.152          51.000    21684161.602 8  88792982.207 8     -2048.690          51.000
G32  22359830.055 5 117501699.111 5      1477.996          33.000
R05  22516745.984 5 120364915.379 5     -3742.934          35.000
R06  19454148.375 7 103811126.679 7       205.535          46.000
R07  21257481.859 8 113792996.851 8      3811.957          48.000    21257487.789 7  88505681.967 7      2964.855          47.000
R21  19662597.867 8 105218514.073 8      -632.738          51.000    19662600.000 7  81836639.323 7      -492.130          47.000
C05  39634866.125 5 206389148.160 5       -23.238          35.000    39634864.555 6 159593178.860 6       -18.087          38.000
C19  23535622.734 5 122556067.318 5     -2202.094          34.000
C21  24561456.648 5 127898023.698 5      3219.047          35.000
C22  22133093.188 8 115252901.926 8       875.125          51.000
E04  24691610.430 8 129755348.150 8      1474.805          51.000    24691612.648 8  99422921.402 8      1130.021          50.000
E11  22599410.273 8 118760695.456 8        70.984          51.000    22599408.992 8  90998464.483 8        54.340          51.000
E25  27088641.023 7 142351758.953 7     -2643.621          47.000    27088643.648 7 109074734.392 7     -2025.518          46.000
> 2020 05 01 18 43  0.0000000  0 17        .000000000000
G08  20385384.555 8 107125924.751 8      -593.750          51.000    20385386.281 8  83474749.903 8      -462.662          51.000
G10  22505607.102 6 118267759.109 6     -2713.613          36.000    22505609.375 5  92156706.746 5     -2114.507          34.000
G11  20336248.039 5 106867704.058 5      1566.129          32.000
G14  23177751.555 7 121799933.257 7      2504.090          46.000    23177751.398 7  94909056.746 7      1951.242          42.000
G22  22408513.188 8 117757569.107 8      2753.723          50.000    22408509.977 7  91759130.237 7      2145.761          42.000
G27  21699204.688 8 114030069.560 8     -2641.008          51.000    21699207.539 8  88854590.592 8     -2057.928          51.000
G32  22351445.406 5 117457644.421 5      1462.188          35.000
R05  22537788.336 5 120477327.503 5     -3755.082          33.000
R06  19453070.484 7 103805373.783 7       178.676          46.000
R07  21236159.656 8 113678857.525 8      3798.062          49.000    21236165.492 7  88416906.964 7      2954.049          46.000
R21  19666189.039 8 105237730.054 8      -647.578          51.000    19666191.188 8  81851585.065 8      -503.675          48.000
C05  39635001.438 5 206389852.498 5       -23.000          35.000    39634999.742 6 159593723.507 6       -17.873          38.000
C21  24542932.828 4 127801555.129 4      3213.012          29.000
C22  22128099.500 8 115226898.225 8       859.344          51.000
E04  24683229.039 8 129711302.387 8      1462.402          51.000    24683230.531 8  99389172.066 8      1120.581          50.000
E11  22599023.477 8 118758662.873 8        65.172          51.000    22599022.297 8  90996907.050 8        49.904          51.000
E25  27103749.867 7 142431152.080 7     -2648.332          46.000    27103751.086 7 109135567.989 7     -2029.280          47.000
> 2020 05 01 18 43 30.0000000  0 14        .000000000000
G08  20388827.094 8 107144014.777 8      -611.168          51.000    20388828.703 8  83488846.025 8      -476.235          51.000
G10  22521128.883 6 118349325.111 6     -2722.395          36.000    22521127.188 5  92220264.598 5     -2121.346          32.000
G14  23163487.672 7 121724978.328 7      2494.109          45.000    23163487.477 7  94850650.322 7      1943.462          43.000
G22  22392826.328 8 117675134.790 8      2743.078          50.000    22392822.250 7  91694895.766 7      2137.467          43.000
G27  21714320.930 8 114109504.620 8     -2653.492          50.000    21714323.547 8  88916488.019 8     -2067.656          50.000
R05  22558898.172 5 120590166.214 5     -3767.008          32.000
R06  19452145.938 7 103800439.536 7       151.430          46.000
R07  21214918.203 8 113565147.626 8      3783.695          48.000    21214923.352 7  88328465.989 7      2942.877          45.000
R21  19669865.484 8 105257403.419 8      -662.898          51.000    19669867.672 8  81866886.555 8      -515.588          48.000
C05                                                                  39635136.305 6 159594273.537 6       -17.936          38.000
C22  22123199.195 8 115201380.691 8       842.980          51.000
E04  24674920.570 8 129667640.689 8      1449.637          51.000    24674921.734 8  99355717.034 8      1110.722          50.000
E11  22598672.492 8 118756818.335 8        58.965          51.000    22598671.406 8  90995493.701 8        45.178          51.000
E25  27118887.938 7 142510699.320 7     -2653.578          44.000    27118888.719 7 109196519.672 7     -2033.333          47.000
> 2020 05 01 18 44  0.0000000  0 17        .000000000000
G08  20392364.188 8 107162601.727 8      -628.160          51.000    20392365.594 8  83503329.362 8      -489.478          51.000
G10  22536696.461 5 118431132.041 5     -2730.723          35.000    22536693.625 5  92284010.202 5     -2127.836          30.000
G14  23149276.391 7 121650298.046 7      2484.566          45.000    23149276.250 7  94792457.923 7      1936.029          43.000
G22  22377194.680 8 117592991.691 8      2732.977          50.000    22377190.648 7  91630888.174 7      2129.592          44.000
G27  21729502.766 8 114189284.367 8     -2665.129          51.000    21729505.266 8  88978654.018 8     -2076.724          51.000
G32  22334941.039 5 117370893.282 5      1428.160          31.000    22334944.109 5  91457850.568 5      1112.852          31.000
R05  22580073.438 5 120703357.106 5     -3778.754          32.000
R06  19451369.977 7 103796298.310 7       124.688          45.000
R07  21193752.398 7 113451845.827 7      3769.727          46.000    21193756.867 7  88240342.390 7      2932.007          43.000
R21  19673623.086 8 105277509.698 8      -677.672          51.000    19673625.023 8  81882524.766 8      -527.078          48.000
C05  39635271.281 5 206391258.492 5       -23.066          34.000    39635269.531 6 159594809.942 6       -17.797          38.000
C19  23573937.836 5 122755682.337 5     -2233.754          32.000
C21  24505982.023 5 127609074.697 5      3200.727          34.000
C22  22118387.242 8 115176325.025 8       827.250          51.000
E04  24666680.469 8 129624339.320 8      1437.184          51.000    24666681.805 8  99322538.100 8      1101.258          51.000
E11  22598352.703 8 118755137.524 8        53.266          51.000    22598351.641 8  90994205.799 8        40.853          51.000
E25  27134049.180 6 142590373.664 6     -2658.145          40.000    27134050.859 7 109257568.783 7     -2036.694          47.000
> 2020 05 01 18 44 30.0000000  0 17        .000000000000
G08  20395999.898 8 107181707.027 8      -645.730          51.000    20396001.312 8  83518216.615 8      -503.167          51.000
G10  22552313.055 5 118513198.591 5     -2739.836          33.000    22552311.289 5  92347958.133 5     -2134.943          34.000
G14  23135122.109 7 121575915.962 7      2474.082          47.000    23135122.180 7  94734497.911 7      1927.859          43.000
G22  22361622.961 8 117511161.982 8      2722.168          51.000    22361619.523 7  91567124.777 7      2121.170          45.000
G27  21744753.852 8 114269428.264 8     -2677.832          51.000    21744756.258 8  89041103.781 8     -2086.622          51.000
G32  22326839.117 5 117328291.084 5      1410.914          35.000    22326831.797 5  91424654.194 5      1099.420          34.000
R05  22601316.664 5 120816905.990 5     -3790.688          33.000
R06  19450746.500 7 103792970.704 7        97.141          47.000
R07  21172667.250 7 113338976.895 7      3754.746          46.000    21172671.117 7  88152555.469 7      2920.358          42.000
R21  19677465.523 8 105298071.125 8      -693.203          51.000    19677467.656 8  81898516.975 8      -539.158          49.000
C05  39635405.062 5 206391954.290 5       -23.387          35.000    39635403.367 6 159595348.753 6       -18.166          38.000
C19  23586844.062 5 122822886.905 5     -2246.219          32.000
C21  24487562.547 5 127513156.478 5      3194.238          34.000
C22  22113668.008 8 115151752.239 8       810.891          51.000
E04  24658513.312 8 129581420.311 8      1424.043          51.000    24658514.805 8  99289652.138 8      1091.138          51.000
E11  22598068.164 8 118753641.779 8        46.582          51.000    22598067.023 8  90993059.708 8        35.705          51.000
E25  27149236.883 6 142670193.909 6     -2663.137          40.000    27149240.508 7 109318729.726 7     -2040.693          47.000
> 2020 05 01 18 45  0.0000000  0 17        .000000000000
G08  20399735.469 8 107201337.240 8      -662.742          51.000    20399736.828 8  83533512.877 8      -516.422          51.000
G10  22567982.828 5 118595546.290 5     -2749.004          31.000
G14  23121026.570 8 121501840.613 8      2464.375          49.000    23121026.367 7  94676776.930 7      1920.295          42.000
G22  22346112.766 8 117429653.077 8      2712.000          51.000    22346109.609 7  91503611.349 7      2113.247          46.000
G27  21760074.930 8 114349940.937 8     -2689.484          51.000    21760076.914 8  89103840.911 8     -2095.705          51.000
R05  22622627.906 5 120930815.379 5     -3802.512          33.000
R06  19450276.703 7 103790462.884 7        70.340          47.000
R07  21151665.812 7 113226550.708 7      3740.469          47.000    21151667.898 6  88065112.924 6      2909.253          41.000
R21  19681394.242 8 105319094.720 8      -708.070          51.000    19681396.344 8  81914868.656 8      -550.721          48.000
C05  39635540.500 5 206392660.146 5       -23.227          35.000    39635538.820 6 159595894.556 6       -17.921          38.000
C19  23599810.516 5 122890423.647 5     -2256.266          30.000
C21  24469181.180 5 127417436.982 5      3187.867          35.000
C22  22109042.898 8 115127668.599 8       794.941          51.000
E04  24650420.430 8 129538890.696 8      1411.484          51.000    24650422.039 8  99257064.526 8      1081.494          51.000
E11  22597820.094 8 118752337.622 8        40.488          51.000    22597818.867 8  90992060.417 8        31.059          51.000
E12  24044833.461 5 126356445.689 5     -1944.945          34.000    24044830.258 5  96818566.184 5     -1490.226          32.000
E25  27164454.383 7 142750164.089 7     -2667.750          42.000    27164458.180 7 109380005.520 7     -2044.126          46.000
> 2020 05 01 18 45 30.0000000  0 16        .000000000000
G08  20403574.953 8 107221513.449 8      -665.613          51.000    20403576.289 8  83549234.600 8      -518.657          51.000
G14  23106994.086 8 121428096.423 8      2468.609          50.000    23106993.211 7  94619313.979 7      1923.595          42.000
G22  22330667.641 8 117348487.730 8      2715.715          50.000    22330664.984 7  91440365.656 7      2116.144          46.000
G27  21775469.820 8 114430842.390 8     -2687.199          51.000    21775471.531 8  89166880.991 8     -2093.921          51.000
R05  22644008.969 5 121045102.706 5     -3799.395          32.000
R06  19449964.367 8 103788796.304 8        57.766          48.000
R07  21130751.500 8 113114592.574 8      3740.309          49.000    21130752.289 7  87978034.432 7      2909.132          42.000
R21  19685413.367 8 105340602.972 8      -708.738          50.000    19685415.523 8  81931597.292 8      -551.241          49.000
C05  39635681.711 6 206393395.339 6        -8.824          36.000    39635680.016 6 159596463.842 6        -6.890          38.000
C19  23612847.117 5 122958289.824 5     -2252.578          31.000
C21  24450841.320 4 127321946.733 4      3195.793          29.000
C22  22104515.570 8 115104095.602 8       793.082          51.000
E04  24642405.641 8 129496772.990 8      1413.023          51.000    24642407.461 8  99224792.547 8      1082.733          51.000
E11  22597612.672 8 118751246.889 8        48.625          51.000    22597611.328 8  90991224.659 8        37.273          51.000
E12                                                                  24055962.992 4  96863391.048 4     -1482.731          29.000
E25  27179704.836 7 142830303.529 7     -2657.949          45.000    27179707.883 7 109441410.984 7     -2036.661          46.000
> 2020 05 01 18 46  0.0000000  0 15        .000000000000
G08  20407504.492 8 107242162.626 8      -702.098          51.000    20407505.805 8  83565324.858 8      -547.089          51.000
G11  20283925.602 5 106592748.434 5      1483.082          33.000
G14  23093011.000 8 121354612.955 8      2439.230          50.000    23093010.008 7  94562054.202 7      1900.699          43.000
G22  22315274.008 8 117267594.403 8      2686.020          49.000    22315271.703 7  91377331.914 7      2093.002          46.000
G27  21790924.602 8 114512058.132 8     -2718.230          51.000    21790925.953 8  89230165.980 8     -2118.102          51.000
R06  19449795.641 8 103787895.861 8        11.168          48.000
R07  21109911.297 8 113003031.837 8      3706.039          50.000    21109911.500 7  87891265.023 7      2882.475          43.000
R21  19689509.461 8 105362522.423 8      -743.484          49.000    19689512.008 8  81948645.758 8      -578.266          49.000
C05                                                                  39635813.406 6 159597000.674 6       -21.775          38.000
C19  23625937.414 5 123026455.396 5     -2282.312          34.000
C21  24432529.016 5 127226591.778 5      3169.453          31.000
C22  22100072.664 8 115080961.136 8       758.000          51.000
E04  24634455.383 8 129454995.191 8      1381.043          51.000    24634457.320 8  99192781.021 8      1058.256          51.000
E11  22597432.102 8 118750297.062 8        23.430          51.000    22597430.555 8  90990496.871 8        17.977          51.000
E25  27194973.289 7 142910537.049 7     -2681.848          47.000    27194975.742 7 109502888.528 7     -2054.892          45.000
> 2020 05 01 18 46 30.0000000  0 16        .000000000000
G08  20411538.375 8 107263360.253 8      -711.027          51.000    20411539.555 8  83581842.485 8      -554.047          51.000
G11  20275470.289 5 106548319.801 5      1478.336          34.000    20275473.000 4  83024672.282 4      1151.950          28.000
G14  23079092.180 8 121281468.571 8      2437.129          49.000    23079091.789 7  94505058.623 7      1899.065          43.000
G22  22299946.766 8 117187049.515 8      2683.672          49.000    22299944.242 7  91314569.700 7      2091.173          47.000
G27  21806453.273 8 114593661.997 8     -2721.941          51.000    21806453.984 8  89293753.426 8     -2120.990          51.000
G32  22295387.836 6 117163018.492 6      1347.406          38.000    22295402.977 5  91295889.072 5      1049.933          33.000
R06  19449784.586 8 103787837.812 8        -7.348          49.000
R07  21089160.203 8 112891948.904 8      3699.461          51.000    21089159.883 7  87804867.219 7      2877.362          43.000
R21  19693697.000 8 105384930.493 8      -750.273          50.000    19693699.570 8  81966074.249 8      -583.546          48.000
C05  39635954.734 5 206394817.496 5       -20.246          35.000    39635953.000 6 159597562.782 6       -15.710          38.000
C19  23639095.117 5 123094970.862 5     -2285.137          35.000
C21  24414261.930 5 127131472.602 5      3171.348          34.000
C22  22095728.664 8 115058340.076 8       750.062          51.000
E04  24626584.375 8 129413633.659 8      1376.422          51.000    24626586.617 8  99161088.447 8      1054.655          51.000
E11  22597292.688 8 118749563.828 8        25.691          51.000    22597290.938 8  90989935.054 8        19.584          51.000
E25  27210273.367 7 142990937.808 7     -2678.141          47.000    27210275.977 7 109564494.251 7     -2052.184          45.000
> 2020 05 01 18 47  0.0000000  0 16        .000000000000
G08  20415668.055 8 107285061.964 8      -731.031          51.000    20415669.375 8  83598752.899 8      -569.635          51.000
G11  20267088.859 5 106504271.668 5      1462.680          32.000
G14  23065229.656 7 121208621.655 7      2424.051          47.000    23065229.898 7  94448294.817 7      1888.871          44.000
G22  22284677.875 8 117106809.532 8      2670.375          51.000    22284675.133 7  91252045.090 7      2080.812          46.000
G27  21822046.867 8 114675608.343 8     -2736.641          49.000    21822047.523 8  89357607.709 8     -2132.447          49.000
G32  22287756.867 6 117122958.092 6      1327.719          37.000    22287758.984 5  91264643.784 5      1034.586          35.000
R06  19449923.000 8 103788576.580 8       -37.133          48.000
R07  21068490.461 8 112781302.179 8      3681.672          50.000    21068490.703 7  87718808.704 7      2863.523          45.000
R21  19697967.695 8 105407783.033 8      -768.418          51.000    19697969.891 8  81983848.463 8      -597.658          48.000
C05  39636092.227 5 206395533.238 5       -22.680          35.000    39636090.430 6 159598116.239 6       -17.498          38.000
C19  23652310.836 5 123163790.421 5     -2298.938          32.000
C21  24396031.023 6 127036538.902 6      3162.270          36.000
C22  22091474.727 8 115036188.819 8       731.320          51.000
E04  24618784.195 8 129372645.201 8      1360.754          51.000    24618786.992 8  99129681.736 8      1042.632          51.000
E11  22597186.117 8 118749003.546 8        16.621          51.000    22597184.211 8  90989505.741 8        12.721          51.000
E25  27225596.305 7 143071459.552 7     -2685.383          47.000    27225599.664 7 109626192.659 7     -2057.715          45.000
> 2020 05 01 18 47 30.0000000  0 15        .000000000000
G08  20419897.023 8 107307285.514 8      -749.508          51.000    20419898.555 8  83616069.935 8      -584.035          51.000
G11  20258784.461 5 106460634.805 5      1448.328          32.000
G14  23051427.305 7 121136092.158 7      2412.391          47.000    23051428.508 7  94391778.360 7      1879.785          46.000
G22  22269470.547 8 117026893.457 8      2658.352          48.000    22269467.344 7  91189772.861 7      2071.446          47.000
G27  21837708.555 8 114757912.952 8     -2749.492          48.000    21837709.875 8  89421741.141 8     -2142.464          48.000
G32  22280225.742 6 117083413.601 6      1309.539          39.000    22280241.141 6  91233830.213 6      1020.432          36.000
R06  19450213.922 8 103790129.372 8       -65.277          49.000
R07  21047905.992 8 112671112.895 8      3665.387          48.000    21047907.516 7  87633105.988 7      2850.856          45.000
R21  19702324.633 8 105431098.314 8      -784.906          51.000    19702326.781 8  82001982.551 8      -610.486          48.000
C05  39636230.945 5 206396255.074 5       -24.102          35.000    39636229.078 6 159598674.426 6       -18.646          38.000
C21  24377839.180 6 126941809.625 6      3154.363          37.000
C22  22087314.523 8 115014524.718 8       714.000          51.000
E04  24611058.398 8 129332048.104 8      1346.750          51.000    24611061.164 8  99098574.878 8      1031.934          51.000
E11  22597115.734 8 118748633.913 8         9.199          51.000    22597113.664 8  90989222.520 8         7.031          51.000
E25  27240945.164 7 143152117.436 7     -2690.684          47.000    27240949.320 7 109687995.395 7     -2061.705          46.000
> 2020 05 01 18 48  0.0000000  0 16        .000000000000
G08  20424223.984 8 107330023.860 8      -766.957          51.000    20424225.633 8  83633788.109 8      -597.629          51.000
G11  20250556.188 4 106417397.844 4      1433.633          28.000
G14  23037684.633 8 121063875.927 8      2401.492          48.000    23037686.391 7  94335505.990 7      1871.293          44.000
G22  22254323.141 8 116947294.849 8      2647.582          48.000    22254319.719 7  91127747.998 7      2063.051          46.000
G27  21853436.953 8 114840567.303 8     -2761.230          48.000    21853438.680 8  89486147.087 8     -2151.608          48.000
G32  22272795.453 5 117044380.083 5      1291.984          32.000    22272807.109 5  91203414.487 5      1006.747          31.000
R06  19450655.883 8 103792487.933 8       -92.348          48.000
R07  21027405.664 7 112561377.777 7      3649.934          46.000    21027408.867 7  87547756.503 7      2838.837          45.000
R21  19706767.055 8 105454870.099 8      -800.359          51.000    19706769.039 8  82020471.706 8      -622.505          48.000
C05  39636369.422 5 206396975.967 5       -24.496          35.000    39636367.531 6 159599231.835 6       -18.715          38.000
C21  24359685.211 6 126847279.403 6      3147.008          38.000
C22  22083246.672 8 114993340.977 8       697.734          51.000
E04  24603405.977 8 129291836.324 8      1333.699          51.000    24603408.852 8  99067763.262 8      1021.949          51.000
E11  22597080.312 8 118748448.401 8         2.652          51.000    22597078.125 8  90989080.382 8         2.032          51.000
E12  24111894.273 5 126708857.674 5     -1969.941          34.000
E25  27256318.266 7 143232902.322 7     -2695.234          47.000    27256322.820 7 109749895.427 7     -2065.123          46.000
> 2020 05 01 18 48 30.0000000  0 17        .000000000000
G08  20428645.023 8 107353257.652 8      -782.840          51.000    20428646.844 8  83651892.337 8      -610.005          51.000
G10  22679021.891 5 119179031.217 5     -2805.078          35.000
G14  23023998.414 8 120991956.484 8      2392.250          48.000    23024000.578 7  94279464.883 7      1864.094          44.000
G22  22239232.859 8 116867996.369 8      2638.172          49.000    22239229.703 7  91065956.997 7      2055.721          46.000
G27  21869228.320 8 114923550.998 8     -2771.645          50.000    21869229.977 8  89550809.652 8     -2159.726          50.000
G32  22265460.500 6 117005840.289 6      1276.273          40.000    22265474.039 6  91173383.621 6       994.499          39.000
R06  19451245.102 8 103795632.685 8      -117.910          48.000
R07  21006985.961 7 112452080.930 7      3635.695          45.000    21006991.141 7  87462747.829 7      2827.760          44.000
R21  19711291.312 8 105479079.817 8      -814.355          51.000    19711293.016 7  82039301.475 7      -633.388          47.000
C05  39636504.102 5 206397678.131 5       -22.965          35.000    39636502.203 6 159599774.059 6       -17.885          38.000
C19  23692325.586 5 123372152.522 5     -2329.207          34.000
C21  24341567.055 6 126752931.383 6      3141.703          39.000
C22  22079267.266 8 114972619.017 8       682.949          51.000
E04  24595823.477 8 129251991.942 8      1322.000          51.000    24595826.719 8  99037233.188 8      1012.925          51.000
E11  22597076.297 8 118748428.445 8        -2.320          51.000    22597074.164 8  90989065.086 8        -1.733          51.000
E12                                                                  24123147.258 5  97133918.546 5     -1511.546          30.000
E25  27271711.547 7 143313793.121 7     -2698.117          46.000    27271716.078 7 109811876.613 7     -2067.430          46.000
> 2020 05 01 18 49  0.0000000  0 15        .000000000000
G08  20433169.375 8 107377033.947 8      -801.520          51.000    20433171.391 8  83670419.298 8      -624.561          51.000
G14  23010378.367 8 120920383.111 8      2380.051          48.000    23010380.305 7  94223693.430 7      1854.585          43.000
G22  22224208.906 8 116789045.745 8      2625.891          49.000    22224206.406 7  91004437.070 7      2046.149          47.000
G27  21885091.117 8 115006909.023 8     -2784.727          51.000    21885092.391 8  89615763.916 8     -2169.917          51.000
G32  22258228.133 5 116967842.859 5      1257.098          35.000    22258240.125 6  91143775.022 6       979.544          36.000
R06  19451990.477 7 103799610.412 7      -146.297          47.000
R07  20986660.102 8 112343273.304 8      3618.812          49.000    20986664.102 7  87378119.725 7      2814.632          43.000
R21  19715906.398 8 105503775.662 8      -831.215          51.000    19715907.852 8  82058509.336 8      -646.503          48.000
C05  39636643.906 5 206398405.757 5       -24.570          35.000    39636641.945 6 159600336.706 6       -18.906          38.000
C19  23705782.508 5 123442224.985 5     -2341.051          34.000
C21  24323492.555 6 126658813.430 6      3133.508          37.000
C22  22075385.383 8 114952405.126 8       665.348          51.000
E04  24588320.070 8 129212562.436 8      1307.523          51.000    24588322.914 8  99007020.999 8      1001.881          49.000
E11  22597112.750 8 118748621.106 8        -9.820          51.000    22597110.719 8  90989212.719 8        -7.519          51.000
E25  27287133.258 7 143394834.318 7     -2703.746          46.000    27287137.703 7 109873973.039 7     -2071.749          46.000
> 2020 05 01 18 49 30.0000000  0 15        .000000000000
G08  20437786.320 8 107401296.554 8      -818.113          51.000    20437788.688 8  83689325.197 8      -637.491          51.000
G10  22711150.453 5 119347903.054 5     -2821.953          34.000
G14  22996814.211 8 120849102.509 8      2369.840          48.000    22996815.703 6  94168150.134 6      1846.628          41.000
G22  22209240.844 8 116710388.180 8      2615.828          49.000    22209238.828 7  90943145.454 7      2038.308          47.000
G27  21901014.258 8 115090583.958 8     -2795.668          51.000    21901015.367 8  89680965.123 8     -2178.443          51.000
R06  19452880.984 7 103804362.814 7      -172.480          47.000
R07  20966416.430 8 112234901.331 8      3603.906          51.000    20966418.680 7  87293830.484 7      2803.038          44.000
R21  19720601.805 8 105528901.324 8      -845.848          51.000    19720603.383 8  82078051.489 8      -657.885          48.000
C05  39636778.070 5 206399104.550 5       -24.301          35.000    39636776.133 6 159600877.053 6       -18.628          38.000
C19  23719322.844 5 123512751.453 5     -2350.863          31.000
C21  24305450.570 5 126564871.812 5      3127.176          33.000
C22  22071590.328 8 114932644.000 8       650.008          51.000
E04  24580885.500 8 129173492.851 8      1295.074          51.000    24580887.195 8  98977084.601 8       992.327          49.000
E11  22597179.195 8 118748970.928 8       -15.301          51.000    22597177.242 8  90989480.766 8       -11.724          51.000
E25  27302572.406 7 143475967.860 7     -2707.242          47.000    27302576.828 7 109936140.200 7     -2074.329          46.000
> 2020 05 01 18 50  0.0000000  0 16        .000000000000
G08  20442485.477 8 107425991.356 8      -831.230          51.000    20442487.734 8  83708567.894 8      -647.712          51.000
G10  22727252.812 6 119432516.187 6     -2825.543          36.000
G14  22983296.031 7 120778063.538 7      2363.066          47.000    22983297.094 6  94112795.140 6      1841.350          41.000
G22  22194318.328 8 116631970.944 8      2609.203          49.000    22194316.859 7  90882041.083 7      2033.145          47.000
G27  21916987.016 8 115174520.430 8     -2802.836          50.000    21916988.258 8  89746370.126 8     -2184.031          51.000
G32  22244041.812 6 116893238.183 6      1228.094          36.000    22244047.523 6  91085636.796 6       956.953          37.000
R06  19453906.453 7 103809835.162 7      -195.090          46.000
R07  20946244.422 8 112126913.837 8      3592.594          50.000    20946245.438 7  87209840.266 7      2794.243          44.000
R21  19725367.336 8 105554402.934 8      -857.102          51.000    19725369.109 7  82097886.040 7      -666.635          47.000
C05  39636896.500 5 206399720.950 5       -19.887          35.000    39636894.531 6 159601353.702 6       -15.260          38.000
C19  23732869.281 5 123583283.944 5     -2356.164          31.000
C21  24287430.727 5 126471054.971 5      3124.426          35.000
C22  22067871.609 8 114913282.379 8       638.055          51.000
E04  24573509.539 8 129134730.283 8      1286.348          51.000    24573510.594 8  98947383.452 8       985.691          49.000
E11  22597265.438 8 118749424.531 8       -17.441          51.000    22597263.602 8  90989828.322 8       -13.322          51.000
E25  27318018.406 7 143557137.741 7     -2707.137          47.000    27318023.102 7 109998335.223 7     -2074.078          46.000
> 2020 05 01 18 50 30.0000000  0 15        .000000000000
G08  20447325.570 8 107451427.201 8      -844.652          50.000    20447327.703 8  83728388.039 8      -658.168          50.000
G14  22969882.984 7 120707577.442 7      2355.727          47.000    22969884.148 6  94057870.965 6      1835.634          41.000
G22  22179500.508 8 116554103.761 8      2601.949          49.000    22179498.930 7  90821365.304 7      2027.490          46.000
G27  21933067.789 8 115259025.462 8     -2810.641          50.000    21933069.273 8  89812218.171 8     -2190.110          50.000
G32  22237130.227 5 116856910.323 5      1214.684          35.000    22237127.125 5  91057329.204 5       946.507          34.000
R06  19455125.086 7 103816339.625 7      -218.320          46.000
R07  20926202.812 8 112019628.603 8      3580.301          50.000    20926203.766 7  87126396.243 7      2784.681          44.000
R21  19730261.852 8 105580595.226 8      -868.781          51.000    19730263.633 7  82118257.804 7      -675.719          47.000
C05  39637057.805 5 206400560.832 5       -16.305          35.000    39637055.727 6 159602003.180 6       -12.578          38.000
C19  23746520.508 6 123654378.653 6     -2363.273          37.000
C21  24269495.359 6 126377670.360 6      3120.621          39.000
C22  22064288.609 8 114894626.131 8       625.570          51.000
E04  24566250.734 8 129096584.224 8      1276.953          50.000    24566251.758 8  98918154.695 8       978.481          49.000
E11  22597430.258 8 118750290.970 8       -20.258          51.000    22597428.484 8  90990492.219 8       -15.438          51.000
E25  27333529.766 7 143638650.443 7     -2707.129          47.000    27333534.844 7 110060792.938 7     -2074.159          46.000
> 2020 05 01 18 51  0.0000000  0 16        .000000000000
G08  20452238.430 8 107477244.382 8      -869.332          51.000    20452240.703 8  83748505.319 8      -677.402          51.000
G10  22759651.898 5 119602777.748 5     -2845.355          32.000
G14  22956507.094 7 120637288.161 7      2337.234          46.000    22956508.469 7  94003100.147 7      1821.225          42.000
G22  22164719.539 8 116476428.135 8      2583.559          50.000    22164716.281 7  90760838.856 7      2013.163          44.000
G27  21949188.109 8 115343738.050 8     -2829.512          50.000    21949189.805 8  89878227.954 8     -2204.814          50.000
G32  22230290.828 5 116820970.761 5      1189.152          35.000    22230292.234 6  91029324.391 6       926.618          36.000
R06  19456468.844 7 103823510.474 7      -252.508          46.000
R07  20906224.281 8 111912683.184 8      3556.863          50.000    20906225.562 7  87043216.524 7      2766.449          43.000
R21  19735216.945 8 105607112.716 8      -891.785          50.000    19735218.875 7  82138882.500 7      -693.614          46.000
C05  39637193.523 5 206401268.091 5       -23.523          35.000    39637191.586 6 159602550.081 6       -18.582          38.000
C19  23760204.969 6 123725639.820 6     -2380.172          38.000
C21  24251576.992 6 126284363.471 6      3106.551          41.000
C22  22060772.922 8 114876319.183 8       602.020          51.000
E04  24559040.852 8 129058696.175 8      1256.148          50.000    24559041.820 8  98889123.626 8       962.429          50.000
E11  22597605.344 8 118751211.228 8       -34.270          50.000    22597603.641 8  90991197.360 8       -26.261          51.000
E25  27349037.695 7 143720144.402 7     -2718.379          46.000    27349042.898 7 110123236.297 7     -2083.060          46.000
> 2020 05 01 18 51 30.0000000  0 18        .000000000000
G03  24204212.789 6 127193989.557 6      3590.367          37.000    24204221.445 5  99112209.066 5      2797.701          34.000
G08  20457257.172 8 107503617.042 8      -884.102          51.000    20457259.617 8  83769055.441 8      -688.913          51.000
G10  22775927.031 5 119688290.895 5     -2848.973          33.000
G11  20195122.969 5 106126094.010 5      1342.141          34.000
G14  22943202.086 7 120567371.364 7      2328.500          46.000    22943202.867 6  93948619.558 6      1814.413          40.000
G22  22150008.562 8 116399119.591 8      2574.883          51.000    22150004.070 7  90700598.511 7      2006.405          44.000
G27  21965380.898 8 115428830.825 8     -2838.598          51.000    21965382.648 8  89944533.973 8     -2211.894          51.000
G32  22223558.953 6 116785595.337 6      1173.730          37.000    22223563.945 6  91001759.164 6       914.601          37.000
R06  19457970.438 7 103831523.586 7      -276.812          46.000
R07  20886343.055 8 111806258.530 8      3542.934          51.000    20886344.547 7  86960441.860 7      2755.618          44.000
R21  19740266.250 8 105634133.511 8      -904.824          50.000    19740268.430 7  82159898.662 7      -703.752          47.000
C05  39637337.039 5 206402015.239 5       -20.891          35.000    39637335.109 6 159603127.826 6       -16.547          38.000
C19  23773955.016 6 123797238.275 6     -2388.426          36.000
C21  24233707.891 7 126191308.634 7      3101.383          43.000
C22  22057357.539 8 114858534.104 8       588.242          51.000
E04  24551913.383 8 129021241.156 8      1245.398          51.000    24551914.195 8  98860424.339 8       954.209          51.000
E11  22597823.891 8 118752359.897 8       -37.988          50.000    22597822.453 8  90992077.511 8       -29.165          51.000
E25  27364575.031 7 143801791.657 7     -2719.855          46.000    27364579.742 7 110185797.106 7     -2084.162          46.000
> 2020 05 01 18 52  0.0000000  0 18        .000000000000
G03  24183719.023 6 127086302.382 6      3570.816          37.000    24183731.305 5  99028296.970 5      2782.454          34.000
G08  20462344.422 8 107530350.123 8      -915.766          51.000    20462346.688 8  83789886.408 8      -713.584          51.000
G11  20187492.195 5 106085993.217 5      1313.770          32.000
G14  22929931.719 7 120497635.147 7      2302.695          46.000    22929931.812 6  93894279.680 6      1794.308          40.000
G22  22135330.484 8 116321984.061 8      2549.547          51.000    22135326.203 7  90640492.981 7      1986.663          45.000
G27  21981608.742 8 115514107.149 8     -2864.340          51.000    21981610.562 8  90010983.029 8     -2231.953          51.000
G32  22216897.719 6 116750590.897 6      1141.137          36.000    22216901.430 5  90974483.114 5       889.204          35.000
R05  22927441.008 5 122560288.413 5     -3963.641          32.000    22927439.945 5  95324678.297 5     -3082.835          31.000
R06  19459592.703 7 103840180.192 7      -318.266          46.000
R07  20866523.227 8 111700159.261 8      3512.152          51.000    20866524.953 7  86877920.261 7      2731.677          45.000
R21  19745372.859 8 105661459.975 8      -935.035          50.000    19745375.086 7  82181152.554 7      -727.250          47.000
C05  39637451.125 5 206402609.157 5       -35.844          35.000    39637449.195 6 159603587.061 6       -27.699          38.000
C19  23787733.633 5 123868978.597 5     -2412.480          30.000
C21  24215850.438 7 126098314.359 7      3080.438          44.000
C22  22054005.445 8 114841077.756 8       557.902          51.000
E04  24544831.375 8 128984025.064 8      1217.867          51.000    24544832.609 8  98831908.119 8       933.132          51.000
E11  22598048.984 8 118753542.472 8       -58.555          50.000    22598047.805 8  90992983.640 8       -44.905          51.000
E25  27380104.180 7 143883395.101 7     -2738.074          47.000    27380107.836 7 110248324.333 7     -2098.092          46.000
> 2020 05 01 18 52 30.0000000  0 17        .000000000000
G03  24163295.453 6 126978986.078 6      3577.887          37.000    24163313.031 5  98944673.829 5      2787.948          32.000
G08  20467571.617 8 107557818.850 8      -920.977          51.000    20467573.328 8  83811290.617 8      -717.644          51.000
G11  20179982.555 6 106046528.804 6      1311.312          36.000
G14  22916767.812 7 120428457.650 7      2303.289          46.000    22916767.680 6  93840375.181 6      1794.774          39.000
G22  22120756.781 8 116245398.375 8      2550.438          50.000    22120753.234 7  90580815.853 7      1987.354          45.000
G27  21997942.711 8 115599941.100 8     -2863.621          51.000    21997944.555 8  90077866.617 8     -2231.393          51.000
G32  22210379.391 5 116716320.183 5      1136.281          33.000    22210380.492 5  90947792.702 5       885.417          32.000
R05  22949663.688 5 122679089.714 5     -3961.336          33.000    22949664.602 5  95417079.264 5     -3081.039          30.000
R06  19461406.938 7 103849860.419 7      -332.703          46.000
R07  20846836.258 8 111594771.499 8      3507.984          51.000    20846838.188 7  86795952.030 7      2728.432          46.000
R21  19750608.281 8 105689475.010 8      -938.383          50.000    19750610.367 7  82202942.028 7      -729.853          47.000
C05  39637607.234 5 206403421.922 5       -24.133          35.000    39637605.242 6 159604215.548 6       -18.549          38.000
C21  24198075.859 7 126005754.632 7      3084.805          43.000
C22  22050788.117 8 114824322.405 8       553.520          51.000
E04  24537866.406 8 128947424.430 8      1216.430          51.000    24537868.352 8  98803863.505 8       932.093          51.000
E11  22598352.094 8 118755135.095 8       -53.055          49.000    22598351.094 8  90994203.951 8       -40.661          51.000
E25  27395696.094 7 143965328.204 7     -2729.840          47.000    27395698.320 7 110311104.154 7     -2091.737          45.000
> 2020 05 01 18 53  0.0000000  0 17        .000000000000
G03  24142883.828 5 126871732.772 5      3572.594          34.000
G08  20472879.984 8 107585713.515 8      -938.305          51.000    20472881.711 8  83833026.713 8      -731.147          51.000
G11  20172535.492 5 106007392.189 5      1297.418          35.000
G14  22903651.961 7 120359532.209 7      2291.801          46.000    22903651.727 6  93786667.082 6      1785.822          39.000
G22  22106228.555 8 116169053.982 8      2539.289          49.000    22106225.828 7  90521326.741 7      1978.667          45.000
G27  22014323.031 8 115686021.396 8     -2874.777          49.000    22014325.227 8  90144942.174 8     -2240.086          50.000
G32  22203946.312 5 116682503.635 5      1118.578          35.000    22203945.625 6  90921442.031 6       871.616          36.000
R05  22971925.672 5 122798087.529 5     -3970.887          34.000    22971925.469 4  95509633.098 4     -3088.467          29.000
R06  19463353.742 7 103860248.309 7      -359.559          47.000
R07  20827223.414 8 111489783.043 8      3491.465          48.000    20827225.734 7  86714294.361 7      2715.584          47.000
R21  19755913.438 8 105717864.119 8      -953.941          49.000    19755915.844 7  82225022.444 7      -741.954          47.000
C05  39637746.508 5 206404147.738 5       -23.723          35.000    39637744.398 6 159604776.060 6       -18.833          38.000
C21  24180325.281 7 125913324.244 7      3077.484          43.000
C22  22047646.500 8 114807961.156 8       537.398          51.000
E04  24530959.992 8 128911130.422 8      1203.223          51.000    24530962.016 8  98776053.834 8       921.938          51.000
E11  22598674.242 8 118756828.509 8       -59.504          48.000    22598673.453 8  90995501.506 8       -45.657          51.000
E25  27411291.391 7 144047279.176 7     -2733.418          47.000    27411292.172 7 110373897.656 7     -2094.446          45.000
> 2020 05 01 18 53 30.0000000  0 16        .000000000000
G08  20478288.250 8 107614134.330 8      -955.871          51.000    20478290.414 8  83855172.773 8      -744.835          51.000
G11  20165169.906 5 105968684.829 5      1283.543          34.000
G14  22890603.523 7 120290961.191 7      2280.023          47.000    22890603.273 6  93733235.126 6      1776.642          40.000
G22  22091765.219 8 116093051.946 8      2528.031          50.000    22091762.625 7  90462104.390 7      1969.898          45.000
G27  22030768.164 7 115772446.484 7     -2886.391          47.000    22030771.641 7  90212286.416 7     -2249.136          47.000
G32  22197613.398 6 116649228.571 6      1100.254          39.000    22197613.062 6  90895513.437 6       857.335          39.000
R05  22994242.719 5 122917379.819 5     -3981.094          34.000    22994241.133 4  95602415.966 4     -3096.409          28.000
R06  19465452.211 7 103871445.215 7      -386.262          46.000
R07  20807704.672 7 111385299.748 7      3474.621          47.000    20807707.336 7  86633029.600 7      2702.483          47.000
R21  19761308.031 8 105746729.775 8      -969.824          51.000    19761309.922 7  82247473.507 7      -754.308          47.000
C05  39637887.969 6 206404883.871 6       -24.914          36.000    39637885.695 6 159605345.263 6       -19.075          38.000
C21  24162618.914 7 125821124.013 7      3069.707          44.000
C22  22044599.398 8 114792093.199 8       521.027          51.000
E04  24524131.273 8 128875243.967 8      1189.738          51.000    24524132.844 8  98748556.432 8       911.615          51.000
E11  22599034.680 8 118758723.309 8       -66.289          48.000    22599034.172 8  90996953.373 8       -50.874          51.000
E25  27426908.383 7 144129345.985 7     -2737.031          46.000    27426908.461 7 110436779.935 7     -2097.334          45.000
> 2020 05 01 18 54  0.0000000  0 17        .000000000000
G08  20483792.695 8 107643060.963 8      -973.023          51.000    20483794.820 8  83877712.990 8      -758.200          51.000
G11  20157882.703 6 105930388.820 6      1269.641          37.000
G14  22877619.383 7 120222727.504 7      2268.367          47.000    22877618.977 6  93680066.063 6      1767.562          40.000
G22  22077363.930 8 116017373.526 8      2516.820          50.000    22077360.555 7  90403134.214 7      1961.159          44.000
G27  22047275.227 8 115859195.232 8     -2897.363          48.000    22047279.453 8  90279882.851 8     -2257.686          48.000
G32  22191380.961 6 116616477.229 6      1081.906          37.000    22191380.727 6  90869992.835 6       843.041          37.000
R05  23016610.203 5 123036942.668 5     -3990.664          32.000    23016607.758 4  95695409.275 4     -3103.850          28.000
R06  19467698.250 7 103883430.028 7      -412.902          47.000
R07  20788277.211 8 111281304.782 8      3457.879          48.000    20788279.914 7  86552144.655 7      2689.461          47.000
R21  19766787.766 8 105776052.668 8      -985.453          51.000    19766789.602 7  82270280.188 7      -766.464          47.000
C05  39638027.820 5 206405611.864 5       -24.688          35.000    39638025.539 6 159605908.156 6       -18.924          38.000
C21  24144954.477 7 125729136.266 7      3062.277          47.000
C22  22041643.195 8 114776699.117 8       504.832          51.000
E04  24517376.586 8 128839746.349 8      1176.367          51.000    24517377.703 8  98721356.968 8       901.348          51.000
E09  24656523.945 7 129570907.649 7      3084.688          42.000    24656523.219 5  99281600.313 5      2363.577          34.000
E11  22599429.766 7 118760800.333 7       -72.824          47.000    22599429.484 8  90998544.856 8       -55.788          51.000
E25  27442542.578 7 144211506.945 7     -2740.566          43.000    27442543.188 7 110499734.357 7     -2099.932          44.000
> 2020 05 01 18 54 30.0000000  0 16        .000000000000
G08  20489410.961 8 107672585.553 8      -991.512          51.000    20489413.086 8  83900719.165 8      -772.607          51.000
G11  20150691.195 5 105892597.938 5      1253.895          35.000    20150688.469 5  82513707.666 5       977.064          33.000
G14  22864717.172 7 120154926.239 7      2255.402          46.000    22864716.719 6  93627233.951 6      1757.456          40.000
G22  22063042.445 8 115942112.088 8      2504.395          51.000    22063038.453 7  90344488.970 7      1951.476          44.000
G27  22063861.945 8 115946358.147 8     -2909.570          49.000    22063865.625 8  90347801.950 8     -2267.201          49.000
G32  22185265.203 5 116584355.912 5      1063.922          34.000    22185267.406 5  90844953.167 5       829.036          32.000
R06  19470109.305 7 103896294.762 7      -440.684          47.000
R07  20768959.430 8 111177895.330 8      3439.969          49.000    20768962.023 7  86471715.094 7      2675.531          46.000
R21  19772370.594 8 105805927.065 8     -1002.312          51.000    19772372.727 8  82293515.804 8      -779.579          48.000
C05                                                                  39638181.359 6 159606535.347 6       -20.274          38.000
C21  24127349.141 8 125637453.916 8      3053.590          48.000
C22  22038795.578 8 114761870.110 8       487.559          51.000
E04  24510713.359 8 128804730.431 8      1161.863          51.000    24510714.609 8  98694526.607 8       890.247          51.000
E09  24638937.914 7 129478492.936 7      3079.973          42.000    24638938.492 5  99210789.111 5      2359.919          33.000
E11  22599877.055 7 118763152.110 7       -80.352          47.000    22599876.844 8  91000346.861 8       -61.517          51.000
E25  27458210.562 6 144293851.906 6     -2745.047          39.000    27458213.438 7 110562829.813 7     -2103.488          44.000
> 2020 05 01 18 55  0.0000000  0 16        .000000000000
G08  20495108.094 8 107702524.278 8     -1008.562          51.000    20495110.820 8  83924048.025 8      -785.893          51.000
G11  20143561.109 6 105855130.682 6      1240.133          37.000    20143561.219 6  82484512.324 6       966.322          36.000
G14  22851862.406 7 120087376.304 7      2243.805          44.000    22851862.594 6  93574597.707 6      1748.419          41.000
G22  22048765.703 8 115867085.395 8      2493.254          51.000    22048761.281 7  90286026.672 7      1942.798          44.000
G27  22080492.242 8 116033750.305 8     -2920.520          48.000    22080495.328 8  90415899.658 8     -2275.733          48.000
G32  22179233.203 6 116552657.156 6      1045.531          39.000    22179232.164 5  90820252.785 5       814.687          32.000
R06  19472650.133 7 103909852.418 7      -467.387          46.000
R07  20749716.531 8 111074888.206 8      3423.074          49.000    20749719.352 7  86391598.478 7      2662.394          45.000
R21  19778021.852 8 105836167.202 8     -1017.867          51.000    19778024.062 8  82317035.875 8      -791.674          48.000
C05  39638320.266 5 206407135.440 5       -25.984          35.000    39638318.234 6 159607086.317 6       -20.011          38.000
C21  24109767.594 8 125545897.001 8      3046.156          49.000
C22  22036021.508 8 114747424.478 8       471.500          51.000
E04  24504107.172 8 128770013.796 8      1148.453          51.000    24504108.555 8  98667925.561 8       880.016          51.000
E09  24621352.102 7 129386082.227 7      3076.723          42.000    24621353.289 4  99139986.998 4      2356.914          28.000
E11  22600341.914 7 118765595.840 7       -86.602          47.000    22600341.734 8  91002219.330 8       -66.357          51.000
E25  27473878.789 6 144376195.492 6     -2748.434          39.000    27473883.930 7 110625924.239 7     -2106.005          44.000
> 2020 05 01 18 55 30.0000000  0 16        .000000000000
G08  20500908.602 8 107733006.399 8     -1024.555          51.000    20500911.891 8  83947800.319 8      -798.354          51.000
G11  20136517.547 6 105818117.255 6      1226.434          37.000    20136516.047 5  82455670.731 5       955.663          35.000
G14  22839080.617 7 120020209.673 7      2232.926          45.000    22839081.117 6  93522260.083 6      1739.942          41.000
G22  22034558.070 8 115792423.478 8      2483.199          51.000    22034553.609 7  90227848.611 7      1934.960          45.000
G27  22097190.023 7 116121499.124 7     -2930.398          46.000    22097192.719 7  90484275.298 7     -2283.427          46.000
G32  22173309.133 6 116521524.519 6      1029.016          37.000    22173310.859 6  90795993.408 6       801.836          36.000
R06  19475345.016 7 103924232.534 7      -492.477          46.000
R07  20730574.125 8 110972418.335 8      3407.254          49.000    20730576.875 7  86311899.766 7      2650.089          44.000
R21  19783766.273 8 105866904.942 8     -1032.344          51.000    19783767.820 7  82340943.007 7      -802.931          47.000
C05  39638462.648 5 206407876.412 5       -24.535          35.000    39638460.711 6 159607660.070 6       -19.042          38.000
C21  24092234.148 8 125454595.231 8      3039.742          48.000
C22  22033345.539 8 114733490.062 8       456.504          51.000
E04  24497582.625 8 128735726.378 8      1136.336          51.000    24497583.922 8  98641653.392 8       870.738          51.000
E09  24603792.336 7 129293806.408 7      3074.168          44.000
E11  22600848.984 7 118768261.162 7       -91.789          47.000    22600848.883 8  91004261.579 8       -70.371          50.000
E25  27489572.484 7 144458664.770 7     -2750.512          42.000    27489578.664 7 110689114.932 7     -2107.469          44.000
> 2020 05 01 18 56  0.0000000  0 17        .000000000000
G08  20506803.617 8 107763985.382 8     -1038.926          51.000    20506807.047 8  83971939.788 8      -809.553          51.000
G11  20129552.102 6 105781512.995 6      1215.500          38.000    20129549.781 6  82427147.881 6       947.140          37.000
G14  22826363.344 7 119953382.527 7      2224.008          45.000    22826364.164 6  93470186.983 6      1732.993          41.000
G22  22020410.664 8 115718081.215 8      2474.781          48.000    22020407.023 7  90169919.620 7      1928.404          46.000
G27  22113946.109 7 116209556.737 7     -2938.336          44.000    22113949.398 7  90552891.608 7     -2289.612          44.000
G32  22167484.414 5 116490913.240 5      1014.254          34.000    22167489.352 5  90772140.295 5       790.322          33.000
R06  19478184.750 7 103939386.959 7      -515.809          45.000
R07  20711523.562 8 110870441.867 8      3392.910          48.000    20711526.648 7  86232584.823 7      2638.930          44.000
R21  19789594.773 8 105898093.827 8     -1044.973          51.000    19789596.336 7  82365201.010 7      -812.760          47.000
C05  39638602.031 5 206408602.058 5       -22.129          35.000    39638600.102 6 159608221.181 6       -16.867          38.000
C19  23900183.594 5 124454537.099 5     -2474.527          32.000
C21  24074740.375 8 125363504.470 8      3034.934          48.000
C22  22030759.062 8 114720021.079 8       443.270          51.000
E04  24491130.906 8 128701822.739 8      1125.848          51.000    24491132.086 8  98615675.293 8       862.725          51.000
E09  24586249.727 7 129201621.049 7      3073.523          44.000
E11  22601389.586 7 118771102.325 7       -95.539          47.000    22601389.422 8  91006438.570 8       -73.208          50.000
E25  27505281.375 7 144541211.476 7     -2750.891          43.000    27505287.992 7 110752364.916 7     -2107.643          44.000
> 2020 05 01 18 56 30.0000000  0 17        .000000000000
G08  20512776.383 8 107795372.877 8     -1043.508          51.000    20512779.945 8  83996397.561 8      -813.123          51.000
G10  22940822.992 5 120554836.331 5     -2910.098          31.000    22940819.844 4  93938818.907 4     -2267.609          29.000
G11  20122648.227 6 105745231.789 6      1213.496          39.000    20122645.609 5  82398876.873 5       945.581          33.000
G14  22813694.906 7 119886809.600 7      2224.438          46.000    22813695.664 6  93418311.995 6      1733.328          39.000
G22  22006307.352 7 115643972.142 7      2475.820          46.000    22006305.008 7  90112172.268 7      1929.211          45.000
G27  22130744.469 7 116297833.594 7     -2936.637          47.000    22130748.164 7  90621678.789 7     -2288.285          47.000
R06  19481152.664 7 103955224.937 7      -529.723          46.000
R07  20692548.664 7 110768872.867 7      3388.559          46.000    20692552.555 7  86153586.725 7      2635.543          45.000
R21  19795491.133 8 105929644.992 8     -1047.984          51.000    19795492.852 7  82389740.791 7      -815.099          47.000
C05  39638721.523 5 206409224.267 5        -9.699          35.000    39638719.547 6 159608702.325 6        -7.307          38.000
C19  23914460.414 5 124528872.718 5     -2471.328          35.000
C21  24057270.609 8 125272539.266 8      3039.434          48.000
C22  22028245.016 8 114706930.235 8       439.547          51.000
E04  24484735.539 8 128668215.748 8      1124.828          51.000    24484736.820 8  98589924.491 8       861.890          51.000
E09  24568707.586 7 129109440.014 7      3082.148          45.000
E11  22601947.219 7 118774031.884 7       -89.766          47.000    22601946.883 8  91008683.281 8       -68.716          50.000
E25  27520987.766 7 144623745.544 7     -2741.352          44.000    27520994.508 7 110815605.203 7     -2100.450          44.000
> 2020 05 01 18 57  0.0000000  0 18        .000000000000
G08  20518888.352 8 107827490.402 8     -1079.328          51.000    20518891.922 8  84021424.192 8      -841.035          51.000
G11  20115867.195 6 105709597.017 6      1180.598          38.000    20115865.625 6  82371109.504 6       919.943          37.000
G14  22801136.922 7 119820815.227 7      2193.637          45.000    22801137.617 6  93366887.835 6      1709.327          40.000
G22  21992310.367 7 115570419.391 7      2445.984          47.000    21992308.664 7  90054858.411 7      1905.962          45.000
G27  22147646.359 8 116386650.054 8     -2966.082          49.000    22147649.617 8  90690886.425 8     -2311.233          49.000
G32  22156146.164 6 116431371.368 6       971.359          37.000    22156144.859 6  90725710.685 6       756.909          38.000
R06  19484309.594 7 103972072.188 7      -574.887          46.000
R07  20673712.000 7 110668042.567 7      3352.180          47.000    20673716.688 7  86075163.123 7      2607.251          46.000
R21  19801516.016 8 105961886.894 8     -1082.770          51.000    19801518.062 7  82414817.811 7      -842.154          46.000
C05  39638882.484 6 206410062.105 6       -28.000          36.000    39638880.477 6 159609350.200 6       -21.784          38.000
C19  23928831.133 6 124603699.185 6     -2498.836          36.000
C21  24039886.734 8 125182020.335 8      3013.199          49.000
C22  22025864.977 8 114694536.518 8       404.918          51.000
E04  24478457.852 8 128635228.156 8      1092.781          50.000    24478459.633 8  98564648.298 8       837.308          50.000
E09  24551227.945 7 129017587.010 7      3059.836          45.000    24551237.766 5  98857647.309 5      2344.565          34.000
E11  22602583.156 7 118777372.280 7      -114.809          47.000    22602582.664 8  91011242.808 8       -88.000          50.000
E12  24317973.289 5 127791811.663 5     -2044.988          32.000
E25  27536752.383 7 144706586.785 7     -2762.875          43.000    27536758.953 7 110879080.861 7     -2117.107          43.000
> 2020 05 01 18 57 30.0000000  0 19        .000000000000
G03  23960576.172 5 125913695.969 5      3520.914          31.000
G08  20525081.484 8 107860034.578 8     -1095.184          51.000    20525084.961 8  84046783.287 8      -853.390          51.000
G10  22974296.672 5 120730714.850 5     -2939.898          33.000    22974300.852 5  94075928.450 5     -2290.833          32.000
G11  20109151.500 6 105674306.572 6      1167.770          38.000    20109149.914 6  82343610.486 6       909.953          36.000
G14  22788631.383 7 119755098.286 7      2182.465          43.000    22788632.758 6  93315679.899 6      1700.628          41.000
G22  21978362.172 8 115497119.134 8      2435.879          50.000    21978360.039 7  89997741.355 7      1898.091          45.000
G27  22164593.086 8 116475700.774 8     -2975.570          50.000    22164595.695 8  90760276.574 8     -2318.626          50.000
G32  22150633.766 6 116402409.315 6       954.566          36.000    22150638.688 6  90703142.821 6       743.821          36.000
R06  19487597.719 7 103989619.199 7      -599.781          46.000
R07  20654957.406 8 110567644.517 8      3335.961          49.000    20654961.695 7  85997075.778 7      2594.636          47.000
R21  19807612.148 8 105994510.661 8     -1097.121          50.000    19807614.594 7  82440191.810 7      -853.319          45.000
C05  39639027.133 5 206410815.602 5       -26.574          35.000    39639024.945 6 159609932.097 6       -21.014          38.000
C19  23943238.273 6 124678713.494 6     -2506.934          36.000
C21  24022531.055 8 125091648.367 8      3006.695          48.000
C22  22023560.852 8 114682538.838 8       390.062          51.000
E04  24472240.172 8 128602557.016 8      1080.363          50.000    24472242.773 8  98539614.600 8       827.835          50.000
E09  24533753.422 7 128925760.133 7      3057.105          45.000    24533764.242 6  98787286.523 6      2342.508          36.000
E11  22603239.508 8 118780820.315 8      -120.086          48.000    22603238.859 8  91013884.800 8       -92.071          49.000
E25  27552516.750 7 144789429.325 7     -2764.742          42.000    27552522.945 7 110942557.528 7     -2118.535          43.000
> 2020 05 01 18 58  0.0000000  0 19        .000000000000
G03  23940471.359 6 125808038.059 6      3531.230          36.000
G08  20531364.352 8 107893051.673 8     -1096.566          51.000    20531367.680 8  84072510.864 8      -854.470          51.000
G10  22991080.281 5 120818935.785 5     -2930.281          34.000
G11  20102510.617 6 105639408.784 6      1168.785          41.000    20102508.359 5  82316417.409 5       910.745          34.000
G14  22776188.094 7 119689708.623 7      2186.051          45.000    22776189.773 7  93264726.974 7      1703.419          42.000
G22  21964471.664 8 115424120.027 8      2440.145          51.000    21964468.555 7  89940858.972 7      1901.411          46.000
G27  22181592.727 8 116565031.168 8     -2970.453          49.000    22181595.172 8  90829884.634 8     -2314.639          49.000
G32  22145215.555 5 116373951.451 5       951.930          34.000    22145225.719 5  90680968.132 5       741.769          34.000
R06  19491025.695 7 104007912.148 7      -610.160          47.000
R07  20636293.453 8 110467730.604 8      3334.539          50.000    20636297.398 7  85919364.985 7      2593.530          47.000
R21  19813789.031 8 106027564.796 8     -1096.859          50.000    19813791.555 7  82465900.539 7      -853.116          46.000
C05                                                                  39639162.000 6 159610484.097 6        -8.760          38.000
C19  23957689.344 5 124753960.254 5     -2499.695          33.000
C21  24005212.820 8 125001471.673 8      3014.434          48.000
C22  22021341.602 8 114670983.694 8       389.594          51.000
E04  24466092.156 8 128570250.169 8      1082.695          50.000    24466094.875 8  98514860.025 8       829.619          49.000
E09  24516293.047 7 128834008.207 7      3069.086          46.000    24516301.656 6  98716983.135 6      2351.679          37.000
E11  22603925.398 8 118784423.493 8      -110.574          48.000    22603924.555 8  91016645.668 8       -84.747          49.000
E25  27568289.742 6 144872318.115 6     -2751.766          41.000    27568295.359 7 111006069.663 7     -2108.627          43.000
> 2020 05 01 18 58 30.0000000  0 18        .000000000000
G03  23920415.695 6 125702641.685 6      3509.773          36.000
G08  20537762.086 8 107926672.107 8     -1129.574          51.000    20537764.992 8  84098708.593 8      -880.188          51.000
G11  20095969.773 6 105605036.311 6      1138.082          39.000    20095967.352 6  82289633.649 6       886.817          36.000
G14  22763832.617 7 119624779.278 7      2157.613          45.000    22763833.914 7  93214132.687 7      1681.257          43.000
G22  21950663.602 8 115351553.892 8      2412.730          51.000    21950659.414 7  89884313.956 7      1880.053          46.000
G27  22198669.672 8 116654770.336 8     -2997.238          48.000    22198672.289 8  90899811.234 8     -2335.510          48.000
G32  22139920.984 5 116346130.541 5       917.293          35.000    22139928.070 4  90659289.371 4       714.762          29.000
R06  19494618.156 7 104027082.427 7      -652.496          47.000
R07  20617745.141 8 110368436.891 8      3300.535          49.000    20617748.820 7  85842136.572 7      2567.086          46.000
R21  19820071.422 8 106061183.194 8     -1128.969          51.000    19820073.836 7  82492048.182 7      -878.087          47.000
C05  39639318.758 5 206412334.437 5       -27.473          35.000    39639316.461 6 159611106.529 6       -21.068          38.000
C19  23972209.164 5 124829567.162 5     -2525.352          31.000
C21  23987957.961 8 124911621.561 8      2990.621          49.000
C22  22019232.375 8 114660000.586 8       357.645          51.000
E04  24460038.742 8 128538439.176 8      1053.258          50.000    24460041.320 8  98490485.391 8       807.036          50.000
E09  24498872.242 7 128742463.831 7      3049.086          45.000    24498877.938 6  98646838.779 6      2336.334          38.000
E11  22604665.828 8 118788313.151 8      -133.152          49.000    22604664.672 8  91019626.049 8      -101.993          49.000
E25  27584096.445 6 144955381.951 6     -2770.469          41.000    27584101.086 7 111069715.907 7     -2122.848          43.000
> 2020 05 01 18 59  0.0000000  0 18        .000000000000
G03  23900370.938 5 125597302.593 5      3505.441          35.000    23900382.000 5  97868072.556 5      2731.519          33.000
G08  20544235.602 8 107960690.153 8     -1145.605          51.000    20544238.352 8  84125216.135 8      -892.680          51.000
G10  23024758.281 5 120995921.128 5     -2958.656          32.000
G11  20089489.891 6 105570984.635 6      1124.863          41.000    20089487.867 6  82263099.898 6       876.517          36.000
G14  22751525.719 7 119560107.345 7      2146.586          42.000    22751527.242 7  93163739.017 7      1672.667          42.000
G22  21936898.531 8 115279215.821 8      2402.430          51.000    21936894.344 7  89827946.654 7      1872.023          47.000
G27  22215784.625 8 116744710.836 8     -3006.449          49.000    22215787.641 8  90969894.704 8     -2342.688          48.000
R06  19498335.734 7 104046919.550 7      -677.395          46.000
R07  20599273.461 8 110269557.066 8      3283.969          48.000    20599276.953 7  85765230.080 7      2554.201          45.000
R21  19826420.055 8 106095156.756 8     -1143.484          51.000    19826422.531 8  82518472.037 8      -889.377          48.000
C05  39639451.742 5 206413026.469 5       -26.355          35.000    39639449.328 6 159611641.638 6       -20.183          38.000
C19  23986758.148 4 124905343.166 4     -2532.996          29.000
C21  23970727.719 8 124821895.768 8      2983.723          50.000
C22  22017193.742 8 114649385.403 8       342.723          51.000
E04  24454040.602 8 128506918.934 8      1040.777          49.000    24454042.984 8  98466333.565 8       797.482          50.000
E09  24481452.086 7 128650922.958 7      3046.242          46.000    24481456.094 6  98576697.128 6      2334.095          39.000
E11  22605421.594 8 118792284.010 8      -138.695          49.000    22605420.258 8  91022668.657 8      -106.312          49.000
E25  27599897.516 7 145038413.013 7     -2772.113          43.000    27599900.781 7 111133337.039 7     -2124.093          42.000
> 2020 05 01 18 59 30.0000000  0 16        .000000000000
G03  23880374.523 5 125492213.553 5      3497.473          33.000    23880386.703 5  97786185.006 5      2725.306          33.000
G08  20550820.961 8 107995296.276 8     -1164.309          51.000    20550823.500 8  84152181.909 8      -907.256          51.000
G11  20083107.523 6 105537446.175 6      1108.160          40.000    20083105.898 6  82236966.027 6       863.504          36.000
G14  22739304.453 7 119495886.259 7      2132.062          42.000    22739306.008 6  93113696.609 6      1661.347          40.000
G22  21923212.750 8 115207298.059 8      2389.262          50.000    21923209.367 8  89771906.846 8      1861.762          48.000
G27  22232974.070 8 116835042.003 8     -3018.492          49.000    22232976.516 8  91040282.637 8     -2352.072          49.000
R06  19502214.414 8 104067615.987 8      -705.223          48.000
R07  20580916.570 8 110171289.570 8      3264.316          50.000    20580919.422 7  85688799.846 7      2538.916          45.000
R21  19832871.711 8 106129680.386 8     -1160.941          51.000    19832873.773 8  82545323.761 8      -902.954          48.000
C05  39639599.219 5 206413794.909 5       -27.363          35.000    39639596.852 6 159612235.901 6       -21.642          38.000
C21  23953558.109 8 124732485.245 8      2974.035          50.000
C22  22015262.250 8 114639327.281 8       325.094          51.000
E04  24448134.594 8 128475881.299 8      1025.586          51.000    24448136.516 8  98442551.507 8       785.943          51.000
E09  24464069.445 7 128559578.410 7      3040.586          46.000    24464071.812 6  98506705.908 6      2329.785          38.000
E11  22606229.227 8 118796527.687 8      -147.098          49.000    22606227.930 8  91025920.277 8      -112.615          49.000
E25  27615728.508 7 145121600.212 7     -2776.438          44.000    27615730.562 7 111197077.769 7     -2127.203          42.000
