     3.02           OBSERVATION DATA    M (MIXED)           RINEX VERSION / TYPE
SAVERINEX           SC600               20200519 045931 LCL PGM / RUN BY / DATE
       G = GPS       R = GLONASS       C = COMPASS          COMMENT
       S = SBAS      J = QZSS          E = GALILEO          COMMENT
BEAN                                                        MARKER NAME
1                                                           MARKER NUMBER
GEODETIC                                                    MARKER TYPE
Unige DICCA         GTER                                    OBSERVER / AGENCY
SC60291900056       SC600               2.12(191202)        REC # / TYPE / VERS
                    HEMA45          NONE                    ANT # / TYPE
  4509407.8091   693652.4678  4442337.6214                  APPROX POSITION XYZ
        0.0000        0.0000        0.0000                  ANTENNA: DELTA H/E/N
G    8 C1C L1C D1C S1C C2Y L2Y D2Y S2Y                      SYS / # / OBS TYPES
R    8 C1C L1C D1C S1C C2P L2P D2P S2P                      SYS / # / OBS TYPES
C    8 C1I L1I D1I S1I C7I L7I D7I S7I                      SYS / # / OBS TYPES
E    8 C1C L1C D1C S1C C7Q L7Q D7Q S7Q                      SYS / # / OBS TYPES
DBHZ                                                        COMMENT
     30.000                                                 INTERVAL
  2020    05    19    02    00    0.0000000     GPS         TIME OF FIRST OBS
  2020    05    19    02    59   30.0000000     GPS         TIME OF LAST OBS
     0                                                      RCV CLOCK OFFS APPL
G L1C  0.00000                                              SYS / PHASE SHIFT
G L2Y  0.00000                                              SYS / PHASE SHIFT
R L1C  0.00000                                              SYS / PHASE SHIFT
R L2P  0.25000                                              SYS / PHASE SHIFT
C L1I  0.00000                                              SYS / PHASE SHIFT
C L7I  0.00000                                              SYS / PHASE SHIFT
E L1C  0.50000                                              SYS / PHASE SHIFT
E L7Q -0.25000                                              SYS / PHASE SHIFT
 14 R01  1 R02 -4 R03  5 R04  6 R08  6 R10 -5 R11  0 R12 -1 GLONASS SLOT / FRQ #
    R13 -2 R14 -7 R15  0 R17  4 R18 -3 R23  3               GLONASS SLOT / FRQ #
 C1C   71.950 C2C   71.950 C2P   71.950                     GLONASS COD/PHS/BIS
    18                                                      LEAP SECONDS
*** Above antenna height is from mark to ANTENNA BOTTOM.    COMMENT
    17     4        0.0000        ANT MEASURE TYPE/HEIGT    COMMENT
    0.0000    0.0000    0.0458    0.0405    0.0000          COMMENT
                    BASE STATION                            COMMENT
                                                            END OF HEADER
> 2020 05 19 02 00  0.0000000  0 13        .000000000000
G02  23879034.500 7 125485202.263 7     -2527.691          45.000    23879030.609 7  97780654.851 7     -1969.630          44.000
G05  20722579.023 5 108897876.889 5      1037.977          34.000    20722578.008 5  84855498.522 5       808.807          35.000
G07  21302804.164 8 111946989.168 8     -1555.812          49.000    21302802.664 8  87231424.524 8     -1212.321          49.000
G30  20396528.461 8 107184475.322 8       449.047          51.000    20396528.078 8  83520433.363 8       349.907          51.000
R03  19905428.938 8 106555388.840 8     -1461.359          51.000    19905429.414 7  82876373.200 7     -1136.616          45.000
R13  19819210.219 7 105833455.373 7     -1578.805          42.000    19819212.375 7  82314928.889 7     -1227.959          46.000
R14  20073816.023 8 107004749.944 8      2748.961          50.000    20073818.555 7  83225982.990 7      2138.084          44.000
C05  39814221.859 5 207323099.879 5        -5.078          35.000    39814219.430 6 160315357.804 6        -3.770          40.000
C19  23458558.336 8 122154862.221 8     -2473.730          50.000
C22  21808086.742 8 113560419.068 8       183.961          51.000
E05  23552789.828 8 123770738.335 8      -464.203          51.000    23552791.633 8  94837313.882 8      -355.667          51.000
E24  22505141.898 8 118265343.886 8       570.133          51.000    22505154.844 8  90618926.419 8       436.909          51.000
E25  25861750.711 8 135904470.593 8      2915.035          51.000    25861748.367 7 104134575.014 7      2233.763          45.000
> 2020 05 19 02 00 30.0000000  0 14        .000000000000
G02  23893471.734 7 125561070.629 7     -2529.984          44.000    23893468.906 7  97839773.036 7     -1971.416          44.000
G05  20716694.414 5 108866954.351 5      1023.793          33.000    20716693.328 5  84831402.988 5       797.761          33.000
G07  21311707.219 7 111993775.303 7     -1563.035          47.000    21311705.492 7  87267881.244 7     -1217.949          47.000
G13  22692764.094 5 119251284.634 5      2661.754          35.000
G30  20393998.391 8 107171179.495 8       437.633          51.000    20393998.438 8  83510073.008 8       341.013          51.000
R03  19913651.570 8 106599405.248 8     -1472.840          51.000    19913652.078 7  82910608.160 7     -1145.545          46.000
R13  19828136.523 7 105881120.899 7     -1598.305          43.000    19828138.617 7  82352002.096 7     -1243.126          46.000
R14  20058391.273 8 106922526.204 8      2732.816          51.000    20058392.773 7  83162031.249 7      2125.527          44.000
C05  39814238.125 6 207323185.059 6         -.598          36.000    39814235.844 6 160315423.697 6         -.453          40.000
C19  23472822.133 8 122229137.125 8     -2477.695          50.000
C22  21807051.352 8 113555026.953 8       175.723          51.000
E05  23555448.047 8 123784707.592 8      -466.793          51.000    23555449.922 8  94848017.593 8      -357.637          51.000
E24  22501917.359 8 118248398.059 8       559.875          51.000    22501930.055 8  90605941.962 8       428.956          51.000
E25  25845114.938 8 135817050.281 8      2913.230          50.000    25845112.164 7 104067590.670 7      2232.287          46.000
> 2020 05 19 02 01  0.0000000  0 14        .000000000000
G02  23907957.336 7 125637192.125 7     -2541.766          42.000    23907955.117 7  97899088.465 7     -1980.600          43.000
G05  20710919.414 6 108836606.950 6      1002.285          38.000    20710917.320 6  84807755.694 6       781.004          38.000
G07  21320683.742 8 112040947.558 8     -1578.781          48.000    21320682.336 8  87304638.845 8     -1230.219          48.000
G13  22677608.273 5 119171628.150 5      2652.477          35.000
G30  20391567.070 8 107158403.157 8       417.223          51.000    20391567.227 8  83500117.428 8       325.109          51.000
R03  19921971.703 8 106643946.929 8     -1493.465          50.000    19921973.141 8  82945251.679 8     -1161.584          48.000
R13  19837205.195 7 105929547.607 7     -1626.891          43.000    19837207.523 7  82389667.321 7     -1265.356          46.000
R14  20043091.367 8 106840967.900 8      2707.598          51.000    20043092.953 7  83098597.060 7      2105.909          46.000
C05  39814262.133 5 207323310.123 5        -5.074          35.000    39814259.844 6 160315520.392 6        -3.872          40.000
C19  23487142.062 8 122303704.772 8     -2490.422          50.000
C22  21806096.867 8 113550056.305 8       158.664          51.000
E05  23558154.172 8 123798928.388 8      -478.230          51.000    23558156.094 8  94858914.049 8      -366.439          51.000
E24  22498785.039 8 118231936.071 8       540.652          51.000    22498797.766 8  90593328.244 8       414.278          51.000
E25  25828522.797 8 135729860.765 8      2902.559          50.000    25828520.805 8 104000783.154 8      2224.038          48.000
> 2020 05 19 02 01 30.0000000  0 14        .000000000000
G02  23922485.703 7 125713537.975 7     -2548.031          42.000    23922483.750 7  97958578.724 7     -1985.479          42.000
G05  20705249.836 6 108806811.504 6       984.844          38.000    20705246.031 6  84784538.470 6       767.411          38.000
G07  21329728.680 7 112088479.366 7     -1589.750          47.000    21329727.289 7  87341676.606 7     -1238.766          47.000
G13  22662482.094 5 119092136.624 5      2647.031          34.000
G30  20389229.727 8 107146120.851 8       401.895          51.000    20389230.070 8  83490546.794 8       313.165          51.000
R03  19930385.906 8 106688988.720 8     -1509.152          50.000    19930387.508 8  82980284.210 8     -1173.785          49.000
R13  19846411.102 7 105978706.695 7     -1650.188          43.000    19846413.500 7  82427902.174 7     -1283.476          46.000
R14  20027912.086 8 106760051.965 8      2687.023          51.000    20027913.766 8  83035662.460 8      2089.907          48.000
C05  39814289.109 5 207323450.106 5        -4.395          35.000    39814286.742 6 160315628.655 6        -3.311          40.000
C19  23501513.297 8 122378539.545 8     -2498.320          50.000
C22  21805218.555 8 113545483.101 8       146.398          51.000
E05  23560903.531 8 123813376.015 8      -484.789          51.000    23560905.414 8  94869984.292 8      -371.477          51.000
E24  22495740.312 8 118215933.125 8       526.367          51.000    22495753.078 8  90581066.253 8       403.356          51.000
E25  25811970.234 8 135642878.656 8      2896.547          49.000    25811970.141 8 103934134.533 8      2219.390          50.000
> 2020 05 19 02 02  0.0000000  0 13        .000000000000
G02  23937063.922 6 125790147.425 6     -2561.652          41.000    23937062.203 7  98018274.417 7     -1996.093          42.000
G05  20699693.289 6 108777610.224 6       960.039          37.000    20699688.328 6  84761784.284 6       748.082          36.000
G07  21338849.508 7 112136410.304 7     -1608.000          47.000    21338848.023 8  87379025.399 8     -1252.987          48.000
G30  20386994.180 8 107134373.316 8       379.078          51.000    20386995.008 8  83481392.881 8       295.386          51.000
R03  19938901.516 8 106734572.511 8     -1532.270          51.000    19938903.125 8  83015738.269 8     -1191.765          50.000
R13  19855761.539 7 106028637.546 7     -1680.734          44.000    19855763.977 7  82466737.298 7     -1307.238          46.000
R14  20012861.594 8 106679822.737 8      2659.066          51.000    20012863.148 8  82973261.934 8      2068.160          49.000
C05                                                                  39814324.414 6 160315780.071 6        -8.482          40.000
C19  23515943.281 8 122453681.417 8     -2513.375          49.000
C22  21804424.625 8 113541348.924 8       126.824          51.000
E05  23563704.039 8 123828091.911 8      -498.691          51.000    23563705.734 8  94881260.114 8      -382.114          51.000
E24  22492790.484 8 118200430.524 8       504.781          51.000    22492803.281 8  90569187.660 8       386.742          51.000
E25  25795465.328 8 135556146.782 8      2883.273          48.000    25795467.414 8 103867677.646 8      2209.297          51.000
> 2020 05 19 02 02 30.0000000  0 14        .000000000000
G02  23951672.516 6 125866919.926 6     -2560.965          41.000    23951671.438 6  98078097.185 6     -1995.557          40.000
G05  20694231.383 6 108748907.418 6       949.438          36.000    20694226.617 6  84739418.425 6       739.824          37.000
G07  21348027.594 8 112184641.401 8     -1611.688          48.000    21348026.383 8  87416608.074 8     -1255.860          48.000
G28  23309648.641 5 122493031.521 5      3215.562          34.000
G30  20384841.789 8 107123062.815 8       370.574          51.000    20384842.867 8  83472579.503 8       288.759          51.000
R03  19947500.062 8 106780599.287 8     -1540.738          51.000    19947501.469 8  83051536.875 8     -1198.352          50.000
R13  19865237.523 7 106079238.211 7     -1696.914          44.000    19865240.016 7  82506093.367 7     -1319.822          46.000
R14  19997921.609 8 106600184.180 8      2645.664          51.000    19997923.094 8  82911320.819 8      2057.736          49.000
C05  39814356.461 5 207323801.042 5        -3.727          35.000    39814354.188 6 160315899.998 6        -2.607          40.000
C19  23530413.219 7 122529033.172 7     -2514.336          47.000
C22  21803696.680 8 113537558.126 8       121.559          51.000
E05  23566537.000 8 123842979.151 8      -498.121          51.000    23566538.594 8  94892667.219 8      -381.713          51.000
E24  22489917.273 8 118185331.134 8       497.516          51.000    22489929.992 8  90557617.998 8       381.216          51.000
E25  25778989.906 8 135469569.564 8      2884.238          49.000    25778993.914 8 103801339.245 8      2209.983          51.000
> 2020 05 19 02 03  0.0000000  0 14        .000000000000
G02  23966314.484 6 125943868.546 6     -2568.133          41.000    23966314.305 6  98138057.169 6     -2001.142          41.000
G05  20688867.289 6 108720719.811 6       930.629          36.000    20688863.867 6  84717454.059 6       725.168          37.000
G07  21357265.578 7 112233186.967 7     -1623.641          47.000    21357264.422 7  87454435.798 7     -1265.171          47.000
G28  23291311.359 5 122396672.532 5      3209.043          35.000
G30  20382775.602 8 107112204.975 8       354.133          51.000    20382776.594 8  83464118.847 8       275.948          51.000
R03  19956184.125 8 106827085.623 8     -1557.379          51.000    19956185.391 8  83087692.896 8     -1211.298          49.000
R13  19874841.211 7 106130522.573 7     -1721.000          44.000    19874843.953 7  82545981.225 7     -1338.556          45.000
R14  19983095.531 8 106521155.193 8      2623.926          51.000    19983097.445 8  82849853.824 8      2040.831          49.000
C05  39814381.414 5 207323931.284 5        -4.156          35.000    39814379.227 6 160316000.735 6        -3.326          40.000
C19  23544926.328 7 122604609.962 7     -2523.266          47.000
C22  21803037.719 8 113534127.447 8       108.137          51.000
E05  23569405.531 8 123858054.147 8      -505.801          51.000    23569407.211 8  94904218.178 8      -387.624          51.000
E24  22487123.898 8 118170651.157 8       482.137          51.000    22487136.680 8  90546369.711 8       369.441          51.000
E25  25762547.516 8 135383164.688 8      2876.996          49.000    25762552.797 8 103735132.886 8      2204.452          51.000
> 2020 05 19 02 03 30.0000000  0 15        .000000000000
G02  23980992.062 6 126021001.915 6     -2576.805          39.000    23980992.484 6  98198161.081 6     -2007.903          40.000
G05  20683603.289 5 108693060.637 5       910.496          31.000    20683600.875 4  84695901.441 4       709.474          29.000
G07  21366564.977 7 112282056.242 7     -1636.641          47.000    21366563.656 7  87492515.780 7     -1275.304          47.000
G13  22602264.891 5 118775699.952 5      2625.758          33.000
G28  23273002.070 6 122300463.525 6      3202.449          37.000
G30  20380797.719 8 107101810.643 8       336.410          51.000    20380798.539 8  83456019.371 8       262.138          51.000
R03  19964956.023 8 106874042.698 8     -1575.516          50.000    19964957.234 8  83124215.055 8     -1225.404          48.000
R13  19884574.656 7 106182498.180 7     -1746.324          43.000    19884577.000 7  82586406.690 7     -1358.252          45.000
R14  19968386.930 8 106442749.719 8      2600.727          51.000    19968388.992 8  82788871.790 8      2022.787          49.000
C05  39814403.742 5 207324047.843 5        -5.914          35.000    39814401.594 6 160316090.847 6        -4.712          40.000
C19  23559485.516 8 122680422.180 8     -2533.211          48.000
C22  21802450.148 8 113531068.867 8        93.441          51.000
E05  23572312.062 8 123873328.500 8      -514.863          51.000    23572313.992 8  94915921.885 8      -394.500          51.000
E24  22484412.273 8 118156402.046 8       465.461          51.000    22484425.336 8  90535451.573 8       356.625          51.000
E25  25746140.664 8 135296945.072 8      2868.633          50.000    25746146.516 8 103669068.493 8      2198.028          51.000
> 2020 05 19 02 04  0.0000000  0 15        .000000000000
G02  23995713.109 6 126098359.389 6     -2580.926          41.000    23995713.594 6  98258439.644 6     -2011.111          41.000
G05  20678448.758 6 108665973.734 6       895.113          36.000    20678447.344 6  84674794.705 6       697.491          37.000
G07  21375933.891 7 112331290.574 7     -1645.949          46.000    21375932.570 7  87530880.197 7     -1282.558          46.000
G13  22587288.859 5 118697026.070 5      2622.848          34.000
G28  23254730.195 6 122204449.891 6      3198.695          38.000
G30  20378915.953 8 107091921.595 8       322.535          51.000    20378916.781 8  83448313.638 8       251.326          51.000
R03  19973824.086 8 106921513.921 8     -1589.621          50.000    19973825.016 7  83161137.120 7     -1236.372          47.000
R13  19894445.008 7 106235205.896 7     -1767.660          44.000    19894447.547 7  82627401.607 7     -1374.847          45.000
R14  19953803.773 8 106365012.907 8      2581.324          51.000    19953806.234 8  82728409.848 8      2007.700          49.000
C05  39814431.609 5 207324192.527 5        -3.926          35.000    39814429.398 6 160316202.727 6        -3.015          40.000
C19  23574097.906 8 122756510.890 8     -2539.602          48.000
C22  21801942.367 8 113528424.986 8        82.516          51.000
E05  23575264.906 8 123888844.796 8      -519.910          51.000    23575266.930 8  94927810.981 8      -398.361          51.000
E24  22481790.680 8 118142626.194 8       452.641          51.000    22481803.898 8  90524896.050 8       346.879          51.000
E25  25729777.531 8 135210954.669 8      2863.797          50.000    25729783.461 8 103603179.737 8      2194.386          51.000
> 2020 05 19 02 04 30.0000000  0 15        .000000000000
G02  24010465.719 7 126175880.940 7     -2585.016          42.000    24010466.008 7  98318846.048 7     -2014.298          43.000
G05  20673392.914 6 108639402.991 6       878.828          38.000    20673391.664 6  84654090.242 6       684.798          38.000
G07  21385361.055 7 112380830.720 7     -1654.949          45.000    21385359.773 7  87569482.920 7     -1289.568          45.000
G13  22572327.523 5 118618423.161 5      2619.758          31.000
G28  23236485.578 6 122108577.083 6      3195.066          36.000
G30  20377119.398 8 107082480.247 8       308.910          51.000    20377120.148 8  83440956.755 8       240.709          51.000
R03  19982777.055 8 106969441.001 8     -1603.508          49.000    19982778.109 7  83198413.709 7     -1247.176          47.000
R13  19904441.289 7 106288584.314 7     -1788.863          44.000    19904443.570 7  82668918.138 7     -1391.338          45.000
R14  19939335.250 8 106287889.462 8      2562.195          50.000    19939337.992 8  82668424.984 8      1992.819          48.000
C05  39814454.000 5 207324308.757 5        -1.910          35.000    39814451.734 6 160316292.601 6        -1.492          40.000
C19  23588751.953 7 122832818.601 7     -2545.555          47.000
C22  21801503.336 8 113526139.970 8        71.742          51.000
E05  23578253.086 8 123904546.234 8      -524.895          51.000    23578254.938 8  94939841.943 8      -402.135          51.000
E24  22479248.461 8 118129266.577 8       439.969          51.000    22479261.664 8  90514659.451 8       337.164          51.000
E25  25713447.461 8 135125138.028 8      2859.348          50.000    25713453.188 8 103537424.125 8      2190.887          51.000
> 2020 05 19 02 05  0.0000000  0 15        .000000000000
G02  24025254.148 7 126253591.214 7     -2593.414          44.000    24025253.977 7  98379399.514 7     -2020.842          42.000
G05  20668440.836 6 108613377.213 6       858.605          39.000    20668439.750 6  84633810.397 6       669.043          38.000
G07  21394851.500 7 112430702.756 7     -1667.613          45.000    21394849.914 7  87608344.277 7     -1299.436          45.000
G13  22557391.648 4 118539877.934 4      2612.410          29.000
G28  23218273.852 5 122012875.913 5      3187.305          33.000
G30  20375413.109 8 107073513.804 8       290.996          51.000    20375413.711 8  83433969.912 8       226.750          51.000
R03  19991820.500 8 107017852.205 8     -1621.621          50.000    19991821.312 7  83236066.851 7     -1261.261          46.000
R13  19914567.586 7 106342658.595 7     -1814.047          44.000    19914570.117 7  82710975.932 7     -1410.925          44.000
R14  19924987.562 8 106211409.820 8      2538.598          50.000    19924990.633 8  82608940.844 8      1974.465          49.000
C05  39814476.188 5 207324424.873 5        -3.801          35.000    39814473.805 6 160316381.627 6        -3.045          40.000
C19  23603452.875 7 122909372.028 7     -2555.762          46.000
C22  21801138.609 8 113524242.044 8        56.871          51.000
E05  23581281.773 8 123920460.826 8      -533.914          51.000    23581283.547 8  94952036.228 8      -409.085          51.000
E24  22476790.664 8 118116350.942 8       423.188          51.000    22476804.109 8  90504763.083 8       324.305          51.000
E25  25697156.000 8 135039524.525 8      2850.465          50.000    25697161.359 8 103471824.152 8      2184.137          51.000
> 2020 05 19 02 05 30.0000000  0 15        .000000000000
G02  24040070.164 7 126331447.567 7     -2599.930          45.000    24040069.414 6  98440066.816 6     -2025.919          40.000
G05  20663585.195 6 108587857.962 6       839.973          40.000    20663584.023 6  84613925.245 6       654.521          40.000
G07  21404397.203 7 112480865.116 7     -1679.051          46.000    21404395.547 7  87647431.824 7     -1308.351          46.000
G13  22542487.406 5 118461573.867 5      2607.410          32.000
G28  23200087.398 5 121917281.393 5      3180.969          30.000
G30  20373789.367 8 107064981.718 8       274.961          51.000    20373790.156 8  83427321.537 8       214.258          51.000
R03  20000946.812 8 107066706.551 8     -1638.078          50.000    20000947.469 7  83274064.664 7     -1274.061          47.000
R13  19924815.945 7 106397384.661 7     -1837.016          43.000    19924818.570 7  82753540.652 7     -1428.787          44.000
R14  19910753.883 8 106135535.873 8      2516.828          51.000    19910757.211 8  82549927.773 8      1957.530          49.000
C05  39814490.406 5 207324498.266 5        -3.516          35.000    39814488.094 6 160316439.161 6        -3.220          40.000
C19  23618193.344 7 122986130.638 7     -2564.219          47.000
C22  21800840.883 8 113522692.263 8        43.723          51.000
E05  23584343.289 8 123936548.956 8      -541.375          51.000    23584345.297 8  94964363.482 8      -414.886          51.000
E24  22474409.844 8 118103839.434 8       408.027          51.000    22474422.938 8  90495176.351 8       312.674          51.000
E25  25680895.781 8 134954075.767 8      2843.223          50.000    25680900.500 8 103406350.419 8      2178.588          51.000
> 2020 05 19 02 06  0.0000000  0 15        .000000000000
G02  24054936.969 7 126409572.083 7     -2604.598          44.000    24054935.812 6  98500943.072 6     -2029.557          38.000
G05  20658849.656 6 108562971.246 6       823.062          39.000    20658848.156 6  84594533.012 6       641.347          38.000
G07  21414021.453 7 112531440.896 7     -1688.570          45.000    21414019.945 7  87686841.514 7     -1315.769          45.000
G28  23181951.781 5 121821977.874 5      3177.238          33.000
G30  20372272.008 8 107057008.320 8       260.375          51.000    20372272.992 8  83421108.502 8       202.890          51.000
R03  20010179.625 8 107116131.366 8     -1652.969          50.000    20010181.055 8  83312506.160 8     -1285.642          48.000
R13  19935209.734 7 106452887.040 7     -1858.820          43.000    19935212.180 7  82796709.169 7     -1445.749          44.000
R14  19896658.383 8 106060396.860 8      2496.398          51.000    19896661.305 8  82491486.280 8      1941.643          49.000
C05  39814520.531 5 207324655.549 5        -2.512          35.000    39814518.250 6 160316560.774 6        -1.945          40.000
C19  23632997.250 8 123063217.240 8     -2571.176          48.000
C22  21800634.008 8 113521615.103 8        31.883          51.000
E05  23587461.422 8 123952935.732 8      -547.250          51.000    23587463.719 8  94976919.567 8      -419.354          51.000
E09  24814366.055 5 130400374.856 5     -2233.648          32.000
E24  22472129.633 8 118091856.901 8       394.566          51.000    22472142.117 8  90485994.937 8       302.336          51.000
E25  25664691.000 8 134868918.189 8      2837.699          51.000    25664694.695 8 103341099.799 8      2174.392          51.000
> 2020 05 19 02 06 30.0000000  0 15        .000000000000
G02  24069828.836 7 126487828.855 7     -2611.812          43.000    24069827.383 6  98561922.387 6     -2035.179          40.000
G05  20654209.258 6 108538585.339 6       803.285          40.000    20654207.516 6  84575530.994 6       625.940          40.000
G07  21423698.758 7 112582295.432 7     -1701.062          46.000    21423697.039 7  87726468.425 7     -1325.503          45.000
G28  23163840.297 6 121726805.507 6      3168.855          36.000
G30  20370835.539 8 107049460.154 8       243.168          51.000    20370836.594 8  83415226.819 8       189.482          51.000
R03  20019493.234 8 107165990.947 8     -1670.535          49.000    20019495.547 8  83351285.830 8     -1299.308          49.000
R13  19945722.883 7 106509027.333 7     -1883.316          43.000    19945725.453 7  82840373.856 7     -1464.802          44.000
R14  19882675.680 8 105985859.890 8      2473.160          51.000    19882678.211 8  82433513.105 8      1923.569          49.000
C05  39814541.328 5 207324764.045 5        -4.246          35.000    39814539.031 6 160316644.660 6        -3.141          40.000
C19  23647838.461 8 123140499.328 8     -2580.578          49.000
C22  21800492.625 8 113520879.584 8        17.617          51.000
E05  23590611.148 8 123969488.593 8      -555.754          51.000    23590613.539 8  94989602.917 8      -425.870          51.000
E09  24827129.844 5 130467446.944 5     -2239.078          32.000
E24  22469924.734 8 118080270.477 8       378.426          51.000    22469937.156 8  90477117.065 8       289.951          51.000
E25  25648516.766 8 134783920.623 8      2829.309          50.000    25648519.336 8 103275971.794 8      2167.903          50.000
> 2020 05 19 02 07  0.0000000  0 14        .000000000000
G02  24084755.312 7 126566267.629 7     -2618.406          42.000    24084753.656 6  98623043.507 6     -2040.317          41.000
G05  20649674.039 6 108514754.402 6       784.223          38.000    20649672.000 6  84556961.469 6       611.080          37.000
G07  21433438.898 7 112633479.849 7     -1712.387          46.000    21433436.922 7  87766352.363 7     -1334.327          46.000
G28  23145763.594 6 121631821.113 6      3161.969          37.000
G30  20369489.992 8 107042389.635 8       226.992          51.000    20369490.961 8  83409717.323 8       176.877          51.000
R03  20028898.797 8 107216339.468 8     -1687.098          51.000    20028901.102 8  83390445.795 8     -1312.187          49.000
R13  19956365.227 7 106565856.263 7     -1906.207          42.000    19956367.852 7  82884574.139 7     -1482.602          44.000
R14  19868816.031 8 105911981.159 8      2450.938          51.000    19868818.758 8  82376051.921 8      1906.288          49.000
C05  39814562.984 6 207324876.120 6        -4.758          36.000    39814560.570 6 160316731.318 6        -3.495          40.000
C19  23662727.203 8 123218028.501 8     -2589.137          49.000
C22  21800427.023 8 113520538.860 8         4.078          51.000
E05  23593802.758 8 123986260.796 8      -563.387          51.000    23593805.180 8  95002454.345 8      -431.683          51.000
E24  22467805.445 8 118069133.196 8       363.016          51.000    22467817.625 8  90468583.340 8       278.227          50.000
E25  25632383.133 8 134699137.580 8      2821.848          51.000    25632384.633 8 103211008.167 8      2162.186          49.000
> 2020 05 19 02 07 30.0000000  0 14        .000000000000
G02  24099713.930 7 126644875.680 7     -2623.262          43.000    24099711.906 6  98684296.486 6     -2044.103          38.000
G05  20645242.938 6 108491469.938 6       766.641          40.000    20645241.039 6  84538817.701 6       597.382          40.000
G07  21443239.781 7 112684982.820 7     -1722.242          46.000    21443237.875 7  87806484.554 7     -1342.007          46.000
G28  23127720.641 6 121537017.838 6      3156.934          40.000    23127732.305 5  94704166.199 5      2459.954          31.000
G30  20368233.383 8 107035786.167 8       212.246          51.000    20368234.289 8  83404571.772 8       165.387          51.000
R03  20038394.125 8 107267166.432 8     -1702.391          51.000    20038396.195 8  83429977.882 8     -1324.082          49.000
R13  19967133.781 7 106623359.815 7     -1928.121          42.000    19967136.273 7  82929299.126 7     -1499.650          45.000
R14  19855078.352 8 105838752.744 8      2429.848          51.000    19855081.828 8  82319096.507 8      1889.885          50.000
C05  39814583.211 6 207324981.710 6        -3.219          36.000    39814580.898 6 160316813.002 6        -2.749          40.000
C19  23677661.414 7 123295794.009 7     -2596.203          47.000
C22  21800435.570 8 113520583.752 8        -8.164          51.000
E05  23597034.461 8 124003242.669 8      -569.746          51.000    23597036.812 8  95015466.431 8      -436.592          51.000
E24  22465769.430 8 118058435.029 8       349.051          51.000    22465781.234 8  90460386.075 8       267.487          50.000
E25  25616288.797 8 134614560.714 8      2815.570          51.000    25616288.969 8 103146202.531 8      2157.382          48.000
> 2020 05 19 02 08  0.0000000  0 14        .000000000000
G02  24114703.539 7 126723646.221 7     -2628.887          44.000    24114700.391 6  98745676.066 6     -2048.486          37.000
G05  20640915.453 6 108468728.890 6       748.387          41.000    20640913.555 6  84521097.404 6       583.158          41.000
G07  21453100.133 7 112736798.504 7     -1732.883          47.000    21453098.297 7  87846860.400 7     -1350.298          47.000
G28  23109713.109 6 121442394.633 6      3150.266          41.000    23109723.547 5  94630433.765 5      2454.759          32.000
G30  20367064.656 8 107029645.278 8       196.520          51.000    20367065.711 8  83399786.678 8       153.132          51.000
R03  20047978.062 8 107318467.856 8     -1718.426          51.000    20047979.352 7  83469878.959 7     -1336.553          47.000
R13  19978027.648 7 106681531.832 7     -1950.703          42.000    19978030.008 7  82974544.034 7     -1517.214          45.000
R14  19841462.547 8 105766173.343 8      2408.020          50.000    19841466.773 8  82262645.853 8      1872.904          51.000
C05                                                                  39814599.219 6 160316886.741 6        -2.728          40.000
C19  23692639.805 7 123373791.094 7     -2604.266          47.000
C22  21800517.516 8 113521011.083 8       -21.102          51.000
E05  23600305.336 8 124020430.617 8      -576.852          51.000    23600307.672 8  95028636.414 8      -442.048          51.000
E24  22463816.211 8 118048172.071 8       334.336          51.000    22463828.250 8  90452522.277 8       256.203          51.000
E25  25600233.430 8 134530187.725 8      2808.473          51.000    25600232.688 8 103081553.113 8      2151.977          48.000
> 2020 05 19 02 08 30.0000000  0 15        .000000000000
G02  24129728.922 7 126802605.095 7     -2633.523          44.000    24129723.797 6  98807202.375 6     -2052.099          36.000
G05  20636697.062 6 108446560.956 6       731.035          41.000    20636695.578 6  84503823.673 6       569.638          41.000
G07  21463025.023 7 112788953.781 7     -1742.598          46.000    21463022.953 7  87887500.874 7     -1357.868          46.000
G13  22453716.578 5 117995087.034 5      2577.203          32.000
G28  23091746.352 6 121347982.768 6      3144.848          41.000    23091755.273 5  94556866.063 5      2450.531          34.000
G30  20365989.328 8 107023994.979 8       181.855          51.000    20365990.492 8  83395383.839 8       141.706          51.000
R03  20057656.250 8 107370272.810 8     -1733.602          51.000    20057656.508 7  83510171.675 7     -1348.357          47.000
R13  19989051.555 6 106740398.561 6     -1972.059          41.000    19989053.961 7  83020329.276 7     -1533.820          45.000
R14  19827973.867 8 105694273.916 8      2386.867          49.000    19827979.273 8  82206724.045 8      1856.452          51.000
C05  39814623.219 5 207325191.002 5        -2.770          35.000    39814621.000 6 160316974.447 6        -2.102          40.000
C19  23707668.234 7 123452047.184 7     -2611.164          46.000
C22  21800678.523 8 113521849.854 8       -33.277          51.000
E05  23603620.867 8 124037853.536 8      -583.152          51.000    23603623.266 8  95041986.434 8      -446.840          51.000
E24  22461951.422 8 118038372.928 8       320.500          51.000    22461964.094 8  90445013.870 8       245.596          51.000
E25  25584222.617 8 134446048.839 8      2802.312          51.000    25584221.664 8 103017083.071 8      2147.235          49.000
> 2020 05 19 02 09  0.0000000  0 14        .000000000000
G02  24144780.820 7 126881703.619 7     -2643.410          44.000    24144774.047 6  98868837.535 6     -2059.803          36.000
G05  20632579.492 7 108424921.647 7       708.043          44.000    20632578.312 7  84486961.878 7       551.722          44.000
G07  21473005.297 7 112841401.286 7     -1757.559          47.000    21473003.445 7  87928369.059 7     -1369.526          47.000
G28  23073812.109 7 121253739.270 7      3134.332          42.000    23073819.797 5  94483429.560 5      2442.337          35.000
G30  20364998.523 8 107018788.858 8       161.848          51.000    20364999.828 8  83391327.127 8       126.115          51.000
R03  20067419.312 8 107422534.597 8     -1754.223          51.000    20067419.281 7  83550819.682 7     -1364.395          46.000
R13  20000195.844 7 106799908.842 7     -1998.859          42.000    20000198.305 7  83066615.050 7     -1554.668          46.000
R14  19814604.375 8 105623010.261 8      2360.395          51.000    19814610.336 8  82151296.711 8      1835.862          51.000
C05  39814639.812 5 207325276.467 5        -6.848          35.000    39814637.391 6 160317040.917 6        -5.223          40.000
C19  23722736.898 7 123530516.123 7     -2623.523          47.000
C22  21800910.219 8 113523055.412 8       -50.742          51.000
E05  23606972.453 8 124055466.008 8      -594.688          51.000    23606975.008 8  95055481.695 8      -455.676          51.000
E24  22460165.820 8 118028991.830 8       301.156          50.000    22460178.914 8  90437825.768 8       230.831          51.000
E25  25568247.781 8 134362099.896 8      2790.562          51.000    25568247.102 8 102952758.573 8      2138.220          49.000
> 2020 05 19 02 09 30.0000000  0 14        .000000000000
G02  24159870.734 7 126961002.961 7     -2645.102          42.000    24159864.117 6  98930629.213 6     -2061.118          39.000
G05  20628574.664 7 108403876.297 7       693.105          42.000    20628573.406 7  84470562.898 7       540.079          42.000
G07  21483053.109 7 112894203.684 7     -1764.402          47.000    21483051.844 7  87969513.783 7     -1374.859          47.000
G28  23055923.023 6 121159731.717 6      3131.152          41.000    23055929.148 6  94410176.906 6      2439.862          37.000
G30  20364104.461 8 107014090.643 8       149.859          51.000    20364105.859 8  83387666.178 8       116.774          51.000
R03  20077279.664 8 107475318.291 8     -1766.480          51.000    20077279.562 7  83591873.648 7     -1373.929          46.000
R13  20011472.453 6 106860125.706 6     -2017.316          41.000    20011474.758 7  83113450.378 7     -1569.024          45.000
R14  19801367.391 8 105552449.633 8      2341.918          51.000    19801372.914 8  82096416.217 8      1821.492          51.000
C05  39814663.234 5 207325398.786 5        -3.461          35.000    39814660.898 6 160317135.501 6        -2.404          40.000
C19  23737859.133 8 123609260.655 8     -2627.730          48.000
C22  21801224.812 8 113524692.140 8       -60.102          51.000
E05  23610372.453 8 124073332.636 8      -598.098          51.000    23610374.758 8  95069171.689 8      -458.265          51.000
E24  22458472.016 8 118020092.990 8       290.234          50.000    22458485.422 8  90431007.188 8       222.420          51.000
E25  25552321.375 8 134278406.805 8      2787.207          51.000    25552321.594 8 102888630.097 8      2135.742          50.000
> 2020 05 19 02 10  0.0000000  0 14        .000000000000
G02  24174986.609 7 127040438.996 7     -2650.473          42.000    24174980.984 6  98992527.457 6     -2065.300          38.000
G05  20624671.258 7 108383365.106 7       674.559          42.000    20624669.844 7  84454580.111 7       525.627          42.000
G07  21493156.383 7 112947297.871 7     -1774.777          47.000    21493155.438 7  88010885.881 7     -1382.943          47.000
G28  23038067.609 6 121065901.445 6      3124.707          37.000    23038072.852 5  94337062.390 5      2434.840          35.000
G30  20363295.258 8 107009838.429 8       134.199          51.000    20363296.734 8  83384352.775 8       104.571          51.000
R03  20087225.336 8 107528561.482 8     -1782.746          49.000    20087226.062 7  83633285.013 7     -1386.580          47.000
R13  20022869.031 6 106920983.504 6     -2039.340          41.000    20022871.742 7  83160784.235 7     -1586.153          46.000
R14  19788251.398 8 105482532.302 8      2319.594          51.000    19788255.719 8  82042036.086 8      1804.128          50.000
C05  39814682.094 6 207325496.626 6        -3.047          36.000    39814679.680 6 160317211.151 6        -2.274          40.000
C19  23753022.711 8 123688219.308 8     -2635.812          49.000
C22  21801610.617 8 113526700.055 8       -73.340          51.000
E05  23613809.344 8 124091392.494 8      -605.355          51.000    23613810.953 8  95083009.772 8      -463.844          51.000
E24  22456858.656 8 118011615.193 8       275.426          50.000    22456872.508 8  90424511.206 8       211.055          51.000
E25  25536432.156 8 134194909.965 8      2779.762          51.000    25536433.617 8 102824652.006 8      2129.932          50.000
> 2020 05 19 02 10 30.0000000  0 14        .000000000000
G02  24190130.320 7 127120020.101 7     -2650.070          42.000    24190125.828 6  99054538.706 6     -2064.990          37.000
G05  20620871.898 7 108363400.266 7       661.098          43.000    20620869.648 7  84439023.102 7       515.141          43.000
G07  21503317.148 7 113000693.247 7     -1779.965          47.000    21503315.852 7  88052492.661 7     -1386.986          47.000
G13  22395142.688 5 117687267.340 5      2560.340          34.000
G30  20362573.039 8 107006042.695 8       123.879          51.000    20362574.375 8  83381395.046 8        96.529          51.000
R03  20097258.961 8 107582275.166 8     -1793.301          50.000    20097260.680 7  83675062.335 7     -1394.789          47.000
R13  20034387.328 6 106982490.107 6     -2056.172          41.000    20034389.852 7  83208622.691 7     -1599.245          45.000
R14  19775258.359 8 105413271.608 8      2302.734          51.000    19775261.594 8  81988166.660 8      1791.016          49.000
C05  39814698.297 5 207325581.036 5         1.816          35.000    39814695.852 6 160317276.433 6         1.785          40.000
C19  23768229.602 8 123767402.093 8     -2638.199          50.000
C22  21802070.016 8 113529090.766 8       -81.148          51.000
E05  23617285.023 8 124109657.006 8      -607.301          51.000    23617286.156 8  95097004.662 8      -465.394          51.000
E24  22455327.469 8 118003569.423 8       265.922          48.000    22455341.750 8  90418346.258 8       203.761          51.000
E25  25520582.570 8 134111622.030 8      2777.637          51.000    25520584.633 8 102760833.974 8      2128.343          50.000
> 2020 05 19 02 11  0.0000000  0 16        .000000000000
G02  24205297.656 6 127199723.758 6     -2667.070          39.000    24205293.844 6  99116645.442 6     -2078.237          39.000
G05  20617172.875 7 108343962.806 7       630.496          43.000    20617170.359 7  84423877.031 7       491.296          43.000
G07  21513531.250 8 113054368.618 8     -1802.223          48.000    21513529.852 8  88094317.632 8     -1404.329          48.000
G13  22380569.695 5 117610687.019 5      2542.078          30.000
G28  23002460.688 5 120878738.092 5      3104.625          34.000    23002464.562 5  94191247.124 5      2419.188          34.000
G30  20361933.852 8 107002683.057 8        96.305          51.000    20361935.219 8  83378777.150 8        75.043          51.000
R03  20107377.094 8 107636439.290 8     -1821.680          51.000    20107379.039 8  83717189.987 8     -1416.862          48.000
R13  20046022.695 6 107044622.804 6     -2090.199          40.000    20046025.266 7  83256948.148 7     -1625.707          45.000
R14  19762385.406 8 105344649.804 8      2268.145          51.000    19762388.203 8  81934794.125 8      1764.112          49.000
C05  39814708.055 5 207325632.378 5        -9.469          35.000    39814705.781 6 160317316.148 6        -7.328          40.000
C19  23783475.570 8 123846788.601 8     -2657.992          50.000
C22  21802599.086 8 113531845.423 8      -106.277          51.000
E05  23620795.797 8 124128106.794 8      -626.590          51.000    23620796.680 8  95111141.507 8      -480.078          51.000
E09  24942981.172 5 131076244.127 5     -2278.035          33.000    24942985.766 6 100435065.695 6     -1745.747          37.000
E24  22453875.000 8 117995935.925 8       239.094          49.000    22453889.250 8  90412497.216 8       183.238          51.000
E25  25504769.242 8 134028524.929 8      2758.375          51.000    25504771.211 8 102697162.179 8      2113.548          49.000
> 2020 05 19 02 11 30.0000000  0 15        .000000000000
G02  24220510.281 5 127279664.586 5     -2664.988          34.000    24220506.461 5  99178937.044 5     -2076.611          34.000
G05  20613596.984 7 108325171.892 7       618.926          43.000    20613594.648 7  84409234.758 7       482.280          43.000
G07  21523820.773 8 113108439.957 8     -1805.570          49.000    21523819.438 8  88136451.132 8     -1406.938          48.000
G28  22984732.797 6 120785569.276 6      3103.664          41.000    22984734.359 6  94118648.052 6      2418.440          36.000
G30  20361399.945 8 106999876.667 8        87.688          51.000    20361401.422 8  83376590.353 8        68.328          51.000
R03  20117602.070 8 107691173.653 8     -1830.578          51.000    20117603.977 8  83759761.150 8     -1423.783          48.000
R13  20057797.156 6 107107497.182 6     -2104.824          40.000    20057799.500 7  83305850.448 7     -1637.086          45.000
R14  19749654.766 8 105276788.338 8      2252.809          51.000    19749657.875 8  81882012.999 8      1752.184          48.000
C05  39814734.000 6 207325767.394 6        -3.129          36.000    39814731.727 6 160317420.515 6        -2.027          40.000
C19  23798782.648 8 123926494.611 8     -2658.859          50.000
C22  21803220.352 8 113535081.388 8      -112.543          51.000
E05  23624364.273 8 124146859.968 8      -626.695          51.000    23624364.961 8  95125510.814 8      -480.186          51.000
E09                                                                  24955972.164 6 100487361.277 6     -1743.430          36.000
E24  22452523.453 8 117988832.387 8       231.375          48.000    22452537.359 8  90407054.225 8       177.275          51.000
E25  25489015.234 8 133945738.055 8      2757.766          51.000    25489016.469 8 102633728.091 8      2113.147          49.000
> 2020 05 19 02 12  0.0000000  0 14        .000000000000
G05  20610118.602 7 108306892.970 7       599.555          44.000    20610116.555 7  84394991.446 7       467.185          44.000
G07  21534159.609 8 113162770.293 8     -1816.500          50.000    21534157.953 8  88178786.441 8     -1415.455          50.000
G28  22967035.773 7 120692563.259 7      3096.027          44.000    22967035.625 6  94046175.823 6      2412.486          37.000
G30  20360945.391 8 106997487.479 8        71.414          51.000    20360946.695 8  83374728.650 8        55.647          51.000
R03  20127907.656 8 107746339.956 8     -1847.320          51.000    20127909.414 8  83802668.279 8     -1436.802          49.000
R13  20069684.281 6 107170972.762 6     -2126.680          40.000    20069685.906 7  83355220.336 7     -1654.084          46.000
R14  19737040.805 8 105209551.850 8      2229.367          50.000    19737044.172 7  81829717.983 7      1733.952          47.000
C05                                                                  39814747.938 6 160317485.812 6        -2.438          40.000
C19  23814124.578 8 124006385.114 8     -2667.363          48.000
C22  21803908.453 8 113538665.111 8      -126.492          51.000
E05  23627964.875 8 124165781.465 8      -634.781          51.000    23627965.461 8  95140009.096 8      -486.340          51.000
E09                                                                  24968968.703 5 100539704.393 5     -1746.564          34.000
E24  22451247.070 8 117982123.334 8       215.789          49.000    22451260.391 8  90401913.518 8       165.381          51.000
E25  25473294.977 8 133863127.579 8      2749.512          51.000    25473295.242 8 102570429.188 8      2106.694          49.000
> 2020 05 19 02 12 30.0000000  0 14        .000000000000
G05  20606750.984 7 108289195.832 7       581.242          44.000    20606748.820 7  84381201.455 7       452.913          44.000
G07  21544560.391 8 113217426.475 8     -1826.137          49.000    21544558.320 8  88221375.660 8     -1422.964          49.000
G28  22949382.836 7 120599791.746 7      3089.727          46.000    22949380.898 6  93973886.334 6      2407.579          38.000
G30  20360583.039 8 106995583.383 8        56.488          51.000    20360584.242 8  83373244.933 8        44.017          51.000
R03  20138307.141 8 107802007.895 8     -1862.812          51.000    20138308.836 8  83845965.561 8     -1448.854          49.000
R13  20081696.531 6 107235116.326 6     -2148.102          40.000    20081698.289 7  83405109.792 7     -1670.746          46.000
R14  19724557.867 8 105143012.122 8      2207.430          51.000    19724561.125 7  81777964.880 7      1716.890          47.000
C05  39814769.766 5 207325953.668 5        -2.684          35.000    39814767.516 6 160317564.599 6        -2.145          40.000
C19  23829514.281 7 124086527.095 7     -2674.547          46.000
C22  21804676.633 8 113542665.237 8      -139.176          51.000
E05  23631610.688 8 124184940.208 8      -641.559          51.000    23631611.305 8  95154689.168 8      -491.596          51.000
E09                                                                  24981990.734 5 100592147.466 5     -1749.276          35.000
E24  22450059.117 8 117975877.275 8       201.535          50.000    22450072.023 8  90397127.587 8       154.387          51.000
E25  25457621.594 8 133780763.748 8      2742.355          51.000    25457621.398 8 102507319.247 8      2101.297          49.000
> 2020 05 19 02 13  0.0000000  0 15        .000000000000
G02  24266288.086 6 127520215.513 6     -2680.656          36.000    24266289.125 5  99366395.640 5     -2088.817          35.000
G05  20603488.883 7 108272052.716 7       561.574          45.000    20603486.469 7  84367843.172 7       437.590          45.000
G07  21555017.398 8 113272378.199 8     -1837.336          48.000    21555015.281 8  88264195.181 8     -1431.690          48.000
G28  22931769.312 7 120507228.771 7      3081.227          47.000    22931766.172 6  93901759.362 6      2400.956          40.000
G30  20360307.414 8 106994134.979 8        39.969          51.000    20360308.609 8  83372116.303 8        31.144          51.000
R03  20148794.883 8 107858147.886 8     -1880.012          51.000    20148796.305 8  83889630.018 8     -1462.231          49.000
R13  20093827.367 6 107299894.397 6     -2170.301          39.000    20093829.289 7  83455492.728 7     -1688.012          46.000
R14  19712201.102 8 105077141.802 8      2183.820          51.000    19712204.125 8  81726732.400 8      1698.527          48.000
C05  39814787.250 5 207326044.523 5        -3.680          35.000    39814784.930 6 160317634.833 6        -2.595          40.000
C19  23844945.352 7 124166891.224 7     -2683.254          43.000
C22  21805519.312 8 113547053.891 8      -153.438          51.000
E05  23635296.234 8 124204307.762 8      -649.855          51.000    23635296.953 8  95169529.226 8      -497.932          51.000
E09                                                                  24995032.852 5 100644668.239 5     -1752.496          33.000
E24  22448953.539 8 117970065.329 8       185.805          51.000    22448966.102 8  90392674.283 8       142.364          51.000
E25  25441989.766 8 133698619.409 8      2733.707          50.000    25441990.102 8 102444377.479 8      2094.644          51.000
> 2020 05 19 02 13 30.0000000  0 16        .000000000000
G02  24281596.680 6 127600663.542 6     -2686.164          39.000    24281597.305 5  99429082.446 5     -2093.115          34.000
G05  20600328.680 7 108255444.774 7       541.387          46.000    20600326.164 7  84354901.929 7       421.863          46.000
G07  21565526.438 8 113327603.582 8     -1848.578          50.000    21565524.531 8  88307227.959 8     -1440.450          50.000
G13  22308188.297 5 117230320.601 5      2520.590          32.000
G28  22914191.922 8 120414857.156 8      3072.762          48.000    22914188.242 6  93829781.503 6      2394.357          40.000
G30  20360114.609 8 106993121.715 8        23.383          51.000    20360115.617 8  83371326.742 8        18.220          51.000
R03  20159366.844 8 107914739.720 8     -1897.164          51.000    20159368.430 8  83933645.867 8     -1475.572          49.000
R13  20106072.820 6 107365284.162 6     -2192.832          38.000    20106074.664 7  83506351.477 7     -1705.533          46.000
R14  19699966.445 8 105011922.776 8      2159.867          51.000    19699969.719 8  81676006.509 8      1679.897          49.000
C05  39814798.797 5 207326104.569 5        -4.789          35.000    39814796.508 6 160317681.280 6        -3.561          40.000
C19  23860415.492 7 124247456.927 7     -2692.102          44.000
C22  21806432.867 8 113551812.071 8      -167.879          51.000
E05  23639017.797 8 124223864.661 8      -658.285          51.000    23639018.625 8  95184514.369 8      -504.314          51.000
E09                                                                  25008089.984 5 100697215.667 5     -1756.732          31.000
E24  22447926.469 8 117964667.561 8       169.848          51.000    22447938.398 8  90388538.341 8       130.098          51.000
E25  25426395.859 8 133616676.327 8      2724.969          49.000    25426397.844 8 102381589.902 8      2087.948          51.000
> 2020 05 19 02 14  0.0000000  0 15        .000000000000
G02  24296940.672 6 127681292.822 6     -2687.883          39.000    24296941.758 6  99491910.466 6     -2094.454          37.000
G05  20597284.273 7 108239446.719 7       525.750          45.000    20597281.719 7  84342435.906 7       409.675          45.000
G07  21576101.367 8 113383174.938 8     -1855.570          50.000    21576099.562 8  88350530.294 8     -1445.899          50.000
G28  22896665.227 8 120322753.722 8      3068.074          48.000    22896661.773 7  93758012.609 7      2390.707          42.000
G30  20360018.609 8 106992616.572 8        11.016          51.000    20360019.156 8  83370933.120 8         8.584          51.000
R03  20170037.211 8 107971858.139 8     -1910.070          51.000    20170038.844 8  83978071.294 8     -1485.613          49.000
R13  20118445.930 6 107431356.598 6     -2211.012          40.000    20118447.820 7  83557741.143 7     -1719.676          45.000
R14  19687868.375 8 104947431.874 8      2140.172          51.000    19687871.703 8  81625846.955 8      1664.578          49.000
C05  39814818.242 5 207326205.851 5        -1.852          35.000    39814816.109 6 160317760.361 6        -1.093          40.000
C19  23875939.469 7 124328296.348 7     -2696.711          46.000
C22  21807431.867 8 113557013.391 8      -178.258          51.000
E05  23642789.523 8 124243684.902 8      -662.453          51.000    23642790.344 8  95199701.309 8      -507.597          51.000
E09                                                                  25021178.930 5 100749916.837 5     -1756.549          31.000
E24  22446992.352 8 117959757.526 8       158.070          51.000    22447004.133 8  90384776.118 8       121.176          51.000
E25  25410854.492 8 133535009.825 8      2720.105          48.000    25410858.297 8 102319014.227 8      2084.252          51.000
> 2020 05 19 02 14 30.0000000  0 15        .000000000000
G02  24312303.867 6 127762022.827 6     -2693.938          41.000    24312304.523 6  99554816.960 6     -2099.175          37.000
G05  20594341.117 7 108223981.717 7       505.395          45.000    20594339.094 7  84330385.241 7       393.814          45.000
G07  21586726.969 8 113439012.854 8     -1866.789          50.000    21586725.156 8  88394040.351 8     -1454.641          50.000
G28  22879175.078 8 120230844.030 8      3059.344          48.000    22879172.281 7  93686394.673 7      2383.904          43.000
G30  20360004.344 8 106992541.259 8        -5.750          51.000    20360004.797 8  83370874.445 8        -4.477          51.000
R03  20180791.055 8 108029423.622 8     -1927.352          51.000    20180792.438 8  84022844.423 8     -1499.051          48.000
R13  20130931.648 6 107498030.075 6     -2233.461          37.000    20130933.461 7  83609598.292 7     -1737.133          45.000
R14  19675892.453 8 104883592.318 8      2116.078          51.000    19675895.453 8  81576194.008 8      1645.839          48.000
C05  39814831.297 6 207326273.518 6        -2.250          36.000    39814829.102 6 160317812.716 6        -2.335          40.000
C19  23891502.141 8 124409331.598 8     -2705.582          48.000
C22  21808501.367 8 113562581.559 8      -192.789          51.000
E05  23646596.547 8 124263691.235 8      -670.984          51.000    23646597.250 8  95215030.825 8      -514.098          51.000
E09                                                                  25034282.844 5 100802680.314 5     -1760.437          32.000
E24  22446136.016 8 117955257.460 8       142.105          51.000    22446148.047 8  90381328.045 8       108.925          51.000
E25  25395351.812 8 133453543.833 8      2711.207          49.000    25395356.516 8 102256592.209 8      2077.436          51.000
> 2020 05 19 02 15  0.0000000  0 14        .000000000000
G02  24327689.984 7 127842872.828 7     -2699.242          42.000    24327690.203 6  99617816.963 6     -2103.303          37.000
G05  20591503.984 7 108209072.943 7       485.336          46.000    20591502.438 7  84318768.011 7       378.184          46.000
G07  21597407.156 8 113495137.890 8     -1878.043          50.000    21597405.281 8  88437774.165 8     -1463.410          50.000
G28  22861726.438 7 120139152.575 7      3050.234          47.000    22861724.422 7  93614946.758 7      2376.806          44.000
G30  20360075.969 8 106992917.109 8       -22.434          51.000    20360076.469 8  83371167.331 8       -17.481          51.000
R03  20191632.773 8 108087458.276 8     -1944.734          51.000    20191633.719 7  84067982.448 7     -1512.571          47.000
R13  20143533.531 6 107565323.210 6     -2255.922          38.000    20143535.336 7  83661937.413 7     -1754.606          45.000
R14  19664043.242 8 104820428.315 8      2091.676          51.000    19664045.805 8  81527066.456 8      1626.859          48.000
C05  39814841.695 6 207326328.367 6        -3.695          36.000    39814839.680 6 160317855.157 6        -2.984          40.000
C19  23907106.953 8 124490583.669 8     -2714.375          49.000
C22  21809645.430 8 113568539.069 8      -207.449          51.000
E05  23650443.133 8 124283906.107 8      -679.742          51.000    23650443.758 8  95230520.139 8      -520.829          51.000
E24  22445361.727 8 117951189.354 8       126.016          51.000    22445373.539 8  90378210.933 8        96.611          51.000
E25  25379892.461 8 133372302.039 8      2702.004          50.000    25379896.883 8 102194342.011 8      2070.331          51.000
> 2020 05 19 02 15 30.0000000  0 14        .000000000000
G02  24343106.727 7 127923884.036 7     -2701.605          42.000    24343105.906 6  99680942.594 6     -2105.147          36.000
G05  20588781.391 7 108194765.786 7       468.168          45.000    20588779.680 7  84307619.578 7       364.806          45.000
G07  21608150.141 8 113551592.800 8     -1885.875          51.000    21608148.188 8  88481765.008 8     -1469.513          50.000
G28  22844328.203 7 120047726.620 7      3044.473          47.000    22844327.250 7  93543705.722 7      2372.316          44.000
G30  20360241.664 8 106993787.654 8       -35.852          51.000    20360241.828 8  83371845.694 8       -27.936          51.000
R03  20202570.500 8 108146007.141 8     -1958.773          51.000    20202570.961 7  84113520.436 7     -1523.490          47.000
R13  20156259.414 6 107633278.169 6     -2274.680          36.000    20156261.375 7  83714791.276 7     -1769.195          45.000
R14  19652329.156 8 104757986.683 8      2070.727          51.000    19652332.039 8  81478500.749 8      1610.565          49.000
C05  39814858.289 5 207326414.348 5        -1.949          35.000    39814856.180 6 160317921.617 6        -1.565          40.000
C19  23922761.477 8 124572095.452 8     -2720.078          48.000
C22  21810872.688 8 113574930.381 8      -218.926          51.000
E05  23654337.945 8 124304374.075 8      -685.113          51.000    23654338.938 8  95246203.381 8      -524.954          51.000
E24  22444678.016 8 117947597.227 8       113.145          51.000    22444689.648 8  90375458.536 8        86.710          51.000
E25  25364484.773 8 133291330.284 8      2695.848          51.000    25364488.258 8 102132298.750 8      2065.676          51.000
> 2020 05 19 02 16  0.0000000  0 14        .000000000000
G02  24358542.820 7 128004998.331 7     -2706.156          42.000    24358541.227 6  99744148.552 6     -2108.690          37.000
G05  20586162.719 7 108181005.875 7       448.977          45.000    20586161.469 7  84296897.568 7       349.849          45.000
G07  21618945.016 8 113608320.351 8     -1896.133          51.000    21618943.117 8  88525968.289 8     -1477.506          51.000
G28  22826970.266 7 119956514.056 7      3036.305          46.000    22826970.477 7  93472630.957 7      2365.952          44.000
G30  20360490.805 8 106995096.992 8       -51.527          51.000    20360490.789 8  83372865.955 8       -40.151          51.000
R03  20213593.328 8 108205013.655 8     -1975.188          51.000    20213593.766 8  84159414.361 8     -1536.257          48.000
R13  20169097.711 6 107701834.751 6     -2295.844          36.000    20169100.094 7  83768113.088 7     -1785.656          44.000
R14  19640740.062 8 104696213.296 8      2047.344          51.000    19640743.969 8  81430454.787 8      1592.378          49.000
C05  39814870.320 6 207326476.733 6        -2.316          36.000    39814868.117 6 160317969.855 6        -1.921          40.000
C19  23938454.312 7 124653811.358 7     -2727.797          47.000
C22  21812173.000 8 113581701.378 8      -232.617          51.000
E05  23658270.398 8 124325040.295 8      -692.750          51.000    23658272.289 8  95262038.525 8      -530.808          51.000
E24  22444074.344 8 117944425.683 8        98.184          51.000    22444086.211 8  90373028.427 8        75.139          50.000
E25  25349118.328 8 133210574.971 8      2687.723          51.000    25349120.727 8 102070421.336 8      2059.454          50.000
> 2020 05 19 02 16 30.0000000  0 15        .000000000000
G02  24374002.211 6 128086236.186 6     -2710.160          40.000    24373999.664 6  99807450.752 6     -2111.813          38.000
G05  20583652.719 7 108167817.055 7       430.070          45.000    20583651.805 7  84286620.560 7       335.120          45.000
G07  21629795.930 8 113665342.164 8     -1905.539          50.000    21629793.977 8  88570400.870 8     -1484.836          50.000
G09  23688632.500 5 124484603.227 5     -2884.480          32.000
G28  22809657.961 7 119865540.791 7      3028.469          47.000    22809658.656 7  93401742.656 7      2359.846          43.000
G30  20360827.602 8 106996867.410 8       -66.570          51.000    20360827.828 8  83374245.520 8       -51.873          51.000
R03  20224705.820 8 108264500.733 8     -1990.797          51.000    20224706.430 8  84205682.087 8     -1548.398          48.000
R13  20182052.516 5 107771013.000 5     -2316.039          34.000    20182055.094 7  83821918.444 7     -1801.361          43.000
R14  19629280.984 8 104635133.329 8      2024.535          51.000    19629285.695 8  81382948.146 8      1574.638          49.000
C05  39814882.242 5 207326538.340 5        -2.043          35.000    39814879.883 6 160318017.500 6        -1.492          40.000
C19  23954190.445 8 124735753.346 8     -2735.078          49.000
C22  21813550.891 8 113588875.501 8      -245.750          51.000
E05  23662245.109 8 124345928.189 8      -699.773          51.000    23662247.609 8  95278043.526 8      -536.211          51.000
E24  22443555.328 8 117941697.747 8        83.621          51.000    22443567.281 8  90370938.188 8        64.160          50.000
E25  25333797.672 8 133130060.797 8      2679.809          51.000    25333799.211 8 102008728.698 8      2053.363          50.000
> 2020 05 19 02 17  0.0000000  0 14        .000000000000
G02  24389484.977 6 128167598.138 6     -2713.547          36.000    24389481.891 5  99870849.708 5     -2114.449          35.000
G05  20581252.430 7 108155203.697 7       411.324          46.000    20581251.562 7  84276791.965 7       320.512          45.000
G07  21640703.148 8 113722659.918 8     -1914.910          51.000    21640701.000 8  88615064.063 8     -1492.138          51.000
G28  22792393.336 8 119774813.152 8      3020.715          49.000    22792392.555 7  93331045.803 7      2353.804          42.000
G30  20361252.703 8 106999101.601 8       -81.648          51.000    20361252.930 8  83375986.453 8       -63.622          51.000
R03  20235908.391 8 108324471.711 8     -2006.652          50.000    20235909.508 8  84252326.193 8     -1560.727          48.000
R13  20195123.531 5 107840812.866 5     -2335.859          35.000    20195125.938 7  83876207.223 7     -1816.780          42.000
R14  19617952.984 8 104574752.104 8      2001.586          49.000    19617958.000 8  81335984.983 8      1556.789          50.000
C05  39814894.602 6 207326603.660 6        -1.977          36.000    39814892.211 6 160318067.221 6        -1.169          40.000
C19  23969971.008 8 124817923.881 8     -2742.258          50.000
C22  21815007.031 8 113596456.746 8      -259.000          51.000
E05  23666262.789 8 124367041.543 8      -707.000          51.000    23666265.508 8  95294221.291 8      -541.712          51.000
E24  22443121.203 8 117939416.551 8        69.180          51.000    22443133.125 8  90369190.273 8        53.014          49.000
E25  25318523.664 8 133049792.732 8      2672.141          51.000    25318524.312 8 101947224.622 8      2047.487          50.000
> 2020 05 19 02 17 30.0000000  0 13        .000000000000
G05  20578961.469 7 108143163.675 7       392.297          47.000    20578960.547 7  84267410.137 7       305.686          47.000
G07  21651665.781 8 113780269.043 8     -1924.750          51.000    21651663.688 8  88659954.274 8     -1499.805          51.000
G28  22775175.812 8 119684330.977 8      3012.371          51.000    22775173.305 7  93260540.260 7      2347.302          43.000
G30  20361765.281 8 107001795.797 8       -97.016          51.000    20361765.469 8  83378085.833 8       -75.597          51.000
R03  20247200.750 8 108384923.246 8     -2022.641          51.000    20247202.203 8  84299344.051 8     -1573.162          48.000
R13  20208309.930 5 107911228.306 5     -2357.227          33.000    20208312.352 7  83930974.818 7     -1833.395          42.000
R14  19606756.422 8 104515068.159 8      1978.207          51.000    19606760.844 8  81289564.129 8      1538.605          50.000
C05  39814906.836 5 207326667.602 5        -1.898          35.000    39814904.469 6 160318116.690 6        -1.402          40.000
C19  23985794.789 8 124900319.012 8     -2749.852          50.000
C22  21816540.875 8 113604442.721 8      -272.617          51.000
E05  23670322.852 8 124388377.716 8      -714.688          51.000    23670325.680 8  95310569.775 8      -547.561          51.000
E24  22442771.375 8 117937578.923 8        54.227          50.000    22442783.062 8  90367782.246 8        41.526          48.000
E25  25303295.984 8 132969769.386 8      2663.742          51.000    25303295.969 8 101885908.044 8      2041.034          50.000
> 2020 05 19 02 18  0.0000000  0 13        .000000000000
G05  20576779.742 7 108131697.806 7       372.637          46.000    20576778.555 7  84258475.702 7       290.366          47.000
G07  21662683.508 8 113838167.686 8     -1934.754          50.000    21662681.648 8  88705070.096 8     -1507.600          50.000
G28  22758005.508 8 119594097.109 8      3003.535          51.000    22758002.562 7  93190228.187 7      2340.420          45.000
G30  20362365.266 8 107004949.096 8      -112.746          51.000    20362365.547 8  83380542.953 8       -87.854          51.000
R03  20258583.289 8 108445854.934 8     -2039.109          51.000    20258584.766 8  84346735.370 8     -1585.974          48.000
R13  20221611.172 5 107982255.285 5     -2377.441          35.000    20221613.750 6  83986218.048 6     -1849.121          41.000
R14  19595691.797 8 104456083.473 8      1954.438          51.000    19595695.656 8  81243687.131 8      1520.118          51.000
C05  39814919.023 5 207326730.638 5        -2.328          35.000    39814916.703 6 160318165.811 6        -1.707          40.000
C19  24001661.492 8 124982937.626 8     -2757.727          49.000
C22  21818152.375 8 113612833.831 8      -286.492          51.000
E05  23674425.523 8 124409936.861 8      -722.340          51.000    23674428.227 8  95327089.118 8      -553.487          51.000
E24  22442506.016 8 117936184.524 8        39.105          49.000    22442517.766 8  90366713.816 8        29.973          48.000
E25  25288114.883 8 132889992.187 8      2655.074          51.000    25288114.875 8 101824780.052 8      2034.378          51.000
> 2020 05 19 02 18 30.0000000  0 13        .000000000000
G05  20574705.680 7 108120798.849 7       353.742          46.000    20574704.750 7  84249982.999 7       275.640          46.000
G07  21673754.523 8 113896346.407 8     -1944.062          51.000    21673752.562 8  88750404.167 8     -1514.854          51.000
G28  22740881.250 8 119504106.682 8      2995.578          50.000    22740878.680 7  93120105.778 7      2334.217          46.000
G30  20363050.938 8 107008552.882 8      -127.754          51.000    20363051.414 8  83383351.106 8       -99.548          51.000
R03  20270053.773 8 108507258.095 8     -2054.719          51.000    20270055.797 8  84394493.362 8     -1598.115          49.000
R13  20235024.750 5 108053882.788 5     -2396.895          33.000    20235026.906 6  84041928.348 6     -1864.248          39.000
R14  19584756.969 8 104397791.435 8      1931.469          51.000    19584760.703 8  81198348.881 8      1502.253          51.000
C05  39814929.602 5 207326785.485 5        -1.941          35.000    39814927.398 6 160318208.631 6        -1.359          40.000
C19  24017568.617 7 125065771.090 7     -2764.680          47.000
C22  21819840.406 8 113621622.919 8      -299.625          51.000
E05  23678569.164 8 124431711.565 8      -729.422          51.000    23678571.742 8  95343773.634 8      -558.890          51.000
E24  22442323.266 7 117935225.283 7        24.762          47.000    22442335.328 7  90365978.847 7        18.851          47.000
E25  25272979.250 8 132810454.918 8      2647.258          51.000    25272979.648 8 101763835.900 8      2028.379          51.000
> 2020 05 19 02 19  0.0000000  0 13        .000000000000
G05  20572740.148 7 108110470.377 7       334.691          47.000    20572739.461 7  84241934.837 7       260.798          47.000
G07  21684878.953 8 113954805.860 8     -1953.258          50.000    21684876.922 8  88795956.971 8     -1522.019          50.000
G28  22723803.547 7 119414364.594 7      2987.316          47.000    22723801.922 7  93050176.864 7      2327.779          46.000
G30  20363822.625 8 107012608.574 8      -142.520          51.000    20363823.406 8  83386511.398 8      -111.054          51.000
R03  20281612.688 8 108569134.855 8     -2070.344          51.000    20281614.953 8  84442619.709 8     -1610.267          48.000
R13  20248550.672 5 108126109.176 5     -2417.734          35.000    20248552.500 6  84098104.428 6     -1880.460          38.000
R14  19573952.414 8 104340196.097 8      1908.344          51.000    19573956.328 8  81153552.536 8      1484.270          51.000
C05  39814939.062 5 207326834.946 5        -1.746          35.000    39814936.891 6 160318246.846 6         -.958          40.000
C19  24033516.672 7 125148820.642 7     -2771.840          47.000
C22  21821605.336 8 113630812.682 8      -312.887          51.000
E05  23682754.312 8 124453704.376 8      -736.531          51.000    23682756.797 8  95360625.264 8      -564.337          51.000
E24  22442223.484 7 117934703.177 7        10.266          47.000    22442235.477 7  90365578.811 7         7.926          47.000
E25  25257889.727 8 132731161.380 8      2639.148          51.000    25257890.984 8 101703078.480 8      2022.229          51.000
> 2020 05 19 02 19 30.0000000  0 13        .000000000000
G05  20570884.820 7 108100720.260 7       315.172          47.000    20570884.414 7  84234337.332 7       245.588          47.000
G07  21696057.984 8 114013551.845 8     -1963.109          50.000    21696056.203 8  88841733.063 8     -1529.696          50.000
G28  22706774.258 7 119324881.665 7      2978.094          44.000    22706774.273 7  92980449.883 7      2320.593          44.000
G30  20364681.555 8 107017122.965 8      -158.316          51.000    20364682.312 8  83390029.115 8      -123.363          51.000
R03  20293261.898 8 108631492.234 8     -2086.773          51.000    20293263.664 8  84491119.882 8     -1623.046          48.000
R13  20262189.539 5 108198939.231 5     -2437.953          32.000    20262191.680 6  84154750.075 6     -1896.183          36.000
R14  19563280.508 8 104283306.903 8      1884.359          51.000    19563284.250 8  81109305.403 8      1465.613          51.000
C05  39814948.875 5 207326885.930 5        -1.793          35.000    39814946.680 6 160318286.314 6        -1.417          40.000
C19  24049507.859 8 125232092.839 8     -2779.605          48.000
C22  21823448.625 8 113640411.192 8      -326.961          51.000
E05  23686982.539 8 124475923.217 8      -744.500          51.000    23686985.102 8  95377650.089 8      -570.467          51.000
E24  22442208.453 7 117934625.552 7        -4.895          47.000    22442220.320 7  90365519.336 7        -3.813          47.000
E25  25242848.133 8 132652120.684 8      2630.410          50.000    25242850.766 8 101642514.812 8      2015.503          51.000
> 2020 05 19 02 20  0.0000000  0 14        .000000000000
G05  20569137.977 8 108091539.448 8       297.676          48.000    20569137.578 8  84227183.445 8       231.955          48.000
G07  21707289.414 8 114072572.729 8     -1970.645          50.000    21707287.836 8  88887723.372 8     -1535.567          50.000
G28  22689792.938 7 119235650.378 7      2971.293          44.000    22689794.344 7  92910918.978 7      2315.293          43.000
G30  20365625.773 8 107022085.068 8      -171.543          51.000    20365626.492 8  83393895.697 8      -133.670          51.000
R03  20304998.969 8 108694319.890 8     -2100.824          51.000    20305000.289 8  84539985.812 8     -1633.977          48.000
R13  20275938.547 5 108272358.155 5     -2455.543          35.000    20275940.453 5  84211853.678 5     -1909.870          32.000
R14  19552739.320 8 104227114.992 8      1862.730          51.000    19552742.703 8  81065600.605 8      1448.793          50.000
C05  39814957.164 5 207326930.037 5         -.332          35.000    39814954.852 6 160318319.276 6         -.239          40.000
C19  24065539.977 8 125315576.700 8     -2785.027          48.000
C22  21825368.633 8 113650408.951 8      -338.645          51.000
E05  23691251.805 8 124498358.337 8      -750.246          51.000    23691254.477 8  95394840.619 8      -574.858          51.000
E09  25179806.086 5 132320790.213 5     -2335.652          33.000
E24  22442276.336 8 117934982.012 8       -17.980          48.000    22442288.461 8  90365792.481 8       -13.732          49.000
E25  25227853.109 8 132573324.317 8      2623.660          50.000    25227856.688 8 101582138.355 8      2010.334          51.000
> 2020 05 19 02 20 30.0000000  0 14        .000000000000
G05  20567497.367 8 108082916.697 8       276.180          48.000    20567496.375 8  84220464.420 8       215.205          48.000
G07  21718570.586 8 114131855.158 8     -1982.391          50.000    21718568.984 8  88933917.471 8     -1544.720          50.000
G28  22672858.430 7 119146661.905 7      2960.391          42.000    22672860.289 7  92841577.288 7      2306.798          42.000
G30  20366652.852 8 107027482.413 8      -189.090          51.000    20366653.781 8  83398101.446 8      -147.340          51.000
R03  20316821.484 8 108757605.064 8     -2119.062          51.000    20316822.742 8  84589207.604 8     -1648.160          49.000
R13  20289795.430 5 108346351.723 5     -2478.027          32.000    20289795.344 5  84269402.631 5     -1927.355          30.000
R14  19542326.859 8 104171610.058 8      1836.781          51.000    19542329.727 8  81022430.141 8      1428.611          49.000
C05  39814961.445 5 207326952.104 5        -2.250          35.000    39814959.250 6 160318336.693 6        -1.537          40.000
C19  24081610.391 8 125399259.614 8     -2794.562          48.000
C22  21827363.109 8 113660794.848 8      -354.527          51.000
E05  23695560.086 8 124520998.328 8      -759.859          51.000    23695562.555 8  95412188.143 8      -582.248          51.000
E09  25193155.414 5 132390925.312 5     -2341.254          31.000    25193158.695 5 101442409.983 5     -1794.085          33.000
E24  22442424.422 8 117935760.519 8       -34.781          48.000    22442436.883 8  90366389.010 8       -26.686          49.000
E25  25212902.789 8 132494762.014 8      2612.973          50.000    25212906.844 8 101521941.256 8      2002.193          51.000
> 2020 05 19 02 21  0.0000000  0 14        .000000000000
G05  20565972.594 8 108074903.628 8       258.012          49.000    20565971.398 8  84214220.456 8       201.048          49.000
G07  21729910.766 8 114191448.059 8     -1990.469          50.000    21729909.180 8  88980353.493 8     -1551.015          50.000
G28  22655980.398 6 119057969.674 6      2952.363          40.000    22655981.992 6  92772466.483 6      2300.546          39.000
G30  20367772.273 8 107033364.697 8      -203.211          51.000    20367772.922 8  83402685.067 8      -158.346          51.000
R03  20328738.594 8 108821398.984 8     -2133.902          51.000    20328740.320 8  84638825.089 8     -1659.702          49.000
R13  20303768.094 5 108420966.297 5     -2495.996          33.000    20303770.625 5  84327435.779 5     -1941.327          30.000
R14  19532053.242 8 104116845.192 8      1814.176          51.000    19532055.031 7  80979835.239 7      1411.023          47.000
C05  39814971.508 5 207327003.778 5        -1.297          35.000    39814969.359 6 160318377.453 6         -.954          40.000
C19  24097728.555 8 125483190.674 8     -2800.754          48.000
C22  21829441.703 8 113671619.506 8      -367.145          51.000
E05  23699917.008 8 124543894.140 8      -766.312          51.000    23699919.398 8  95429731.669 8      -587.157          51.000
E09                                                                  25206533.086 6 101496266.704 6     -1795.971          36.000
E24  22442662.586 8 117937011.341 8       -48.398          49.000    22442675.008 8  90367347.441 8       -37.076          50.000
E25  25198007.297 8 132416485.920 8      2605.699          51.000    25198011.117 8 101461963.490 8      1996.524          51.000
> 2020 05 19 02 21 30.0000000  0 15        .000000000000
G05  20564550.461 8 108067430.521 8       240.027          49.000    20564549.195 8  84208397.256 8       187.034          49.000
G07  21741296.234 8 114251279.688 8     -1998.480          49.000    21741294.891 8  89026975.554 8     -1557.258          49.000
G09  23854484.461 5 125356149.923 5     -2924.453          34.000
G28  22639145.930 6 118969506.420 6      2945.297          41.000    22639146.766 6  92703534.124 6      2295.037          38.000
G30  20368970.477 8 107039660.904 8      -216.801          51.000    20368970.680 8  83407591.211 8      -168.936          51.000
R03  20340737.320 8 108885629.749 8     -2148.324          51.000    20340739.242 8  84688782.355 8     -1670.919          49.000
R13  20317843.625 5 108496128.058 5     -2514.211          33.000    20317839.508 4  84385878.324 4     -1955.497          25.000
R14  19521905.148 8 104062750.659 8      1791.832          51.000    19521906.344 7  80937761.682 7      1393.644          47.000
C05  39814974.133 5 207327017.068 5          .172          35.000    39814971.867 6 160318387.737 6          .127          40.000
C19  24113880.531 7 125567299.426 7     -2806.691          46.000
C22  21831591.344 8 113682813.869 8      -379.375          51.000
E05  23704309.359 8 124566975.908 8      -772.539          51.000    23704311.656 8  95447417.690 8      -591.966          51.000
E09                                                                  25219921.602 5 101550177.109 5     -1798.000          34.000
E24  22442977.375 8 117938664.067 8       -61.801          49.000    22442989.797 8  90368613.824 8       -47.351          51.000
E25  25183153.570 8 132338427.472 8      2598.203          51.000    25183156.344 8 101402152.483 8      1990.870          51.000
> 2020 05 19 02 22  0.0000000  0 15        .000000000000
G05  20563246.789 8 108060579.763 8       214.441          49.000    20563245.273 8  84203059.012 8       167.097          49.000
G07  21752742.305 8 114311429.622 8     -2013.801          48.000    21752741.055 8  89073845.637 8     -1569.195          48.000
G13  22068023.359 5 115968263.593 5      2420.641          30.000
G28  22622371.680 6 118881356.351 6      2929.496          41.000    22622371.289 5  92634845.750 5      2282.721          34.000
G30  20370262.672 8 107046451.564 8      -238.125          51.000    20370263.133 8  83412882.649 8      -185.552          51.000
R03  20352833.195 8 108950379.664 8     -2170.555          51.000    20352835.195 8  84739143.410 8     -1688.209          49.000
R13  20332035.555 5 108571915.420 5     -2540.453          30.000    20332041.797 4  84444844.536 4     -1975.905          29.000
R14  19511898.438 8 104009410.420 8      1761.789          51.000    19511899.766 7  80896274.843 7      1370.283          47.000
C05  39814984.797 5 207327072.578 5        -5.305          35.000    39814982.305 6 160318429.912 6        -4.609          40.000
C19  24130081.789 7 125651665.555 7     -2819.977          47.000
C22  21833827.336 8 113694459.111 8      -399.203          51.000
E05  23708752.695 8 124590325.342 8      -786.328          51.000    23708754.570 8  95465308.814 8      -602.547          51.000
E09                                                                  25233337.953 5 101604195.429 5     -1805.328          31.000
E24  22443383.750 8 117940799.700 8       -82.805          49.000    22443396.477 8  90370250.236 8       -63.439          51.000
E25  25168357.172 8 132260669.541 8      2583.328          51.000    25168358.602 8 101342571.744 8      1979.502          51.000
> 2020 05 19 02 22 30.0000000  0 13        .000000000000
G05  20562055.297 8 108054318.781 8       200.074          49.000    20562053.906 8  84198180.320 8       155.902          49.000
G07  21764242.523 7 114371863.675 7     -2018.059          47.000    21764241.117 7  89120937.132 7     -1572.510          46.000
G28  22605651.664 7 118793489.931 7      2925.160          42.000    22605649.797 6  92566378.450 6      2279.349          37.000
G30  20371642.570 8 107053703.021 8      -248.270          51.000    20371643.406 8  83418533.152 8      -193.457          51.000
R03  20365019.805 8 109015614.807 8     -2181.293          51.000    20365021.727 8  84789881.840 8     -1696.561          48.000
R13  20346338.180 5 108648292.188 5     -2554.754          32.000    20346346.516 4  84504276.192 4     -1987.034          25.000
R14  19502027.469 8 103956792.550 8      1743.082          51.000    19502028.664 7  80855349.874 7      1355.730          47.000
C05                                                                  39814994.438 6 160318478.868 6         -.704          40.000
C19  24146326.625 8 125736255.608 8     -2822.180          49.000
C22  21836143.820 8 113706523.209 8      -407.934          51.000
E05  23713240.562 8 124613910.026 8      -788.820          51.000    23713242.367 8  95483380.188 8      -604.445          51.000
E24  22443875.977 8 117943385.178 8       -92.391          50.000    22443888.602 8  90372231.316 8       -70.835          51.000
E25  25153611.844 8 132183180.931 8      2579.766          50.000    25153612.672 8 101283197.372 8      1976.718          51.000
> 2020 05 19 02 23  0.0000000  0 13        .000000000000
G05  20560962.672 8 108048577.971 8       176.371          49.000    20560961.406 8  84193706.947 8       137.429          49.000
G07  21775783.039 7 114432509.111 7     -2031.355          47.000    21775781.492 7  89168193.329 7     -1582.874          47.000
G28  22588973.023 7 118705839.221 7      2911.840          45.000    22588970.094 6  92498079.243 6      2268.966          38.000
G30  20373096.648 8 107061343.847 8      -267.566          51.000    20373097.305 8  83424487.033 8      -208.493          51.000
R03  20377283.484 8 109081262.998 8     -2201.566          51.000    20377285.398 8  84840941.522 8     -1712.329          49.000
R13  20360737.828 4 108725200.972 4     -2578.352          29.000
R14  19492278.820 8 103904827.065 8      1714.922          51.000    19492280.094 8  80814932.300 8      1333.828          48.000
C05  39814997.352 5 207327139.121 5        -5.578          35.000    39814994.859 6 160318480.600 6        -4.196          40.000
C19  24162601.445 8 125820998.629 8     -2833.598          50.000
C22  21838527.414 8 113718936.689 8      -425.875          51.000
E05  23717759.664 8 124637659.723 8      -800.676          51.000    23717761.961 8  95501577.995 8      -613.487          51.000
E24  22444440.172 8 117946349.593 8      -111.418          50.000    22444452.734 8  90374502.741 8       -85.408          51.000
E25  25138904.172 8 132105892.579 8      2566.523          50.000    25138905.352 8 101223976.433 8      1966.587          51.000
> 2020 05 19 02 23 30.0000000  0 13        .000000000000
G05  20559995.242 8 108043494.465 8       161.824          50.000    20559993.734 8  84189745.766 8       126.097          50.000
G07  21787389.508 7 114493501.267 7     -2035.645          47.000    21787387.734 7  89215719.706 7     -1586.217          47.000
G13  22026642.055 5 115750773.507 5      2408.145          33.000
G28  22572362.422 7 118618543.500 7      2907.258          47.000    22572358.734 6  92430056.596 6      2265.396          39.000
G30  20374650.633 8 107069509.626 8      -277.570          51.000    20374651.398 8  83430849.982 8      -216.286          51.000
R03  20389649.812 8 109147462.416 8     -2212.414          50.000    20389651.719 8  84892429.977 8     -1720.766          48.000
R14  19482678.734 8 103853653.730 8      1695.996          51.000    19482680.391 8  80775130.850 8      1319.108          49.000
C05  39815011.914 5 207327214.524 5         -.551          35.000    39815009.523 6 160318539.686 6         -.586          40.000
C19  24178930.797 8 125906028.895 8     -2835.871          49.000
C22  21841004.219 8 113731835.274 8      -434.734          51.000
E05  23722336.422 8 124661711.296 8      -803.406          51.000    23722339.000 8  95520007.119 8      -615.609          51.000
E24  22445102.266 8 117949829.070 8      -121.219          49.000    22445114.828 8  90377168.840 8       -92.927          51.000
E25  25124260.617 8 132028942.496 8      2562.812          49.000    25124262.555 8 101165014.695 8      1963.606          51.000
> 2020 05 19 02 24  0.0000000  0 14        .000000000000
G05  20559126.070 8 108038926.557 8       137.008          50.000    20559124.203 8  84186186.359 8       106.759          50.000
G07  21799034.461 7 114554695.804 7     -2049.676          46.000    21799032.242 7  89263403.758 7     -1597.150          46.000
G13  22012914.141 5 115678643.570 5      2397.137          30.000
G28  22555792.766 8 118531463.054 8      2892.430          48.000    22555788.656 6  92362201.687 6      2253.841          41.000
G30  20376277.219 8 107078056.805 8      -297.898          51.000    20376278.219 8  83437510.137 8      -232.129          51.000
R03  20402091.555 8 109214067.259 8     -2233.656          50.000    20402093.734 7  84944233.778 7     -1737.285          47.000
R04  19486861.797 5 104351254.791 5      1375.148          34.000    19486870.031 5  81162106.784 5      1069.557          31.000
R14  19473200.547 8 103803129.163 8      1666.637          51.000    19473202.242 8  80735833.964 8      1296.273          49.000
C05  39815013.594 5 207327223.187 5        -5.590          35.000    39815011.266 6 160318546.772 6        -4.280          40.000
C19  24195287.344 7 125991203.928 7     -2848.180          47.000
C22  21843547.477 8 113745078.029 8      -453.727          51.000
E05  23726943.672 8 124685922.358 8      -816.309          51.000    23726946.102 8  95538558.458 8      -625.477          51.000
E24  22445835.266 8 117953680.570 8      -141.137          49.000    22445847.719 8  90380119.977 8      -108.162          51.000
E25  25109654.977 8 131952189.575 8      2548.449          50.000    25109657.414 8 101106204.019 8      1952.768          51.000
> 2020 05 19 02 24 30.0000000  0 13        .000000000000
G05  20558377.500 8 108034992.785 8       123.062          50.000    20558375.508 8  84183121.085 8        95.893          50.000
G07  21810740.266 7 114616209.812 7     -2053.293          46.000    21810737.555 7  89311336.744 7     -1599.969          45.000
G28  22539286.508 8 118444719.013 8      2888.266          48.000    22539282.273 6  92294608.909 6      2250.597          41.000
G30  20377998.773 8 107087103.018 8      -307.324          51.000    20377999.625 8  83444559.142 8      -239.473          51.000
R03  20414632.117 8 109281197.804 8     -2243.922          51.000    20414634.148 7  84996446.428 7     -1745.273          47.000
R04  19479183.867 4 104310140.121 4      1364.270          28.000    19479192.531 5  81130128.675 5      1061.095          31.000
R14  19463866.430 8 103753374.906 8      1648.145          51.000    19463868.391 8  80697136.215 8      1281.890          49.000
C05  39815024.969 5 207327282.267 5         -.574          35.000    39815022.656 6 160318592.844 6         -.335          40.000
C19  24211693.336 7 126076640.269 7     -2849.789          43.000
C22  21846179.602 8 113758782.880 8      -462.145          51.000
E05  23731603.773 8 124710411.845 8      -818.586          51.000    23731606.305 8  95557323.138 8      -627.252          51.000
E24  22446661.469 8 117958022.266 8      -150.559          50.000    22446673.781 8  90383446.729 8      -115.336          51.000
E25  25095110.109 8 131875753.804 8      2544.941          51.000    25095112.102 8 101047636.358 8      1950.011          51.000
> 2020 05 19 02 25  0.0000000  0 16        .000000000000
G05  20557727.750 8 108031578.644 8       105.996          50.000    20557725.797 8  84180460.709 8        82.594          50.000
G07  21822484.625 7 114677926.208 7     -2059.730          46.000    21822481.977 7  89359427.424 7     -1604.985          46.000
G13  21985554.859 5 115534876.025 5      2391.941          33.000
G28  22522822.414 8 118358198.951 8      2881.184          48.000    22522818.492 7  92227190.638 7      2245.075          44.000
G30  20379793.070 8 107096532.034 8      -319.820          51.000    20379793.906 8  83451906.436 8      -249.208          51.000
R03  20427249.023 8 109348736.030 8     -2257.168          51.000    20427250.219 7  85048976.117 7     -1755.575          45.000
R04  19471588.805 5 104269441.219 5      1350.598          33.000    19471590.188 5  81098473.949 5      1050.468          31.000
R13  20419430.086 4 109038616.591 4     -2645.379          29.000
R14  19454655.125 8 103704275.382 8      1626.637          50.000    19454657.469 8  80658947.682 8      1265.162          49.000
C05  39815024.125 6 207327277.886 6         1.863          36.000    39815021.828 6 160318589.487 6         1.414          40.000
C19  24228126.188 6 126162222.692 6     -2854.480          40.000
C22  21848878.523 8 113772835.995 8      -473.395          51.000
E05  23736294.992 8 124735064.756 8      -823.578          51.000    23736297.695 8  95576213.027 8      -631.101          51.000
E09  25314253.008 5 133027295.623 5     -2370.207          33.000
E24  22447558.914 8 117962738.421 8      -162.629          49.000    22447571.141 8  90387060.405 8      -124.567          51.000
E25  25080604.188 8 131799521.429 8      2538.480          51.000    25080605.344 8 100989224.533 8      1945.099          51.000
> 2020 05 19 02 25 30.0000000  0 15        .000000000000
G05  20557187.516 8 108028740.086 8        83.410          50.000    20557185.805 8  84178248.837 8        64.995          50.000
G07  21834277.664 7 114739898.654 7     -2071.387          44.000    21834275.625 7  89407717.682 7     -1614.068          43.000
G13  21971927.109 5 115463231.729 5      2382.941          34.000
G28  22506411.555 7 118271961.610 7      2868.238          47.000    22506408.523 7  92159992.689 7      2234.991          45.000
G30  20381670.648 8 107106398.433 8      -337.680          51.000    20381671.516 8  83459594.542 8      -263.127          51.000
R03  20439952.742 8 109416737.770 8     -2275.945          51.000    20439952.898 7  85101866.341 7     -1770.180          47.000
R04  19464078.148 5 104229217.111 5      1331.363          33.000    19464077.133 5  81067188.552 5      1035.502          31.000
R14  19445577.180 8 103655888.031 8      1599.496          49.000    19445580.266 8  80621313.074 8      1244.056          49.000
R15  22744509.570 6 121539766.832 6      4273.164          36.000    22744505.602 4  94530916.360 4      3323.575          25.000
C05  39815021.539 5 207327264.576 5        -1.000          35.000    39815019.281 6 160318579.148 6         -.510          40.000
C19  24244597.469 6 126248004.984 6     -2864.293          39.000
C22  21851655.062 8 113787292.736 8      -490.137          51.000
E05  23741027.969 8 124759936.916 8      -834.137          51.000    23741030.867 8  95595270.894 8      -639.135          51.000
E24  22448538.133 8 117967884.125 8      -180.078          49.000    22448550.375 8  90391003.239 8      -138.033          49.000
E25  25066147.578 8 131723549.389 8      2526.520          51.000    25066148.117 8 100931012.177 8      1935.923          51.000
> 2020 05 19 02 26  0.0000000  0 14        .000000000000
G05  20556767.742 8 108026534.790 8        66.957          50.000    20556766.398 8  84176530.421 8        52.174          50.000
G07  21846129.805 7 114802182.992 7     -2077.301          42.000    21846128.430 7  89456250.946 7     -1618.673          42.000
G28  22490065.875 8 118186066.713 8      2861.234          48.000    22490063.656 7  92093061.587 7      2229.533          45.000
G30  20383642.172 8 107116758.494 8      -349.578          51.000    20383643.125 8  83467667.315 8      -272.399          51.000
R03  20452753.680 8 109485260.730 8     -2288.805          51.000    20452753.758 7  85155161.937 7     -1780.181          47.000
R04  19456665.992 4 104189528.518 4      1317.961          29.000    19456666.148 5  81036319.589 5      1025.075          32.000
R14  19436644.062 8 103608272.301 8      1578.184          48.000    19436647.922 8  80584278.632 8      1227.476          48.000
R15  22720545.852 6 121411700.965 6      4268.191          36.000
C05  39815028.156 5 207327299.051 5         1.875          35.000    39815025.875 6 160318605.851 6         1.501          40.000
C19  24261121.195 7 126334043.035 7     -2868.305          43.000
C22  21854520.211 8 113802210.233 8      -501.043          51.000
E05  23745813.844 8 124785085.858 8      -838.973          51.000    23745816.758 8  95614540.859 8      -642.885          51.000
E24  22449609.828 8 117973516.255 8      -191.918          48.000    22449622.039 8  90395318.751 8      -147.126          48.000
E25  25051751.312 8 131647896.428 8      2520.449          51.000    25051751.883 8 100873044.318 8      1931.205          51.000
> 2020 05 19 02 26 30.0000000  0 14        .000000000000
G05  20556455.125 8 108024891.981 8        44.473          50.000    20556454.062 8  84175250.306 8        34.654          50.000
G07  21858027.352 7 114864706.355 7     -2089.094          43.000    21858026.250 7  89504970.464 7     -1627.865          43.000
G28  22473772.594 8 118100446.020 8      2848.527          48.000    22473770.828 7  92026344.156 7      2219.632          44.000
G30  20385693.867 8 107127540.138 8      -367.297          51.000    20385694.820 8  83476068.605 8      -286.205          51.000
R03  20465637.961 8 109554231.745 8     -2307.430          51.000    20465638.312 8  85208806.081 8     -1794.664          48.000
R04  19449340.766 5 104150305.264 5      1298.832          32.000    19449341.398 5  81005812.685 5      1010.209          33.000
R14  19427842.492 8 103561357.009 8      1551.156          49.000    19427846.711 7  80547789.000 7      1206.455          47.000
R15  22696620.797 5 121283843.605 5      4257.902          34.000
C05  39815030.438 5 207327310.912 5        -1.109          35.000    39815028.211 6 160318615.009 6         -.616          40.000
C19  24277681.344 8 126420265.253 8     -2877.988          48.000
C22  21857460.148 8 113817518.443 8      -517.672          51.000
E05  23750639.023 8 124810440.837 8      -849.559          51.000    23750641.828 8  95633968.682 8      -650.925          51.000
E24  22450760.164 7 117979563.213 7      -209.207          47.000    22450772.352 7  90399952.119 7      -160.337          45.000
E25  25037402.141 8 131572492.943 8      2508.328          51.000    25037403.461 8 100815267.639 8      1921.966          51.000
> 2020 05 19 02 27  0.0000000  0 14        .000000000000
G05  20556256.766 8 108023850.178 8        26.266          50.000    20556255.961 8  84174438.511 8        20.467          50.000
G07  21869977.367 7 114927504.316 7     -2096.316          43.000    21869976.031 7  89553903.940 7     -1633.493          44.000
G28  22457538.672 7 118015139.657 7      2839.816          47.000    22457538.016 7  91959871.673 7      2212.844          43.000
G30  20387832.742 8 107138779.705 8      -380.816          51.000    20387833.484 8  83484826.696 8      -296.740          51.000
R03  20478612.586 8 109623688.334 8     -2321.703          50.000    20478613.922 8  85262827.886 8     -1805.769          49.000
R04  19442110.078 5 104111588.003 5      1283.355          34.000    19442112.727 5  80975699.224 5       998.165          35.000
R14  19419180.258 8 103515181.238 8      1528.414          50.000    19419184.281 8  80511874.520 8      1188.766          48.000
R15  22672742.031 4 121156254.685 4      4250.824          29.000    22672729.320 4  94232590.976 4      3306.197          26.000
C05  39815035.492 5 207327337.096 5          .523          35.000    39815033.258 6 160318635.278 6          .254          40.000
C19  24294283.602 8 126506707.520 8     -2883.594          49.000
C22  21860482.102 8 113833254.594 8      -530.125          51.000
E05  23755510.375 8 124836039.398 8      -855.895          51.000    23755513.078 8  95653583.156 8      -655.815          51.000
E24  22451996.484 7 117986061.778 7      -222.723          46.000    22452008.305 6  90404931.558 6      -170.652          41.000
E25  25023107.656 8 131497377.656 8      2500.594          50.000    25023109.711 8 100757711.775 8      1915.962          50.000
> 2020 05 19 02 27 30.0000000  0 13        .000000000000
G05  20556177.211 8 108023432.667 8         7.344          50.000    20556176.555 8  84174113.176 8         5.719          50.000
G07  21881983.867 7 114990598.825 7     -2104.121          44.000    21881982.266 7  89603068.488 7     -1639.575          44.000
G28  22441369.523 7 117930173.626 7      2830.391          47.000    22441370.008 7  91893664.374 7      2205.499          42.000
G30  20390062.883 8 107150499.514 8      -394.934          51.000    20390063.859 8  83493959.033 8      -307.740          51.000
R03  20491682.273 8 109693653.302 8     -2336.695          51.000    20491684.281 8  85317245.106 8     -1817.427          48.000
R04  19434979.273 6 104073402.900 6      1267.961          36.000    19434982.734 6  80945999.666 6       986.189          36.000
R14  19410661.367 8 103469769.693 8      1504.809          50.000    19410665.438 8  80476554.448 8      1170.407          48.000
C05  39815047.656 5 207327401.299 5          .645          35.000    39815045.508 6 160318684.541 6          .743          40.000
C19  24310931.664 8 126593391.989 8     -2889.695          49.000
C22  21863590.586 8 113849442.277 8      -543.277          51.000
E05  23760432.516 8 124861905.198 8      -862.785          51.000    23760434.961 8  95673402.397 8      -661.038          51.000
E24  22453322.977 7 117993034.899 7      -236.496          45.000    22453333.469 5  90410274.582 5      -181.002          35.000
E25  25008872.789 8 131422575.395 8      2492.137          51.000    25008875.672 8 100700395.783 8      1909.553          51.000
> 2020 05 19 02 28  0.0000000  0 13        .000000000000
G05  20556195.602 8 108023528.443 8       -13.211          51.000    20556194.953 8  84174187.805 8       -10.294          51.000
G07  21894025.336 7 115053876.904 7     -2113.766          43.000    21894023.414 7  89652376.050 7     -1647.090          44.000
G28  22425245.109 8 117845439.197 8      2819.078          48.000    22425246.078 6  91827637.556 6      2196.684          41.000
G30  20392363.000 8 107162587.107 8      -410.562          51.000    20392364.188 8  83503377.939 8      -319.919          51.000
R03  20504825.844 8 109764012.501 8     -2353.406          51.000    20504827.961 7  85371968.923 7     -1830.430          47.000
R04  19427927.242 6 104035638.784 6      1250.090          36.000    19427930.727 5  80916627.572 5       972.289          35.000
R14  19402265.297 8 103425010.363 8      1479.617          51.000    19402268.938 8  80441741.648 8      1150.813          49.000
C05  39815045.867 5 207327390.440 5         -.074          35.000    39815043.633 6 160318677.302 6          .051          40.000
C19  24327604.203 8 126680206.992 8     -2897.477          48.000
C22  21866764.492 8 113865971.293 8      -558.125          51.000
E05  23765384.227 8 124887927.053 8      -871.453          51.000    23765386.617 8  95693341.220 8      -667.749          51.000
E24  22454718.594 7 118000370.541 7      -252.090          44.000
E25  24994676.867 8 131347976.102 8      2481.645          51.000    24994680.055 8 100643235.315 8      1901.529          51.000
> 2020 05 19 02 28 30.0000000  0 14        .000000000000
G05  20556324.445 8 108024204.593 8       -32.098          51.000    20556323.742 8  84174714.671 8       -25.011          51.000
G07  21906113.938 6 115117403.244 6     -2121.621          41.000    21906112.219 6  89701877.080 6     -1653.211          41.000
G28  22409178.359 8 117761005.959 8      2809.523          48.000    22409178.570 6  91761845.497 6      2189.242          39.000
G30  20394745.633 8 107175108.170 8      -424.516          51.000    20394746.648 8  83513134.600 8      -330.791          51.000
R03  20518055.930 8 109834833.233 8     -2368.191          51.000    20518057.836 7  85427051.693 7     -1841.927          46.000
R04  19420968.523 6 103998365.816 6      1234.082          40.000    19420969.242 5  80887637.466 5       959.842          35.000
R14  19394004.359 8 103380971.885 8      1456.078          51.000    19394007.344 8  80407489.505 8      1132.505          49.000
R15  22601353.828 5 120774749.947 5      4227.043          33.000
C05  39815042.672 5 207327375.049 5         1.270          35.000    39815040.461 6 160318664.695 6          .574          40.000
C19  24344313.055 7 126767217.619 7     -2903.480          46.000
C22  21870016.828 8 113882908.018 8      -571.281          51.000
E05  23770378.492 8 124914171.899 8      -878.352          51.000    23770380.859 8  95713450.901 8      -673.011          51.000
E24  22456196.094 7 118008134.928 7      -265.867          44.000    22456210.852 6  90421847.073 6      -203.558          36.000
E25  24980532.719 8 131273647.826 8      2473.348          51.000    24980535.906 8 100586282.519 8      1895.168          51.000
> 2020 05 19 02 29  0.0000000  0 14        .000000000000
G05  20556566.023 8 108025472.963 8       -52.891          51.000    20556564.930 8  84175703.019 8       -41.210          51.000
G07  21918251.562 6 115181187.638 6     -2131.230          41.000    21918250.438 6  89751579.222 6     -1660.699          41.000
G28  22393171.633 7 117676888.342 7      2797.902          47.000    22393170.672 6  91696299.414 6      2180.190          39.000
G30  20397212.727 8 107188073.143 8      -440.273          51.000    20397213.773 8  83523237.176 8      -343.073          51.000
R03  20531374.312 8 109906126.329 8     -2385.059          51.000    20531375.891 7  85482501.862 7     -1855.046          47.000
R04  19414103.344 6 103961598.147 6      1216.645          41.000    19414102.789 6  80859040.446 6       946.282          36.000
R14  19385880.680 8 103337666.860 8      1430.500          51.000    19385883.031 8  80373807.800 8      1112.611          50.000
R15  22577649.883 5 120648072.871 5      4217.516          34.000
C05  39815040.328 5 207327362.174 5         -.090          35.000    39815038.258 6 160318655.476 6         -.335          40.000
C19  24361060.945 7 126854434.098 7     -2911.367          46.000
C22  21873349.469 8 113900264.230 8      -586.250          51.000
E05  23775417.344 8 124940651.540 8      -887.328          51.000    23775419.633 8  95733740.502 8      -679.889          51.000
E24  22457757.102 7 118016338.962 7      -281.469          44.000    22457771.234 6  90428133.271 6      -215.656          41.000
E25  24966442.742 8 131199603.555 8      2462.680          51.000    24966446.000 8 100529547.317 8      1886.988          51.000
> 2020 05 19 02 29 30.0000000  0 14        .000000000000
G05  20556924.781 8 108027357.863 8       -72.555          51.000    20556923.461 8  84177171.768 8       -56.539          51.000
G07  21930442.586 7 115245252.976 7     -2139.605          42.000    21930441.609 7  89801500.264 7     -1667.225          42.000
G28  22377229.250 7 117593112.970 7      2787.074          42.000    22377228.312 6  91631019.977 6      2171.746          41.000
G30  20399768.789 8 107201505.235 8      -454.980          51.000    20399769.750 8  83533703.747 8      -354.530          51.000
R03  20544785.328 8 109977915.736 8     -2400.680          51.000    20544786.945 7  85538338.061 7     -1867.195          47.000
R04  19407336.102 6 103925363.012 6      1199.445          40.000    19407336.953 6  80830857.550 6       932.902          38.000
R14  19377899.250 8 103295120.994 8      1406.113          51.000    19377901.734 8  80340716.581 8      1093.644          50.000
R15  22553995.383 5 120521675.209 5      4209.113          35.000    22554009.164 4  93739160.991 4      3273.755          27.000
C05  39815043.453 5 207327378.792 5         -.336          35.000    39815041.531 6 160318668.303 6         -.136          40.000
C19  24377853.375 7 126941879.366 7     -2918.016          46.000
C22  21876767.297 8 113918064.214 8      -600.242          51.000
E05  23780505.297 8 124967390.523 8      -895.027          51.000    23780507.664 8  95754228.821 8      -685.800          51.000
E24  22459406.625 7 118025006.384 7      -296.082          45.000    22459420.789 7  90434774.509 7      -226.775          45.000
E25  24952411.805 8 131125868.946 8      2453.227          51.000    24952414.852 8 100473049.364 8      1879.808          51.000
> 2020 05 19 02 30  0.0000000  0 13        .000000000000
G05  20557391.570 8 108029810.676 8       -90.887          51.000    20557390.070 8  84179083.034 8       -70.821          51.000
G07  21942677.680 7 115309548.435 7     -2146.805          44.000    21942675.711 7  89851600.576 7     -1672.835          44.000
G30  20402404.195 8 107215354.185 8      -468.199          51.000    20402404.969 8  83544495.137 8      -364.828          51.000
R03  20558279.586 8 110050150.496 8     -2414.844          51.000    20558280.945 8  85594520.685 8     -1878.209          49.000
R04  19400659.141 6 103889612.496 6      1184.223          40.000    19400661.469 6  80803051.581 6       921.059          38.000
R14  19370051.023 8 103253285.129 8      1383.141          51.000    19370053.352 8  80308177.559 8      1075.776          50.000
R15  22530384.602 5 120395509.906 5      4202.117          34.000    22530396.148 4  93641038.987 4      3268.310          28.000
C05  39815042.648 5 207327374.109 5          .566          35.000    39815040.820 6 160318665.475 6          .734          40.000
C19  24394680.648 8 127029503.606 8     -2923.469          48.000
C22  21880261.391 8 113936259.437 8      -612.773          51.000
E05  23785633.367 8 124994339.861 8      -901.449          51.000    23785635.852 8  95774878.312 8      -690.721          51.000
E24  22461134.953 7 118034087.390 7      -309.258          45.000    22461149.977 7  90441732.673 7      -236.988          47.000
E25  24938430.508 8 131052396.166 8      2445.020          51.000    24938433.719 8 100416752.042 8      1873.510          51.000
> 2020 05 19 02 30 30.0000000  0 14        .000000000000
G05  20557970.180 8 108032850.696 8      -109.461          51.000    20557968.336 8  84181451.886 8       -85.294          51.000
G07  21954959.914 7 115374091.061 7     -2154.062          44.000    21954957.109 7  89901893.523 7     -1678.490          43.000
G28  22345516.781 6 117426477.052 6      2768.414          38.000    22345517.625 6  91501169.732 6      2157.203          39.000
G30  20405122.156 8 107229637.816 8      -481.652          51.000    20405123.039 8  83555625.246 8      -375.314          51.000
R03  20571860.438 8 110122849.115 8     -2429.340          50.000    20571861.984 8  85651064.064 8     -1889.487          49.000
R04  19394076.500 6 103854368.423 6      1167.781          39.000    19394079.711 6  80775639.495 6       908.271          37.000
R14  19362339.633 8 103212179.349 8      1359.645          51.000    19362341.867 8  80276206.394 8      1057.501          50.000
R15  22506821.984 5 120269599.311 5      4194.250          34.000    22506832.047 4  93543108.557 4      3262.197          29.000
C05                                                                  39815039.820 6 160318661.388 6         1.519          40.000
C19  24411546.477 8 127117324.427 8     -2929.086          49.000
C22  21883835.188 8 113954868.939 8      -625.562          51.000
E05  23790805.594 8 125021518.777 8      -908.105          51.000    23790807.664 8  95795703.717 8      -695.827          51.000
E24  22462945.586 7 118043600.292 7      -322.574          46.000    22462961.141 8  90449021.802 8      -247.188          49.000
E25  24924502.164 8 130979205.615 8      2436.492          48.000    24924505.922 8 100360670.934 8      1866.964          51.000
> 2020 05 19 02 31  0.0000000  0 14        .000000000000
G05  20558662.266 8 108036487.368 8      -130.598          51.000    20558660.398 8  84184285.663 8      -101.764          51.000
G07  21967290.688 7 115438888.478 7     -2163.723          43.000    21967287.297 7  89952384.979 7     -1686.018          42.000
G28  22329755.680 7 117343644.766 7      2756.094          46.000    22329756.062 7  91436625.128 7      2147.606          46.000
G30  20407924.469 8 107244364.350 8      -497.621          51.000    20407925.367 8  83567100.477 8      -387.757          51.000
R03  20585529.633 8 110196020.267 8     -2446.305          51.000    20585530.906 8  85707974.982 8     -1902.678          48.000
R04  19387591.938 7 103819642.246 7      1149.488          42.000    19387593.797 6  80748630.267 6       894.046          37.000
R14  19354767.391 8 103171813.868 8      1333.805          51.000    19354769.195 8  80244811.031 8      1037.404          48.000
R15  22483309.609 5 120143956.011 5      4183.586          34.000    22483319.328 4  93445385.994 4      3253.900          27.000
C05  39815042.109 5 207327371.078 5          .273          35.000    39815040.266 6 160318663.159 6          .154          40.000
C19  24428451.742 8 127205349.824 8     -2936.973          49.000
C22  21887490.133 8 113973902.162 8      -640.918          51.000
E05  23796023.516 8 125048936.775 8      -917.438          51.000    23796025.031 8  95816712.313 8      -702.957          51.000
E24  22464839.930 8 118053553.817 8      -338.629          48.000    22464854.953 8  90456648.532 8      -259.451          48.000
E25  24910629.242 8 130906307.801 8      2425.543          48.000    24910633.805 8 100304814.130 8      1858.569          51.000
> 2020 05 19 02 31 30.0000000  0 14        .000000000000
G05  20559463.906 8 108040700.683 8      -150.246          51.000    20559462.281 8  84187568.749 8      -117.075          51.000
G07  21979665.820 6 115503919.268 6     -2171.445          41.000    21979662.219 6  90003058.301 6     -1692.035          41.000
G28  22314053.586 8 117261124.518 8      2745.355          50.000    22314053.758 7  91372323.638 7      2139.238          47.000
G30  20410807.062 8 107259512.710 8      -512.109          51.000    20410807.836 8  83578904.389 8      -399.046          51.000
R03  20599283.078 8 110269642.399 8     -2461.742          51.000    20599284.406 8  85765236.644 8     -1914.688          48.000
R04  19381200.828 7 103785416.046 7      1132.344          43.000    19381201.555 6  80722009.907 6       880.715          38.000
R14  19347330.602 8 103132169.245 8      1309.340          51.000    19347331.758 8  80213976.344 8      1018.378          48.000
R15  22459845.609 5 120018562.431 5      4175.695          34.000
C05  39815040.305 5 207327362.054 5          .539          35.000    39815038.305 6 160318655.415 6          .432          40.000
C19  24445391.039 7 127293558.920 7     -2943.547          45.000
C22  21891222.945 8 113993339.528 8      -654.770          51.000
E05  23801283.188 8 125076574.141 8      -925.176          51.000    23801284.320 8  95837888.982 8      -708.844          51.000
E24  22466814.258 8 118063927.370 8      -352.918          49.000    22466828.016 8  90464597.085 8      -270.463          49.000
E25  24896809.453 8 130833684.166 8      2415.914          49.000    24896813.680 8 100249167.423 8      1851.242          51.000
> 2020 05 19 02 32  0.0000000  0 14        .000000000000
G05  20560378.836 8 108045509.571 8      -169.945          51.000    20560377.539 8  84191315.913 8      -132.425          51.000
G07  21992088.344 6 115569200.007 6     -2179.883          41.000    21992085.125 6  90053926.432 6     -1698.610          41.000
G28  22298415.023 8 117178937.906 8      2734.141          51.000    22298414.617 8  91308282.100 8      2130.499          48.000
G30  20413773.250 8 107275100.113 8      -526.633          51.000    20413773.977 8  83591050.417 8      -410.363          51.000
R03  20613124.203 8 110343733.828 8     -2477.250          51.000    20613125.180 7  85822863.311 7     -1926.750          47.000
R04  19374905.867 7 103751711.031 7      1114.875          43.000    19374907.617 6  80695794.881 6       867.125          39.000
R14  19340032.703 8 103093264.955 8      1284.723          51.000    19340033.164 7  80183717.511 7       999.232          47.000
R15  22436433.016 5 119893440.561 5      4166.203          33.000
C05  39815039.570 5 207327358.494 5          .234          35.000    39815037.484 6 160318652.273 6          .245          40.000
C19  24462366.195 6 127381968.673 6     -2950.188          41.000
C22  21895037.023 8 114013199.411 8      -668.773          51.000
E05  23806587.867 8 125104449.482 8      -932.891          51.000    23806589.109 8  95859247.984 8      -714.812          51.000
E24  22468871.977 8 118074738.682 8      -367.340          48.000    22468885.031 8  90472881.061 8      -281.486          50.000
E25  24883046.070 8 130761354.348 8      2406.363          51.000    24883049.656 8 100193745.887 8      1843.897          51.000
> 2020 05 19 02 32 30.0000000  0 15        .000000000000
G05  20561395.484 8 108050851.987 8      -189.414          51.000    20561394.109 8  84195478.836 8      -147.595          51.000
G07  22004546.219 7 115634667.059 7     -2188.141          43.000    22004543.055 6  90104939.706 6     -1705.045          38.000
G13  21784921.867 5 114480545.898 5      2295.500          32.000
G28  22282828.289 8 117097025.266 8      2723.336          51.000    22282827.492 8  91244454.045 8      2122.080          48.000
G30  20416811.047 8 107291063.445 8      -540.836          51.000    20416811.766 8  83603489.385 8      -421.431          51.000
R03  20627040.914 8 110418230.420 8     -2492.480          51.000    20627041.820 7  85880805.077 7     -1938.599          47.000
R04  19368697.234 7 103718466.029 7      1097.898          43.000    19368699.195 6  80669937.650 6       853.921          39.000
R14  19332861.828 8 103055038.485 8      1260.426          51.000    19332861.156 7  80153985.814 7       980.331          46.000
R15  22413059.320 5 119768530.125 5      4157.543          31.000    22413053.273 4  93153324.445 4      3233.638          27.000
C05  39815028.125 5 207327298.331 5          .270          35.000    39815025.945 6 160318606.150 6          .344          40.000
C19  24479368.961 6 127470516.548 6     -2956.285          40.000
C22  21898920.570 8 114033420.579 8      -682.492          51.000
E05  23811926.039 8 125132500.974 8      -940.434          51.000    23811927.250 8  95880741.959 8      -720.598          51.000
E24  22471000.969 8 118085925.072 8      -381.668          48.000    22471013.562 8  90481452.453 8      -292.417          50.000
E25  24869327.258 8 130689257.747 8      2396.887          51.000    24869330.125 8 100138503.065 8      1836.576          51.000
> 2020 05 19 02 33  0.0000000  0 14        .000000000000
G05  20562546.469 8 108056900.017 8      -209.707          51.000    20562544.898 8  84200191.593 8      -163.408          51.000
G07  22017071.977 6 115700490.792 6     -2196.277          40.000    22017068.172 6  90156230.880 6     -1711.385          39.000
G28  22267326.477 8 117015560.980 8      2711.586          50.000    22267325.406 7  91180975.363 7      2112.924          47.000
G30  20419952.852 8 107307573.558 8      -555.906          51.000    20419953.500 8  83616354.408 8      -433.174          51.000
R03  20641065.484 8 110493306.172 8     -2508.543          50.000    20641066.562 7  85939197.312 7     -1951.089          46.000
R04  19362607.484 7 103685858.722 7      1079.984          42.000    19362610.008 6  80644576.381 6       839.985          40.000
R14  19325850.758 8 103017665.194 8      1235.285          51.000    19325850.336 8  80124917.719 8       960.777          49.000
R15  22389756.375 5 119644009.032 5      4147.621          30.000    22389751.562 4  93056474.750 4      3225.934          29.000
C05  39815038.719 6 207327353.475 6         -.090          36.000    39815036.523 6 160318648.785 6         -.024          40.000
C19  24496432.680 7 127559371.901 7     -2963.137          44.000
C22  21902906.328 8 114054173.651 8      -697.078          51.000
E05  23817330.547 8 125160900.851 8      -948.836          51.000    23817331.531 8  95902502.888 8      -727.015          51.000
E24  22473233.469 8 118097657.857 8      -396.590          48.000    22473246.039 8  90490442.515 8      -303.940          51.000
E25  24855685.703 8 130617567.661 8      2386.441          51.000    24855688.000 8 100083571.724 8      1828.545          51.000
> 2020 05 19 02 33 30.0000000  0 13        .000000000000
G05  20563799.047 8 108063482.375 8      -232.082          51.000    20563797.633 8  84205320.683 8      -180.843          51.000
G07  22029632.430 6 115766498.112 6     -2206.727          38.000    22029628.852 6  90207665.124 6     -1719.527          38.000
G28  22251877.086 8 116934376.263 8      2697.602          48.000    22251875.914 7  91117714.560 7      2102.027          44.000
G30  20423165.719 8 107324457.644 8      -572.785          51.000    20423166.383 8  83629510.842 8      -446.326          51.000
R03  20655164.891 8 110568785.285 8     -2526.559          49.000    20655166.539 7  85997903.280 7     -1965.101          46.000
R04  19356605.656 7 103653716.418 7      1059.875          45.000    19356607.578 6  80619576.813 6       824.347          40.000
R14  19318966.953 8 102980971.540 8      1207.969          51.000    19318967.312 8  80096378.256 8       939.534          49.000
C05  39815038.781 5 207327354.200 5        -2.578          35.000    39815036.383 6 160318648.626 6        -2.296          40.000
C19  24513524.312 7 127648363.314 7     -2972.402          47.000
C22  21906961.555 8 114075288.668 8      -713.629          51.000
E05  23822768.555 8 125189477.667 8      -959.277          51.000    23822769.625 8  95924399.388 8      -735.025          51.000
E24  22475537.266 7 118109764.712 7      -413.590          47.000    22475549.953 8  90499719.202 8      -316.859          50.000
E25  24842088.938 8 130546113.748 8      2374.145          51.000    24842091.148 8 100028821.362 8      1819.150          51.000
> 2020 05 19 02 34  0.0000000  0 13        .000000000000
G05  20565161.867 8 108070644.550 8      -247.531          51.000    20565160.469 8  84210901.588 8      -192.878          51.000
G07  22042236.242 6 115832732.305 6     -2210.820          39.000    22042233.609 6  90259276.231 6     -1722.714          39.000
G28  22236489.648 7 116853519.411 7      2690.672          47.000    22236488.141 6  91054709.257 6      2096.630          41.000
G30  20426458.172 8 107341760.135 8      -582.812          51.000    20426458.953 8  83642993.325 8      -454.140          51.000
R03  20669348.258 8 110644713.465 8     -2537.609          49.000    20669350.250 7  86056958.544 7     -1973.696          46.000
R04  19350699.602 7 103622087.813 7      1046.656          44.000    19350700.867 6  80594976.786 6       814.066          40.000
R14  19312219.109 8 102945004.221 8      1187.672          51.000    19312219.711 8  80068403.624 8       923.745          49.000
C05  39815036.773 6 207327343.791 6         1.133          36.000    39815034.328 6 160318640.520 6         1.039          40.000
C19  24530650.805 8 127737534.764 8     -2974.480          49.000
C22  21911095.023 8 114096810.962 8      -723.301          51.000
E05  23828248.906 8 125218277.235 8      -962.859          51.000    23828250.039 8  95946466.565 8      -737.707          51.000
E24  22477921.039 7 118122290.538 7      -423.613          47.000    22477933.305 8  90509316.911 8      -324.533          50.000
E25  24828545.891 8 130474942.963 8      2368.492          51.000    24828548.203 8  99974287.909 8      1814.858          51.000
> 2020 05 19 02 34 30.0000000  0 13        .000000000000
G05  20566632.547 8 108078373.506 8      -267.832          51.000    20566631.219 8  84216924.145 8      -208.700          51.000
G07  22054880.633 6 115899178.916 6     -2218.918          39.000    22054878.750 6  90311052.806 6     -1729.027          39.000
G28  22221162.719 7 116772979.663 7      2678.559          45.000    22221160.289 6  90991951.089 6      2087.192          40.000
G30  20429827.531 8 107359466.651 8      -597.723          51.000    20429828.266 8  83656790.605 8      -465.758          51.000
R03  20683613.469 8 110721076.253 8     -2553.402          50.000    20683615.328 7  86116351.832 7     -1985.983          46.000
R04  19344887.438 7 103590961.723 7      1028.297          45.000    19344888.305 6  80570767.604 6       799.786          41.000
R14  19305604.820 8 102909750.641 8      1162.469          51.000    19305607.070 8  80040984.187 8       904.142          51.000
C05  39815030.312 5 207327310.404 5         1.184          35.000    39815027.797 6 160318614.368 6          .405          40.000
C19  24547808.539 8 127826872.017 8     -2981.359          48.000
C22  21915304.195 8 114118727.531 8      -737.895          51.000
E05  23833769.039 8 125247286.524 8      -971.148          51.000    23833770.367 8  95968694.458 8      -744.163          51.000
E24  22480381.781 7 118135221.387 7      -438.523          44.000    22480393.766 8  90519224.974 8      -335.991          50.000
E25  24815054.227 8 130404043.340 8      2358.137          51.000    24815056.898 8  99919962.229 8      1806.842          51.000
> 2020 05 19 02 35  0.0000000  0 14        .000000000000
G05  20568215.758 8 108086693.759 8      -284.188          51.000    20568214.617 8  84223407.450 8      -221.445          51.000
G07  22067570.047 6 115965861.374 6     -2223.695          41.000    22067567.977 6  90363013.168 6     -1732.744          40.000
G28  22205901.523 7 116692784.550 7      2670.531          44.000    22205897.781 6  90929461.429 6      2080.936          39.000
G30  20433278.148 8 107377600.624 8      -608.574          51.000    20433278.992 8  83670920.981 8      -474.214          51.000
R03  20697964.898 8 110797897.540 8     -2565.320          51.000    20697966.461 7  86176101.715 7     -1995.249          47.000
R04  19339173.805 7 103560365.288 7      1014.137          46.000    19339174.305 6  80546970.372 6       788.773          41.000
R14  19299129.219 8 102875236.114 8      1141.270          51.000    19299132.453 8  80014139.543 8       887.651          50.000
R15  22297007.297 4 119148412.766 4      4114.660          29.000    22297006.406 5  92671002.114 5      3200.288          32.000
C05                                                                  39815021.492 6 160318588.976 6         3.042          40.000
C19  24565001.328 8 127916398.311 8     -2984.324          48.000
C22  21919593.453 8 114141062.993 8      -748.504          51.000
E05  23839333.750 8 125276530.414 8      -975.730          51.000    23839335.469 8  95991102.099 8      -747.596          51.000
E24  22482924.070 7 118148581.232 7      -449.379          44.000    22482936.117 8  90529461.738 8      -344.416          49.000
E25  24801618.906 8 130333440.835 8      2351.504          51.000    24801621.992 8  99865864.194 8      1801.748          51.000
> 2020 05 19 02 35 30.0000000  0 14        .000000000000
G05  20569905.680 8 108095575.108 8      -306.820          51.000    20569904.617 8  84230327.975 8      -239.084          51.000
G07  22080298.234 6 116032746.912 6     -2234.328          39.000    22080295.883 6  90415131.762 6     -1741.032          38.000
G28  22190699.578 7 116612906.427 7      2655.906          42.000    22190696.688 6  90867218.714 6      2069.537          41.000
G30  20436804.273 8 107396130.587 8      -625.621          51.000    20436805.305 8  83685359.925 8      -487.497          51.000
R03  20712395.773 8 110875145.761 8     -2583.465          51.000    20712397.203 7  86236183.671 7     -2009.362          47.000
R04  19333554.078 7 103530270.070 7       993.359          47.000    19333554.445 7  80523562.992 7       772.613          42.000
R14  19292786.594 8 102841430.393 8      1113.602          50.000    19292790.812 8  79987846.213 8       866.138          51.000
R15  22273947.414 5 119025174.993 5      4102.320          33.000    22273943.008 5  92575150.557 5      3190.697          33.000
C05                                                                  39815009.625 6 160318541.084 6          .991          40.000
C19  24582223.430 8 128006082.397 8     -2993.527          48.000
C22  21923956.992 8 114163787.369 8      -765.355          51.000
E05  23844937.422 8 125305978.758 8      -986.438          51.000    23844939.656 8  96013666.410 8      -755.824          51.000
E24  22485541.984 6 118162338.994 6      -466.625          40.000    22485553.914 8  90540003.379 8      -357.538          48.000
E25  24788234.344 8 130263106.389 8      2338.531          51.000    24788237.742 8  99811971.562 8      1791.847          51.000
> 2020 05 19 02 36  0.0000000  0 14        .000000000000
G05  20571713.484 8 108105075.801 8      -326.172          51.000    20571712.305 8  84237731.101 8      -254.160          51.000
G07  22093076.094 5 116099892.483 5     -2241.234          34.000    22093073.500 5  90467453.091 5     -1746.407          34.000
G28  22175570.422 7 116533405.649 7      2644.543          45.000    22175568.594 7  90805269.990 7      2060.683          43.000
G30  20440416.719 8 107415113.541 8      -639.344          51.000    20440417.648 8  83700151.843 8      -498.187          51.000
R03  20726916.977 8 110952878.959 8     -2598.230          51.000    20726918.383 7  86296642.823 7     -2020.846          47.000
R04  19328039.062 7 103500737.539 7       975.832          46.000    19328039.820 7  80500593.232 7       758.980          43.000
R14  19286588.672 8 102808393.150 8      1089.367          51.000    19286593.508 8  79962150.614 8       847.289          50.000
R15  22250947.336 5 118902256.135 5      4092.500          30.000    22250940.648 5  92479547.143 5      3183.062          34.000
C05  39815005.680 5 207327181.791 5         1.566          35.000    39815003.273 6 160318515.265 6         1.160          40.000
C19  24599486.867 8 128095980.654 8     -2999.281          48.000
C22  21928406.453 8 114186958.494 8      -778.934          51.000
E05  23850591.078 8 125335690.002 8      -994.000          51.000    23850593.648 8  96036432.175 8      -761.577          51.000
E24  22488246.586 6 118176552.154 6      -480.629          37.000    22488258.484 8  90550893.950 8      -368.157          48.000
E25  24774912.023 8 130193099.453 8      2329.055          51.000    24774915.250 8  99758329.892 8      1784.523          51.000
> 2020 05 19 02 36 30.0000000  0 14        .000000000000
G05  20573641.273 8 108115205.762 8      -346.301          51.000    20573639.883 8  84245624.575 8      -269.845          51.000
G07  22105904.820 6 116167306.331 6     -2249.660          38.000    22105901.516 6  90519983.370 6     -1752.985          38.000
G28  22160516.836 7 116454295.113 7      2632.246          47.000    22160515.414 7  90743625.385 7      2051.101          43.000
G30  20444116.945 8 107434558.175 8      -654.137          51.000    20444117.812 8  83715303.527 8      -509.714          51.000
R03  20741530.703 8 111031106.192 8     -2613.922          51.000    20741531.633 7  86357486.243 7     -2033.050          47.000
R04  19322631.414 7 103471779.726 7       957.480          47.000    19322632.281 7  80478070.462 7       744.707          43.000
R14  19280537.016 8 102776134.573 8      1064.105          50.000    19280541.844 8  79937060.626 8       827.641          50.000
C05  39815006.586 5 207327186.688 5         1.223          35.000    39815004.289 6 160318519.075 6          .695          40.000
C19  24616793.945 8 128186101.766 8     -3005.949          49.000
C22  21932943.883 8 114210586.201 8      -793.402          51.000
E05  23856296.555 8 125365674.231 8     -1002.191          51.000    23856299.195 8  96059407.107 8      -767.934          51.000
E09  25631050.906 5 134692080.698 5     -2451.777          34.000
E24  22491039.938 6 118191229.888 6      -495.188          39.000    22491051.406 7  90562140.467 7      -379.447          47.000
E25  24761654.352 8 130123431.272 8      2318.367          51.000    24761656.875 8  99704947.789 8      1776.432          51.000
> 2020 05 19 02 37  0.0000000  0 13        .000000000000
G05  20575675.539 8 108125894.525 8      -366.641          51.000    20575674.094 8  84253953.469 8      -285.694          51.000
G07  22118770.992 6 116234917.038 6     -2258.293          38.000    22118766.430 6  90572667.029 6     -1759.706          39.000
G28  22145524.953 8 116375507.134 8      2619.898          48.000    22145523.570 7  90682232.152 7      2041.479          44.000
G30  20447891.555 8 107454393.489 8      -668.664          51.000    20447892.453 8  83730759.621 8      -521.037          51.000
R03  20756223.094 8 111109755.335 8     -2629.719          51.000    20756223.938 8  86418657.787 8     -2045.337          48.000
R04  19317318.625 8 103443327.916 8       938.902          48.000    19317318.727 7  80455941.292 7       730.257          43.000
R14  19274618.570 8 102744584.425 8      1038.801          51.000    19274623.164 8  79912521.646 8       807.959          50.000
C05  39815001.547 5 207327160.669 5          .398          35.000    39814999.188 6 160318498.934 6          .411          40.000
C19  24634130.602 8 128276375.277 8     -3012.730          49.000
C22  21937555.570 8 114234601.408 8      -807.992          51.000
E05  23862040.945 8 125395861.777 8     -1010.641          51.000    23862043.469 8  96082537.834 8      -774.360          51.000
E24  22493907.766 6 118206301.528 6      -509.906          40.000    22493918.680 7  90573688.795 7      -390.761          46.000
E25  24748448.188 8 130054033.225 8      2307.691          51.000    24748449.469 8  99651772.679 8      1768.315          50.000
> 2020 05 19 02 37 30.0000000  0 13        .000000000000
G05  20577811.883 8 108137119.817 8      -378.070          51.000    20577810.391 8  84262700.426 8      -294.600          51.000
G07  22131669.742 6 116302699.977 6     -2257.055          37.000    22131664.391 6  90625484.847 6     -1758.741          37.000
G28  22130590.461 7 116297021.693 7      2616.473          47.000    22130588.977 7  90621074.664 7      2038.810          45.000
G30  20451735.797 8 107474595.364 8      -674.445          51.000    20451736.727 8  83746501.336 8      -525.542          51.000
R03  20770989.844 8 111188801.903 8     -2636.305          51.000    20770990.523 8  86480138.430 8     -2050.459          48.000
R04  19312095.648 7 103415360.850 7       929.348          47.000    19312096.109 7  80434189.132 7       722.826          44.000
R14  19268828.633 8 102713719.517 8      1022.598          49.000    19268833.039 8  79888515.608 8       795.354          49.000
C05  39814986.211 5 207327079.964 5         8.379          35.000    39814983.844 6 160318437.319 6         6.633          40.000
C19  24651492.062 8 128366777.291 8     -3010.480          50.000
C22  21942237.383 8 114258981.516 8      -813.695          51.000
E05  23867819.758 8 125426229.983 8     -1010.148          51.000    23867822.266 8  96105806.999 8      -773.992          51.000
E24  22496845.641 6 118221743.349 6      -515.695          41.000    22496857.047 7  90585520.846 7      -395.170          45.000
E25  24735289.531 8 129984883.673 8      2305.988          51.000    24735289.211 8  99598787.999 8      1766.854          49.000
> 2020 05 19 02 38  0.0000000  0 14        .000000000000
G05  20580074.922 8 108149011.423 8      -405.812          51.000    20580073.398 8  84271966.599 8      -316.218          51.000
G07  22144625.391 5 116370783.234 5     -2273.383          34.000    22144620.977 5  90678536.791 5     -1771.461          33.000
G28  22115738.359 7 116218970.866 7      2596.074          47.000    22115736.820 7  90560255.849 7      2022.915          45.000
G30  20455674.102 8 107495292.147 8      -696.500          51.000    20455675.211 8  83762628.705 8      -542.727          51.000
R03  20785855.594 8 111268376.905 8     -2659.625          51.000    20785855.906 7  86542030.086 7     -2068.597          47.000
R04  19306988.570 8 103388012.704 8       902.934          49.000    19306989.398 7  80412918.342 7       702.279          45.000
R14  19263191.758 8 102683671.762 8       989.590          50.000    19263195.656 8  79865145.128 8       769.678          48.000
C05  39814985.195 6 207327074.968 6          .324          36.000    39814982.812 6 160318433.451 6          .471          40.000
C19  24668902.352 8 128457435.033 8     -3024.672          49.000
C22  21947014.047 8 114283854.966 8      -835.672          51.000
E05  23873657.703 8 125456908.667 8     -1026.203          51.000    23873660.141 8  96129314.046 8      -786.303          51.000
E09  25673127.977 5 134913197.631 5     -2462.523          31.000
E24  22499878.812 7 118237684.210 7      -537.949          43.000    22499890.836 7  90597735.303 7      -412.144          44.000
E25  24722203.211 8 129916113.500 8      2287.539          51.000    24722201.695 8  99546093.992 8      1752.799          49.000
> 2020 05 19 02 38 30.0000000  0 14        .000000000000
G05  20582445.781 8 108161469.776 8      -420.996          51.000    20582444.000 8  84281674.405 8      -328.049          51.000
G07  22157618.500 6 116439065.851 6     -2275.359          38.000    22157616.516 6  90731744.077 6     -1773.004          38.000
G28  22100950.305 8 116141258.324 8      2588.492          48.000    22100948.453 7  90499700.643 7      2017.010          44.000
G30  20459687.773 8 107516383.681 8      -705.828          51.000    20459689.055 8  83779063.663 8      -549.996          51.000
R03  20800800.703 8 111348378.406 8     -2669.996          50.000    20800800.289 7  86604253.476 7     -2076.664          46.000
R04  19301978.727 8 103361184.900 8       889.359          49.000    19301979.578 7  80392052.268 7       691.724          45.000
R14  19257689.562 8 102654341.096 8       969.504          50.000    19257692.867 8  79842332.398 8       754.062          48.000
R15  22136779.914 4 118292189.203 4      4046.047          29.000    22136765.695 4  92005012.264 4      3146.925          29.000
C05  39814979.789 6 207327046.613 6         4.816          36.000    39814977.367 6 160318411.527 6         3.963          40.000
C19  24686342.266 7 128548249.216 7     -3026.016          47.000
C22  21951866.773 8 114309123.764 8      -845.160          51.000
E05  23879535.969 8 125487799.038 8     -1029.516          51.000    23879538.375 8  96152983.296 8      -788.817          51.000
E24  22502988.094 7 118254024.373 7      -547.641          45.000    22503000.242 7  90610255.723 7      -419.603          43.000
E25  24709170.484 8 129847624.923 8      2282.039          51.000    24709168.680 8  99493615.738 8      1748.572          50.000
> 2020 05 19 02 39  0.0000000  0 13        .000000000000
G05  20584920.477 8 108174474.528 8      -452.938          51.000    20584918.758 8  84291807.967 8      -352.938          51.000
G07  22170645.633 6 116507526.475 6     -2295.141          40.000    22170645.641 5  90785089.986 5     -1788.421          35.000
G28  22086223.383 8 116063866.434 8      2563.988          51.000    22086220.766 7  90439395.288 7      1997.913          45.000
G30  20463772.375 8 107537848.545 8      -732.004          51.000    20463773.820 8  83795789.543 8      -570.393          51.000
R03  20815820.945 8 111428784.852 8     -2697.516          49.000    20815820.602 7  86666791.808 7     -2098.068          46.000
R04  19297062.445 8 103334859.114 8       858.676          50.000    19297063.477 7  80371576.638 7       667.859          45.000
R14  19252318.219 8 102625707.483 8       932.387          51.000    19252320.938 7  79820061.829 7       725.190          47.000
C05  39814966.086 5 207326975.814 5        -6.605          35.000    39814963.570 6 160318356.038 6        -5.506          40.000
C19  24703808.023 7 128639198.626 7     -3044.047          47.000
C22  21956791.508 8 114334767.991 8      -871.340          51.000
E05  23885450.773 8 125518881.144 8     -1049.508          51.000    23885453.133 8  96176799.445 8      -804.102          51.000
E24  22506169.461 7 118270742.888 7      -573.719          47.000    22506180.969 7  90623066.030 7      -439.683          42.000
E25  24696187.539 8 129779399.077 8      2259.539          51.000    24696186.414 8  99441338.803 8      1731.368          51.000
> 2020 05 19 02 39 30.0000000  0 13        .000000000000
G05  20587520.938 8 108188139.961 8      -462.879          50.000    20587519.086 8  84302456.366 8      -360.685          50.000
G07  22183728.414 6 116576277.727 6     -2293.336          38.000    22183728.164 6  90838662.310 6     -1787.018          38.000
G28  22071580.055 8 115986912.048 8      2561.535          51.000    22071576.672 7  90379430.840 7      1996.001          45.000
G30  20467949.531 8 107559799.901 8      -736.141          51.000    20467950.938 8  83812894.496 8      -573.616          51.000
R03  20830937.648 8 111509711.466 8     -2702.426          48.000    20830938.281 7  86729734.737 7     -2101.887          46.000
R04  19292262.281 8 103309153.805 8       850.266          50.000    19292263.008 7  80351583.632 7       661.318          45.000
R14  19247099.430 8 102597886.852 8       917.598          51.000    19247101.312 8  79798423.558 8       713.687          48.000
C05  39814965.695 5 207326973.927 5         2.324          35.000    39814963.266 6 160318354.538 6         2.054          40.000
C19  24721321.086 7 128730395.378 7     -3040.316          47.000
C22  21961810.203 8 114360900.962 8      -875.559          51.000
E05  23891423.984 8 125550269.491 8     -1047.633          51.000    23891425.922 8  96200850.270 8      -802.726          51.000
E24  22509444.594 7 118287953.317 7      -578.211          47.000    22509455.000 6  90636253.228 6      -442.901          41.000
E25  24683276.148 8 129711551.560 8      2259.012          51.000    24683276.781 8  99389351.776 8      1730.928          51.000
> 2020 05 19 02 40  0.0000000  0 14        .000000000000
G05  20590220.984 8 108202329.052 8      -481.707          50.000    20590219.148 8  84313512.802 8      -375.359          50.000
G09  24487393.664 6 128682137.785 6     -3061.145          36.000
G28  22056994.641 8 115910261.252 8      2549.840          51.000    22056991.008 7  90319702.961 7      1986.888          45.000
G30  20472193.078 8 107582100.060 8      -749.148          51.000    20472194.625 8  83830271.233 8      -583.752          51.000
R03  20846125.852 8 111591018.413 8     -2716.566          50.000    20846127.633 7  86792973.469 7     -2112.885          47.000
R04  19287552.359 8 103283932.222 8       832.559          50.000    19287552.992 7  80331966.846 7       647.546          46.000
R14  19242006.945 8 102570741.131 8       893.488          50.000    19242008.969 8  79777310.235 8       694.935          49.000
R15  22068929.188 5 117929672.024 5      4013.277          31.000    22068936.500 6  91723089.569 6      3121.444          36.000
C05                                                                  39814950.352 6 160318302.505 6         2.471          40.000
C19  24738855.477 7 128821702.945 7     -3045.445          46.000
C22  21966896.828 8 114387387.509 8      -888.871          51.000
E05  23897429.570 8 125581827.855 8     -1054.844          51.000    23897431.180 8  96225031.362 8      -808.236          51.000
E24  22512787.141 7 118305518.324 7      -591.492          47.000    22512798.211 6  90649712.177 6      -453.353          41.000
E25  24670410.844 8 129643947.112 8      2249.289          50.000    24670413.438 8  99337550.985 8      1723.532          51.000
> 2020 05 19 02 40 30.0000000  0 13        .000000000000
G05  20593032.719 8 108217104.587 8      -508.082          50.000    20593030.914 8  84325026.191 8      -395.908          50.000
G28  22042478.789 8 115833978.962 8      2530.730          48.000    22042475.711 7  90260262.218 7      1971.998          44.000
G30  20476514.461 8 107604809.932 8      -769.527          51.000    20476516.250 8  83847967.243 8      -599.632          51.000
R03  20861397.500 8 111672767.755 8     -2738.137          49.000    20861399.211 7  86856556.307 7     -2129.662          46.000
R04  19282944.930 8 103259259.643 8       807.340          51.000    19282945.883 7  80312777.060 7       627.931          46.000
R14  19237052.773 8 102544333.528 8       862.098          51.000    19237054.641 8  79756770.973 8       670.520          49.000
R15  22046434.234 5 117809456.591 5      3996.051          35.000    22046439.391 6  91629588.786 6      3108.043          39.000
C05                                                                  39814936.688 6 160318247.580 6        -2.450          40.000
C19  24756423.133 7 128913181.800 7     -3057.750          46.000
C22  21972063.070 8 114414289.305 8      -909.371          51.000
E05  23903479.195 8 125613618.649 8     -1069.395          51.000    23903480.945 8  96249390.520 8      -819.373          51.000
E24  22516208.859 8 118323499.331 8      -612.109          48.000    22516221.188 6  90663489.875 6      -469.076          39.000
E25  24657604.016 8 129576649.242 8      2232.281          51.000    24657607.836 8  99285985.102 8      1710.503          51.000
> 2020 05 19 02 41  0.0000000  0 15        .000000000000
G05  20595963.875 8 108232506.929 8      -520.293          50.000    20595961.883 8  84337028.026 8      -405.423          50.000
G07  22223193.656 5 116783666.036 5     -2312.375          31.000    22223191.484 5  91000248.250 5     -1801.851          31.000
G28  22028039.414 7 115758108.117 7      2525.906          43.000    22028038.828 7  90201142.055 7      1968.239          43.000
G30  20480921.375 8 107627968.917 8      -775.875          50.000    20480923.047 8  83866013.193 8      -604.578          50.000
R03  20876759.531 8 111754999.347 8     -2745.449          51.000    20876760.891 7  86920514.189 7     -2135.349          46.000
R04  19278447.852 8 103235179.730 8       796.391          50.000    19278449.117 7  80294048.241 7       619.415          46.000
R14  19232244.898 8 102518705.346 8       844.938          51.000    19232246.828 8  79736837.936 8       657.177          49.000
R15  22024007.547 6 117689597.918 6      3992.980          36.000    22024010.023 6  91536365.471 6      3105.651          40.000
C05  39814932.617 5 207326800.916 5         4.773          35.000    39814930.047 6 160318220.793 6         3.102          40.000
C19  24774031.789 8 129004870.923 8     -3056.250          48.000
C22  21977316.859 8 114441646.556 8      -915.914          51.000
E05  23909580.742 8 125645682.638 8     -1069.734          51.000    23909582.523 8  96273959.017 8      -819.679          51.000
E09  25757792.906 5 135358114.873 5     -2479.281          30.000
E24  22519717.398 8 118341936.087 8      -618.543          48.000    22519729.172 6  90677616.706 6      -473.772          37.000
E25  24644863.633 8 129509699.692 8      2229.516          51.000    24644868.094 8  99234686.112 8      1708.339          51.000
> 2020 05 19 02 41 30.0000000  0 15        .000000000000
G05  20598999.516 8 108248458.482 8      -542.293          51.000    20598997.508 8  84349457.817 8      -422.566          51.000
G07  22236426.414 5 116853208.895 5     -2322.398          31.000    22236426.102 5  91054437.502 5     -1809.661          32.000
G09  24539917.977 5 128958139.247 5     -3072.707          31.000
G28  22013663.930 7 115682574.069 7      2510.766          42.000    22013665.086 7  90142284.311 7      1956.444          42.000
G30  20485398.922 8 107651498.692 8      -792.023          50.000    20485400.477 8  83884348.085 8      -617.161          51.000
R03  20892196.914 8 111837633.863 8     -2762.602          49.000    20892197.789 7  86984785.479 7     -2148.687          47.000
R04  19274047.156 8 103211616.013 8       775.418          51.000    19274048.625 7  80275720.891 7       603.103          46.000
R14  19227568.836 8 102493778.495 8       817.797          51.000    19227571.109 8  79717450.391 8       636.064          50.000
R15  22001633.898 6 117570020.647 6      3979.480          38.000    22001633.609 6  91443360.995 6      3095.155          40.000
C05  39814918.195 5 207326726.366 5         1.523          35.000    39814915.750 6 160318163.153 6         1.226          40.000
C19  24791665.758 8 129096692.730 8     -3064.395          48.000
C22  21982643.312 8 114469382.884 8      -932.254          51.000
E05  23915719.672 8 125677942.964 8     -1079.992          51.000    23915720.938 8  96298677.955 8      -827.518          51.000
E24  22523297.727 7 118360750.684 7      -634.891          47.000    22523310.250 6  90692033.115 6      -486.627          37.000
E25  24632175.508 8 129443022.619 8      2216.516          51.000    24632179.648 8  99183595.909 8      1698.396          51.000
> 2020 05 19 02 42  0.0000000  0 14        .000000000000
G05  20602149.734 8 108265012.844 8      -561.438          51.000    20602147.820 8  84362357.322 8      -437.484          51.000
G07  22249702.648 5 116922977.719 5     -2329.234          34.000    22249702.625 5  91108802.824 5     -1814.988          32.000
G28  21999364.703 7 115607433.333 7      2498.383          46.000    21999365.602 7  90083733.126 7      1946.792          42.000
G30  20489957.062 8 107675451.929 8      -805.070          50.000    20489958.594 8  83903012.953 8      -627.328          51.000
R03  20907718.273 7 111920724.940 7     -2776.961          47.000    20907720.023 7  87049411.868 7     -2159.855          47.000
R04  19269753.742 8 103188625.551 8       757.180          51.000    19269755.094 7  80257839.413 7       588.918          47.000
R14  19223034.578 8 102469607.751 8       793.449          51.000    19223036.898 8  79698650.921 8       617.127          49.000
R15  21979322.367 6 117450782.461 6      3969.352          39.000    21979320.328 6  91350620.206 6      3087.273          40.000
C05  39814906.336 5 207326664.306 5         1.801          35.000    39814904.008 6 160318115.905 6         1.833          40.000
C19  24809334.766 7 129188699.435 7     -3069.648          47.000
C22  21988052.875 8 114497551.753 8      -945.863          51.000
E05  23921906.250 8 125710453.752 8     -1087.473          51.000    23921907.008 8  96323588.808 8      -833.246          51.000
E24  22526959.969 7 118379996.192 7      -648.344          47.000    22526975.555 5  90706779.724 5      -496.687          35.000
E25  24619550.141 8 129376673.165 8      2206.492          51.000    24619553.016 8  99132756.725 8      1690.776          50.000
> 2020 05 19 02 42 30.0000000  0 14        .000000000000
G05  20605413.102 8 108282162.932 8      -580.289          50.000    20605411.625 8  84375721.025 8      -452.173          50.000
G07  22263020.125 6 116992963.930 6     -2335.406          36.000    22263021.484 5  91163337.554 5     -1819.800          33.000
G28  21985140.258 8 115532681.321 8      2486.512          50.000    21985139.797 7  90025484.823 7      1937.542          43.000
G30  20494594.188 8 107699820.344 8      -817.996          51.000    20494595.492 8  83922001.339 8      -637.400          51.000
R03  20923323.422 8 112004264.319 8     -2790.844          48.000    20923326.094 8  87114386.990 8     -2170.653          48.000
R04  19265566.750 8 103166203.088 8       739.199          51.000    19265567.812 8  80240399.719 8       574.933          48.000
R14  19218640.727 8 102446185.792 8       769.480          51.000    19218643.281 8  79680433.852 8       598.485          50.000
R15  21957072.195 6 117331879.261 6      3958.906          38.000    21957069.039 6  91258139.898 6      3079.146          39.000
C05  39814895.844 5 207326609.676 5         3.195          35.000    39814893.547 6 160318073.691 6         2.329          40.000
C19  24827037.281 7 129280882.742 7     -3074.500          47.000
C22  21993544.328 8 114526146.115 8      -959.031          51.000
E05  23928139.250 8 125743208.144 8     -1094.676          51.000    23928140.156 8  96348686.316 8      -838.724          51.000
E24  22530702.828 8 118399664.735 8      -661.379          48.000
E25  24606986.203 8 129310645.466 8      2196.855          51.000    24606987.359 8  99082164.090 8      1683.293          50.000
> 2020 05 19 02 43  0.0000000  0 14        .000000000000
G05  20608787.875 8 108299898.205 8      -600.910          51.000    20608786.633 8  84389540.710 8      -468.242          51.000
G07  22276377.289 6 117063156.473 6     -2343.094          36.000    22276378.805 5  91218033.030 5     -1825.787          34.000
G28  21970988.680 8 115458311.197 8      2472.609          50.000    21970987.094 7  89967534.079 7      1926.709          44.000
G30  20499308.227 8 107724592.905 8      -832.238          51.000    20499309.375 8  83941304.648 8      -648.497          51.000
R03  20939010.758 8 112088240.965 8     -2806.516          49.000    20939013.852 8  87179702.185 8     -2182.845          48.000
R04  19261484.273 8 103144340.984 8       719.445          51.000    19261485.266 8  80223395.846 8       559.569          48.000
R14  19214385.453 8 102423503.021 8       743.875          51.000    19214388.312 8  79662791.712 8       578.569          50.000
R15  21934883.133 6 117213303.874 6      3947.164          39.000    21934878.531 6  91165914.605 6      3070.016          36.000
C05  39814884.719 5 207326551.890 5         2.445          35.000    39814882.508 6 160318029.033 6         1.589          40.000
C19  24844771.328 7 129373231.906 7     -3081.008          46.000
C22  21999115.562 8 114555156.321 8      -973.871          51.000
E05  23934416.719 8 125776196.622 8     -1103.555          51.000    23934417.938 8  96373963.180 8      -845.563          51.000
E24  22534524.031 8 118419745.704 8      -676.195          48.000
E25  24594481.719 8 129244931.073 8      2185.230          51.000    24594481.594 8  99031811.513 8      1674.376          51.000
> 2020 05 19 02 43 30.0000000  0 14        .000000000000
G05  20612273.742 8 108318216.525 8      -620.020          51.000    20612272.430 8  84403814.737 8      -483.132          51.000
G07  22289773.086 6 117133550.978 6     -2349.266          36.000    22289775.359 5  91272885.961 5     -1830.597          34.000
G28  21956909.406 8 115384322.550 8      2460.207          49.000    21956907.445 7  89909880.586 7      1917.044          44.000
G30  20504098.570 8 107749766.075 8      -845.488          51.000    20504099.977 8  83960920.115 8      -658.819          51.000
R03  20954779.836 8 112172651.084 8     -2820.578          51.000    20954782.609 7  87245354.488 7     -2193.783          47.000
R04  19257506.328 8 103123038.635 8       701.031          51.000    19257507.117 8  80206827.356 8       545.247          48.000
R14  19210268.102 8 102401556.696 8       719.605          50.000    19210271.414 8  79645722.372 8       559.693          50.000
R15  21912756.344 5 117095057.105 5      3936.559          35.000    21912748.812 5  91073944.975 5      3061.774          34.000
C05  39814872.555 5 207326489.138 5         2.359          35.000    39814870.352 6 160317980.093 6         1.870          40.000
C19  24862536.586 7 129465743.141 7     -3086.055          47.000
C22  22004766.117 8 114584580.023 8      -987.383          51.000
E05  23940738.258 8 125809417.008 8     -1110.902          51.000    23940739.672 8  96399417.744 8      -851.214          51.000
E24  22538423.117 7 118440235.864 7      -689.535          47.000
E25  24582036.375 8 129179528.721 8      2175.250          51.000    24582035.719 8  98981698.030 8      1666.735          51.000
> 2020 05 19 02 44  0.0000000  0 13        .000000000000
G05  20615871.344 8 108337121.982 8      -643.387          51.000    20615869.930 8  84418546.266 8      -501.340          51.000
G07  22303207.961 5 117204150.342 5     -2360.035          34.000    22303210.117 5  91327898.493 5     -1838.979          32.000
G28  21942903.805 8 115310722.458 8      2443.438          48.000    21942901.883 7  89852529.859 7      1903.977          44.000
G30  20508965.695 8 107775342.904 8      -862.664          51.000    20508967.336 8  83980850.127 8      -672.206          51.000
R03  20970630.727 8 112257497.922 8     -2839.070          51.000    20970632.547 7  87311346.475 7     -2208.166          45.000
R04  19253634.203 8 103102302.590 8       678.285          51.000    19253634.812 8  80190699.316 8       527.555          48.000
R14  19206289.461 8 102380351.484 8       691.020          50.000    19206293.148 8  79629229.439 8       537.460          49.000
C05  39814860.156 6 207326424.149 6         -.555          36.000    39814857.977 6 160317930.266 6        -1.009          40.000
C19  24880333.828 7 129558419.697 7     -3095.367          47.000
C22  22010496.914 8 114614421.476 8     -1005.074          51.000
E05  23947104.844 8 125842873.854 8     -1122.461          51.000    23947106.266 8  96425053.491 8      -860.082          51.000
E24  22542400.891 7 118461138.664 7      -707.074          45.000
E25  24569651.117 8 129114444.052 8      2160.824          51.000    24569650.742 8  98931827.967 8      1655.705          51.000
> 2020 05 19 02 44 30.0000000  0 14        .000000000000
G05  20619589.242 8 108356659.962 8      -659.598          51.000    20619587.664 8  84433770.647 8      -513.972          51.000
G07  22316690.953 5 117274998.712 5     -2363.750          32.000    22316691.625 4  91383105.049 4     -1841.889          28.000
G28  21928981.469 7 115237559.058 7      2433.641          47.000    21928979.781 7  89795519.433 7      1896.346          46.000
G30  20513918.148 8 107801367.747 8      -872.797          51.000    20513919.555 8  84001129.204 8      -680.101          51.000
R03  20986571.750 8 112342826.784 8     -2850.105          51.000    20986572.289 7  87377713.295 7     -2216.752          44.000
R04  19249876.836 8 103082181.455 8       662.664          51.000    19249877.188 8  80175049.548 8       515.405          48.000
R14  19202458.648 8 102359933.292 8       669.680          50.000    19202462.492 8  79613348.635 8       520.862          49.000
R15  21868676.477 5 116859577.916 5      3913.773          32.000    21868687.867 5  90890813.989 5      3044.046          35.000
C05  39814856.281 5 207326403.717 5         1.832          35.000    39814854.062 6 160317914.442 6         1.601          40.000
C19  24898171.852 8 129651305.494 8     -3097.402          48.000
C22  22016316.477 8 114644725.770 8     -1015.656          51.000
E05  23953524.984 8 125876613.001 8     -1127.180          51.000    23953526.906 8  96450905.547 8      -863.719          51.000
E24  22546465.312 7 118482498.833 7      -717.535          45.000
E25  24557335.086 8 129049723.815 8      2153.422          50.000    24557335.609 8  98882237.138 8      1649.983          51.000
> 2020 05 19 02 45  0.0000000  0 14        .000000000000
G05  20623404.844 8 108376711.130 8      -678.574          51.000    20623403.344 8  84449394.911 8      -528.759          51.000
G07  22330198.422 5 117345975.795 5     -2369.859          35.000    22330197.906 5  91438411.869 5     -1846.641          34.000
G28  21915120.156 8 115164715.991 8      2421.055          50.000    21915118.867 7  89738758.630 7      1886.536          46.000
G30  20518933.047 8 107827720.574 8      -885.586          51.000    20518934.234 8  84021663.871 8      -690.067          51.000
R03  21002579.609 8 112428515.344 8     -2863.980          51.000    21002579.062 7  87444359.889 7     -2227.540          45.000
R04  19246211.898 8 103062556.261 8       644.141          51.000    19246212.477 8  80159785.498 8       500.998          49.000
R14  19198753.211 8 102340181.776 8       645.617          50.000    19198756.953 8  79597986.341 8       502.147          49.000
R15  21846737.609 6 116742318.763 6      3902.254          36.000    21846743.992 6  90799612.426 6      3035.086          37.000
C05  39814838.211 5 207326309.579 5         2.945          35.000    39814836.039 6 160317841.669 6         2.120          40.000
C19  24916027.609 8 129744281.670 8     -3102.398          48.000
C22  22022202.117 8 114675375.239 8     -1029.148          51.000
E05  23959976.273 8 125910515.888 8     -1134.547          51.000    23959978.672 8  96476883.062 8      -869.283          51.000
E24  22550594.430 7 118504196.792 7      -730.625          45.000
E25  24545065.766 8 128985250.511 8      2143.438          49.000    24545067.594 8  98832835.490 8      1642.347          51.000
> 2020 05 19 02 45 30.0000000  0 14        .000000000000
G05  20627335.445 8 108397366.455 8      -698.676          51.000    20627333.922 8  84465489.946 8      -544.423          51.000
G07  22343747.172 6 117417171.747 6     -2376.852          37.000
G28  21901337.930 8 115092287.274 8      2407.312          51.000    21901336.617 7  89682320.675 7      1875.828          47.000
G30  20524027.578 8 107854491.826 8      -899.402          51.000    20524028.719 8  84042524.591 8      -700.833          51.000
R03  21018670.734 8 112514655.626 8     -2878.953          48.000    21018670.539 7  87511357.866 7     -2239.186          46.000
R04  19242657.430 8 103043522.383 8       624.484          51.000    19242658.070 8  80144981.367 8       485.710          49.000
R14  19195190.266 8 102321189.432 8       620.355          50.000    19195193.602 8  79583214.518 8       482.499          49.000
R15  21824861.031 6 116625422.880 6      3890.535          37.000    21824865.844 6  90708693.394 6      3025.972          37.000
C05  39814823.547 5 207326233.746 5         2.480          35.000    39814821.219 6 160317782.245 6         1.749          40.000
C19  24933917.773 8 129837437.840 8     -3108.270          48.000
C22  22028171.258 8 114706460.681 8     -1043.496          51.000
E05  23966476.461 8 125944674.385 8     -1142.926          51.000    23966478.703 8  96503056.458 8      -875.730          51.000
E24  22554804.977 7 118526323.281 7      -744.746          42.000    22554812.320 5  90818881.968 5      -570.416          35.000
E25  24532860.891 8 128921117.027 8      2132.012          49.000    24532864.039 8  98783694.211 8      1633.613          51.000
> 2020 05 19 02 46  0.0000000  0 14        .000000000000
G05  20631379.172 8 108418616.625 8      -717.656          51.000    20631377.656 8  84482048.514 8      -559.213          51.000
G07  22357368.664 5 117488737.894 5     -2382.609          34.000
G28  21887633.297 8 115020266.256 8      2394.387          51.000    21887631.555 7  89626200.403 7      1865.756          47.000
G30  20529199.883 8 107881670.967 8      -912.176          51.000    20529200.633 8  84063703.143 8      -710.786          51.000
R03  21034843.617 7 112601237.088 7     -2892.801          47.000    21034845.164 8  87578699.048 8     -2249.956          48.000
R04  19239211.719 8 103025072.347 8       605.895          51.000    19239212.781 8  80130631.331 8       471.251          49.000
R14  19191768.320 8 102302946.955 8       596.133          51.000    19191771.367 8  79569025.941 8       463.659          49.000
R15  21803052.141 6 116508883.681 6      3878.570          36.000    21803055.617 6  90618051.736 6      3016.666          38.000
C05  39814810.320 5 207326164.902 5         2.855          35.000    39814807.891 6 160317729.015 6         2.072          40.000
C19  24951840.062 8 129930763.506 8     -3113.055          48.000
C22  22034222.258 8 114737972.778 8     -1056.965          51.000
E05  23973023.633 8 125979079.452 8     -1150.332          51.000    23973025.906 8  96529418.774 8      -881.408          51.000
E24  22559095.234 7 118548868.117 7      -757.918          42.000    22559106.000 6  90836156.625 6      -580.712          38.000
E25  24520719.555 8 128857315.177 8      2121.875          51.000    24520723.281 8  98734807.050 8      1625.837          51.000
> 2020 05 19 02 46 30.0000000  0 13        .000000000000
G05  20635529.164 8 108440425.879 8      -736.320          51.000    20635527.961 8  84499042.714 8      -573.756          51.000
G28  21873999.742 8 114948619.749 8      2381.812          51.000    21873997.156 7  89570371.954 7      1855.958          45.000
G30  20534442.703 8 107909221.348 8      -924.637          51.000    20534443.102 8  84085170.992 8      -720.496          51.000
R03  21051092.953 8 112688222.519 8     -2906.324          49.000    21051095.633 8  87646354.408 8     -2260.474          49.000
R04  19235868.719 8 103007172.227 8       587.328          51.000    19235870.102 8  80116709.013 8       456.811          49.000
R14  19188480.305 8 102285418.094 8       572.297          51.000    19188482.648 8  79555392.403 8       445.123          48.000
R15  21781305.938 6 116392668.032 6      3868.445          41.000    21781306.922 6  90527661.733 6      3008.788          38.000
C05  39814791.930 6 207326069.120 6         4.105          36.000    39814789.516 6 160317654.964 6         2.857          40.000
C19  24969787.383 7 130024222.425 7     -3117.496          46.000
C22  22040348.641 8 114769876.462 8     -1070.145          51.000
E05  23979611.062 8 126013695.928 8     -1157.414          51.000    23979613.531 8  96555943.079 8      -886.811          51.000
E24  22563458.469 6 118571795.092 6      -770.488          39.000    22563472.867 6  90853724.074 6      -590.416          40.000
E25  24508635.312 8 128793810.773 8      2111.777          51.000    24508638.852 8  98686147.831 8      1618.190          51.000
> 2020 05 19 02 47  0.0000000  0 13        .000000000000
G05  20639792.625 8 108462831.336 8      -756.684          51.000    20639791.797 8  84516501.502 8      -589.624          51.000
G28  21860445.133 8 114877388.351 8      2367.617          51.000    21860441.336 7  89514866.959 7      1844.893          46.000
G30  20539762.969 8 107937179.417 8      -938.652          51.000    20539763.367 8  84106956.508 8      -731.417          51.000
R03  21067425.484 8 112775648.835 8     -2921.418          51.000    21067428.047 8  87714352.643 8     -2272.214          48.000
R04  19232636.039 8 102989862.266 8       567.320          50.000    19232637.602 8  80103245.697 8       441.249          49.000
R14  19185333.469 8 102268640.903 8       546.855          51.000    19185335.219 8  79542343.487 8       425.332          49.000
R15  21759628.438 6 116276817.228 6      3855.602          41.000    21759627.422 6  90437555.518 6      2998.798          39.000
C05  39814775.578 5 207325983.752 5         2.863          35.000    39814773.055 6 160317588.934 6         2.129          40.000
C19  24987766.344 7 130117850.628 7     -3123.383          43.000
C22  22046557.695 8 114802208.929 8     -1084.758          51.000
E05  23986246.023 8 126048561.695 8     -1166.234          51.000    23986248.469 8  96582658.409 8      -893.614          51.000
E24  22567900.273 6 118595140.844 6      -785.105          38.000    22567915.812 6  90871612.428 6      -601.562          39.000
E25  24496615.070 8 128730642.683 8      2100.074          51.000    24496617.922 8  98637746.335 8      1609.124          51.000
> 2020 05 19 02 47 30.0000000  0 13        .000000000000
G05  20644170.445 8 108485837.469 8      -775.914          51.000    20644169.859 8  84534428.352 8      -604.608          51.000
G28  21846970.523 8 114806579.122 8      2354.203          50.000    21846965.719 7  89459690.936 7      1834.444          45.000
G30  20545161.562 8 107965548.939 8      -951.434          51.000    20545162.109 8  84129062.621 8      -741.377          51.000
R03  21083841.312 8 112863520.002 8     -2935.426          51.000    21083843.039 7  87782696.904 7     -2283.106          47.000
R04  19229514.875 8 102973149.408 8       548.047          50.000    19229516.523 8  80090246.810 8       426.259          49.000
R14  19182328.375 8 102252620.136 8       522.336          51.000    19182330.352 8  79529882.915 8       406.261          50.000
R15  21738018.586 6 116161339.261 6      3843.750          38.000    21738017.602 6  90347739.234 6      2989.580          38.000
C05  39814762.203 6 207325913.774 6         2.801          36.000    39814759.617 6 160317534.821 6         2.335          40.000
C19  25005778.367 7 130211651.893 7     -3128.820          43.000
C22  22052849.805 8 114834975.129 8     -1098.504          51.000
E05  23992929.352 8 126083682.005 8     -1173.957          51.000    23992931.773 8  96609568.780 8      -899.555          51.000
E24  22572423.641 6 118618909.675 6      -798.332          37.000    22572437.320 6  90889824.872 6      -611.679          41.000
E25  24484660.062 8 128667817.097 8      2089.508          51.000    24484662.094 8  98589607.283 8      1601.027          51.000
> 2020 05 19 02 48  0.0000000  0 13        .000000000000
G05  20648657.508 8 108509417.059 8      -795.250          51.000    20648657.031 8  84552802.051 8      -619.675          51.000
G28  21833571.117 8 114736167.400 8      2340.660          50.000    21833566.422 7  89404824.658 7      1823.891          43.000
G30  20550632.922 8 107994301.455 8      -964.516          51.000    20550633.680 8  84151467.171 8      -751.571          51.000
R03  21100334.312 8 112951806.945 8     -2949.508          51.000    21100335.109 7  87851364.516 7     -2294.062          46.000
R04  19226500.641 8 102957008.137 8       528.840          50.000    19226502.406 8  80077692.474 8       411.320          49.000
R14  19179459.812 8 102237328.027 8       497.953          51.000    19179462.039 8  79517989.060 8       387.297          49.000
R15  21716472.672 6 116046209.105 6      3832.246          38.000    21716471.773 6  90258193.494 6      2980.636          37.000
C05  39814746.578 5 207325832.263 5         3.297          35.000    39814743.961 6 160317471.803 6         2.649          40.000
C19  25023819.859 7 130305598.078 7     -3133.652          46.000
C22  22059220.375 8 114868148.005 8     -1112.258          51.000
E05  23999655.914 8 126119029.863 8     -1181.746          51.000    23999658.562 8  96636653.502 8      -905.479          51.000
E24  22577021.781 5 118643049.250 5      -812.285          33.000    22577035.352 7  90908339.899 7      -621.856          42.000
E25  24472765.398 8 128605308.057 8      2078.629          51.000    24472767.172 8  98541710.778 8      1592.707          51.000
> 2020 05 19 02 48 30.0000000  0 13        .000000000000
G05  20653252.945 8 108533566.313 8      -814.758          50.000    20653252.477 8  84571619.651 8      -634.876          50.000
G28  21820246.875 8 114666152.496 8      2326.973          49.000    21820243.227 7  89350267.599 7      1813.222          44.000
G30  20556176.266 8 108023432.436 8      -977.570          51.000    20556177.047 8  84174166.631 8      -761.743          51.000
R03  21116903.547 8 113040505.196 8     -2963.719          50.000    21116904.484 7  87920352.011 7     -2305.115          46.000
R04  19223592.820 8 102941437.165 8       509.211          49.000    19223594.602 8  80065581.720 8       396.053          49.000
R14  19176727.047 8 102222760.885 8       473.250          51.000    19176729.445 8  79506659.057 8       368.083          49.000
R15  21694993.219 7 115931426.547 7      3819.898          42.000    21694988.500 5  90168918.236 5      2971.035          32.000
C05  39814728.078 6 207325736.717 6         3.172          36.000    39814725.508 6 160317397.518 6         2.561          40.000
C19  25041889.336 8 130399684.804 8     -3138.785          48.000
C22  22065668.844 8 114901724.212 8     -1126.105          51.000
E05  24006424.930 8 126154602.286 8     -1189.684          51.000    24006427.836 8  96663910.292 8      -911.546          51.000
E24  22581693.953 5 118667602.549 5      -825.152          34.000    22581707.758 7  90927154.297 7      -632.298          43.000
E25  24460930.609 8 128543113.453 8      2067.766          51.000    24460932.258 8  98494055.188 8      1584.413          51.000
> 2020 05 19 02 49  0.0000000  0 13        .000000000000
G05  20657960.227 8 108558304.505 8      -834.207          48.000    20657959.789 8  84590896.143 8      -650.031          48.000
G28  21807002.844 8 114596556.957 8      2313.094          49.000    21807000.234 7  89296037.317 7      1802.414          44.000
G30  20561795.375 8 108052960.740 8      -990.633          51.000    20561795.914 8  84197175.680 8      -771.925          51.000
R03  21133552.758 8 113129633.550 8     -2977.801          49.000    21133554.055 7  87989674.066 7     -2316.067          45.000
R04  19220795.438 8 102926458.748 8       489.617          48.000    19220797.500 8  80053931.836 8       380.810          48.000
R14  19174133.867 8 102208938.825 8       448.512          51.000    19174136.867 8  79495908.577 8       348.842          50.000
R15  21673582.859 6 115817014.693 6      3807.766          41.000    21673575.992 5  90079903.381 5      2961.599          32.000
C05  39814710.609 6 207325645.392 6         2.945          36.000    39814708.031 6 160317327.281 6         2.555          40.000
C19  25059989.477 8 130493930.683 8     -3143.957          48.000
C22  22072198.711 8 114935723.582 8     -1140.098          51.000
E05  24013240.164 8 126190419.548 8     -1197.695          51.000    24013243.633 8  96691354.690 8      -917.652          51.000
E24  22586444.867 5 118692567.711 5      -838.246          33.000    22586458.070 7  90946282.757 7      -642.676          44.000
E25  24449159.656 8 128481254.562 8      2056.570          51.000    24449160.906 8  98446656.815 8      1575.891          51.000
> 2020 05 19 02 49 30.0000000  0 13        .000000000000
G05  20662779.414 8 108583629.283 8      -853.941          50.000    20662778.961 8  84610629.720 8      -665.409          50.000
G28  21793838.789 8 114527380.635 8      2298.879          49.000    21793837.398 7  89242133.717 7      1791.337          45.000
G30  20567489.492 8 108082882.986 8     -1003.949          51.000    20567489.789 8  84220491.721 8      -782.298          51.000
R03  21150281.586 8 113219188.945 8     -2992.281          49.000    21150284.016 7  88059328.227 7     -2327.330          47.000
R04  19218109.109 8 102912072.684 8       469.594          48.000    19218110.930 8  80042742.677 8       365.240          48.000
R14  19171679.969 8 102195858.883 8       423.629          51.000    19171683.070 8  79485735.294 8       329.492          50.000
R15  21652239.273 5 115702974.543 5      3794.934          34.000    21652238.023 5  89991205.564 5      2951.618          35.000
C05  39814693.766 5 207325557.933 5         3.086          35.000    39814691.328 6 160317259.676 6         2.102          40.000
C19  25078118.766 7 130588332.460 7     -3149.371          46.000
C22  22078809.469 8 114970143.920 8     -1154.363          51.000
E05  24020102.031 8 126226479.778 8     -1206.094          51.000    24020105.789 8  96718985.279 8      -924.192          51.000
E24  22591272.664 6 118717938.771 6      -852.668          37.000    22591286.648 7  90965722.963 7      -653.244          44.000
E25  24437452.070 8 128419730.447 8      2045.082          51.000    24437452.984 8  98399514.943 8      1567.068          51.000
> 2020 05 19 02 50  0.0000000  0 12        .000000000000
G05  20667711.094 8 108609544.557 8      -873.617          50.000    20667710.492 8  84630823.440 8      -680.741          50.000
G28  21780756.180 8 114458631.005 8      2284.684          49.000    21780755.508 7  89188562.615 7      1780.273          45.000
G30  20573259.180 8 108113202.670 8     -1017.141          51.000    20573259.523 8  84244117.458 8      -792.574          51.000
R03  21167091.898 8 113309174.790 8     -3006.559          50.000    21167094.508 7  88129317.226 7     -2338.431          47.000
R04  19215534.156 7 102898285.804 7       449.715          46.000    19215536.141 8  80032019.556 8       349.775          48.000
R14  19169366.102 8 102183525.833 8       398.770          51.000    19169369.664 8  79476142.937 8       310.154          50.000
C05  39814678.484 5 207325477.536 5         2.824          35.000    39814676.055 6 160317198.257 6         2.099          40.000
C19  25096277.625 7 130682893.548 7     -3154.742          44.000
C22  22085501.859 8 115004989.730 8     -1168.426          51.000
E05  24027011.375 8 126262787.937 8     -1214.277          51.000    24027014.969 8  96746805.827 8      -930.501          51.000
E24  22596178.852 6 118743720.467 6      -866.039          38.000    22596192.984 7  90985477.809 7      -663.600          44.000
E25  24425808.680 8 128358546.926 8      2033.910          51.000    24425810.055 8  98352634.045 8      1558.472          51.000
> 2020 05 19 02 50 30.0000000  0 13        .000000000000
G05  20672746.008 8 108636003.338 8      -894.020          50.000    20672745.406 8  84651440.661 8      -696.639          50.000
G28  21767746.359 8 114390263.668 8      2269.496          50.000    21767745.828 7  89135289.363 7      1768.439          45.000
G30  20579095.367 8 108143871.834 8     -1031.035          51.000    20579095.656 8  84268015.501 8      -803.404          51.000
R03  21183973.867 8 113399541.879 8     -3021.590          50.000    21183976.195 7  88199602.766 7     -2350.125          47.000
R04  19213063.094 7 102885052.176 7       428.809          47.000    19213064.836 7  80021726.745 7       333.521          47.000
R14  19167183.406 8 102171891.713 8       373.137          50.000    19167187.344 8  79467094.181 8       290.217          50.000
R15  21609767.680 6 115476042.626 6      3769.027          41.000    21609762.930 6  89814681.016 6      2931.469          38.000
C05  39814655.922 6 207325359.999 6         1.340          36.000    39814653.445 6 160317107.358 6         1.251          40.000
C19  25114457.141 7 130777566.456 7     -3160.656          42.000
C22  22092266.938 8 115040214.636 8     -1183.484          51.000
E05  24033958.914 8 126299297.570 8     -1223.270          51.000    24033962.062 8  96774780.729 8      -937.275          51.000
E24  22601153.852 6 118769865.126 6      -880.547          40.000    22601167.039 7  91005510.774 7      -674.600          44.000
E25  24414220.969 8 128297658.529 8      2021.648          50.000    24414223.578 8  98305979.282 8      1549.109          51.000
> 2020 05 19 02 51  0.0000000  0 13        .000000000000
G05  20677899.727 8 108663086.674 8      -912.891          49.000    20677899.000 8  84672544.564 8      -711.343          49.000
G28  21754825.211 8 114322362.962 8      2255.930          49.000    21754824.695 7  89082379.702 7      1757.867          44.000
G30  20585013.344 8 108174970.901 8     -1043.477          51.000    20585013.203 8  84292248.529 8      -813.099          51.000
R03  21200941.953 8 113490372.384 8     -3035.066          50.000    21200944.344 7  88270248.700 7     -2360.607          46.000
R04  19210711.117 7 102872457.059 7       409.422          46.000    19210712.750 7  80011930.569 7       318.439          47.000
R14  19165147.219 8 102161038.932 8       349.039          51.000    19165151.492 8  79458653.150 8       271.475          49.000
R15  21588636.008 7 115363136.637 7      3756.793          45.000    21588635.320 7  89726865.283 7      2921.950          42.000
C05  39814641.531 5 207325285.862 5         2.055          35.000    39814639.125 6 160317049.647 6         1.806          40.000
C19  25132673.062 6 130872430.891 6     -3165.188          40.000
C22  22099120.141 8 115075899.451 8     -1196.844          51.000
E05  24040960.398 8 126336090.568 8     -1230.758          51.000    24040963.250 8  96802972.754 8      -943.057          51.000
E24  22606212.680 7 118796453.583 7      -893.383          42.000    22606225.883 7  91025883.758 7      -684.483          44.000
E25  24402705.398 8 128237148.019 8      2011.117          51.000    24402709.172 8  98259614.080 8      1541.010          51.000
> 2020 05 19 02 51 30.0000000  0 13        .000000000000
G05  20683161.734 8 108690738.794 8      -930.629          50.000    20683160.938 8  84694091.666 8      -725.165          50.000
G28  21741982.461 7 114254875.767 7      2243.211          47.000    21741981.383 7  89029792.264 7      1747.957          42.000
G30  20591002.359 8 108206443.347 8     -1054.707          51.000    20591002.031 8  84316772.519 8      -821.847          51.000
R03  21217986.148 8 113581608.687 8     -3047.379          51.000    21217987.539 7  88341210.296 7     -2370.184          45.000
R04  19208467.703 7 102860446.173 7       391.121          46.000    19208469.570 7  80002588.761 7       304.205          47.000
R14  19163247.133 8 102150911.097 8       326.027          50.000    19163251.422 8  79450775.943 8       253.577          49.000
R15  21567574.430 8 115250597.931 8      3745.633          48.000    21567576.812 7  89639335.195 7      2913.270          45.000
C05  39814624.875 6 207325198.950 6         3.992          36.000    39814622.555 6 160316982.821 6         2.900          40.000
C19  25150916.047 6 130967430.892 6     -3168.434          41.000
C22  22106050.812 8 115111989.298 8     -1209.148          51.000
E05  24048005.562 8 126373111.941 8     -1237.242          51.000    24048008.102 8  96831339.770 8      -948.035          51.000
E24  22611346.016 7 118823429.579 7      -905.027          43.000    22611359.375 7  91046553.708 7      -693.543          43.000
E25  24391252.133 8 128176961.356 8      2001.395          51.000    24391256.383 8  98213497.025 8      1533.536          51.000
> 2020 05 19 02 52  0.0000000  0 13        .000000000000
G05  20688528.688 8 108718941.474 8      -949.762          51.000    20688527.859 8  84716067.766 8      -740.074          51.000
G28  21729215.672 8 114187786.615 8      2229.156          48.000    21729213.352 6  88977515.010 6      1737.008          41.000
G30  20597058.812 8 108238270.233 8     -1067.277          51.000    20597058.797 8  84341572.716 8      -831.642          51.000
R03  21235102.109 8 113673230.812 8     -3060.902          49.000    21235102.484 7  88412471.914 7     -2380.702          44.000
R04  19206331.125 8 102849003.223 8       371.480          48.000    19206332.656 7  79993688.693 7       288.929          46.000
R14  19161479.602 8 102141489.351 8       301.863          50.000    19161484.062 8  79443447.948 8       234.783          50.000
R15  21546579.461 8 115138411.285 8      3733.156          50.000    21546582.820 7  89552078.900 7      2903.566          46.000
C05  39814602.641 5 207325083.261 5         4.219          35.000    39814600.383 6 160316893.400 6         2.788          40.000
C19  25169182.820 7 131062547.777 7     -3173.008          43.000
C22  22113055.438 8 115148466.474 8     -1222.910          51.000
E05  24055090.680 8 126410344.204 8     -1245.156          51.000    24055093.109 8  96859868.377 8      -954.024          51.000
E24  22616549.844 7 118850774.492 7      -918.195          42.000    22616563.289 7  91067506.312 7      -703.471          44.000
E25  24379857.758 8 128117081.951 8      1990.332          51.000    24379861.898 8  98167615.403 8      1525.063          51.000
> 2020 05 19 02 52 30.0000000  0 13        .000000000000
G05  20694005.031 8 108747718.099 8      -968.422          51.000    20694003.625 8  84738491.117 8      -754.614          51.000
G28  21716529.945 8 114121122.061 8      2215.316          49.000    21716526.172 6  88925568.615 6      1726.218          41.000
G30  20603186.961 8 108270474.430 8     -1079.355          51.000    20603187.367 8  84366666.894 8      -841.056          51.000
R03  21252294.305 8 113765262.458 8     -3074.211          49.000    21252293.891 7  88484052.028 7     -2391.056          43.000
R04  19204305.484 8 102838154.540 8       352.043          48.000    19204306.836 7  79985250.832 7       273.811          46.000
R14  19159849.172 8 102132797.902 8       277.871          50.000    19159853.414 8  79436687.933 8       216.122          49.000
R15  21525655.469 8 115026603.964 8      3720.918          50.000    21525659.188 7  89465117.638 7      2894.047          46.000
C05                                                                  39814577.156 6 160316799.853 6         3.377          40.000
C19  25187477.250 7 131157804.117 7     -3177.180          45.000
C22  22120138.852 8 115185354.675 8     -1236.145          51.000
E05  24062220.445 8 126447811.691 8     -1252.551          51.000    24062222.758 8  96888577.213 8      -959.732          51.000
E24  22621828.008 7 118878511.393 7      -930.840          43.000    22621842.039 7  91088759.296 7      -713.256          44.000
E25  24368526.773 8 128057535.020 8      1979.746          51.000    24368530.484 8  98121988.529 8      1516.966          51.000
> 2020 05 19 02 53  0.0000000  0 13        .000000000000
G05  20699591.773 8 108777075.712 8      -988.461          51.000    20699589.930 8  84761367.171 8      -770.229          51.000
G28  21703927.195 8 114054892.149 8      2200.277          50.000    21703923.258 7  88873960.889 7      1714.502          43.000
G30  20609388.000 8 108303062.370 8     -1092.797          51.000    20609388.734 8  84392060.110 8      -851.530          51.000
R03  21269564.539 8 113857710.102 8     -3088.738          51.000    21269563.875 7  88555955.737 7     -2402.352          46.000
R04  19202392.117 8 102827910.128 8       331.168          48.000    19202393.711 7  79977282.944 7       257.575          46.000
R14  19158357.305 8 102124844.000 8       252.613          51.000    19158361.391 8  79430501.566 8       196.480          51.000
R15  21504804.180 8 114915186.607 8      3707.328          50.000    21504808.320 7  89378459.696 7      2883.477          46.000
C05  39814556.734 5 207324844.996 5         3.867          35.000    39814554.445 6 160316708.346 6         2.809          40.000
C19  25205799.703 7 131253206.412 7     -3182.824          44.000
C22  22127302.891 8 115222661.443 8     -1250.703          51.000
E05  24069396.492 8 126485522.377 8     -1261.180          51.000    24069398.680 8  96917472.404 8      -966.391          51.000
E24  22627182.680 7 118906647.125 7      -944.660          44.000    22627196.703 7  91110317.889 7      -723.875          44.000
E25  24357260.734 8 127998329.509 8      1967.543          51.000    24357263.977 8  98076623.274 8      1507.613          51.000
> 2020 05 19 02 53 30.0000000  0 14        .000000000000
G05  20705290.109 8 108807020.156 8     -1007.375          51.000    20705288.055 8  84784700.470 8      -784.968          51.000
G07  22565480.891 5 118582408.381 5     -2475.766          33.000
G28  21691408.852 8 113989105.581 8      2186.059          51.000    21691405.773 7  88822698.632 7      1703.422          45.000
G30  20615663.180 8 108336039.103 8     -1105.117          51.000    20615663.953 8  84417756.261 8      -861.130          51.000
R03  21286913.734 8 113950578.616 8     -3102.004          49.000    21286913.195 7  88628186.818 7     -2412.670          47.000
R04  19200593.414 8 102818277.963 8       311.488          50.000    19200594.992 7  79969791.232 7       242.269          45.000
R14  19157004.875 8 102117633.256 8       228.562          51.000    19157008.859 8  79424893.234 8       177.771          50.000
R15  21484027.734 8 114804168.477 8      3694.527          49.000    21484032.484 7  89292112.250 7      2873.521          46.000
C05  39814535.750 5 207324734.405 5         3.859          35.000    39814533.445 6 160316623.578 6         3.329          40.000
C19  25224150.930 7 131348759.665 7     -3187.082          45.000
C22  22134548.727 8 115260392.761 8     -1264.234          51.000
E05  24076620.242 8 126523482.744 8     -1268.902          51.000    24076622.352 8  96946558.896 8      -972.264          51.000
E24  22632614.008 7 118935186.966 7      -957.539          45.000    22632627.617 7  91132186.102 7      -733.630          43.000
E25  24346060.930 8 127939472.755 8      1956.730          51.000    24346063.578 8  98031525.255 8      1499.286          51.000
> 2020 05 19 02 54  0.0000000  0 13        .000000000000
G05  20711095.656 8 108837527.371 8     -1026.555          51.000    20711093.227 8  84808472.332 8      -799.913          51.000
G28  21678971.062 8 113923741.680 8      2171.426          51.000    21678968.516 7  88771765.722 7      1692.020          46.000
G30  20622007.703 8 108369380.137 8     -1117.648          51.000    20622008.586 8  84443736.288 8      -870.895          51.000
R03  21304336.281 7 114043842.986 7     -3115.738          47.000    21304336.516 7  88700725.800 7     -2423.349          46.000
R04  19198905.172 8 102809236.293 8       291.250          50.000    19198906.469 7  79962758.813 7       226.528          45.000
R14  19155787.180 8 102111141.471 8       204.133          51.000    19155790.594 8  79419844.072 8       158.770          50.000
R15  21463322.898 8 114693528.941 8      3681.410          50.000    21463328.078 7  89206059.267 7      2863.319          47.000
C05  39814512.102 5 207324611.852 5         4.293          35.000    39814509.695 6 160316528.052 6         3.084          40.000
C19  25242526.352 7 131444439.636 7     -3191.652          45.000
C22  22141871.297 8 115298525.520 8     -1278.090          51.000
E05  24083887.273 8 126561669.832 8     -1277.062          51.000    24083889.359 8  96975819.114 8      -978.466          51.000
E24  22638117.484 7 118964106.743 7      -970.609          45.000    22638130.352 7  91154345.429 7      -743.780          43.000
E25  24334923.211 8 127880942.681 8      1945.262          51.000    24334925.070 8  97986677.552 8      1490.522          51.000
> 2020 05 19 02 54 30.0000000  0 13        .000000000000
G05  20717010.461 8 108868611.368 8     -1045.609          50.000    20717008.391 8  84832693.636 8      -814.761          51.000
G28  21666616.789 8 113858816.876 8      2156.926          51.000    21666614.352 7  88721174.980 7      1680.721          46.000
G30  20628424.109 8 108403098.847 8     -1130.035          51.000    20628425.031 8  84470010.617 8      -880.547          51.000
R03  21321834.891 8 114137516.521 8     -3129.125          48.000    21321836.250 7  88773583.062 7     -2433.764          45.000
R04  19197329.992 8 102800801.645 8       271.113          50.000    19197331.430 7  79956198.516 7       210.866          46.000
R14  19154706.938 8 102105382.688 8       179.875          51.000    19154710.156 8  79415365.039 8       139.903          51.000
R15  21442692.773 8 114583285.343 8      3668.281          50.000    21442697.633 7  89120314.230 7      2853.108          46.000
C05  39814488.398 5 207324487.816 5         4.008          35.000    39814486.047 6 160316432.917 6         3.283          40.000
C19  25260928.062 7 131540259.562 7     -3196.160          45.000
C22  22149273.703 8 115337073.974 8     -1291.738          51.000
E05  24091200.148 8 126600098.490 8     -1284.879          51.000    24091201.836 8  97005264.440 8      -984.571          51.000
E24  22643695.812 7 118993420.116 7      -983.715          46.000    22643708.734 7  91176806.333 7      -753.636          43.000
E25  24323850.609 8 127822755.059 8      1933.902          51.000    24323851.891 8  97942092.247 8      1481.785          51.000
> 2020 05 19 02 55  0.0000000  0 13        .000000000000
G05  20723035.602 8 108900275.225 8     -1064.992          51.000    20723034.102 8  84857366.771 8      -829.864          51.000
G28  21654347.156 8 113794337.658 8      2141.887          51.000    21654344.352 7  88670931.447 7      1669.003          44.000
G30  20634912.945 8 108437198.169 8     -1142.996          51.000    20634913.547 8  84496581.526 8      -890.643          51.000
R03  21339410.852 8 114231602.074 8     -3142.973          50.000    21339411.742 7  88846760.746 7     -2444.534          42.000
R04  19195869.695 8 102792980.070 8       250.531          51.000    19195871.156 7  79950115.046 7       194.858          46.000
R14  19153764.758 8 102100360.548 8       155.199          51.000    19153767.953 8  79411458.944 8       120.707          51.000
R15  21422138.148 8 114473444.966 8      3654.602          51.000    21422142.125 7  89034882.830 7      2842.468          45.000
C05  39814465.742 5 207324370.591 5         3.766          35.000    39814463.352 6 160316341.481 6         3.265          41.000
C19  25279356.781 7 131636222.485 7     -3201.098          46.000
C22  22156757.016 8 115376042.034 8     -1305.891          51.000
E05  24098559.992 8 126638773.141 8     -1293.219          51.000    24098560.930 8  97034898.258 8      -990.917          51.000
E24  22649349.445 7 119023130.231 7      -996.789          46.000    22649362.859 7  91199571.264 7      -763.920          44.000
E25  24312843.906 8 127764915.098 8      1922.250          51.000    24312844.773 8  97897773.345 8      1472.920          50.000
> 2020 05 19 02 55 30.0000000  0 13        .000000000000
G05  20729170.594 8 108932515.214 8     -1084.324          50.000    20729169.508 8  84882488.845 8      -844.928          50.000
G28  21642161.797 8 113730303.180 8      2127.008          50.000    21642158.211 7  88621034.477 7      1657.409          43.000
G30  20641473.273 8 108471673.198 8     -1155.566          51.000    20641473.711 8  84523445.199 8      -900.441          51.000
R03  21357063.008 8 114326094.938 8     -3156.656          49.000    21357063.016 7  88920255.062 7     -2455.180          42.000
R04  19194523.367 8 102785769.825 8       230.039          50.000    19194524.953 7  79944507.067 7       178.919          46.000
R14  19152959.734 8 102096070.497 8       130.715          51.000    19152962.977 8  79408122.248 8       101.667          50.000
R15  21401658.492 8 114364006.655 8      3641.133          51.000    21401661.297 7  88949764.166 7      2831.992          45.000
C05  39814443.234 5 207324253.227 5         4.027          35.000    39814440.891 6 160316251.134 6         2.879          40.000
C19  25297811.609 7 131732323.444 7     -3205.730          44.000
C22  22164320.430 8 115415425.915 8     -1319.859          51.000
E05  24105966.023 8 126677690.356 8     -1301.285          51.000    24105966.555 8  97064717.930 8      -997.065          51.000
E24  22655078.117 7 119053232.503 7     -1009.906          45.000    22655090.617 7  91222636.649 7      -773.821          43.000
E25  24301902.562 8 127707420.340 8      1910.633          51.000    24301902.742 8  97853718.959 8      1464.039          48.000
> 2020 05 19 02 56  0.0000000  0 13        .000000000000
G05  20735413.156 8 108965321.166 8     -1102.863          50.000    20735412.508 8  84908051.904 8      -859.377          50.000
G28  21630059.070 7 113666706.215 7      2112.754          47.000    21630055.258 7  88571478.457 7      1646.305          42.000
G30  20648103.039 8 108506513.303 8     -1167.316          51.000    20648103.742 8  84550593.342 8      -909.597          51.000
R03  21374788.977 8 114420983.735 8     -3169.289          49.000    21374789.242 7  88994057.387 7     -2465.003          45.000
R04  19193289.609 8 102779162.896 8       210.305          50.000    19193291.305 7  79939368.327 7       163.570          47.000
R14  19152290.336 8 102092502.523 8       107.066          50.000    19152293.625 8  79405347.157 8        83.274          51.000
R15  21381252.508 8 114254963.760 8      3628.297          51.000    21381254.102 7  88864953.056 7      2822.009          44.000
C05  39814419.352 5 207324129.473 5         4.527          35.000    39814416.977 6 160316154.654 6         3.428          40.000
C19  25316291.031 7 131828552.100 7     -3209.688          44.000
C22  22171961.477 8 115455216.115 8     -1332.953          51.000
E05  24113416.242 8 126716841.022 8     -1308.730          51.000    24113416.812 8  97094716.485 8     -1002.820          51.000
E24  22660878.789 7 119083716.520 7     -1022.312          43.000    22660890.906 7  91245994.574 7      -783.354          43.000
E25  24291025.281 8 127650262.535 8      1899.895          51.000    24291024.609 8  97809922.749 8      1455.775          48.000
> 2020 05 19 02 56 30.0000000  0 13        .000000000000
G05  20741762.016 8 108998684.765 8     -1121.910          50.000    20741761.758 8  84934049.498 8      -874.216          50.000
G28  21618037.727 7 113603541.982 7      2097.797          43.000    21618034.906 7  88522259.620 7      1634.650          42.000
G30  20654800.641 8 108541710.124 8     -1179.676          51.000    20654801.617 8  84578019.455 8      -919.225          51.000
R03  21392586.453 7 114516259.762 7     -3182.723          47.000    21392588.680 8  89068161.020 8     -2475.448          48.000
R04  19192167.586 8 102773153.793 8       189.816          49.000    19192169.234 8  79934694.577 8       147.635          48.000
R14  19151754.539 8 102089648.400 8        82.730          50.000    19151758.234 8  79403127.294 8        64.346          50.000
R15  21360919.586 8 114146312.043 8      3614.691          51.000    21360920.016 7  88780446.203 7      2811.427          44.000
C05  39814392.594 6 207323989.533 6         4.648          36.000    39814390.219 6 160316046.836 6         3.356          40.000
C19  25334793.430 7 131924900.073 7     -3213.973          42.000
C22  22179679.352 8 115495405.362 8     -1346.719          51.000
E05  24120909.336 8 126756218.291 8     -1316.848          51.000    24120910.055 8  97124888.654 8     -1009.007          51.000
E24  22666750.500 7 119114574.227 7     -1035.223          44.000    22666763.570 7  91269638.834 7      -793.267          44.000
E25  24280211.047 8 127593435.621 8      1888.262          51.000    24280210.391 8  97766380.070 8      1446.802          49.000
> 2020 05 19 02 57  0.0000000  0 13        .000000000000
G05  20748220.695 8 109032625.577 8     -1140.906          49.000    20748220.805 8  84960496.850 8      -889.018          49.000
G28  21606103.523 7 113540832.509 7      2082.773          46.000    21606102.305 7  88473395.068 7      1622.940          45.000
G30  20661569.750 8 108577282.576 8     -1191.918          51.000    20661570.719 8  84605738.242 8      -928.767          51.000
R03  21410459.281 7 114611941.909 7     -3196.016          44.000    21410464.016 8  89142580.533 8     -2485.790          49.000
R04  19191161.375 8 102767764.810 8       169.340          49.000    19191163.023 8  79930503.128 8       131.709          48.000
R14  19151356.234 8 102087527.874 8        58.578          48.000    19151360.500 8  79401477.982 8        45.561          51.000
R15  21340664.203 8 114038074.522 8      3601.094          51.000    21340664.328 7  88696261.491 7      2800.851          45.000
C05  39814366.953 6 207323855.380 6         4.238          36.000    39814364.492 6 160315943.059 6         3.649          40.000
C19  25353323.000 6 132021386.201 6     -3218.570          38.000
C22  22187478.117 8 115536013.346 8     -1360.484          51.000
E05  24128449.344 8 126795842.459 8     -1324.875          51.000    24128450.016 8  97155250.026 8     -1015.164          51.000
E24  22672697.562 7 119145824.773 7     -1048.055          45.000    22672710.867 7  91293584.062 7      -803.076          43.000
E25  24269464.211 8 127536960.817 8      1876.738          51.000    24269464.445 8  97723107.174 8      1437.999          51.000
> 2020 05 19 02 57 30.0000000  0 13        .000000000000
G05  20754786.992 8 109067132.472 8     -1159.547          50.000    20754787.148 8  84987385.326 8      -903.543          50.000
G28  21594255.711 8 113478570.089 8      2068.152          51.000    21594255.016 7  88424878.887 7      1611.544          45.000
G30  20668408.172 8 108613219.220 8     -1203.809          51.000    20668409.242 8  84633740.804 8      -938.033          51.000
R03  21428406.133 7 114708018.940 7     -3208.941          45.000    21428412.414 8  89217307.117 8     -2495.843          49.000
R04  19190269.141 8 102762987.239 8       149.297          48.000    19190270.781 8  79926787.260 8       116.120          48.000
R14  19151093.609 8 102086129.596 8        34.750          49.000    19151098.359 8  79400390.448 8        27.028          50.000
R15  21320484.977 8 113930243.676 8      3587.789          51.000    21320486.133 7  88612393.075 7      2790.503          46.000
C05  39814340.281 5 207323716.597 5         5.160          35.000    39814337.906 6 160315835.775 6         3.806          40.000
C19  25371879.688 6 132117999.159 6     -3222.348          41.000
C22  22195355.211 8 115577029.813 8     -1373.836          51.000
E05  24136034.031 8 126835703.669 8     -1332.457          51.000    24136035.609 8  97185793.024 8     -1020.950          51.000
E24  22678717.133 6 119177456.957 6     -1060.559          41.000    22678729.398 7  91317821.716 7      -812.660          43.000
E25  24258782.805 8 127480829.020 8      1865.691          51.000    24258784.102 8  97680097.111 8      1429.547          51.000
> 2020 05 19 02 58  0.0000000  0 13        .000000000000
G05  20761461.836 8 109102209.275 8     -1178.496          51.000    20761461.766 8  85014717.891 8      -918.309          51.000
G28  21582494.781 8 113416761.289 8      2053.066          51.000    21582493.750 7  88376716.161 7      1599.792          46.000
G30  20675316.547 8 108649523.040 8     -1215.941          51.000    20675317.742 8  84662029.479 8      -947.490          51.000
R03  21446429.102 7 114804493.197 7     -3222.246          47.000    21446434.531 7  89292342.654 7     -2506.191          47.000
R04  19189492.148 8 102758827.054 8       128.672          48.000    19189493.750 8  79923551.552 8       100.078          48.000
R14  19150967.281 8 102085457.060 8        10.703          49.000    19150972.062 8  79399867.365 8         8.325          49.000
R15  21300383.578 8 113822826.640 8      3573.949          50.000    21300386.016 7  88528846.504 7      2779.738          47.000
C05  39814313.570 5 207323577.674 5         4.590          35.000    39814311.172 6 160315728.319 6         3.749          40.000
C19  25390460.812 6 132214741.855 6     -3226.539          40.000
C22  22203311.008 8 115618458.699 8     -1387.566          51.000
E05  24143664.570 8 126875806.368 8     -1340.453          51.000    24143667.383 8  97216521.077 8     -1027.085          51.000
E24  22684810.203 6 119209473.971 6     -1073.680          37.000    22684821.375 7  91342354.281 7      -822.402          43.000
E25  24248167.648 8 127425045.612 8      1853.848          51.000    24248169.844 8  97637353.989 8      1420.484          51.000
> 2020 05 19 02 58 30.0000000  0 13        .000000000000
G05  20768244.883 8 109137853.341 8     -1197.465          51.000    20768244.438 8  85042492.486 8      -933.089          51.000
G28  21570820.133 8 113355406.443 8      2037.594          51.000    21570818.586 7  88328907.176 7      1587.735          46.000
G30  20682294.344 8 108686191.095 8     -1228.277          51.000    20682295.430 8  84690601.985 8      -957.099          51.000
R03  21464525.820 7 114901361.427 7     -3235.473          47.000    21464529.188 7  89367684.645 7     -2516.479          42.000
R04  19188830.938 8 102755284.375 8       107.781          48.000    19188832.195 8  79920796.163 8        83.830          48.000
R14  19150976.984 8 102085507.677 8       -13.676          50.000    19150981.719 8  79399906.738 8       -10.637          49.000
R15  21280359.680 8 113715824.345 8      3559.898          48.000    21280363.047 7  88445622.497 7      2768.810          47.000
C05  39814286.500 5 207323436.907 5         4.969          35.000    39814284.164 6 160315619.479 6         3.773          40.000
C19  25409065.359 6 132311611.451 6     -3231.199          40.000
C22  22211345.742 8 115660298.079 8     -1401.438          51.000
E05  24151341.156 8 126916149.117 8     -1348.668          51.000    24151344.758 8  97247433.067 8     -1033.446          51.000
E24  22690975.438 5 119241873.109 5     -1086.691          34.000    22690986.828 7  91367179.678 7      -832.351          43.000
E25  24237618.688 8 127369609.930 8      1842.168          51.000    24237621.523 8  97594877.299 8      1411.528          51.000
> 2020 05 19 02 59  0.0000000  0 13        .000000000000
G05  20775136.141 8 109174065.945 8     -1216.340          51.000    20775135.312 8  85070710.087 8      -947.797          51.000
G28  21559232.461 8 113294510.689 8      2022.477          51.000    21559230.625 7  88281455.955 7      1575.956          47.000
G30  20689341.875 8 108723225.097 8     -1240.387          51.000    20689342.820 8  84719459.650 8      -966.535          51.000
R03  21482696.164 7 114998625.203 7     -3248.484          46.000    21482696.828 6  89443334.206 6     -2526.599          39.000
R04  19188285.266 8 102752363.673 8        87.191          48.000    19188286.914 8  79918524.523 8        67.816          48.000
R14  19151122.703 8 102086283.407 8       -37.719          50.000    19151127.047 8  79400510.109 8       -29.334          49.000
R15  21260413.906 8 113609242.494 8      3545.969          49.000    21260417.719 7  88362725.506 7      2757.976          46.000
C05  39814259.836 5 207323297.529 5         4.684          35.000    39814257.422 6 160315511.682 6         3.761          40.000
C19  25427693.570 6 132408609.735 6     -3235.613          36.000
C22  22219459.891 8 115702550.538 8     -1415.074          51.000
E05  24159064.391 8 126956735.098 8     -1356.695          51.000    24159068.297 8  97278531.424 8     -1039.561          51.000
E24  22697212.375 6 119274656.363 6     -1098.719          36.000    22697225.258 7  91392299.394 7      -842.007          43.000
E25  24227136.875 8 127314526.009 8      1830.496          51.000    24227140.375 8  97552670.143 8      1402.573          51.000
> 2020 05 19 02 59 30.0000000  0 14        .000000000000
G05  20782116.094 8 109210744.858 8     -1245.102          51.000    20782114.906 8  85099291.051 8      -970.209          51.000
G07  22737345.031 6 119485537.560 6     -2551.320          37.000    22737324.633 5  93105545.451 5     -1988.042          35.000
G28  21547712.680 8 113233973.691 8      1997.215          50.000    21547711.148 7  88234284.279 7      1556.271          47.000
G30  20696439.242 8 108760521.082 8     -1262.207          51.000    20696440.156 8  84748521.462 8      -983.538          51.000
R03  21500921.312 7 115096178.585 7     -3271.504          47.000    21500920.023 7  89519208.951 7     -2544.506          42.000
R04  19187836.805 8 102749961.934 8        56.473          49.000    19187838.133 8  79916656.500 8        43.923          48.000
R14  19151385.070 8 102087679.238 8       -71.773          51.000    19151388.953 8  79401595.764 8       -55.824          49.000
R15  21240528.453 8 113502979.438 8      3521.820          51.000    21240531.242 7  88280076.503 7      2739.197          45.000
C05  39814213.781 6 207323057.840 6        -4.887          36.000    39814211.398 6 160315326.321 6        -3.688          40.000
C19  25446326.008 4 132505633.525 4     -3248.160          28.000
C22  22227633.406 8 115745114.086 8     -1438.492          51.000
E05  24166814.703 8 126997461.869 8     -1374.531          51.000    24166818.664 8  97309737.655 8     -1053.167          51.000
E24  22703504.352 6 119307720.097 6     -1121.574          36.000    22703517.016 7  91417633.963 7      -859.358          43.000
E25  24216702.734 8 127259692.254 8      1809.016          51.000    24216707.062 8  97510654.663 8      1386.165          51.000
