     3.02           OBSERVATION DATA    M (MIXED)           RINEX VERSION / TYPE
SAVERINEX           SC600               20200513 155931 LCL PGM / RUN BY / DATE
       G = GPS       R = GLONASS       C = COMPASS          COMMENT
       S = SBAS      J = QZSS          E = GALILEO          COMMENT
BEAN                                                        MARKER NAME
1                                                           MARKER NUMBER
GEODETIC                                                    MARKER TYPE
Unige DICCA         GTER                                    OBSERVER / AGENCY
SC60291900056       SC600               2.12(191226)        REC # / TYPE / VERS
                    HEMA45          NONE                    ANT # / TYPE
  4509407.8091   693652.4678  4442337.6214                  APPROX POSITION XYZ
        0.0000        0.0000        0.0000                  ANTENNA: DELTA H/E/N
G    8 C1C L1C D1C S1C C2Y L2Y D2Y S2Y                      SYS / # / OBS TYPES
R    8 C1C L1C D1C S1C C2P L2P D2P S2P                      SYS / # / OBS TYPES
C    8 C1I L1I D1I S1I C7I L7I D7I S7I                      SYS / # / OBS TYPES
E    8 C1C L1C D1C S1C C7Q L7Q D7Q S7Q                      SYS / # / OBS TYPES
DBHZ                                                        COMMENT
     30.000                                                 INTERVAL
  2020    05    13    13    00    0.0000000     GPS         TIME OF FIRST OBS
  2020    05    13    13    59   30.0000000     GPS         TIME OF LAST OBS
     0                                                      RCV CLOCK OFFS APPL
G L1C  0.00000                                              SYS / PHASE SHIFT
G L2Y  0.00000                                              SYS / PHASE SHIFT
R L1C  0.00000                                              SYS / PHASE SHIFT
R L2P  0.25000                                              SYS / PHASE SHIFT
C L1I  0.00000                                              SYS / PHASE SHIFT
C L7I  0.00000                                              SYS / PHASE SHIFT
E L1C  0.50000                                              SYS / PHASE SHIFT
E L7Q -0.25000                                              SYS / PHASE SHIFT
 11 R01  1 R06 -4 R07  5 R08  6 R10 -5 R11  0 R12 -1 R13 -2 GLONASS SLOT / FRQ #
    R21  4 R22 -3 R23  3                                    GLONASS SLOT / FRQ #
 C1C   71.950 C2C   71.950 C2P   71.950                     GLONASS COD/PHS/BIS
    18                                                      LEAP SECONDS
*** Above antenna height is from mark to ANTENNA BOTTOM.    COMMENT
    17     4        0.0000        ANT MEASURE TYPE/HEIGT    COMMENT
    0.0000    0.0000    0.0458    0.0405    0.0000          COMMENT
                    BASE STATION                            COMMENT
                                                            END OF HEADER
> 2020 05 13 13 00  0.0000000  0 17        .000000000000
G18  20414156.438 8 107277181.148 8       822.500          51.000    20414156.305 8  83592619.974 8       640.909          51.000
G20  24361528.359 5 128020688.528 5      3335.027          31.000
G21  20704827.797 8 108804623.077 8       542.270          50.000    20704825.594 8  84782839.894 8       422.548          50.000
G25  23958325.258 7 125901836.527 7     -3398.328          44.000    23958329.781 7  98105335.531 7     -2648.048          44.000
G31  22107283.586 8 116174551.681 8     -2374.828          49.000    22107283.555 8  90525610.178 8     -1850.518          49.000
R12  21328271.977 8 113931758.542 8     -3777.824          50.000    21328272.750 6  88613602.599 6     -2938.311          41.000
R13  19261372.484 6 102854652.664 6      -104.859          40.000    19261374.625 7  79998072.719 7       -81.557          43.000
R23  19367695.828 8 103604186.787 8       761.688          49.000    19367700.531 6  80580972.425 6       592.424          38.000
R24  21655425.516 8 115801367.913 8      3087.859          50.000    21655426.977 7  90067641.732 7      2401.671          45.000
C05  39626112.703 5 206343566.818 5        16.098          35.000    39626112.883 5 159557934.970 5        12.698          35.000
C11  25076738.148 6 130581168.042 6      2618.375          41.000    25076742.180 8 100973657.336 8      2024.787          49.000
C12  21653944.469 7 112757850.109 7       574.770          47.000    21653943.703 8  87191526.800 8       444.566          51.000
C24  22638059.750 8 117882328.461 8     -1759.309          51.000
C26  25159740.875 5 131013379.544 5     -3436.371          33.000
E02  23774889.391 8 124937877.513 8     -1488.816          51.000    23774891.125 8  95731627.160 8     -1140.766          51.000
E25  27776089.508 7 145964276.292 7     -2953.531          46.000    27776097.305 6 111842752.654 6     -2263.027          41.000
E36  23743851.789 8 124774801.240 8     -1365.293          51.000    23743855.070 8  95606700.086 8     -1046.101          51.000
> 2020 05 13 13 00 30.0000000  0 17        .000000000000
G18  20409520.055 8 107252816.843 8       803.008          51.000    20409520.070 8  83573634.805 8       625.720          51.000
G20  24342494.336 5 127920664.904 5      3334.672          32.000
G21  20701784.531 8 108788630.980 8       525.148          50.000    20701782.328 8  84770378.514 8       409.207          50.000
G25  23977745.688 7 126003892.698 7     -3404.000          43.000    23977750.922 7  98184859.722 7     -2652.471          42.000
G31  22120884.367 8 116246022.906 8     -2388.785          50.000    22120883.930 8  90581302.010 8     -1861.391          50.000
R12  21349530.242 8 114045320.507 8     -3791.883          50.000    21349529.492 6  88701928.459 6     -2949.245          38.000
R13  19262040.758 6 102858222.020 6      -131.957          40.000    19262043.164 7  80000848.883 7      -102.633          44.000
R23  19363481.070 8 103581640.878 8       742.621          48.000    19363485.906 6  80563436.721 6       577.594          37.000
R24  21638140.125 8 115708937.232 8      3075.406          50.000    21638142.734 7  89995751.235 7      2391.983          46.000
C05  39626025.055 5 206343109.375 5        15.543          35.000    39626025.305 5 159557582.001 5        12.013          35.000
C11  25061672.250 6 130502719.078 6      2612.422          39.000    25061677.008 8 100912995.652 8      2020.311          49.000
C12  21650667.422 7 112740786.512 7       563.883          47.000    21650666.953 8  87178332.155 8       436.042          51.000
C24  22648242.109 8 117935347.899 8     -1774.137          51.000
C26  25179550.406 5 131116534.396 5     -3437.848          30.000
E02  23783425.047 8 124982733.638 8     -1500.383          51.000    23783426.891 8  95765997.422 8     -1149.617          51.000
E25  27792965.664 7 146052960.273 7     -2957.371          46.000    27792974.336 7 111910705.246 7     -2266.247          42.000
E36  23751677.148 8 124815923.881 8     -1374.934          51.000    23751680.195 8  95638209.624 8     -1053.482          51.000
> 2020 05 13 13 01  0.0000000  0 18        .000000000000
G18  20404985.953 8 107228989.571 8       786.516          51.000    20404985.789 8  83555068.095 8       612.869          51.000
G20  24323456.336 5 127820617.404 5      3336.824          31.000
G21  20698829.703 8 108773104.416 8       510.969          49.000    20698828.078 8  84758279.909 8       398.157          49.000
G25  23997188.953 7 126106068.456 7     -3406.383          43.000    23997194.633 7  98264477.119 7     -2654.327          43.000
G31  22134555.703 8 116317864.670 8     -2399.602          51.000    22134554.375 8  90637282.538 8     -1869.822          51.000
R12  21370858.250 8 114159253.523 8     -3802.648          50.000    21370857.477 6  88790542.915 6     -2957.618          40.000
R13  19262850.805 6 102862548.815 6      -155.508          40.000    19262853.688 7  80004214.173 7      -120.951          44.000
R22  21254872.758 5 113459927.770 5     -3247.926          34.000    21254876.266 4  88246621.313 4     -2526.158          26.000
R23  19359364.352 8 103559618.135 8       726.602          48.000    19359369.102 6  80546307.945 6       565.135          38.000
R24  21620915.695 8 115616831.836 8      3065.996          50.000    21620919.516 7  89924113.691 7      2384.664          46.000
C05  39625932.008 6 206342624.647 6        17.605          36.000    39625932.289 5 159557208.144 5        13.985          35.000
C11  25046630.438 6 130424395.886 6      2610.105          39.000    25046635.945 8 100852431.223 8      2018.205          49.000
C12  21647444.148 7 112724001.988 7       556.059          47.000    21647444.039 8  87165353.290 8       430.082          51.000
C24  22658500.844 8 117988764.953 8     -1785.910          51.000
C26  25199370.359 4 131219732.085 4     -3440.656          29.000
E02  23792017.281 8 125027887.510 8     -1508.762          51.000    23792018.867 8  95800595.847 8     -1156.058          51.000
E25  27809854.484 7 146141710.311 7     -2958.168          45.000    27809863.609 7 111978708.409 7     -2266.612          43.000
E36  23759547.883 8 124857284.449 8     -1381.371          51.000    23759550.773 8  95669901.474 8     -1058.477          51.000
> 2020 05 13 13 01 30.0000000  0 17        .000000000000
G18  20400566.953 8 107205768.028 8       761.449          51.000    20400566.773 8  83536973.381 8       593.337          51.000
G20  24304427.039 5 127720617.207 5      3329.773          31.000
G21  20695976.164 8 108758111.330 8       488.488          49.000    20695974.844 8  84746596.977 8       380.637          49.000
G25  24016667.969 7 126208430.877 7     -3417.723          44.000    24016673.820 7  98344239.958 7     -2663.164          43.000
G31  22148310.172 8 116390143.177 8     -2418.996          51.000    22148307.969 8  90693603.410 8     -1884.932          51.000
R12  21392268.352 8 114273623.888 8     -3822.109          50.000    21392269.898 7  88879497.593 7     -2972.755          44.000
R13  19263815.945 6 102867703.477 6      -188.312          39.000    19263819.117 7  80008223.359 7      -146.465          44.000
R23  19355358.031 8 103538187.585 8       702.004          48.000    19355363.328 6  80529639.745 6       546.003          38.000
R24  21603765.492 8 115525122.283 8      3047.840          51.000    21603769.695 7  89852784.062 7      2370.542          45.000
C05  39625846.359 5 206342179.388 5        11.523          35.000    39625846.930 5 159556863.839 5         9.170          35.000
C11  25031626.438 6 130346266.782 6      2598.793          41.000    25031632.297 8 100792016.834 8      2009.434          48.000
C12  21644287.461 7 112707563.957 7       539.770          47.000    21644287.508 8  87152642.383 8       417.330          51.000
C24  22668848.352 8 118042646.026 8     -1806.234          51.000
C26  25219213.367 5 131323058.051 5     -3448.758          30.000
E02  23800679.039 8 125073407.223 8     -1525.930          51.000    23800680.641 8  95835474.600 8     -1169.195          51.000
E25  27826768.883 7 146230593.768 7     -2967.316          44.000    27826778.078 7 112046813.785 7     -2273.853          42.000
E36  23767476.555 8 124898949.996 8     -1396.422          51.000    23767479.648 8  95701827.021 8     -1069.977          51.000
> 2020 05 13 13 02  0.0000000  0 16        .000000000000
G18  20396254.398 8 107183105.657 8       747.715          51.000    20396254.352 8  83519314.398 8       582.638          51.000
G20  24285397.148 5 127620627.291 5      3335.066          32.000
G21  20693215.555 8 108743604.792 8       477.188          50.000    20693214.656 8  84735293.171 8       371.834          50.000
G25  24036173.688 7 126310931.937 7     -3417.496          45.000    24036178.789 7  98424110.806 7     -2662.987          44.000
G31  22162138.148 8 116462808.815 8     -2426.801          51.000    22162135.898 8  90750225.955 8     -1891.014          51.000
R12  21413751.195 8 114388380.642 8     -3829.867          51.000    21413754.688 7  88968752.832 7     -2978.786          45.000
R13  19264927.680 6 102873638.883 6      -209.195          41.000    19264930.500 7  80012839.780 7      -162.707          44.000
R23  19351453.258 8 103517300.808 8       688.898          48.000    19351459.234 6  80513394.450 6       535.807          38.000
R24  21586680.656 8 115433762.399 8      3041.238          50.000    21586684.727 7  89781726.414 7      2365.411          44.000
C05  39625759.523 5 206341727.221 5        16.949          35.000    39625760.016 5 159556514.191 5        13.046          35.000
C11  25016651.258 6 130268285.584 6      2598.734          41.000    25016656.969 8 100731716.864 8      2009.446          48.000
C12  21641188.266 7 112691425.435 7       534.699          47.000    21641188.016 8  87140163.068 8       413.442          51.000
C24  22679275.422 8 118096943.455 8     -1815.117          51.000
E02  23809401.453 8 125119245.593 8     -1531.516          51.000    23809403.398 8  95870597.498 8     -1173.493          51.000
E25  27843699.758 7 146319562.881 7     -2965.418          43.000    27843708.289 6 112114984.750 6     -2272.209          41.000
E36  23775454.016 8 124940872.400 8     -1399.969          51.000    23775457.273 8  95733949.375 8     -1072.676          51.000
> 2020 05 13 13 02 30.0000000  0 16        .000000000000
G18  20392047.781 8 107160999.473 8       727.473          51.000    20392047.750 8  83502088.810 8       566.862          50.000
G20  24266368.188 5 127520633.227 5      3333.355          34.000
G21  20690546.945 8 108729581.081 8       459.289          49.000    20690546.609 8  84724365.617 8       357.888          49.000
G25  24055704.938 7 126413567.039 7     -3423.441          45.000    24055708.852 7  98504086.100 7     -2667.620          44.000
G31  22176038.477 8 116535856.002 8     -2441.434          51.000    22176037.039 8  90807145.827 8     -1902.416          51.000
R12  21435305.367 8 114503517.631 8     -3844.363          50.000    21435309.945 7  89058303.827 7     -2990.060          46.000
R13  19266185.422 6 102880352.142 6      -237.117          41.000    19266187.625 7  80018061.226 7      -184.424          44.000
R23  19347649.703 8 103496953.684 8       669.176          48.000    19347655.953 6  80497568.905 6       520.470          38.000
R24  21569660.406 8 115342750.056 8      3027.906          49.000    21569664.164 7  89710939.066 7      2355.038          44.000
C05  39625670.594 6 206341263.990 6        15.711          36.000    39625671.141 6 159556156.731 6        12.251          36.000
C11  25001704.273 7 130190449.688 7      2591.984          42.000    25001708.898 7 100671529.255 7      2004.223          47.000
C12  21638145.914 7 112675582.744 7       523.094          47.000    21638145.328 8  87127912.492 8       404.453          51.000
C24  22689781.336 8 118151652.805 8     -1830.621          51.000
E02  23818184.148 8 125165399.133 8     -1543.859          51.000    23818186.055 8  95905961.888 8     -1182.957          51.000
E25  27860646.102 6 146408613.301 6     -2969.578          41.000    27860653.102 6 112183217.998 6     -2275.577          38.000
E36  23783479.578 8 124983047.144 8     -1410.133          51.000    23783482.781 8  95766265.086 8     -1080.485          51.000
> 2020 05 13 13 03  0.0000000  0 16        .000000000000
G18  20387950.094 8 107139466.028 8       707.852          51.000    20387949.922 8  83485309.507 8       551.573          49.000
G20  24247344.516 5 127420661.009 5      3331.348          32.000
G21  20687973.141 8 108716056.013 8       442.180          49.000    20687972.922 8  84713826.637 8       344.556          50.000
G25  24075264.406 7 126516351.260 7     -3428.934          45.000    24075267.320 7  98584177.585 7     -2671.899          45.000
G31  22190013.836 8 116609298.610 8     -2455.066          51.000    22190013.719 8  90864373.829 8     -1913.036          51.000
R12  21456933.227 8 114619048.126 8     -3857.941          51.000    21456938.758 7  89148160.844 7     -3000.621          45.000
R13  19267591.406 6 102887860.695 6      -263.719          40.000    19267593.875 7  80023901.191 7      -205.115          44.000
R23  19343950.125 8 103477162.051 8       650.082          48.000    19343956.109 5  80482175.421 5       505.619          35.000
R24  21552708.805 8 115252102.976 8      3015.062          50.000    21552712.289 7  89640435.815 7      2345.052          44.000
C05  39625583.195 5 206340808.868 5        14.094          35.000
C11  24986788.445 7 130112775.756 7      2586.246          42.000    24986791.352 7 100611466.848 7      1999.907          45.000
C12  21635163.227 7 112660051.766 7       512.133          46.000    21635162.961 8  87115902.957 8       396.110          51.000
C24  22700368.828 8 118206788.942 8     -1845.340          51.000
E02  23827030.125 8 125211883.819 8     -1555.348          51.000    23827031.727 8  95941580.005 8     -1191.730          51.000
E25  27877610.852 6 146497760.446 6     -2973.570          40.000    27877614.766 5 112251525.329 5     -2278.438          35.000
E36  23791556.000 8 125025489.141 8     -1419.512          51.000    23791559.250 8  95798785.575 8     -1087.654          51.000
> 2020 05 13 13 03 30.0000000  0 17        .000000000000
G18  20383957.508 8 107118485.261 8       690.438          51.000    20383957.250 8  83468960.875 8       538.006          49.000
G20  24228321.977 4 127320690.345 4      3331.801          29.000
G21  20685490.633 8 108703009.053 8       427.195          51.000    20685490.133 8  84703660.179 8       332.879          50.000
G25  24094847.742 7 126619263.112 7     -3432.172          43.000    24094850.562 7  98664368.538 7     -2674.423          43.000
G29  21883326.820 6 114997662.221 6     -2324.879          36.000
G31  22204060.086 8 116683113.855 8     -2466.414          51.000    22204061.000 8  90921892.198 8     -1921.881          51.000
R12  21478629.992 8 114734948.439 8     -3869.098          50.000    21478635.562 7  89238305.498 7     -3009.298          42.000
R13  19269142.695 6 102896143.809 6      -288.629          41.000    19269144.984 7  80030343.619 7      -224.489          44.000
R23  19340350.469 7 103457904.651 7       633.309          46.000    19340355.703 5  80467197.457 5       492.573          34.000
R24  21535822.234 8 115161801.651 8      3004.543          50.000    21535824.922 7  89570201.479 7      2336.867          43.000
C05  39625492.820 6 206340337.680 6        16.715          36.000    39625493.180 6 159555439.458 6        12.523          36.000
C11  24971899.914 7 130035244.081 7      2582.219          43.000    24971901.117 7 100551514.492 7      1996.796          45.000
C12  21632236.164 7 112644811.754 7       503.520          46.000    21632236.430 8  87104118.430 8       389.356          51.000
C24  22711034.102 8 118262330.488 8     -1857.836          50.000
E02  23835935.117 8 125258679.123 8     -1564.676          51.000    23835936.258 8  95977436.107 8     -1198.916          51.000
E25  27894589.828 6 146586982.904 6     -2974.754          38.000    27894589.977 5 112319890.359 5     -2279.159          33.000
E36  23799679.070 8 125068176.853 8     -1426.730          51.000    23799682.633 8  95831494.347 8     -1093.215          51.000
> 2020 05 13 13 04  0.0000000  0 18        .000000000000
G18  20380079.992 8 107098108.632 8       667.648          51.000    20380079.734 8  83453082.998 8       520.246          49.000
G20  24209309.492 5 127220781.352 5      3328.855          32.000
G21  20683108.844 8 108690491.115 8       406.910          50.000    20683108.320 8  84693905.947 8       317.073          50.000
G25  24114464.242 7 126722352.415 7     -3440.699          42.000    24114467.953 7  98744697.773 7     -2681.067          42.000
G31  22218186.836 8 116757350.594 8     -2483.039          51.000    22218187.945 8  90979738.990 8     -1934.836          51.000
R12  21500404.836 8 114851267.233 8     -3885.664          51.000    21500408.172 6  89328775.508 6     -3022.189          38.000
R13  19270848.828 6 102905254.301 6      -319.055          41.000    19270851.000 7  80037429.558 7      -248.154          44.000
R22  21365136.445 5 114048468.685 5     -3290.688          34.000    21365138.891 5  88704371.379 5     -2559.427          33.000
R23  19336860.102 7 103439232.590 7       611.066          46.000    19336865.094 5  80452674.783 5       475.274          34.000
R24  21519010.125 8 115071899.410 8      2988.574          49.000    21519012.438 7  89500277.525 7      2324.447          43.000
C05  39625409.625 5 206339904.419 5        12.277          35.000    39625409.984 6 159555104.385 6         9.823          36.000
C11  24957048.945 7 129957905.838 7      2573.254          44.000    24957048.680 7 100491711.735 7      1989.873          47.000
C12  21629374.617 7 112629913.150 7       489.453          45.000    21629375.117 8  87092597.877 8       378.531          51.000
C24  22721787.141 8 118318326.805 8     -1875.672          50.000
C26  25318630.164 5 131840753.740 5     -3460.543          31.000
E02  23844908.703 8 125305835.868 8     -1579.402          51.000    23844909.164 8  96013569.121 8     -1210.170          50.000
E25  27911592.648 6 146676330.998 6     -2982.039          36.000    27911589.406 5 112388412.616 5     -2284.646          32.000
E36  23807858.430 8 125111160.162 8     -1439.160          51.000    23807862.133 8  95864429.616 8     -1102.733          51.000
> 2020 05 13 13 04 30.0000000  0 18        .000000000000
G18  20376307.641 8 107078285.148 8       651.277          51.000    20376307.461 8  83437636.157 8       507.489          49.000
G20  24190299.359 5 127120882.173 5      3329.969          33.000
G21  20680817.758 8 108678450.905 8       393.199          51.000    20680817.250 8  84684523.992 8       306.392          50.000
G25  24134104.891 7 126825566.931 7     -3442.688          42.000    24134109.492 7  98825124.599 7     -2682.617          42.000
G29  21909947.820 5 115137552.241 5     -2337.375          32.000    21909940.938 5  89717544.321 5     -1821.331          32.000
G31  22232383.914 8 116831955.214 8     -2493.195          51.000    22232383.719 8  91037872.412 8     -1942.753          51.000
R12  21522248.164 8 114967949.672 8     -3895.555          51.000    21522249.969 7  89419528.324 7     -3029.882          42.000
R13  19272700.125 7 102915141.435 7      -342.805          42.000    19272702.555 7  80045119.536 7      -266.626          44.000
R23  19333469.234 7 103421092.992 7       595.414          46.000    19333473.953 5  80438566.209 5       463.100          34.000
R24  21502263.398 8 114982345.466 8      2979.004          49.000    21502265.391 7  89430624.478 7      2317.003          43.000
C05  39625323.695 5 206339457.383 5        14.715          35.000    39625324.211 6 159554759.699 6        11.608          36.000
C11  24942225.555 7 129880710.778 7      2570.551          43.000    24942224.328 7 100432019.697 7      1987.565          47.000
C12  21626569.125 7 112615304.793 7       481.887          46.000    21626569.531 8  87081301.759 8       372.592          51.000
C24  22732617.656 8 118374725.950 8     -1886.891          50.000
C26  25338554.898 5 131944502.825 5     -3458.828          32.000
E02  23853941.297 8 125353302.646 8     -1587.660          51.000    23853940.773 8  96049939.679 8     -1216.477          49.000
E25  27928609.594 5 146765752.491 5     -2982.641          35.000    27928604.141 5 112456930.173 5     -2285.140          33.000
E36  23816084.117 8 125154386.631 8     -1445.125          51.000    23816087.742 8  95897551.202 8     -1107.363          51.000
> 2020 05 13 13 05  0.0000000  0 16        .000000000000
G18  20372647.281 8 107059049.727 8       632.172          51.000    20372647.102 8  83422647.529 8       492.601          50.000
G21  20678624.234 8 108666922.560 8       376.637          51.000    20678623.219 8  84675540.852 8       293.483          49.000
G25  24153776.422 7 126928940.104 7     -3447.590          45.000    24153781.156 7  98905675.031 7     -2686.437          45.000
G31  22246657.289 8 116906959.879 8     -2505.988          51.000    22246654.516 8  91096317.527 8     -1952.721          51.000
R12  21544165.625 8 115085027.659 8     -3908.254          51.000    21544168.648 7  89510588.877 7     -3039.756          45.000
R13  19274703.680 7 102925840.243 7      -369.391          42.000    19274706.062 7  80053440.809 7      -287.304          43.000
R23  19330184.023 7 103403520.298 7       577.074          45.000    19330188.914 5  80424898.538 5       448.836          33.000
R24  21485588.648 8 114893176.084 8      2966.664          50.000    21485590.562 7  89361270.571 7      2307.405          43.000
C05                                                                  39625242.398 5 159554430.480 5        11.031          35.000
C11  24927436.117 7 129803693.664 7      2565.152          43.000    24927434.234 7 100372465.228 7      1983.433          47.000
C12  21623826.008 7 112601020.477 7       471.574          46.000    21623826.414 8  87070256.228 8       364.585          51.000
C24  22743532.016 8 118431560.958 8     -1900.895          50.000
C26  25358496.719 6 132048336.914 6     -3461.473          36.000
E02  23863039.383 8 125401113.759 8     -1598.656          51.000    23863038.281 8  96086574.115 8     -1224.959          50.000
E25  27945645.867 5 146855361.022 5     -2985.055          35.000    27945641.266 5 112525529.760 5     -2287.217          34.000
E36  23824362.383 8 125197889.670 8     -1453.895          51.000    23824365.961 8  95930884.701 8     -1114.014          51.000
> 2020 05 13 13 05 30.0000000  0 17        .000000000000
G18  20369088.891 8 107040350.632 8       613.820          51.000    20369088.969 8  83408076.805 8       478.305          51.000
G21  20676518.039 8 108655853.788 8       360.785          51.000    20676516.594 8  84666915.842 8       281.131          50.000
G25  24173468.227 7 127032418.737 7     -3451.484          46.000    24173472.336 7  98986307.622 7     -2689.471          46.000
G29  21936702.211 5 115278165.895 5     -2348.660          34.000
G31  22260996.258 8 116982309.892 8     -2517.922          50.000    22260991.844 8  91155031.738 8     -1962.020          51.000
R12  21566146.891 8 115202445.396 8     -3920.031          48.000    21566150.602 8  89601913.697 8     -3048.916          48.000
R13  19276849.375 7 102937298.490 7      -395.238          42.000    19276851.805 7  80062352.777 7      -307.408          44.000
R23  19326994.914 7 103386461.152 7       559.527          45.000    19326999.852 5  80411630.350 5       435.188          33.000
R24  21468975.852 8 114804340.022 8      2955.078          49.000    21468978.414 7  89292175.869 7      2298.394          44.000
C05                                                                  39625154.562 6 159554076.485 6        11.635          36.000
C11  24912670.930 7 129726803.753 7      2560.129          43.000    24912668.516 8 100313009.091 8      1979.950          48.000
C12  21621135.328 7 112587008.458 7       461.988          47.000    21621135.703 8  87059421.244 8       357.293          51.000
C24  22754520.383 8 118488779.100 8     -1914.137          51.000
C26  25378443.805 6 132152202.503 6     -3463.453          38.000
E02  23872192.734 8 125449217.043 8     -1608.758          51.000    23872192.250 8  96123432.449 8     -1232.726          51.000
E25                                                                  27962690.727 6 112594170.965 6     -2289.084          36.000
E36  23832683.203 8 125241616.112 8     -1461.750          51.000    23832686.773 8  95964389.384 8     -1120.060          51.000
> 2020 05 13 13 06  0.0000000  0 18        .000000000000
G18  20365638.656 8 107022219.990 8       593.938          51.000    20365638.930 8  83393949.034 8       462.808          51.000
G20  24133294.773 5 126821316.351 5      3325.871          33.000
G21  20674505.016 8 108645275.891 8       343.480          51.000    20674503.586 8  84658673.346 8       267.647          50.000
G25  24193186.023 7 127136033.608 7     -3456.918          45.000    24193188.562 7  99067046.377 7     -2693.705          46.000
G29  21950128.039 5 115348709.437 5     -2354.691          33.000    21950133.375 5  89882105.621 5     -1834.828          33.000
G31  22275406.023 8 117058034.869 8     -2531.305          48.000    22275402.109 8  91214038.149 8     -1972.445          48.000
R12  21588196.422 7 115320232.074 7     -3933.109          43.000    21588201.281 8  89693525.504 8     -3059.085          48.000
R13  19279142.992 6 102949548.601 6      -422.414          41.000    19279146.117 7  80071880.611 7      -328.547          44.000
R23  19323907.797 7 103369946.919 7       540.508          44.000    19323912.742 5  80398785.941 5       420.395          32.000
R24  21452430.984 7 114715870.498 7      2941.961          47.000    21452435.031 7  89223366.251 7      2288.192          43.000
C05  39625066.461 6 206338117.769 6        14.441          36.000    39625066.938 5 159553723.828 5        10.883          35.000
C11  24897935.773 7 129650073.010 7      2554.184          42.000    24897933.117 7 100253676.056 7      1975.072          46.000
C12  21618502.984 7 112573299.933 7       451.012          47.000    21618503.234 8  87048820.923 8       348.866          51.000
C24  22765588.500 8 118546410.729 8     -1928.855          51.000
C26  25398401.984 6 132256129.794 6     -3465.910          37.000
E02  23881407.602 8 125497644.163 8     -1620.406          50.000    23881408.422 8  96160538.954 8     -1241.616          51.000
E25  27979753.727 6 147034588.815 6     -2991.125          36.000    27979757.773 6 112662877.440 6     -2291.841          38.000
E36  23841052.523 8 125285596.656 8     -1471.137          51.000    23841056.086 8  95998088.767 8     -1127.229          51.000
> 2020 05 13 13 06 30.0000000  0 16        .000000000000
G18  20362301.141 8 107004681.469 8       574.031          51.000    20362301.562 8  83380282.659 8       447.300          51.000
G20  24114312.938 5 126721556.565 5      3322.961          34.000
G21  20672589.898 8 108635212.206 8       326.168          51.000    20672588.273 8  84650831.509 8       254.157          50.000
G25  24212933.734 7 127239806.997 7     -3462.391          45.000    24212935.016 7  99147908.642 7     -2697.970          44.000
G31  22289890.797 7 117134156.038 7     -2544.785          47.000    22289887.906 7  91273353.308 7     -1982.949          47.000
R12  21610314.266 6 115438408.272 6     -3946.633          41.000    21610324.594 8  89785440.451 8     -3069.600          48.000
R13  19281589.422 7 102962615.317 7      -450.008          42.000    19281593.133 7  80082043.610 7      -350.003          44.000
R23  19320926.164 7 103354000.890 7       521.281          43.000    19320931.867 5  80386383.482 5       405.444          33.000
R24  21435959.602 7 114627792.974 7      2928.672          47.000    21435963.727 6  89154861.551 6      2277.856          41.000
C05  39624983.672 6 206337686.123 6        13.238          36.000    39624984.211 5 159553390.007 5        10.611          35.000
C11  24883234.805 6 129573525.268 6      2547.633          41.000    24883232.656 7 100194484.461 7      1970.218          47.000
C12  21615933.195 7 112559917.846 7       439.934          47.000    21615933.359 8  87038473.056 8       340.224          51.000
C24  22776740.047 8 118604477.797 8     -1943.559          51.000
C26  25418375.875 6 132360139.951 6     -3469.375          36.000
E02  23890688.656 8 125546418.325 8     -1632.312          50.000    23890690.844 8  96197911.376 8     -1250.679          51.000
E36  23849474.461 8 125329853.567 8     -1480.504          51.000    23849477.984 8  96031999.909 8     -1134.412          51.000
> 2020 05 13 13 07  0.0000000  0 18        .000000000000
G18  20359075.391 8 106987730.792 8       556.945          50.000    20359075.797 8  83367074.328 8       433.983          50.000
G20  24095341.492 5 126621872.057 5      3324.090          34.000
G21  20670771.555 8 108625657.494 8       311.762          50.000    20670769.648 8  84643386.277 8       242.931          49.000
G25  24232710.047 7 127343733.224 7     -3465.156          43.000    24232711.742 7  99228889.986 7     -2700.125          43.000
G29  21977087.250 5 115490362.259 5     -2365.793          31.000
G31  22304449.703 8 117210666.260 8     -2555.004          48.000    22304447.633 7  91332971.637 7     -1990.912          47.000
R12  21632509.344 8 115556966.676 8     -3956.426          48.000    21632519.023 7  89877652.510 7     -3077.223          47.000
R13  19284188.094 6 102976494.101 6      -474.508          41.000    19284192.219 7  80092838.195 7      -369.062          44.000
R22  21476595.445 5 114643456.128 5     -3321.695          33.000
R23  19318050.047 7 103338617.635 7       505.070          43.000    19318056.281 5  80374418.735 5       392.832          32.000
R24  21419561.344 7 114540103.875 7      2918.242          47.000    21419564.383 6  89086658.988 6      2269.744          40.000
C05  39624904.695 5 206337275.647 5        15.449          35.000    39624905.320 5 159553073.336 5        11.735          35.000
C11  24868567.820 6 129497156.610 6      2544.480          41.000    24868566.812 7 100135431.404 7      1967.527          47.000
C12  21613425.156 7 112546857.348 7       431.832          47.000    21613425.117 8  87028373.872 8       333.923          51.000
C24  22787973.742 8 118662974.568 8     -1955.234          51.000
C26  25438364.234 6 132464226.598 6     -3468.820          36.000
E02  23900035.344 8 125595534.799 8     -1641.172          51.000    23900038.414 8  96235546.077 8     -1257.476          51.000
E36  23857947.812 8 125374381.096 8     -1486.945          51.000    23857951.125 8  96066118.413 8     -1139.333          51.000
> 2020 05 13 13 07 30.0000000  0 17        .000000000000
G18  20355952.078 8 106971318.908 8       536.520          50.000    20355952.523 8  83354285.815 8       418.064          49.000
G20  24076373.953 5 126522189.967 5      3321.430          33.000
G21  20669040.656 8 108616562.483 8       293.934          50.000    20669038.930 8  84636299.283 8       229.042          49.000
G25  24252505.711 7 127447761.909 7     -3471.070          43.000    24252508.742 7  99309951.187 7     -2704.733          43.000
G29  21990609.234 4 115561433.101 4     -2373.754          28.000    21990612.188 4  90047878.364 4     -1849.681          29.000
G31  22319073.336 8 117287513.987 8     -2568.820          50.000    22319072.016 8  91392852.938 8     -2001.681          50.000
R12  21654767.180 8 115675854.176 8     -3970.020          51.000    21654774.633 7  89970120.491 7     -3087.796          45.000
R13  19286930.133 7 102991135.766 7      -502.406          42.000    19286933.914 7  80104226.137 7      -390.760          43.000
R23  19315269.336 6 103323746.512 6       485.277          41.000    19315275.242 4  80362852.353 4       377.441          29.000
R24  21403226.961 8 114452754.631 8      2904.211          48.000    21403230.016 6  89018720.717 6      2258.831          41.000
C05  39624820.125 6 206336834.687 6        13.906          36.000    39624820.805 5 159552732.637 5        10.276          35.000
C11  24853926.102 6 129420918.703 6      2537.473          41.000    24853926.555 7 100076479.475 7      1962.002          47.000
C12  21610969.508 7 112534069.333 7       420.184          47.000    21610969.156 8  87018485.372 8       324.855          51.000
C24  22799279.641 8 118721851.023 8     -1970.500          50.000
C26  25458357.805 6 132568339.300 6     -3472.227          36.000
E02  23909438.219 8 125644944.113 8     -1653.508          51.000    23909441.477 8  96273405.145 8     -1267.036          51.000
E36  23866463.117 8 125419128.906 8     -1496.898          51.000    23866466.125 8  96100405.696 8     -1146.989          51.000
> 2020 05 13 13 08  0.0000000  0 15        .000000000000
G18  20352941.328 8 106955498.434 8       518.910          50.000    20352942.016 8  83341958.177 8       404.346          50.000
G21  20667407.195 8 108607979.398 8       278.973          49.000    20667405.508 8  84629611.190 8       217.381          49.000
G25  24272331.008 7 127551944.399 7     -3473.711          44.000    24272335.133 7  99391132.253 7     -2706.794          44.000
G31  22333771.047 8 117364749.474 8     -2579.465          51.000    22333770.383 8  91453036.394 8     -2009.973          51.000
R12  21677095.789 8 115795120.937 8     -3980.309          50.000    21677101.148 7  90062883.418 7     -3095.799          44.000
R13  19289825.242 7 103006593.353 7      -527.230          42.000    19289828.578 7  80116248.670 7      -410.068          44.000
R23  19312594.711 7 103309439.610 7       469.145          43.000    19312599.641 5  80351724.759 5       364.890          31.000
R24  21386966.641 8 114365799.720 8      2893.473          50.000    21386969.766 6  88951089.144 6      2250.479          41.000
C05  39624740.211 5 206336419.469 5        14.992          35.000    39624741.016 5 159552410.740 5        11.665          35.000
C11  24839320.422 6 129344864.297 6      2533.672          40.000    24839321.516 8 100017669.401 8      1959.072          48.000
C12  21608575.969 7 112521605.420 7       411.574          47.000    21608575.445 8  87008847.474 8       318.246          51.000
C24  22810668.055 8 118781157.859 8     -1982.531          49.000
C26  25478366.367 5 132672528.371 5     -3473.426          30.000
E02  23918906.859 8 125694698.465 8     -1662.727          51.000    23918910.000 8  96311528.579 8     -1273.998          51.000
E36  23875030.039 8 125464148.233 8     -1503.641          51.000    23875033.141 8  96134901.011 8     -1152.143          51.000
> 2020 05 13 13 08 30.0000000  0 16        .000000000000
G18  20350032.273 8 106940211.618 8       501.008          50.000    20350032.898 8  83330046.362 8       390.396          50.000
G21  20665860.062 8 108599850.030 8       263.738          49.000    20665858.266 8  84623276.625 8       205.510          49.000
G25  24292174.602 7 127656221.668 7     -3477.199          45.000    24292179.258 7  99472387.161 7     -2709.512          45.000
G29  22017758.344 5 115704106.274 5     -2381.992          34.000    22017758.016 6  90159042.851 6     -1856.104          36.000
G31  22348531.133 8 117442312.304 8     -2590.594          51.000    22348531.094 8  91513474.925 8     -2018.648          51.000
R12  21699482.906 8 115914704.793 8     -3991.086          48.000    21699486.281 6  90155892.960 6     -3104.181          41.000
R13  19292862.148 6 103022808.561 6      -552.961          41.000    19292865.211 7  80128860.458 7      -430.081          44.000
R23  19310014.508 7 103295637.409 7       451.992          42.000    19310019.961 5  80340989.748 5       351.553          34.000
R24  21370769.352 8 114279181.244 8      2881.996          51.000    21370771.094 6  88883719.238 6      2241.553          40.000
C05                                                                  39624654.625 5 159552063.001 5        11.998          35.000
C11  24824739.242 6 129268936.385 6      2529.121          41.000    24824741.086 8  99958957.164 8      1955.562          49.000
C12  21606233.664 8 112509407.822 8       402.441          48.000    21606233.078 8  86999415.512 8       311.136          51.000
C24  22822128.273 8 118840836.374 8     -1995.113          50.000
C26  25498378.289 5 132776734.548 5     -3473.535          33.000
E02  23928429.828 8 125744739.728 8     -1672.543          51.000    23928432.672 8  96349871.856 8     -1281.568          51.000
E36  23883637.297 8 125509380.017 8     -1510.996          51.000    23883640.789 8  96169559.140 8     -1157.803          51.000
> 2020 05 13 13 09  0.0000000  0 15        .000000000000
G18  20347237.461 8 106925524.749 8       479.023          50.000    20347237.977 8  83318602.054 8       373.265          51.000
G21  20664411.656 8 108592239.759 8       244.621          48.000    20664410.414 8  84617346.563 8       190.614          49.000
G25  24312048.727 7 127760658.645 7     -3484.422          45.000    24312053.133 7  99553766.481 7     -2715.140          45.000
G31  22363365.539 8 117520265.946 8     -2605.410          51.000    22363365.977 8  91574217.995 8     -2030.190          51.000
R12  21721940.391 7 116034669.961 7     -4005.562          46.000    21721942.844 6  90249199.130 6     -3115.441          40.000
R13  19296053.453 6 103039849.014 6      -582.242          40.000    19296056.562 7  80142114.158 7      -452.855          44.000
R23  19307541.250 7 103282406.403 7       431.012          43.000    19307546.930 5  80330698.946 5       335.231          33.000
R24  21354647.633 8 114192967.753 8      2866.523          50.000    21354647.703 6  88816664.346 6      2229.521          39.000
C05  39624573.492 5 206335551.275 5        12.750          35.000    39624574.562 5 159551741.144 5         9.956          35.000
C11  24810195.195 6 129193201.217 6      2520.574          41.000    24810197.711 7  99900393.939 7      1949.355          47.000
C12  21603955.102 8 112497541.755 8       389.562          48.000    21603954.438 8  86990239.906 8       301.259          51.000
C24  22833672.984 8 118900950.819 8     -2011.613          51.000
C26  25518405.750 5 132881021.386 5     -3477.914          32.000
E02  23938019.680 8 125795133.714 8     -1686.043          51.000    23938022.031 8  96388485.385 8     -1291.897          51.000
E36  23892297.375 8 125554889.232 8     -1522.078          51.000    23892300.898 8  96204429.828 8     -1166.208          51.000
> 2020 05 13 13 09 30.0000000  0 16        .000000000000
G18  20344550.250 8 106911402.870 8       461.875          51.000    20344550.969 8  83307598.009 8       359.903          51.000
G20  24000583.250 5 126123932.200 5      3315.316          33.000
G21  20663055.477 8 108585113.438 8       229.977          48.000    20663054.359 8  84611793.602 8       179.203          48.000
G25  24331946.375 7 127865219.107 7     -3486.805          44.000    24331950.203 7  99635242.038 7     -2716.994          45.000
G31  22378267.070 8 117598573.239 8     -2615.559          51.000    22378267.867 8  91635236.649 8     -2038.101          51.000
R12  21744462.289 7 116154977.621 7     -4015.277          47.000    21744465.258 7  90342771.663 7     -3122.997          42.000
R13  19299392.523 6 103057679.207 6      -607.000          40.000    19299395.758 7  80155982.078 7      -472.111          44.000
R23  19305167.672 6 103269710.060 6       415.008          41.000    19305173.656 5  80320824.010 5       322.787          34.000
R24  21338594.719 8 114107124.989 8      2855.789          49.000    21338594.273 6  88749897.788 6      2221.169          40.000
C05  39624492.914 5 206335131.434 5        15.203          35.000    39624493.898 5 159551416.502 5        11.342          34.000
C11  24795681.773 6 129117624.396 6      2517.254          41.000    24795683.906 7  99841953.163 7      1946.479          46.000
C12  21601733.328 8 112485972.106 8       381.441          48.000    21601732.680 8  86981293.529 8       294.861          51.000
C24  22845295.227 8 118961465.176 8     -2023.184          51.000
E02  23947669.734 8 125845845.125 8     -1695.035          51.000    23947671.500 8  96427342.149 8     -1298.805          51.000
E15  27096520.375 6 142393182.204 6      2789.582          40.000    27096527.469 7 109106483.574 7      2137.346          42.000
E36  23901003.375 8 125600639.614 8     -1528.348          51.000    23901006.539 8  96239485.304 8     -1171.060          51.000
> 2020 05 13 13 10  0.0000000  0 17        .000000000000
G18  20341969.320 8 106897839.780 8       442.602          51.000    20341970.445 8  83297029.403 8       344.887          51.000
G20  23981661.781 5 126024500.050 5      3313.500          34.000
G21  20661790.141 8 108578464.032 8       213.414          48.000    20661788.703 8  84606612.233 8       166.294          48.000
G25  24351865.781 7 127969895.677 7     -3491.586          43.000    24351869.250 7  99716808.049 7     -2720.722          43.000
G31  22393233.820 8 117677224.998 8     -2627.594          51.000    22393234.719 8  91696523.716 8     -2047.476          51.000
R12  21767046.820 8 116275618.474 8     -4027.043          49.000    21767050.648 7  90436603.359 7     -3132.145          44.000
R13  19302878.703 6 103076292.785 6      -633.793          41.000    19302881.508 7  80170459.293 7      -492.950          44.000
R22  21589131.547 4 115244248.652 4     -3352.926          27.000
R23  19302892.641 7 103257540.841 7       396.602          42.000    19302899.484 5  80311359.080 5       308.468          34.000
R24  21322608.953 8 114021647.459 8      2843.004          48.000    21322609.680 6  88683415.261 6      2211.222          41.000
C05  39624410.867 6 206334704.241 6        14.254          36.000    39624411.648 5 159551084.384 5        11.025          35.000
C11  24781197.453 6 129042200.318 6      2511.125          40.000    24781199.156 7  99783630.492 7      1941.933          46.000
C12  21599567.055 8 112474692.339 8       371.035          48.000    21599566.422 8  86972571.300 8       286.829          51.000
C24  22856993.133 8 119022371.834 8     -2036.973          51.000
E02  23957378.789 8 125896867.357 8     -1706.145          51.000    23957379.883 8  96466437.082 8     -1307.332          51.000
E15  27080610.141 6 142309572.806 6      2784.848          39.000    27080616.344 7 109042419.279 7      2133.886          42.000
E36  23909753.875 8 125646623.720 8     -1536.891          51.000    23909756.805 8  96274719.859 8     -1177.644          51.000
> 2020 05 13 13 10 30.0000000  0 17        .000000000000
G18  20339493.758 8 106884830.003 8       421.605          51.000    20339494.789 8  83286891.922 8       328.524          50.000
G20  23962749.016 6 125925111.787 6      3309.328          37.000
G21  20660614.328 8 108572285.637 8       195.359          48.000    20660613.266 8  84601797.881 8       152.228          48.000
G25  24371806.062 7 128074681.613 7     -3497.379          42.000    24371809.547 6  99798459.309 6     -2725.233          41.000
G29  22072459.016 5 115991557.641 5     -2408.074          31.000    22072438.141 5  90382933.218 5     -1876.412          33.000
G31  22408264.602 8 117756213.244 8     -2641.375          51.000    22408265.125 8  91758072.968 8     -2058.214          51.000
R12  21789692.164 7 116396583.791 7     -4040.422          47.000    21789696.953 7  90530687.436 7     -3142.550          45.000
R13  19306510.633 6 103095684.336 6      -662.355          40.000    19306513.047 7  80185541.602 7      -515.165          45.000
R23  19300715.914 6 103245892.590 6       376.777          41.000    19300722.203 5  80302299.297 5       293.049          34.000
R24  21306691.117 8 113936530.794 8      2828.375          49.000    21306693.180 6  88617213.436 6      2199.847          41.000
C05  39624325.906 5 206334261.300 5        12.551          35.000    39624326.750 5 159550742.653 5         9.309          35.000
C11  24766741.453 6 128966924.068 6      2504.055          39.000    24766742.578 7  99725422.127 7      1936.288          45.000
C12  21597455.445 8 112463696.584 8       359.109          49.000    21597454.578 8  86964068.696 8       277.620          51.000
C24  22868764.992 8 119083663.978 8     -2052.230          51.000
E02  23967146.000 8 125948194.584 8     -1718.824          51.000    23967146.617 8  96505765.735 8     -1317.030          51.000
E15  27064718.492 6 142226070.044 6      2778.879          39.000    27064725.836 7 108978436.657 7      2129.202          42.000
E36  23918547.516 8 125692834.824 8     -1547.016          51.000    23918550.656 8  96310128.343 8     -1185.373          51.000
> 2020 05 13 13 11  0.0000000  0 16        .000000000000
G18  20337137.359 8 106872446.748 8       404.285          51.000    20337138.367 8  83277242.651 8       315.030          51.000
G20  23943859.898 6 125825843.438 6      3309.023          38.000
G21  20659542.148 8 108566651.033 8       180.715          49.000    20659541.250 8  84597407.279 8       140.817          49.000
G25  24391780.750 7 128179648.825 7     -3499.863          43.000    24391784.891 7  99880251.822 7     -2727.172          43.000
G31  22423373.086 8 117835608.924 8     -2651.348          51.000    22423373.250 8  91819939.704 8     -2065.985          51.000
R12  21812410.578 7 116517944.530 7     -4050.059          43.000    21812416.930 7  90625079.099 7     -3150.046          45.000
R13  19310301.695 6 103115927.942 6      -686.926          40.000    19310304.273 7  80201286.619 7      -534.276          45.000
R23  19298650.234 7 103234838.530 7       360.652          43.000    19298656.422 5  80293701.705 5       280.507          34.000
R24  21290855.539 8 113851850.486 8      2817.391          50.000    21290857.773 6  88551351.038 6      2191.307          41.000
C05  39624252.461 5 206333879.393 5        13.605          35.000    39624253.141 5 159550446.524 5        10.650          35.000
C11  24752327.344 6 128891868.668 6      2500.160          38.000    24752328.555 7  99667384.546 7      1933.092          47.000
C12  21595412.234 8 112453056.959 8       350.602          48.000    21595411.273 8  86955841.468 8       271.098          51.000
C24  22880624.031 8 119145412.786 8     -2064.008          51.000
E02  23976985.250 8 125999899.702 8     -1727.848          51.000    23976985.703 8  96545383.942 8     -1323.977          51.000
E15  27048861.641 6 142142748.041 6      2776.246          38.000    27048869.789 6 108914592.566 6      2127.233          41.000
E36  23927398.094 8 125739344.918 8     -1553.383          51.000    23927401.508 8  96345765.948 8     -1190.269          51.000
> 2020 05 13 13 11 30.0000000  0 17        .000000000000
G18  20334882.047 8 106860594.536 8       385.637          51.000    20334883.328 8  83268007.189 8       300.496          50.000
G20  23924976.148 6 125726602.658 6      3306.910          38.000
G21  20658555.453 8 108561464.200 8       164.832          50.000    20658554.148 8  84593365.567 8       128.441          50.000
G25  24411771.648 7 128284700.748 7     -3503.613          44.000    24411776.461 7  99962110.349 7     -2730.091          43.000
G31  22438540.383 8 117915314.056 8     -2662.488          48.000    22438540.664 8  91882047.565 8     -2074.666          48.000
R12  21835182.844 7 116639600.400 7     -4060.734          42.000    21835191.938 7  90719700.335 7     -3158.349          43.000
R13  19314234.062 6 103136926.464 6      -713.105          41.000    19314236.414 7  80217618.797 7      -554.638          44.000
R22  21645797.875 5 115546737.277 5     -3366.922          30.000
R23  19296677.352 7 103224280.648 7       343.031          43.000    19296682.766 5  80285490.013 5       266.802          34.000
R24  21275083.328 8 113767510.759 8      2805.055          48.000    21275085.930 6  88485753.505 6      2181.706          41.000
C05  39624172.109 5 206333460.994 5        13.977          35.000    39624172.867 5 159550122.995 5        10.780          35.000
C11  24737937.727 6 128816939.927 6      2494.969          39.000    24737939.523 8  99609444.934 8      1929.226          48.000
C12  21593419.047 8 112442678.369 8       341.023          48.000    21593418.414 8  86947816.099 8       263.644          51.000
C24  22892551.578 8 119207522.226 8     -2076.934          51.000
E02  23986878.398 8 126051886.895 8     -1738.242          51.000    23986878.695 8  96585218.271 8     -1331.888          51.000
E15  27033021.227 6 142059512.362 6      2772.305          37.000    27033030.141 6 108850814.576 6      2124.380          40.000
E36  23936287.250 8 125786057.308 8     -1561.027          51.000    23936290.617 8  96381558.555 8     -1196.103          51.000
> 2020 05 13 13 12  0.0000000  0 17        .000000000000
G18  20332735.023 8 106849311.570 8       366.383          51.000    20332736.242 8  83259215.281 8       285.493          50.000
G20  23906105.805 6 125627430.717 6      3304.410          37.000
G21  20657661.078 8 108556762.645 8       148.441          51.000    20657659.711 8  84589702.021 8       115.669          50.000
G25  24431785.586 7 128389874.481 7     -3508.109          43.000    24431791.000 7 100044063.790 7     -2733.595          43.000
G26  20545735.133 5 107968568.100 5      1224.309          35.000    20545736.047 5  84131351.589 5       954.010          34.000
G31  22453773.023 7 117995364.371 7     -2674.328          47.000    22453773.906 7  91944424.418 7     -2083.892          47.000
R12  21858019.000 7 116761587.478 7     -4071.918          46.000    21858028.242 6  90814579.154 6     -3167.050          38.000
R13  19318315.281 7 103158719.517 7      -739.742          42.000    19318317.172 7  80234568.929 7      -575.355          44.000
R23  19294803.578 7 103214257.023 7       324.910          43.000    19294808.672 5  80277693.884 5       252.708          33.000
R24  21259381.922 8 113683551.412 8      2792.098          48.000    21259385.602 6  88420451.809 6      2171.635          41.000
C05  39624092.258 5 206333045.145 5        13.914          35.000    39624093.047 5 159549801.442 5        10.376          35.000
C11  24723579.609 6 128742176.276 6      2489.062          38.000    24723582.211 8  99551632.962 8      1924.701          48.000
C12  21591483.336 8 112432598.388 8       330.734          48.000    21591482.859 8  86940021.612 8       255.817          51.000
C24  22904554.875 8 119270028.782 8     -2090.410          51.000
E02  23996832.375 8 126104194.094 8     -1749.117          51.000    23996832.922 8  96625297.794 8     -1340.236          51.000
E15  27017205.383 6 141976402.005 6      2768.465          38.000    27017214.641 6 108787132.687 6      2120.947          40.000
E36  23945221.938 8 125833009.062 8     -1569.242          51.000    23945225.008 8  96417534.550 8     -1202.394          51.000
> 2020 05 13 13 12 30.0000000  0 17        .000000000000
G18  20330695.945 8 106838596.006 8       348.035          51.000    20330697.180 8  83250865.501 8       271.196          51.000
G20  23887249.266 5 125528328.489 5      3302.137          31.000    23887250.336 4  97814294.766 4      2573.106          25.000
G21  20656858.648 8 108552544.142 8       132.871          51.000    20656857.398 8  84586414.888 8       103.536          51.000
G25  24451822.219 6 128495166.907 6     -3511.250          41.000    24451827.742 6 100126109.724 6     -2736.042          41.000
G26  20538786.211 5 107932057.302 5      1210.277          33.000    20538788.297 5  84102901.606 5       943.079          32.000
G31  22469070.336 7 118075755.447 7     -2685.180          45.000    22469071.555 7  92007066.833 7     -2092.348          45.000
R12  21880917.367 7 116883900.524 7     -4082.070          47.000    21880923.133 5  90909711.328 5     -3174.953          34.000
R13  19322544.953 7 103181304.855 7      -765.707          43.000    19322546.648 7  80252135.268 7      -595.550          44.000
R23  19293028.984 7 103204764.934 7       307.711          43.000    19293033.883 5  80270311.134 5       239.331          34.000
R24  21243751.781 8 113599971.618 8      2779.891          48.000    21243754.977 6  88355445.317 6      2162.137          40.000
C05  39624012.523 5 206332630.288 5        13.773          35.000    39624013.414 5 159549482.084 5        11.233          35.000
C11  24709253.211 6 128667576.348 6      2484.234          38.000    24709256.359 8  99493947.549 8      1921.001          48.000
C12  21589604.594 7 112422814.806 7       321.496          47.000    21589604.180 8  86932456.328 8       248.559          51.000
C24  22916633.367 8 119332929.237 8     -2102.859          50.000
E02  24006846.594 8 126156819.102 8     -1759.137          51.000    24006847.938 8  96665620.814 8     -1347.886          51.000
E15  27001414.062 6 141893416.138 6      2764.625          38.000    27001422.516 6 108723546.159 6      2118.128          39.000
E36  23954201.516 8 125880197.122 8     -1576.488          51.000    23954204.508 8  96453691.624 8     -1207.962          51.000
> 2020 05 13 13 13  0.0000000  0 18        .000000000000
G18  20328765.766 8 106828452.933 8       330.527          51.000    20328767.195 8  83242961.818 8       257.554          51.000
G21  20656148.875 8 108548813.531 8       118.156          51.000    20656147.617 8  84583507.927 8        92.070          51.000
G25  24471881.984 6 128600582.023 6     -3514.406          36.000    24471887.633 6 100208251.261 6     -2738.501          36.000
G26  20531921.695 5 107895983.831 5      1197.246          32.000    20531924.836 5  84074792.374 5       932.913          32.000
G29  22141498.945 5 116354370.142 5     -2431.422          32.000    22141499.078 5  90665718.595 5     -1894.624          32.000
G31  22484433.695 7 118156489.811 7     -2694.727          46.000    22484434.031 7  92069976.717 7     -2099.790          46.000
R12  21903877.234 8 117006541.660 8     -4091.426          48.000    21903880.969 6  91005098.716 6     -3182.223          40.000
R13  19326923.375 7 103204687.869 7      -790.789          42.000    19326925.383 7  80270322.022 7      -615.058          43.000
R22  21702717.703 5 115850530.941 5     -3378.828          34.000
R23  19291354.461 7 103195808.280 7       291.555          42.000    19291360.039 5  80263344.890 5       226.768          34.000
R24  21228193.672 8 113516777.826 8      2768.672          48.000    21228196.422 6  88290739.091 6      2153.411          40.000
C05  39623933.969 5 206332221.561 5        15.598          35.000    39623934.945 5 159549166.046 5        12.052          34.000
C11  24694959.047 6 128593145.747 6      2480.496          37.000    24694962.945 7  99436393.117 7      1917.835          47.000
C12  21587783.438 7 112413332.326 7       313.012          47.000    21587783.344 8  86925123.885 8       242.034          51.000
C24  22928787.875 8 119396227.296 8     -2114.723          48.000
E02  24016922.086 8 126209766.666 8     -1768.277          51.000    24016924.180 8  96706190.994 8     -1354.896          51.000
E15  26985648.250 6 141810560.799 6      2761.586          40.000    26985654.484 6 108660059.624 6      2115.961          38.000
E36  23963226.852 8 125927625.475 8     -1582.934          51.000    23963230.172 8  96490032.809 8     -1212.903          51.000
> 2020 05 13 13 13 30.0000000  0 16        .000000000000
G18  20326943.312 8 106818876.449 8       309.012          51.000    20326944.812 8  83235499.627 8       240.788          51.000
G21  20655530.477 8 108545563.977 8        99.590          51.000    20655529.117 8  84580975.808 8        77.602          50.000
G25  24491962.570 4 128706131.602 4     -3519.488          29.000    24491968.750 4 100290482.806 4     -2742.461          28.000
G26  20525139.422 5 107860343.596 5      1179.730          33.000    20525140.805 5  84047020.882 5       919.277          33.000
G31  22499861.469 8 118237559.595 8     -2708.605          48.000    22499860.758 8  92133147.913 8     -2110.605          49.000
R12  21926896.883 8 117129501.808 8     -4104.664          50.000    21926901.156 7  91100734.317 7     -3192.516          43.000
R13  19331450.008 6 103228861.848 6      -819.520          41.000    19331452.406 7  80289123.984 7      -637.404          43.000
R23  19289778.734 7 103187380.482 7       271.352          44.000    19289783.906 5  80256789.916 5       211.045          33.000
R24  21212707.023 8 113433965.201 8      2753.324          48.000    21212710.203 6  88226329.322 6      2141.474          41.000
C05                                                                  39623856.625 5 159548849.908 5        10.330          34.000
C11  24680696.852 6 128518879.247 6      2471.773          37.000    24680700.648 7  99378965.564 7      1911.574          46.000
C12  21586018.844 7 112404144.744 7       300.543          47.000    21586019.000 8  86918019.460 8       232.432          51.000
C24  22941017.016 7 119459915.700 7     -2130.223          47.000
E02  24027057.734 8 126263030.633 8     -1781.469          51.000    24027060.352 8  96747003.619 8     -1365.025          51.000
E15  26969906.969 6 141727831.014 6      2754.883          38.000    26969909.844 6 108596669.311 6      2110.765          39.000
E36  23972296.680 8 125975287.104 8     -1593.383          51.000    23972300.383 8  96526552.751 8     -1220.871          51.000
> 2020 05 13 13 14  0.0000000  0 18        .000000000000
G18  20325230.227 8 106809874.627 8       290.793          50.000    20325231.766 8  83228485.208 8       226.592          50.000
G20  23830756.445 6 125231463.371 6      3294.914          36.000    23830759.617 5  97582974.020 5      2567.444          33.000
G21  20655005.008 8 108542803.369 8        84.297          50.000    20655003.883 8  84578824.703 8        65.686          50.000
G25  24512065.555 5 128811775.943 5     -3523.586          31.000    24512073.055 4 100372810.040 4     -2745.654          29.000
G26  20518441.250 5 107825137.719 5      1166.027          34.000    20518439.781 5  84019594.703 5       908.590          34.000
G29  22169335.781 6 116500666.036 6     -2443.344          37.000    22169346.070 6  90779761.205 6     -1903.904          37.000
G31  22515354.031 8 118318969.930 8     -2718.836          49.000    22515353.125 8  92196584.471 8     -2118.577          49.000
R12  21949977.258 8 117252785.892 8     -4114.406          51.000    21949981.273 7  91196621.900 7     -3200.097          44.000
R13  19336125.781 6 103253835.432 6      -845.293          40.000    19336129.211 7  80308547.854 7      -657.450          43.000
R23  19288303.195 6 103179488.636 6       254.555          40.000    19288308.617 5  80250651.796 5       197.990          34.000
R24  21197294.031 8 113351543.104 8      2741.328          49.000    21197296.602 6  88162223.265 6      2132.144          41.000
C05  39623778.852 5 206331413.144 5        13.699          35.000    39623780.055 5 159548541.217 5        10.188          35.000
C11  24666468.133 6 128444785.423 6      2467.680          37.000    24666471.352 7  99321671.586 7      1907.828          45.000
C12  21584312.406 7 112395259.837 7       291.461          47.000    21584312.492 8  86911149.071 8       225.412          50.000
C24  22953323.000 8 119524001.161 8     -2142.258          48.000
E02  24037254.828 8 126316618.840 8     -1791.328          51.000    24037257.992 8  96788064.679 8     -1372.600          51.000
E15  26954191.617 6 141645236.198 6      2751.312          37.000    26954190.680 6 108533382.452 6      2108.074          38.000
E36  23981412.148 8 126023188.975 8     -1600.375          51.000    23981415.969 8  96563256.780 8     -1226.243          51.000
> 2020 05 13 13 14 30.0000000  0 18        .000000000000
G18  20323624.539 8 106801437.871 8       271.555          50.000    20323626.258 8  83221911.118 8       211.601          50.000
G20  23811960.156 6 125132681.159 6      3291.090          39.000    23811962.523 5  97506001.002 5      2564.489          34.000
G21  20654570.617 8 108540521.511 8        67.742          50.000    20654569.781 8  84577046.648 8        52.789          50.000
G25  24532192.188 6 128917541.173 6     -3527.547          38.000    24532198.852 6 100455224.427 6     -2748.741          38.000
G26  20511825.734 5 107790376.160 5      1150.867          34.000    20511825.188 5  83992507.752 5       896.777          33.000
G29  22183300.461 5 116574048.768 5     -2449.316          34.000    22183312.844 5  90836942.440 5     -1908.567          34.000
G31  22530908.570 8 118400708.745 8     -2730.301          49.000    22530908.375 8  92260276.997 8     -2127.510          49.000
R12  21973115.797 8 117376381.453 8     -4125.387          51.000    21973119.414 7  91292751.715 7     -3208.634          44.000
R13  19340949.914 6 103279598.481 6      -872.434          40.000    19340953.898 7  80328585.763 7      -678.562          44.000
R23  19286925.312 6 103172122.218 6       236.453          41.000    19286931.312 5  80244922.363 5       183.905          32.000
R24  21181952.719 8 113269502.671 8      2727.977          49.000    21181953.977 6  88098414.064 6      2121.763          40.000
C05  39623702.078 5 206331013.494 5        13.027          35.000    39623703.266 5 159548232.130 5        10.022          35.000
C11  24652270.570 6 128370855.383 6      2461.469          36.000    24652273.656 7  99264504.205 7      1903.261          43.000
C12  21582662.180 7 112386667.760 7       281.145          47.000    21582662.359 8  86904505.118 8       217.511          51.000
C24  22965704.750 8 119588472.897 8     -2155.852          49.000
E02  24047511.727 8 126370521.378 8     -1802.254          51.000    24047515.219 8  96829366.582 8     -1380.945          51.000
E15  26938501.188 6 141562767.643 6      2746.371          36.000    26938496.102 6 108470192.452 6      2104.566          38.000
E36  23990571.234 8 126071320.402 8     -1608.465          51.000    23990574.773 8  96600136.692 8     -1232.439          51.000
> 2020 05 13 13 15  0.0000000  0 18        .000000000000
G18  20322127.016 8 106793568.206 8       253.035          51.000    20322128.562 8  83215778.906 8       197.170          51.000
G20  23793179.023 6 125033984.121 6      3288.617          39.000    23793180.281 4  97429094.185 4      2562.556          29.000
G21  20654227.477 8 108538720.279 8        52.285          50.000    20654226.984 8  84575643.100 8        40.742          49.000
G25  24552341.297 6 129023419.389 6     -3531.141          40.000    24552346.320 6 100537726.785 6     -2751.541          40.000
G26  20505294.242 5 107756053.922 5      1136.211          34.000    20505294.859 5  83965763.159 5       885.362          33.000
G29  22197294.797 6 116647588.540 6     -2453.680          36.000    22197301.438 6  90894246.052 6     -1911.955          36.000
G31  22546525.383 8 118482776.057 8     -2740.828          51.000    22546526.016 8  92324225.505 8     -2135.710          51.000
R12  21996312.102 8 117500286.967 8     -4135.074          51.000    21996315.547 7  91389122.608 7     -3216.172          43.000
R13  19345922.484 6 103306152.683 6      -898.332          39.000    19345926.984 7  80349239.007 7      -698.703          45.000
R23  19285646.414 6 103165282.193 6       219.508          40.000    19285651.438 5  80239602.338 5       170.728          32.000
R24  21166682.930 7 113187847.411 7      2715.855          46.000    21166683.555 6  88034904.403 6      2112.332          41.000
C05                                                                  39623626.844 5 159547924.554 5        10.481          34.000
C11  24638103.945 5 128297091.821 5      2456.301          35.000    24638107.867 6  99207465.522 6      1899.392          41.000
C12  21581068.773 8 112378370.084 8       272.016          48.000    21581069.070 8  86898088.852 8       210.370          51.000
C24  22978161.469 8 119653331.479 8     -2168.160          51.000
E02  24057828.750 8 126424739.963 8     -1812.129          51.000    24057832.273 8  96870910.693 8     -1388.559          51.000
E15  26922836.227 5 141480428.276 5      2742.797          34.000    26922826.766 6 108407101.431 6      2101.636          38.000
E36  23999774.195 8 126119682.329 8     -1615.531          51.000    23999777.336 8  96637193.222 8     -1237.845          51.000
> 2020 05 13 13 15 30.0000000  0 18        .000000000000
G18  20320736.500 8 106786261.167 8       234.281          50.000    20320737.742 8  83210085.105 8       182.554          50.000
G20  23774413.633 6 124935371.248 6      3285.453          40.000    23774417.758 4  97352253.030 4      2560.106          27.000
G21  20653974.992 8 108537394.278 8        36.355          50.000    20653974.391 8  84574609.849 8        28.329          50.000
G25  24572511.273 7 129129404.971 7     -3534.484          43.000    24572514.094 7 100620312.801 7     -2754.147          43.000
G26  20498846.633 6 107722168.442 6      1122.453          38.000    20498847.312 6  83939358.871 6       874.642          38.000
G29  22211318.664 5 116721280.339 5     -2458.398          35.000    22211319.398 5  90951668.239 5     -1915.638          35.000
G31  22562203.320 8 118565164.841 8     -2751.516          51.000    22562204.453 8  92388424.515 8     -2144.041          51.000
R12  22019564.820 8 117624495.256 8     -4145.156          49.000    22019568.922 7  91485729.003 7     -3224.013          42.000
R13  19351042.703 6 103333493.677 6      -924.723          38.000    19351047.109 7  80370504.224 7      -719.229          45.000
R23  19284464.180 6 103158963.020 6       201.988          41.000    19284470.914 5  80234687.442 5       157.102          35.000
R24  21151484.320 7 113106574.045 7      2702.852          47.000    21151485.547 6  87971691.795 6      2102.218          41.000
C05  39623548.820 5 206330214.833 5        13.012          35.000    39623550.023 5 159547615.262 5        10.826          34.000
C11  24623969.250 6 128223490.734 6      2451.094          36.000    24623972.664 6  99150552.572 6      1895.160          37.000
C12  21579531.234 8 112370362.334 8       262.246          48.000    21579531.438 8  86891896.758 8       202.831          51.000
C24  22990691.445 8 119718571.271 8     -2180.832          51.000
E02  24068205.094 8 126479270.003 8     -1822.699          51.000    24068208.750 8  96912693.453 8     -1396.554          51.000
E15  26907194.984 6 141398214.811 6      2738.434          37.000    26907182.008 6 108344106.818 6      2098.331          38.000
E36  24009020.031 8 126168269.355 8     -1623.137          51.000    24009023.031 8  96674422.227 8     -1243.672          51.000
> 2020 05 13 13 16  0.0000000  0 18        .000000000000
G18  20319453.492 8 106779518.782 8       215.453          50.000    20319454.336 8  83204831.293 8       167.886          50.000
G20  23755665.344 6 124836847.534 6      3282.863          40.000    23755672.016 4  97275481.300 4      2558.075          28.000
G21  20653813.453 8 108536545.215 8        20.539          49.000    20653812.797 8  84573948.241 8        16.004          50.000
G25  24592701.742 7 129235498.990 7     -3538.082          44.000    24592702.305 7 100702983.313 7     -2756.953          43.000
G26  20492483.172 6 107688723.552 6      1108.090          38.000    20492483.688 6  83913297.893 6       863.447          38.000
G29  22225371.016 5 116795125.321 5     -2463.289          30.000    22225370.031 4  91009209.804 4     -1919.446          28.000
G31  22577942.344 8 118647874.666 8     -2762.234          50.000    22577943.242 8  92452873.666 8     -2152.393          50.000
R12  22042873.531 7 117749005.260 7     -4155.180          46.000    22042878.898 6  91582570.100 6     -3231.806          38.000
R13  19356310.711 6 103361623.077 6      -950.574          38.000    19356314.703 7  80392382.651 7      -739.339          45.000
R23  19283380.570 7 103153166.169 7       184.820          43.000    19283387.461 5  80230178.751 5       143.749          32.000
R24  21136358.039 8 113025685.606 8      2689.980          49.000    21136359.727 6  87908778.607 6      2092.207          40.000
C05                                                                  39623473.258 5 159547306.231 5        10.315          35.000
C11  24609867.172 6 128150054.972 6      2444.918          39.000    24609869.328 6  99093767.459 6      1890.674          36.000
C12  21578049.641 7 112362646.316 7       252.637          47.000    21578049.656 8  86885930.242 8       195.258          51.000
C24  23003294.336 8 119784192.951 8     -2193.535          51.000
E02  24078641.453 8 126534113.301 8     -1833.164          51.000    24078645.039 8  96954716.231 8     -1404.614          51.000
E15  26891577.031 6 141316130.369 6      2733.922          38.000    26891562.125 6 108281211.022 6      2095.150          37.000
E36  24018308.914 8 126217082.458 8     -1630.695          51.000    24018311.969 8  96711824.469 8     -1249.497          51.000
> 2020 05 13 13 16 30.0000000  0 18        .000000000000
G18  20318280.055 8 106773351.936 8       197.262          50.000    20318280.633 8  83200025.958 8       153.710          50.000
G20  23736936.477 6 124738427.116 6      3280.133          41.000    23736945.273 5  97198789.960 5      2555.932          30.000
G21  20653744.547 8 108536183.559 8         5.258          49.000    20653743.852 8  84573666.462 8         4.097          49.000
G25  24612914.312 7 129341711.255 7     -3541.000          44.000    24612913.461 7 100785745.969 7     -2759.227          44.000
G26  20486206.156 6 107655732.167 6      1093.504          40.000    20486206.219 6  83887590.319 6       852.081          41.000
G29  22239456.820 5 116869134.262 5     -2468.043          34.000
G31  22593744.008 8 118730914.059 8     -2772.105          50.000    22593744.250 8  92517579.631 8     -2160.082          50.000
R12  22066239.359 7 117873825.013 7     -4164.379          43.000    22066246.219 5  91679652.216 5     -3238.955          33.000
R13  19361728.969 6 103390552.366 6      -976.262          40.000    19361732.203 7  80414883.216 7      -759.315          45.000
R23  19282396.891 7 103147902.046 7       168.035          42.000    19282403.398 5  80226084.409 5       130.694          33.000
R24  21121306.109 8 112945194.518 8      2677.707          49.000    21121307.430 6  87846174.489 6      2082.664          39.000
C05  39623397.516 5 206329427.341 5        14.148          35.000
C11  24595799.578 6 128076795.988 6      2440.543          39.000    24595801.203 6  99037119.032 6      1887.017          37.000
C12  21576625.898 7 112355232.519 7       243.371          47.000    21576626.016 8  86880197.415 8       188.259          51.000
C24  23015971.781 8 119850206.024 8     -2205.672          51.000
E02  24089139.789 8 126589280.584 8     -1843.004          51.000    24089142.797 8  96996987.231 8     -1412.136          51.000
E15  26875984.766 6 141234186.969 6      2730.223          39.000    26875969.055 5 108218423.312 5      2092.441          35.000
E36  24027642.703 8 126266131.551 8     -1637.570          51.000    24027645.836 8  96749407.520 8     -1254.744          51.000
> 2020 05 13 13 17  0.0000000  0 18        .000000000000
G18  20317205.836 8 106767706.996 8       177.750          50.000    20317206.289 8  83195627.316 8       138.506          50.000
G20  23718217.625 6 124640059.514 6      3276.234          40.000
G21  20653758.289 8 108536255.236 8       -11.332          50.000    20653756.898 8  84573722.324 8        -8.830          50.000
G25  24633138.281 7 129447987.283 7     -3545.230          42.000    24633137.570 7 100868558.318 7     -2762.520          42.000
G26  20480005.398 6 107623142.485 6      1077.621          40.000    20480004.977 6  83862195.797 6       839.705          40.000
G31  22609597.914 8 118814227.163 8     -2783.348          49.000    22609597.797 8  92582498.903 8     -2168.842          49.000
R12  22089651.961 7 117998896.922 7     -4175.039          42.000    22089661.070 6  91776930.499 6     -3247.250          36.000
R13  19367286.555 6 103420226.493 6     -1003.363          41.000    19367289.156 7  80437963.079 7      -780.394          45.000
R22  21855482.156 4 116665949.992 4     -3414.695          28.000    21855487.641 4  90740209.935 4     -2655.868          29.000
R23  19281502.508 7 103143114.862 7       149.730          42.000    19281509.086 5  80222361.123 5       116.460          31.000
R24  21106318.633 8 112865047.503 8      2664.051          49.000    21106320.109 6  87783837.974 6      2072.043          40.000
C05  39623315.086 5 206328998.164 5        13.191          35.000    39623316.148 5 159546673.648 5        10.672          35.000
C11  24581755.742 6 128003661.307 6      2434.109          38.000    24581756.547 6  98980566.652 6      1882.341          39.000
C12  21575250.016 7 112348067.547 7       233.000          47.000    21575250.305 8  86874657.020 8       180.167          51.000
C24  23028713.211 8 119916556.026 8     -2218.988          51.000
E02  24099689.750 8 126644717.980 8     -1854.141          51.000    24099691.898 8  97039465.204 8     -1420.741          51.000
E15  26860408.484 6 141152332.045 6      2725.309          38.000    26860392.789 5 108155703.451 5      2088.092          34.000
E36  24037010.977 8 126315362.021 8     -1645.699          51.000    24037014.211 8  96787129.551 8     -1261.008          51.000
> 2020 05 13 13 17 30.0000000  0 17        .000000000000
G18  20316251.875 8 106762694.018 8       159.082          50.000    20316251.922 8  83191721.097 8       123.960          50.000
G20  23699530.445 7 124541858.132 7      3272.980          42.000    23699529.953 4  97045612.141 4      2550.371          29.000
G21  20653875.383 8 108536870.006 8       -27.016          50.000    20653873.688 8  84574201.367 8       -21.051          50.000
G25  24653393.906 6 129554435.899 6     -3548.434          40.000    24653394.938 6 100951505.190 6     -2765.016          40.000
G26  20473901.891 6 107591066.400 6      1063.285          40.000    20473901.797 6  83837201.455 6       828.534          40.000
G31  22625524.508 8 118897921.665 8     -2793.605          50.000    22625524.484 8  92647715.354 8     -2176.838          50.000
R12  22113132.336 6 118124329.871 6     -4184.293          41.000    22113142.383 6  91874489.504 6     -3254.450          39.000
R13  19373004.312 6 103450756.881 6     -1029.148          41.000    19373006.594 7  80461708.922 7      -800.449          45.000
R23  19280718.055 7 103138915.625 7       132.734          42.000    19280722.805 4  80219095.018 4       103.238          28.000
R24  21091416.719 8 112785357.410 8      2651.352          48.000    21091418.641 6  87721856.831 6      2062.162          41.000
C05  39623245.656 5 206328636.448 5        13.172          35.000
C11  24567756.734 6 127930760.630 6      2428.695          38.000    24567757.203 6  98924195.273 6      1878.121          41.000
C12  21573942.984 7 112341260.389 7       223.328          47.000    21573943.211 8  86869393.291 8       172.852          51.000
C24  23041539.398 8 119983350.690 8     -2231.348          50.000
E02  24110312.117 8 126700535.312 8     -1864.367          51.000    24110313.164 8  97082234.305 8     -1428.568          51.000
E15  26844869.539 6 141070676.767 6      2721.172          39.000    26844854.609 5 108093136.535 5      2084.787          34.000
E36  24046434.477 8 126364882.930 8     -1652.918          51.000    24046437.820 8  96825074.124 8     -1266.528          51.000
> 2020 05 13 13 18  0.0000000  0 17        .000000000000
G18  20315398.859 8 106758210.880 8       139.816          51.000    20315398.445 8  83188227.745 8       108.948          50.000
G20  23680856.562 7 124443724.286 7      3269.176          43.000    23680855.320 5  96969144.267 5      2547.410          30.000
G21  20654076.078 8 108537925.118 8       -43.367          49.000    20654074.609 8  84575023.567 8       -33.793          49.000
G25  24673662.570 6 129660954.075 6     -3552.699          40.000    24673665.312 6 101034506.260 6     -2768.343          40.000
G26  20467876.609 6 107559403.859 6      1047.941          38.000    20467877.594 6  83812529.368 6       816.581          38.000
G31  22641504.023 8 118981893.129 8     -2804.402          50.000    22641503.961 8  92713147.623 8     -2185.249          50.000
R12  22136660.523 6 118250017.372 6     -4194.520          37.000    22136670.609 6  91972246.387 6     -3262.407          39.000
R13  19378862.562 7 103482039.638 7     -1056.168          42.000    19378864.828 7  80486039.939 7      -821.464          45.000
R23  19280023.656 6 103135199.597 6       114.879          40.000    19280028.773 5  80216204.785 5        89.350          30.000
R24  21076580.391 7 112706021.883 7      2637.805          47.000    21076582.297 6  87660151.470 6      2051.626          40.000
C05  39623169.883 5 206328242.023 5        12.812          35.000    39623170.961 5 159546088.938 5        10.071          35.000
C11  24553783.812 6 127857993.544 6      2422.637          39.000    24553783.586 7  98867927.188 7      1873.321          43.000
C12  21572685.117 7 112334709.655 7       213.230          46.000    21572685.195 8  86864327.856 8       164.950          51.000
C24  23054431.430 8 120050487.639 8     -2244.406          49.000
E02  24120987.109 8 126756630.326 8     -1875.219          51.000    24120987.141 8  97125216.186 8     -1436.826          51.000
E15  26829347.930 6 140989120.286 6      2716.109          37.000    26829335.477 5 108030645.262 5      2081.169          34.000
E36  24055893.609 8 126414591.324 8     -1660.867          51.000    24055896.953 8  96863162.362 8     -1272.577          51.000
> 2020 05 13 13 18 30.0000000  0 17        .000000000000
G18  20314653.984 8 106754296.533 8       121.332          51.000    20314653.516 8  83185177.633 8        94.547          50.000
G20  23662203.797 7 124345700.282 7      3265.918          44.000    23662200.820 5  96892761.984 5      2544.874          35.000
G21  20654368.078 8 108539459.201 8       -58.711          50.000    20654366.508 8  84576218.948 8       -45.749          50.000
G25  24693952.609 7 129767580.020 7     -3555.543          42.000    24693954.945 7 101117591.236 7     -2770.562          42.000
G26  20461936.789 5 107528195.872 5      1032.660          35.000    20461939.461 5  83788211.389 5       804.667          33.000
G31  22657543.273 8 119066178.319 8     -2814.348          50.000    22657542.695 8  92778824.355 8     -2192.998          50.000
R12  22160244.695 5 118375995.808 5     -4203.637          32.000    22160252.828 6  92070229.592 6     -3269.495          38.000
R13  19384869.008 7 103514114.451 7     -1081.926          42.000    19384871.445 7  80510986.993 7      -841.498          44.000
R23  19279426.938 6 103132005.916 6        98.031          41.000    19279432.328 4  80213720.880 4        76.250          26.000
R24  21061816.961 7 112627081.751 7      2625.102          46.000    21061819.141 6  87598753.592 6      2041.746          40.000
C05  39623095.367 5 206327853.990 5        13.297          35.000    39623096.641 5 159545789.885 5        10.578          35.000
C11  24539843.742 6 127785399.356 6      2417.594          38.000    24539842.812 7  98811792.805 7      1869.271          43.000
C12  21571483.719 7 112328453.793 7       204.062          46.000    21571483.664 8  86859490.417 8       157.806          50.000
C24  23067397.047 8 120118004.208 8     -2256.516          51.000
E02  24131721.734 8 126813041.785 8     -1885.223          51.000    24131721.523 8  97168440.548 8     -1444.548          51.000
E15  26813850.453 6 140907702.647 6      2711.887          38.000    26813843.156 5 107968260.368 5      2077.969          35.000
E36  24065395.703 8 126464525.213 8     -1667.855          51.000    24065398.766 8  96901423.386 8     -1277.931          51.000
> 2020 05 13 13 19  0.0000000  0 18        .000000000000
G18  20314016.008 8 106750943.166 8       101.762          51.000    20314015.188 8  83182564.615 8        79.295          50.000
G20  23643571.148 7 124247781.421 7      3261.480          43.000    23643567.250 6  96816461.613 6      2541.413          36.000
G21  20654749.586 8 108541463.697 8       -75.281          49.000    20654747.844 8  84577780.885 8       -58.661          49.000
G25  24714262.141 7 129874304.925 7     -3559.828          44.000    24714264.172 7 101200753.296 7     -2773.901          44.000
G26  20456082.711 6 107497436.260 6      1017.094          39.000    20456086.242 6  83764242.849 6       792.544          39.000
G29  22310323.586 5 117241527.185 5     -2494.840          32.000
G31  22673639.906 8 119150766.796 8     -2825.289          49.000    22673638.750 8  92844737.410 8     -2201.524          49.000
R12  22183878.273 5 118502267.907 5     -4214.203          32.000    22183887.219 6  92168444.574 6     -3277.714          37.000
R13  19391022.031 7 103546972.509 7     -1109.035          43.000    19391024.672 7  80536543.231 7      -862.583          44.000
R23  19278926.047 6 103129325.436 6        80.520          40.000    19278930.328 4  80211636.014 4        62.626          28.000
R24  21047126.680 7 112548530.333 7      2611.219          47.000    21047129.773 6  87537658.054 6      2030.948          41.000
C05  39623020.711 5 206327465.454 5        12.223          35.000    39623022.008 5 159545489.089 5         9.488          34.000
C11  24525934.914 6 127712971.037 6      2410.859          36.000    24525933.789 7  98755786.662 7      1864.308          43.000
C12  21570337.508 7 112322484.874 7       193.680          46.000    21570337.281 8  86854874.871 8       149.735          50.000
C24  23080434.500 8 120185891.354 8     -2269.738          51.000
E02  24142514.398 8 126869761.689 8     -1896.367          49.000    24142515.188 8  97211901.238 8     -1453.067          51.000
E15  26798377.578 6 140826417.270 6      2706.902          40.000    26798375.891 6 107905976.858 6      2074.027          37.000
E36  24074939.062 8 126514675.818 8     -1675.891          51.000    24074941.945 8  96939850.467 8     -1284.100          51.000
> 2020 05 13 13 19 30.0000000  0 17        .000000000000
G18  20313489.203 8 106748174.248 8        83.207          51.000    20313488.242 8  83180407.022 8        64.837          50.000
G20  23624963.742 7 124149994.622 7      3257.914          42.000    23624959.641 6  96740264.193 6      2538.637          37.000
G21  20655224.914 8 108543961.958 8       -90.840          49.000    20655223.344 8  84579727.598 8       -70.784          49.000
G25  24734595.133 7 129981151.317 7     -3562.844          45.000    24734597.648 7 101284010.057 7     -2776.248          45.000
G26  20450319.227 6 107467150.647 6      1002.281          38.000    20450322.352 6  83740643.706 6       781.001          37.000
G31  22689798.047 8 119235680.214 8     -2835.211          49.000    22689796.867 8  92910903.676 8     -2209.255          49.000
R12  22207576.312 6 118628827.573 6     -4223.125          40.000    22207577.648 5  92266879.819 5     -3284.656          35.000
R13  19397326.570 7 103580637.823 7     -1134.926          43.000    19397328.859 7  80562727.337 7      -882.720          43.000
R23  19278524.953 6 103127181.433 6        63.098          39.000    19278530.812 5  80209968.482 5        49.076          31.000
R24  21032514.945 7 112470392.642 7      2598.242          46.000    21032518.258 6  87476884.299 6      2020.858          41.000
C05  39622950.406 5 206327098.805 5        12.289          35.000    39622951.688 5 159545205.954 5         9.349          34.000
C11  24512060.852 5 127640732.722 5      2405.637          35.000    24512060.719 6  98699927.442 6      1860.016          41.000
C12  21569250.500 7 112316826.205 7       184.074          45.000    21569250.523 8  86850499.250 8       142.326          50.000
C24  23093547.469 8 120254171.183 8     -2281.871          51.000
E02  24153370.039 8 126926813.423 8     -1906.664          49.000    24153371.922 8  97255616.190 8     -1460.947          50.000
E15  26782936.070 7 140745288.827 7      2702.113          42.000    26782938.484 6 107843813.539 6      2070.759          38.000
E36  24084527.945 8 126565065.883 8     -1683.000          51.000    24084531.055 8  96978461.030 8     -1289.574          51.000
> 2020 05 13 13 20  0.0000000  0 19        .000000000000
G18  20313054.281 8 106745888.158 8        66.449          51.000    20313053.633 8  83178625.666 8        51.779          51.000
G20  23606362.875 6 124052241.951 6      3255.941          40.000    23606358.359 6  96664093.369 6      2537.094          38.000
G21  20655774.938 8 108546852.146 8      -104.633          49.000    20655773.484 8  84581979.690 8       -81.532          49.000
G25  24754931.750 7 130088016.741 7     -3564.344          43.000    24754935.523 7 101367281.641 7     -2777.414          43.000
G26  20444627.164 5 107437239.444 5       989.305          35.000    20444630.406 6  83717336.255 6       770.884          36.000
G29  22338840.836 5 117391378.293 5     -2502.484          34.000    22338828.883 5  91473798.514 5     -1949.991          34.000
G31  22705998.258 8 119320814.540 8     -2843.312          50.000    22705997.750 8  92977242.055 8     -2215.568          49.000
R12  22231307.656 7 118755582.159 7     -4230.121          43.000    22231306.055 5  92365466.658 5     -3290.100          32.000
R13  19403762.773 7 103615006.280 7     -1159.098          43.000    19403764.773 7  80589458.317 7      -901.523          42.000
R22  21970939.977 5 117282368.213 5     -3433.375          32.000
R23  19278205.117 6 103125469.481 6        48.086          38.000    19278210.648 4  80208636.914 4        37.403          29.000
R24  21017961.203 7 112392566.331 7      2587.031          45.000    21017964.539 6  87416352.738 6      2012.138          39.000
C05  39622865.211 5 206326655.811 5        13.695          35.000    39622866.430 5 159544862.975 5        10.744          35.000
C11  24498204.203 6 127568584.499 6      2401.754          36.000    24498204.320 6  98644137.848 6      1857.222          40.000
C12  21568203.695 7 112311376.825 7       176.492          45.000    21568203.648 8  86846285.456 8       136.318          49.000
C24  23106715.992 8 120322741.742 8     -2292.332          51.000
E02  24164269.883 8 126984095.283 8     -1915.016          50.000    24164272.336 8  97299507.446 8     -1467.335          51.000
E15  26767506.531 7 140664216.790 7      2699.633          43.000    26767511.852 6 107781693.519 6      2068.481          40.000
E36  24094142.891 8 126615592.882 8     -1688.285          51.000    24094146.344 8  97017176.519 8     -1293.651          51.000
> 2020 05 13 13 20 30.0000000  0 17        .000000000000
G18  20312749.016 8 106744282.850 8        41.473          51.000    20312748.352 8  83177374.779 8        32.316          51.000
G20  23587806.820 6 123954724.622 6      3246.055          37.000    23587801.117 6  96588105.882 6      2529.393          37.000
G21  20656437.047 8 108550331.469 8      -126.484          49.000    20656435.586 8  84584690.831 8       -98.559          49.000
G25  24775309.336 7 130195098.214 7     -3573.582          43.000    24775313.961 7 101450721.602 7     -2784.612          43.000
G26  20439044.516 6 107407902.557 6       967.391          39.000    20439048.430 6  83694476.303 6       753.811          38.000
G31  22722277.945 8 119406365.237 8     -2859.215          51.000    22722278.477 8  93043904.864 8     -2227.963          51.000
R12  22255110.484 7 118882729.936 7     -4245.535          44.000    22255108.461 4  92464359.256 4     -3302.089          29.000
R13  19410368.336 7 103650278.984 7     -1191.426          43.000    19410369.805 6  80616892.618 6      -926.664          41.000
R23  19278003.625 6 103124390.467 6        24.730          40.000    19278009.125 5  80207797.668 5        19.235          31.000
R24  21003504.242 8 112315254.584 8      2567.863          48.000    21003506.422 6  87356221.430 6      1997.230          39.000
C05  39622802.898 5 206326331.087 5         7.836          35.000    39622804.188 5 159544612.247 5         6.715          35.000
C11  24484403.484 6 127496723.233 6      2390.273          36.000    24484403.383 6  98588570.239 6      1848.226          41.000
C12  21567234.820 7 112306332.867 7       160.703          45.000    21567234.398 8  86842385.124 8       124.369          49.000
C24  23119977.695 8 120391797.960 8     -2310.578          51.000
E02  24175251.805 8 127041805.110 8     -1931.355          51.000    24175254.359 8  97343726.630 8     -1479.846          51.000
E15  26752126.305 7 140583400.418 7      2689.074          44.000    26752133.664 6 107719769.373 6      2060.376          41.000
E36  24103821.484 8 126666453.982 8     -1701.551          51.000    24103824.820 8  97056147.995 8     -1303.753          51.000
> 2020 05 13 13 21  0.0000000  0 17        .000000000000
G18  20312542.570 8 106743196.882 8        27.434          51.000    20312541.734 8  83176528.570 8        21.377          50.000
G20  23569264.359 6 123857284.441 6      3246.801          36.000    23569258.594 5  96512178.456 5      2529.972          35.000
G21  20657180.469 8 108554238.278 8      -137.539          49.000    20657179.172 8  84587735.112 8      -107.173          49.000
G25  24795696.883 7 130302233.461 7     -3572.094          44.000    24795702.031 7 101534203.443 7     -2783.456          44.000
G26  20433541.211 6 107378980.448 6       956.816          40.000    20433545.141 6  83671939.585 6       745.571          40.000
G31  22738605.898 8 119492168.801 8     -2864.457          51.000    22738607.422 8  93110764.719 8     -2232.047          51.000
R12  22278955.203 7 119010104.032 7     -4249.715          43.000
R13  19417112.555 6 103686292.217 6     -1213.070          41.000    19417113.633 6  80644902.888 6      -943.499          40.000
R23  19277888.641 6 103123779.084 6        12.531          37.000    19277894.906 4  80207322.233 4         9.753          29.000
R24  20989113.547 8 112238294.124 8      2559.242          49.000    20989114.109 6  87296363.327 6      1990.525          39.000
C05  39622733.008 5 206325966.749 5        12.328          35.000    39622734.211 5 159544330.529 5         9.744          34.000
C11  24470627.711 5 127424989.926 5      2388.820          33.000    24470627.766 7  98533101.488 7      1847.181          42.000
C12  21566313.047 7 112301534.319 7       155.648          46.000    21566312.711 8  86838674.590 8       120.375          49.000
C24  23133301.586 8 120461178.685 8     -2318.273          51.000
E02  24186284.695 8 127099781.325 8     -1937.242          51.000    24186287.016 8  97388149.940 8     -1484.312          51.000
E15  26736764.766 7 140502679.471 7      2688.906          44.000    26736773.266 6 107657918.304 6      2060.247          41.000
E36  24113532.766 8 126717486.942 8     -1704.195          51.000    24113535.742 8  97095251.161 8     -1305.794          51.000
> 2020 05 13 13 21 30.0000000  0 19        .000000000000
G18  20312435.555 8 106742633.862 8         8.547          51.000    20312434.984 8  83176089.859 8         6.663          51.000
G20  23550736.336 6 123759928.622 6      3242.438          38.000    23550732.484 6  96436316.791 6      2526.578          38.000
G21  20658005.922 8 108558575.432 8      -153.297          50.000    20658004.586 8  84591114.716 8      -119.452          50.000
G25  24816095.023 7 130409425.297 7     -3575.414          43.000    24816100.188 7 101617729.363 7     -2786.040          43.000
G26  20428118.016 6 107350478.814 6       941.285          40.000    20428121.984 6  83649730.505 6       733.466          40.000
G31  22754982.375 8 119578226.607 8     -2874.301          51.000    22754984.570 8  93177822.689 8     -2239.718          51.000
R12  22302842.070 7 119137705.173 7     -4258.891          43.000
R13  19423995.555 6 103723047.859 6     -1239.238          39.000    19423996.141 6  80673490.603 6      -963.852          39.000
R22  22028957.016 4 117592081.282 4     -3445.715          28.000
R23  19277862.398 6 103123638.171 6        -4.750          39.000    19277867.586 4  80207212.579 4        -3.694          28.000
R24  20974788.555 7 112161689.976 7      2545.906          45.000    20974788.555 6  87236782.303 6      1980.146          39.000
C05  39622656.195 5 206325566.441 5        12.562          35.000    39622657.469 5 159544020.997 5         9.385          34.000
C11  24456877.500 5 127353388.832 5      2382.855          35.000    24456878.258 6  98477734.966 6      1842.750          41.000
C12  21565439.352 7 112296984.684 7       145.879          46.000    21565439.156 8  86835156.545 8       112.848          49.000
C24  23146688.398 8 120530886.237 8     -2330.543          51.000
E02  24197368.844 8 127158027.443 8     -1947.664          51.000    24197371.289 8  97432780.059 8     -1492.369          51.000
E15  26721422.758 7 140422059.018 7      2684.195          42.000    26721431.203 6 107596144.295 6      2056.425          40.000
E30  22500133.477 6 118239001.168 6       805.113          38.000    22500131.359 5  90598708.179 5       617.144          35.000
E36  24123277.211 8 126768694.556 8     -1711.418          51.000    24123280.234 8  97134488.154 8     -1311.358          51.000
> 2020 05 13 13 22  0.0000000  0 18        .000000000000
G18  20312446.977 8 106742693.761 8       -11.637          51.000    20312446.734 8  83176136.542 8        -9.068          51.000
G20  23532243.328 6 123662760.848 6      3236.262          38.000    23532242.180 6  96360601.668 6      2521.759          38.000
G21  20658932.195 8 108563442.801 8      -170.383          50.000    20658930.680 8  84594907.475 8      -132.766          50.000
G25  24836522.461 6 130516772.834 6     -3580.102          41.000    24836527.375 6 101701376.615 6     -2789.696          41.000
G26  20422794.203 7 107322499.553 7       924.410          42.000    20422797.945 6  83627928.517 6       720.320          41.000
G31  22771425.914 8 119664636.143 8     -2885.441          51.000    22771428.305 8  93245154.751 8     -2248.396          51.000
R12  22326790.109 6 119265632.243 6     -4268.957          40.000    22326800.508 5  92762264.211 5     -3320.303          32.000
R13  19431036.578 6 103760648.171 6     -1266.934          36.000    19431037.234 6  80702735.272 6      -985.393          39.000
R23  19277942.461 5 103124068.663 5       -22.789          35.000    19277948.305 4  80207547.458 4       -17.722          26.000
R24  20960548.117 7 112085545.075 7      2531.066          42.000    20960548.289 6  87177558.537 6      1968.610          38.000
C05  39622591.562 5 206325231.389 5        11.094          35.000    39622592.820 5 159543760.726 5         8.696          35.000
C11  24443172.938 6 127282019.865 6      2375.824          37.000    24443173.219 6  98422548.001 6      1837.241          40.000
C12  21564632.492 7 112292783.051 7       134.859          46.000    21564632.227 8  86831907.574 8       104.369          48.000
C24  23160156.906 8 120601018.548 8     -2344.141          51.000
E02  24208523.273 8 127216643.373 8     -1959.289          51.000    24208525.961 8  97477693.530 8     -1501.276          51.000
E15  26706119.211 6 140341640.264 6      2677.902          41.000    26706126.094 6 107534524.803 6      2051.935          39.000
E30  22495574.523 6 118215053.879 6       791.996          36.000    22495572.898 5  90580358.948 5       606.764          35.000
E36  24133073.797 8 126820176.078 8     -1719.848          51.000    24133077.242 8  97173935.037 8     -1317.862          51.000
> 2020 05 13 13 22 30.0000000  0 18        .000000000000
G18  20312558.812 8 106743281.663 8       -28.516          51.000    20312558.586 8  83176594.651 8       -22.220          51.000
G20  23513768.258 6 123565689.505 6      3233.805          38.000    23513770.086 6  96284961.686 6      2519.845          38.000
G21  20659941.258 8 108568745.152 8      -184.043          50.000    20659939.703 8  84599039.194 8      -143.410          50.000
G25  24856961.023 6 130624180.404 6     -3581.512          40.000    24856964.555 6 101785070.593 6     -2790.794          40.000
G26  20417551.812 6 107294949.921 6       911.023          40.000    20417555.562 6  83606461.274 6       709.888          40.000
G31  22787918.180 8 119751300.892 8     -2893.090          50.000    22787920.156 8  93312685.698 8     -2254.356          51.000
R12  22350779.539 5 119393786.030 5     -4276.090          33.000    22350788.672 5  92861939.264 5     -3325.851          33.000
R13  19438217.164 6 103798995.976 6     -1290.902          36.000    19438217.906 6  80732561.319 6     -1004.035          38.000
R23  19278111.242 6 103124973.298 6       -37.504          36.000    19278113.773 4  80208256.017 4       -29.170          24.000
R24  20946375.383 6 112009764.059 6      2520.094          39.000    20946376.359 6  87118617.863 6      1960.076          39.000
C05  39622521.219 5 206324863.613 5        12.281          35.000    39622522.484 5 159543478.503 5         9.765          35.000
C11  24429494.906 5 127210789.883 5      2371.770          34.000    24429494.891 7  98367468.537 7      1834.126          42.000
C12  21563874.414 7 112288835.387 7       127.258          46.000    21563873.859 8  86828854.972 8        98.419          48.000
C24  23173688.594 8 120671480.375 8     -2354.227          51.000
E02  24219730.203 8 127275534.144 8     -1967.730          51.000    24219732.805 8  97522817.600 8     -1507.742          51.000
E15  26690836.094 6 140261329.556 6      2674.750          40.000    26690840.430 6 107472988.086 6      2049.741          38.000
E30  22491077.172 6 118191414.908 6       782.316          38.000    22491077.141 5  90562256.709 5       599.156          35.000
E36  24142904.328 8 126871835.866 8     -1725.043          51.000    24142908.047 8  97213518.497 8     -1321.768          51.000
> 2020 05 13 13 23  0.0000000  0 18        .000000000000
G18  20312779.500 8 106744441.607 8       -48.617          51.000    20312779.500 8  83177498.505 8       -37.884          51.000
G20  23495322.094 6 123468762.061 6      3228.078          41.000    23495325.125 6  96209433.888 6      2515.389          40.000
G21  20661041.531 8 108574526.012 8      -200.977          51.000    20661039.914 8  84603543.770 8      -156.605          51.000
G25  24877418.570 6 130731691.184 6     -3585.812          38.000    24877421.656 6 101868845.029 6     -2794.146          38.000
G26  20412399.516 6 107267875.956 6       894.309          41.000    20412403.664 6  83585364.646 6       696.864          41.000
G29  22425151.102 6 117844907.830 6     -2534.012          36.000    22425128.875 5  91827185.201 5     -1974.555          35.000
G31  22804466.945 8 119838262.471 8     -2903.895          51.000    22804468.109 8  93380447.936 8     -2262.775          50.000
R13  19445546.672 6 103838135.835 6     -1318.406          38.000    19445547.727 6  80763003.433 6     -1025.427          40.000
R23  19278376.609 5 103126396.203 5       -56.414          33.000
R24  20932278.922 6 111934393.344 6      2505.316          38.000    20932282.875 6  87059996.214 6      1948.576          40.000
C05  39622453.695 5 206324513.336 5        11.328          35.000    39622455.008 5 159543206.502 5         8.464          35.000
C11  24415850.961 5 127139743.497 5      2364.512          34.000    24415851.773 7  98312530.998 7      1828.626          42.000
C12  21563173.609 7 112285185.389 7       116.395          46.000    21563172.961 8  86826032.577 8        89.931          49.000
C24  23187291.594 8 120742314.206 8     -2367.680          51.000
E02  24230997.883 8 127334743.711 8     -1979.320          51.000    24231000.305 8  97568185.934 8     -1516.661          51.000
E15  26675582.539 6 140181172.095 6      2668.727          40.000    26675584.820 6 107411568.808 6      2045.266          39.000
E30  22486650.688 6 118168158.030 6       769.035          39.000    22486652.477 5  90544436.504 5       588.722          35.000
E36  24152777.047 8 126923717.248 8     -1733.469          51.000    24152780.539 8  97253271.746 8     -1328.218          51.000
> 2020 05 13 13 23 30.0000000  0 16        .000000000000
G18  20313106.375 8 106746160.076 8       -66.320          51.000    20313106.820 8  83178837.590 8       -51.675          51.000
G20  23476902.742 7 123371968.721 7      3224.512          44.000    23476905.297 6  96134010.570 6      2512.610          39.000
G21  20662230.086 8 108580771.178 8      -215.695          51.000    20662228.375 8  84608410.149 8      -168.074          51.000
G26  20407335.555 7 107241266.160 7       879.496          42.000    20407340.047 7  83564629.712 7       685.322          42.000
G31  22821069.203 8 119925505.231 8     -2912.516          49.000    22821069.516 8  93448429.257 8     -2269.496          49.000
R13  19453022.133 6 103878053.324 6     -1343.359          39.000    19453023.805 7  80794050.346 7     -1044.835          43.000
R23  19278737.039 6 103128322.780 6       -72.625          36.000    19278738.844 4  80210862.184 4       -56.486          25.000
R24  20918258.078 6 111859420.331 6      2492.727          39.000    20918263.195 6  87001683.753 6      1938.784          40.000
C05  39622386.539 5 206324162.868 5        12.227          34.000    39622387.898 5 159542936.354 5         9.355          35.000
C11  24402237.211 5 127068868.305 5      2360.191          34.000    24402241.133 7  98257725.724 7      1824.826          42.000
C12  21562527.344 7 112281819.615 7       107.703          46.000    21562526.852 8  86823429.960 8        83.229          49.000
C24  23200962.695 8 120813505.470 8     -2378.840          50.000
E02  24242323.445 8 127394258.528 8     -1988.762          51.000    24242325.305 8  97613788.145 8     -1523.841          51.000
E15  26660356.547 6 140101155.767 6      2664.852          40.000    26660357.906 6 107350257.675 6      2042.166          40.000
E30  22482292.562 6 118145257.435 6       757.582          41.000    22482293.672 5  90526889.253 5       580.446          35.000
E36  24162689.195 8 126975805.996 8     -1739.602          51.000    24162692.242 8  97293183.876 8     -1332.903          51.000
> 2020 05 13 13 24  0.0000000  0 18        .000000000000
G18  20313528.750 8 106748380.739 8       -76.836          51.000    20313529.148 8  83180567.966 8       -59.872          51.000
G20  23458499.484 7 123275256.919 7      3227.969          45.000    23458501.594 6  96058650.793 6      2515.303          38.000
G21  20663496.234 8 108587424.304 8      -222.965          51.000    20663494.234 8  84613594.409 8      -173.739          51.000
G26  20402349.633 7 107215066.262 7       872.184          42.000    20402354.164 7  83544214.201 7       679.621          42.000
G29  22454112.852 6 117997127.189 6     -2534.930          38.000    22454092.383 5  91945747.315 5     -1975.270          31.000
G31  22837713.609 8 120012970.654 8     -2913.621          48.000    22837713.000 8  93516584.086 8     -2270.357          48.000
R12  22423030.898 5 119779819.322 5     -4293.043          34.000    22423039.352 5  93162085.276 5     -3339.039          35.000
R13  19460632.453 6 103918691.136 6     -1361.086          40.000    19460634.977 7  80825657.507 7     -1058.622          44.000
R23  19279181.734 6 103130694.639 6       -80.633          36.000    19279184.188 4  80212713.917 4       -62.711          25.000
R24  20904302.930 6 111784789.013 6      2487.680          40.000    20904306.258 6  86943637.152 6      1934.862          38.000
C05  39622309.133 5 206323760.075 5        20.090          35.000    39622310.414 5 159542624.042 5        14.931          35.000
C11  24388647.891 6 126998109.201 6      2362.043          38.000    24388653.078 7  98203010.313 7      1826.654          42.000
C12  21561924.906 7 112278682.301 7       106.328          46.000    21561924.469 8  86821003.983 8        82.108          49.000
C24  23214690.953 8 120884997.153 8     -2382.375          49.000
E02  24253696.094 8 127454022.242 8     -1990.770          51.000    24253697.641 8  97659581.068 8     -1525.356          51.000
E15  26645147.414 6 140021225.589 6      2668.574          39.000    26645148.695 7 107289012.557 7      2044.689          42.000
E30  22477992.414 6 118122658.486 6       753.793          41.000    22477992.070 5  90509573.219 5       577.411          35.000
E36  24172630.031 8 127028045.123 8     -1738.266          51.000    24172632.805 8  97333211.247 8     -1331.900          51.000
> 2020 05 13 13 24 30.0000000  0 19        .000000000000
G18  20314061.656 8 106751182.917 8      -106.016          51.000    20314062.469 8  83182751.482 8       -82.610          51.000
G20  23440127.672 7 123178709.344 7      3212.457          45.000    23440129.586 6  95983419.008 6      2503.216          38.000
G21  20664855.047 8 108594564.463 8      -249.109          51.000    20664853.031 8  84619158.171 8      -194.108          51.000
G26  20397457.391 7 107189357.684 7       845.602          43.000    20397461.461 7  83524181.545 7       658.913          43.000
G29  22468650.695 5 118073465.064 5     -2549.840          35.000    22468624.812 5  92005231.494 5     -1986.882          35.000
G31  22854414.531 7 120100735.843 7     -2933.453          47.000    22854412.773 7  93584972.513 7     -2285.811          47.000
R12  22447207.070 6 119908955.543 6     -4311.707          37.000    22447211.625 5  93262524.510 5     -3353.553          32.000
R13  19468392.336 6 103960128.506 6     -1397.664          41.000    19468395.500 7  80857886.551 7     -1087.075          45.000
R22  22145404.047 5 118213644.447 5     -3464.152          35.000
R23  19279724.289 6 103133592.148 6      -108.281          39.000
R24  20890426.250 6 111710581.471 6      2463.355          37.000    20890427.961 6  86885920.221 6      1915.943          37.000
C05  39622236.672 5 206323382.205 5         8.980          35.000    39622238.047 5 159542332.727 5         7.026          35.000
C11  24375096.945 6 126927545.730 6      2345.914          39.000    24375102.766 7  98148446.168 7      1813.934          43.000
C12  21561381.734 7 112275852.179 7        86.375          47.000    21561380.891 8  86818815.544 8        66.697          50.000
C24  23228491.992 8 120956866.807 8     -2404.883          49.000
E02  24265130.906 8 127514114.181 8     -2011.527          51.000    24265132.555 8  97705625.493 8     -1541.294          51.000
E15  26629969.602 6 139941462.346 6      2653.184          39.000    26629972.180 7 107227895.287 7      2032.821          45.000
E30  22473764.938 6 118100442.325 6       731.168          41.000    22473764.328 5  90492550.395 5       560.338          35.000
E36  24182614.445 8 127080513.340 8     -1755.672          51.000    24182617.289 8  97373414.168 8     -1345.279          51.000
> 2020 05 13 13 25  0.0000000  0 18        .000000000000
G18  20314704.484 8 106754563.267 8      -120.777          50.000    20314706.039 8  83185385.521 8       -94.112          50.000
G20  23421787.055 7 123082326.174 7      3211.645          45.000    23421788.484 6  95908315.347 6      2502.583          37.000
G21  20666305.695 8 108602187.816 8      -260.512          51.000    20666303.867 8  84625098.462 8      -202.996          50.000
G26  20392658.594 7 107164139.095 7       834.090          44.000    20392662.266 7  83504530.690 7       649.937          43.000
G31  22871171.125 7 120188795.448 7     -2938.672          47.000    22871168.125 7  93653590.331 7     -2289.877          47.000
R12  22471430.531 6 120038355.615 6     -4316.109          37.000    22471433.312 4  93363168.962 4     -3356.974          28.000
R13  19476301.312 6 104002361.971 6     -1419.590          41.000    19476304.906 7  80890734.765 7     -1104.125          45.000
R22  22164867.828 5 118317538.348 5     -3463.387          33.000
R23  19280363.961 6 103137010.774 6      -120.648          38.000
R24  20876626.859 6 111636795.461 6      2454.020          41.000    20876630.125 6  86828531.190 6      1908.679          37.000
C05  39622168.570 5 206323028.142 5        12.680          35.000
C11  24361583.672 6 126857175.602 6      2344.129          41.000    24361589.664 6  98094031.493 6      1812.327          41.000
C12  21560897.000 7 112273325.914 7        80.820          47.000    21560895.820 8  86816862.062 8        62.387          50.000
C24  23242365.617 8 121029109.940 8     -2412.652          50.000
E02  24276627.508 8 127574530.923 8     -2017.676          51.000    24276629.367 8  97751918.800 8     -1546.053          51.000
E15  26614821.969 6 139861863.988 6      2651.812          38.000    26614827.164 7 107166904.315 7      2032.136          46.000
E30  22469609.414 6 118078607.332 6       723.027          41.000    22469608.789 5  90475819.684 5       554.053          35.000
E36  24192641.656 8 127133206.609 8     -1758.512          51.000    24192644.625 8  97413789.525 8     -1347.479          51.000
> 2020 05 13 13 25 30.0000000  0 18        .000000000000
G18  20315451.578 8 106758491.145 8      -139.746          50.000    20315453.312 8  83188446.199 8      -108.893          50.000
G20  23403472.516 7 122986080.577 7      3206.195          44.000    23403473.133 6  95833318.878 6      2498.337          37.000
G21  20667842.484 8 108610263.597 8      -276.398          51.000    20667840.594 8  84631391.286 8      -215.375          50.000
G26  20387947.734 7 107139381.997 7       817.930          45.000    20387951.078 7  83485239.427 7       637.348          45.000
G31  22887977.438 7 120277116.680 7     -2948.129          47.000    22887973.719 7  93722412.010 7     -2297.246          46.000
R12  22495697.758 6 120167985.800 6     -4324.309          36.000    22495701.781 4  93463992.366 4     -3363.357          29.000
R13  19484353.445 6 104045360.067 6     -1445.715          41.000    19484356.969 7  80924177.704 7     -1124.445          45.000
R22  22184343.430 5 118421500.479 5     -3466.637          33.000
R23  19281095.273 6 103140919.047 6      -137.719          39.000    19281097.273 4  80220675.356 4      -107.115          26.000
R24  20862903.109 7 111563401.587 7      2440.336          42.000    20862906.031 6  86771447.094 6      1898.042          36.000
C05  39622099.227 5 206322666.685 5        12.617          35.000
C11  24348102.508 7 126786969.381 7      2337.914          43.000    24348108.352 6  98039743.542 6      1807.787          40.000
C12  21560464.562 7 112271073.303 7        70.836          46.000    21560463.500 8  86815120.200 8        54.844          50.000
C24  23256305.406 8 121101695.116 8     -2424.879          51.000
E02  24288180.188 8 127635241.832 8     -2028.195          51.000    24288182.117 8  97798437.537 8     -1554.060          51.000
E15  26599698.828 5 139782401.219 5      2646.895          35.000    26599707.492 7 107106017.282 7      2028.086          47.000
E30  22465521.250 6 118057124.639 6       710.699          41.000    22465520.773 5  90459358.924 5       544.693          35.000
E36  24202705.758 8 127186093.704 8     -1765.715          51.000    24202708.680 8  97454313.393 8     -1352.938          51.000
> 2020 05 13 13 26  0.0000000  0 19        .000000000000
G18  20316303.914 8 106762971.119 8      -159.184          50.000    20316305.898 8  83191937.080 8      -124.039          50.000
G20  23385185.531 7 122889980.766 7      3200.277          44.000    23385185.086 6  95758435.974 6      2493.723          39.000
G21  20669466.086 8 108618795.778 8      -292.652          50.000    20669464.438 8  84638039.749 8      -228.041          50.000
G26  20383325.992 7 107115092.951 7       801.355          46.000    20383329.086 7  83466312.913 7       624.436          46.000
G29  22512400.883 5 118303465.707 5     -2561.422          30.000    22512378.641 4  92184483.213 4     -1995.892          27.000
G31  22904834.086 7 120365702.188 7     -2957.965          45.000    22904830.930 7  93791439.603 7     -2304.908          45.000
R12  22520008.141 5 120297847.791 5     -4333.223          32.000    22520014.047 4  93565008.075 4     -3370.284          27.000
R13  19492549.680 7 104089126.892 7     -1472.555          42.000    19492552.945 7  80958218.549 7     -1145.320          45.000
R22  22203834.344 5 118525534.249 5     -3469.922          31.000
R23  19281917.000 6 103145320.550 6      -155.359          38.000    19281920.008 4  80224098.806 4      -120.835          26.000
R24  20849253.914 6 111490405.326 6      2426.086          40.000    20849254.820 5  86714672.326 5      1886.965          34.000
C05                                                                  39622031.422 5 159541500.740 5         8.947          34.000
C11  24334654.438 7 126716932.632 7      2331.156          43.000    24334659.695 6  97985586.683 6      1802.447          36.000
C12  21560085.680 7 112269099.046 7        60.535          47.000    21560084.531 8  86813593.574 8        46.773          50.000
C24  23270311.391 8 121174625.714 8     -2437.379          50.000
E02  24299789.812 8 127696251.509 8     -2039.297          51.000    24299792.438 8  97845185.209 8     -1562.602          51.000
E15  26584602.570 5 139703080.066 5      2641.074          34.000    26584613.953 7 107045238.715 7      2023.632          47.000
E30  22461501.938 7 118036000.623 7       697.516          42.000    22461501.828 5  90443172.958 5       534.502          35.000
E36  24212807.523 8 127239178.618 8     -1773.453          51.000    24212810.391 8  97494988.838 8     -1358.901          51.000
> 2020 05 13 13 26 30.0000000  0 17        .000000000000
G18  20317273.484 8 106768066.286 8      -177.094          50.000    20317275.633 8  83195907.354 8      -137.995          50.000
G20  23366938.766 7 122794093.334 7      3195.805          45.000    23366937.914 6  95683718.559 6      2490.240          39.000
G21  20671188.398 8 108627847.192 8      -307.371          50.000    20671187.133 8  84645092.811 8      -239.510          50.000
G26  20378805.594 7 107091337.265 7       785.875          46.000    20378808.398 7  83447801.996 7       612.370          46.000
G31  22921752.938 7 120454612.954 7     -2966.113          45.000    22921751.453 7  93860720.672 7     -2311.257          45.000
R12  22544374.883 5 120428003.248 5     -4340.473          31.000    22544380.594 4  93666240.077 4     -3375.923          26.000
R13  19500902.062 7 104133725.467 7     -1497.375          42.000    19500904.516 7  80992906.326 7     -1164.625          44.000
R23  19282843.234 6 103150279.066 6      -171.406          38.000    19282847.242 4  80227955.314 4      -133.319          29.000
R24  20835690.977 5 111417872.718 5      2412.863          35.000    20835690.992 5  86658258.116 5      1876.668          34.000
C05  39621972.266 5 206322006.130 5        11.789          35.000    39621973.914 5 159541269.491 5         8.841          34.000
C11  24321251.031 7 126647128.788 7      2325.723          42.000    24321256.453 5  97931609.985 5      1798.146          30.000
C12  21559772.219 7 112267465.822 7        51.820          47.000    21559770.844 8  86812330.639 8        40.016          49.000
C24  23284395.023 8 121247963.199 8     -2448.363          49.000
E02  24311468.484 8 127757623.123 8     -2048.773          51.000    24311471.984 8  97892210.198 8     -1569.836          51.000
E15  26569546.398 6 139623909.942 6      2636.816          36.000    26569558.562 7 106984618.087 7      2020.394          46.000
E30  22457563.398 7 118015300.159 7       685.879          43.000    22457562.133 5  90427311.563 5       525.591          34.000
E36  24222958.812 8 127292523.897 8     -1779.551          51.000    24222961.703 8  97535863.784 8     -1363.585          51.000
> 2020 05 13 13 27  0.0000000  0 18        .000000000000
G18  20318329.828 8 106773616.243 8      -194.516          50.000    20318331.594 8  83200231.986 8      -151.571          50.000
G20  23348702.492 7 122698261.907 7      3191.414          46.000    23348701.656 6  95609044.754 6      2486.819          40.000
G21  20672978.969 8 108637256.889 8      -321.535          50.000    20672977.688 8  84652425.041 8      -250.547          50.000
G26  20374356.359 7 107067956.614 7       771.184          47.000    20374358.875 7  83429583.309 7       600.922          47.000
G29  22541696.344 5 118457360.226 5     -2568.617          33.000    22541668.320 5  92304353.712 5     -2001.517          33.000
G31  22938703.227 7 120543686.360 7     -2973.773          46.000    22938703.492 7  93930128.454 7     -2317.229          46.000
R13  19509379.766 6 104178992.586 6     -1521.988          41.000    19509381.438 7  81028114.085 7     -1183.769          43.000
R22  22242858.344 5 118733879.370 5     -3472.211          30.000    22242860.633 4  92348573.788 4     -2700.605          27.000
R23  19283842.914 6 103155630.226 6      -186.680          36.000    19283849.117 4  80232117.371 4      -145.189          27.000
R24  20822182.875 5 111345641.789 5      2400.844          34.000    20822183.844 5  86602078.434 5      1867.323          34.000
C05  39621896.266 5 206321610.007 5        12.340          34.000    39621897.977 5 159540963.909 5        10.037          34.000
C11  24307861.516 6 126577399.998 6      2321.199          39.000
C12  21559493.312 7 112266014.743 7        43.398          47.000    21559492.188 8  86811208.579 8        33.492          50.000
C24  23298525.469 7 121321547.494 7     -2458.824          47.000
E02  24323185.648 8 127819196.271 8     -2057.762          51.000    24323189.766 8  97939389.598 8     -1576.727          51.000
E15  26554499.844 6 139544841.914 6      2632.957          38.000    26554511.062 7 106924033.580 7      2017.422          45.000
E30  22453675.312 7 117994864.665 7       674.914          43.000    22453671.891 5  90411653.233 5       517.154          34.000
E36  24233128.969 8 127345968.595 8     -1785.078          51.000    24233132.039 8  97576814.905 8     -1367.796          51.000
> 2020 05 13 13 27 30.0000000  0 17        .000000000000
G18  20319507.781 8 106779806.105 8      -213.109          50.000    20319509.273 8  83205055.259 8      -166.059          50.000
G20  23330512.992 7 122602675.537 7      3186.059          47.000    23330512.633 7  95534561.912 7      2482.646          42.000
G21  20674872.719 8 108647209.839 8      -336.879          49.000    20674871.547 8  84660180.588 8      -262.503          49.000
G26  20370014.008 7 107045138.226 7       755.086          47.000    20370016.422 7  83411802.743 7       588.379          47.000
G31  22955719.766 7 120633105.771 7     -2982.562          47.000    22955721.086 7  93999805.846 7     -2324.078          47.000
R12  22593221.141 5 120688910.042 5     -4353.922          31.000    22593216.781 4  93869150.169 4     -3386.387          29.000
R13  19518017.281 6 104225115.926 6     -1547.867          40.000    19518018.641 7  81063987.776 7     -1203.897          43.000
R23  19284950.195 6 103161562.181 6      -203.484          36.000
R24  20808764.492 4 111273901.784 4      2387.652          28.000    20808768.031 5  86546280.806 5      1857.072          34.000
C05  39621837.336 5 206321303.302 5        12.461          35.000    39621839.031 5 159540726.303 5         9.512          34.000
C11  24294521.133 6 126507930.853 6      2314.836          36.000
C12  21559284.703 7 112264929.506 7        33.914          47.000    21559283.961 8  86810369.417 8        26.215          50.000
C24  23312738.047 7 121395560.995 7     -2470.430          46.000
E02  24334976.453 8 127881156.159 8     -2067.930          51.000    24334980.734 8  97986865.327 8     -1584.533          51.000
E15  26539498.883 6 139466007.670 6      2627.754          41.000    26539507.672 7 106863628.162 7      2013.480          45.000
E30  22449872.875 7 117974881.120 7       662.336          42.000    22449869.539 6  90396341.158 6       507.630          36.000
E36  24243353.203 8 127399697.325 8     -1791.812          51.000    24243356.562 8  97617983.664 8     -1372.959          51.000
> 2020 05 13 13 28  0.0000000  0 17        .000000000000
G18  20320782.086 8 106786502.123 8      -233.305          50.000    20320783.383 8  83210272.938 8      -181.796          50.000
G20  23312345.406 8 122507203.628 8      3178.797          49.000    23312345.719 7  95460168.281 7      2476.988          43.000
G21  20676844.375 8 108657571.953 8      -353.906          49.000    20676843.430 8  84668254.969 8      -275.768          49.000
G26  20365753.539 7 107022750.500 7       737.484          47.000    20365755.977 7  83394357.741 7       574.663          47.000
G31  22972776.344 7 120722735.420 7     -2992.797          46.000    22972778.055 7  94069647.081 7     -2332.053          46.000
R12  22617700.578 5 120819681.170 5     -4363.957          34.000    22617698.836 4  93970860.982 4     -3394.195          27.000
R13  19526789.383 6 104271959.260 6     -1575.234          40.000    19526790.688 7  81100421.447 7     -1225.182          42.000
R23  19286142.336 5 103167937.812 5      -221.812          32.000    19286151.172 4  80241693.845 4      -172.521          27.000
R24  20795414.344 6 111202518.591 6      2371.840          37.000    20795419.297 5  86490760.589 5      1844.761          34.000
C05                                                                  39621771.742 5 159540455.106 5         8.340          34.000
C11  24281202.703 5 126438589.818 5      2307.227          33.000    24281202.023 6  97770312.798 6      1784.278          36.000
C12  21559121.148 8 112264077.766 8        22.820          48.000    21559120.430 8  86809710.791 8        17.670          50.000
C24  23327008.016 7 121469870.097 7     -2483.660          47.000
E02  24346815.508 8 127943369.015 8     -2079.676          51.000    24346819.406 8  98034534.892 8     -1593.512          51.000
E15  26524517.727 7 139387274.850 7      2620.988          44.000    26524523.992 7 106803300.421 7      2008.251          44.000
E30  22446130.492 6 117955217.591 6       648.172          41.000    22446128.820 6  90381274.272 6       496.777          37.000
E36  24253605.977 8 127453575.790 8     -1800.145          51.000    24253609.672 8  97659267.152 8     -1379.299          51.000
> 2020 05 13 13 28 30.0000000  0 18        .000000000000
G18  20322159.039 8 106793737.409 8      -251.352          50.000    20322160.023 8  83215910.835 8      -195.858          50.000
G20  23294206.500 7 122411883.271 7      3173.688          47.000    23294207.719 7  95385892.748 7      2473.006          44.000
G21  20678900.141 8 108668375.873 8      -368.656          48.000    20678899.477 8  84676673.601 8      -287.265          48.000
G26  20361581.797 7 107000828.665 7       721.742          47.000    20361584.109 7  83377275.788 7       562.397          47.000
G31  22989878.492 7 120812606.359 7     -3000.836          44.000    22989880.742 7  94139676.334 7     -2338.314          44.000
R12  22642217.062 5 120950658.042 5     -4369.801          33.000
R13  19535702.367 6 104319554.879 6     -1600.305          38.000    19535703.797 7  81137440.254 7     -1244.681          43.000
R22  22301483.906 5 119046825.648 5     -3481.004          33.000    22301492.781 4  92592002.334 4     -2707.447          28.000
R23  19287422.461 5 103174790.215 5      -237.484          35.000    19287429.297 4  80247023.600 4      -184.707          26.000
R24  20782137.227 6 111131527.168 6      2358.562          41.000    20782144.562 5  86435544.992 5      1834.434          35.000
C05  39621701.031 5 206320593.513 5        10.938          35.000    39621702.820 5 159540177.962 5         8.433          34.000
C11  24267912.609 5 126369410.706 5      2302.113          30.000    24267919.547 6  97716819.012 6      1780.143          39.000
C12  21559008.547 7 112263492.559 7        13.910          47.000    21559007.750 8  86809258.266 8        10.774          50.000
C24  23341341.641 8 121544506.570 8     -2494.535          49.000
E02  24358708.883 8 128005868.071 8     -2089.238          51.000    24358712.023 8  98082423.779 8     -1600.833          51.000
E15  26509562.391 7 139308678.041 7      2616.430          46.000    26509566.859 7 106743076.897 7      2004.767          44.000
E30  22442455.023 6 117935909.028 6       636.367          41.000    22442455.242 6  90366479.360 6       487.624          38.000
E36  24263893.438 8 127507636.677 8     -1806.273          51.000    24263897.359 8  97700690.417 8     -1384.031          51.000
> 2020 05 13 13 29  0.0000000  0 19        .000000000000
G18  20323645.047 8 106801545.589 8      -265.605          50.000    20323645.562 8  83221995.136 8      -206.965          50.000
G20  23276103.086 7 122316752.041 7      3171.969          47.000    23276105.320 7  95311764.589 7      2471.664          45.000
G21  20681046.328 8 108679655.013 8      -379.789          49.000    20681045.547 8  84685462.548 8      -295.940          49.000
G26  20357505.633 7 106979408.433 7       709.828          47.000    20357507.789 7  83360584.704 7       553.113          47.000
G29  22600597.430 5 118766943.349 5     -2584.656          35.000
G31  23007032.000 7 120902750.306 7     -3005.324          43.000    23007035.211 7  94209918.371 7     -2341.811          43.000
R12  22666777.938 5 121081872.361 5     -4373.773          34.000
R13  19544762.055 6 104367936.617 6     -1621.547          38.000    19544764.719 7  81175070.448 7     -1261.203          44.000
R22  22321050.406 5 119151278.195 5     -3478.898          34.000    22321060.938 4  92673243.051 4     -2705.813          25.000
R23  19288799.109 6 103182153.094 6      -249.422          38.000    19288804.719 4  80252750.160 4      -193.998          26.000
R24  20768941.812 7 111060962.981 7      2349.250          43.000    20768949.992 6  86380661.712 6      1827.194          36.000
C05  39621636.664 5 206320258.725 5        14.938          34.000    39621638.477 5 159539918.211 5        11.548          34.000
C11  24254663.977 5 126300427.886 5      2300.082          35.000    24254674.938 7  97663477.104 7      1778.781          42.000
C12  21558953.406 7 112263207.293 7         8.688          47.000    21558952.703 8  86809037.706 8         6.585          50.000
C24  23355744.711 8 121619502.702 8     -2501.801          50.000
E02  24370662.922 8 128068687.014 8     -2095.219          51.000    24370665.117 8  98130557.774 8     -1605.409          51.000
E15  26494639.453 7 139230252.328 7      2615.422          47.000    26494642.812 7 106682984.484 7      2004.001          44.000
E30  22438854.773 7 117916990.867 7       628.199          44.000    22438855.836 6  90351983.632 6       481.249          38.000
E36  24274221.797 8 127561913.116 8     -1808.688          51.000    24274225.750 8  97742278.840 8     -1385.898          51.000
> 2020 05 13 13 29 30.0000000  0 17        .000000000000
G18  20325239.367 8 106809923.213 8      -294.617          51.000    20325239.922 8  83228523.160 8      -229.572          50.000
G20  23258035.375 7 122221810.152 7      3155.680          45.000    23258038.641 7  95237783.964 7      2458.974          45.000
G21  20683282.336 8 108691405.842 8      -405.363          49.000    20683281.484 8  84694619.034 8      -315.867          49.000
G26  20353524.734 8 106958488.562 8       683.062          48.000    20353526.602 8  83344283.496 8       532.256          48.000
G31  23024236.656 7 120993161.778 7     -3023.988          46.000    23024240.086 7  94280368.848 7     -2356.358          46.000
R12  22691384.281 5 121213317.703 5     -4390.953          33.000
R13  19553968.938 6 104417099.952 6     -1657.789          40.000    19553971.969 7  81213308.602 7     -1289.391          45.000
R23  19290270.328 6 103190021.788 6      -276.852          37.000    19290277.148 4  80258870.317 4      -215.326          26.000
R24  20755826.711 7 110990824.007 7      2324.871          42.000    20755834.336 5  86326109.191 5      1808.233          33.000
C05  39621576.547 5 206319944.881 5         3.719          35.000    39621578.297 5 159539675.916 5         2.981          34.000
C11  24241454.039 6 126231638.991 6      2284.199          39.000    24241467.203 6  97610285.187 6      1766.128          41.000
C12  21558955.750 8 112263219.005 8       -11.160          48.000    21558954.898 8  86809046.750 8        -8.467          50.000
C24  23370216.047 8 121694853.984 8     -2523.363          51.000
E02  24382676.930 8 128131822.495 8     -2115.656          51.000    24382678.742 8  98178934.285 8     -1620.977          51.000
E15  26479748.461 7 139151995.764 7      2599.969          46.000    26479751.219 7 106623021.703 7      1992.127          44.000
E30  22435329.195 7 117898461.517 7       605.277          45.000    22435330.109 6  90337785.819 6       463.790          38.000
E36  24284590.438 8 127616401.198 8     -1825.559          51.000    24284594.188 8  97784029.428 8     -1398.790          51.000
> 2020 05 13 13 30  0.0000000  0 17        .000000000000
G18  20326939.539 8 106818857.269 8      -305.031          50.000    20326940.094 8  83235484.775 8      -237.687          49.000
G20  23240002.188 7 122127048.361 7      3157.816          44.000    23240005.938 7  95163943.631 7      2460.636          44.000
G21  20685605.586 8 108703614.934 8      -412.629          49.000    20685604.797 8  84704132.620 8      -321.529          49.000
G26  20349637.000 8 106938058.129 8       674.852          48.000    20349638.586 8  83328363.688 8       525.858          48.000
G31  23041489.727 7 121083825.550 7     -3024.145          47.000    23041492.383 7  94351015.893 7     -2356.476          47.000
R13  19563319.688 6 104467031.208 6     -1675.340          40.000    19563322.961 7  81252144.027 7     -1303.042          44.000
R22  22360219.195 5 119360367.213 5     -3486.781          30.000
R23  19291834.125 6 103198383.045 6      -284.668          38.000
R24  20742789.297 6 110921098.324 6      2319.281          41.000    20742794.289 5  86271878.172 5      1803.888          30.000
C05  39621518.344 5 206319641.413 5        11.586          35.000    39621519.906 5 159539441.250 5         9.367          34.000
C11  24228279.742 6 126163032.302 6      2285.910          40.000    24228293.312 6  97557234.113 6      1767.653          38.000
C12  21559012.766 8 112263514.913 8       -12.609          48.000    21559011.672 8  86809275.574 8        -9.651          50.000
C24  23384752.930 8 121770546.524 8     -2526.754          51.000
E02  24394748.555 8 128195261.599 8     -2117.598          51.000    24394750.406 8  98227543.429 8     -1622.638          51.000
E15  26464887.078 7 139073896.912 7      2602.715          46.000    26464889.688 7 106563179.767 7      1994.291          44.000
E30  22431875.492 7 117880309.857 7       600.801          45.000    22431875.875 6  90323877.412 6       460.348          39.000
E36  24294996.859 8 127671087.533 8     -1824.074          51.000    24295000.438 8  97825931.921 8     -1397.640          51.000
> 2020 05 13 13 30 30.0000000  0 17        .000000000000
G18  20328727.828 8 106828254.584 8      -322.906          50.000    20328728.023 8  83242807.366 8      -251.615          50.000
G20  23221987.008 7 122032377.562 7      3152.152          45.000    23221990.625 7  95090174.196 7      2456.223          45.000
G21  20687998.430 8 108716188.967 8      -427.180          49.000    20687997.273 8  84713930.562 8      -332.867          49.000
G26  20345825.039 8 106918026.175 8       659.160          48.000    20345826.703 8  83312754.369 8       513.631          48.000
G31  23058773.031 7 121174646.714 7     -3031.938          47.000    23058774.188 7  94421785.567 7     -2362.552          47.000
R13  19572796.195 6 104517635.275 6     -1700.191          40.000    19572799.664 7  81291502.714 7     -1322.371          44.000
R22  22379817.398 5 119464975.013 5     -3486.820          30.000
R23  19293471.914 6 103207141.001 6      -300.539          38.000    19293475.656 4  80272176.235 4      -233.762          25.000
R24  20729811.211 6 110851692.635 6      2306.387          40.000    20729812.758 5  86217896.052 5      1793.856          32.000
C05  39621444.477 5 206319257.504 5        12.141          34.000    39621445.930 5 159539142.659 5         8.956          34.000
C11  24215123.500 6 126094516.620 6      2280.109          41.000    24215135.062 5  97504253.389 5      1763.161          35.000
C12  21559106.352 7 112264002.998 7       -21.434          47.000    21559105.281 8  86809653.001 8       -16.631          51.000
C24  23399336.844 8 121846486.984 8     -2537.340          51.000
E02  24406860.578 8 128258911.274 8     -2127.125          51.000    24406862.062 8  98276313.915 8     -1629.908          51.000
E15  26450037.984 7 138995864.144 7      2597.973          46.000    26450040.578 7 106503388.504 7      1990.556          44.000
E30  22428475.977 7 117862444.638 7       588.691          44.000    22428476.047 6  90310188.478 6       451.099          39.000
E36  24305423.297 8 127725878.562 8     -1830.082          51.000    24305426.812 8  97867914.642 8     -1402.277          51.000
> 2020 05 13 13 31  0.0000000  0 18        .000000000000
G18  20330629.680 8 106838248.617 8      -341.516          50.000    20330629.859 8  83250594.926 8      -266.113          50.000
G20  23204015.484 7 121937934.712 7      3145.762          45.000    23204018.859 7  95016582.422 7      2451.246          45.000
G21  20690486.070 8 108729261.052 8      -442.574          50.000    20690484.500 8  84724116.608 8      -344.863          50.000
G26  20342114.680 8 106898528.274 8       642.453          49.000    20342116.688 8  83297561.207 8       500.613          49.000
G29  22659888.969 5 119078533.603 5     -2604.910          33.000
G31  23076111.469 7 121265756.720 7     -3040.344          47.000    23076110.789 7  94492780.317 7     -2369.102          47.000
R13  19582424.094 7 104569046.576 7     -1725.602          42.000    19582427.188 7  81331489.251 7     -1342.135          44.000
R22  22399430.258 5 119569650.589 5     -3489.344          31.000
R23  19295209.195 6 103216431.022 6      -317.043          41.000    19295215.289 4  80279401.884 4      -246.589          28.000
R24  20716918.703 7 110782744.074 7      2292.230          42.000    20716918.648 5  86164269.412 5      1782.843          31.000
C05  39621380.422 5 206318923.797 5        11.527          35.000    39621381.953 5 159538884.956 5         9.044          34.000
C11  24202010.523 6 126026225.339 6      2273.824          41.000    24202021.617 5  97451446.150 5      1758.422          30.000
C12  21559262.266 8 112264815.859 8       -31.117          48.000    21559261.391 8  86810281.546 8       -24.065          51.000
C24  23413992.688 8 121922806.567 8     -2548.844          50.000
E02  24419038.414 8 128322905.076 8     -2137.539          51.000    24419039.203 8  98325348.086 8     -1637.807          51.000
E15  26435227.047 7 138918032.409 7      2592.391          47.000    26435229.750 7 106443751.289 7      1986.368          44.000
E30  22425156.484 7 117845001.212 7       575.895          44.000    22425156.211 6  90296822.758 6       441.183          39.000
E36  24315895.031 8 127780907.333 8     -1836.836          51.000    24315898.492 8  97910079.534 8     -1407.452          51.000
> 2020 05 13 13 31 30.0000000  0 17        .000000000000
G18  20332631.438 8 106848767.817 8      -359.035          51.000    20332631.820 8  83258791.732 8      -279.768          51.000
G20  23186074.461 7 121843652.283 7      3140.316          47.000    23186077.344 7  94943115.660 7      2447.000          45.000
G21  20693054.938 8 108742759.365 8      -456.645          51.000    20693052.812 8  84734634.778 8      -355.827          50.000
G26  20338492.766 8 106879495.059 8       627.090          49.000    20338495.023 8  83282730.123 8       488.641          49.000
G31  23093490.938 7 121357082.442 7     -3047.500          44.000    23093488.945 7  94563943.155 7     -2374.675          44.000
R13  19592189.219 6 104621192.000 6     -1750.184          41.000    19592191.953 7  81372046.756 7     -1361.254          43.000
R22  22419046.578 5 119674387.673 5     -3490.016          30.000
R23  19297031.781 6 103226179.502 6      -332.109          40.000    19297037.695 4  80286984.062 4      -258.307          26.000
R24  20704098.625 7 110714181.550 7      2279.469          43.000    20704096.836 5  86110942.958 5      1772.920          32.000
C05  39621312.953 5 206318573.365 5        12.305          35.000    39621314.391 5 159538613.216 5         9.524          34.000
C11  24188927.281 6 125958088.684 6      2269.121          39.000    24188945.773 4  97398843.507 4      1754.154          29.000
C12  21559467.227 8 112265882.885 8       -39.508          48.000    21559466.500 8  86811106.632 8       -30.553          51.000
C24  23428707.102 8 121999433.409 8     -2558.973          50.000
E02  24431268.383 8 128387171.579 8     -2146.504          51.000    24431268.781 8  98374591.225 8     -1644.718          51.000
E15  26420441.023 7 138840331.734 7      2588.098          47.000    26420444.352 7 106384214.475 7      1983.190          45.000
E30  22421904.188 7 117827909.925 7       564.098          45.000    22421903.680 6  90283726.850 6       432.099          39.000
E36  24326398.273 8 127836101.971 8     -1842.289          51.000    24326401.609 8  97952371.518 8     -1411.561          51.000
> 2020 05 13 13 32  0.0000000  0 17        .000000000000
G18  20334741.586 8 106859856.612 8      -379.016          51.000    20334741.914 8  83267432.341 8      -295.337          51.000
G20  23168173.312 7 121749579.045 7      3132.379          46.000    23168175.266 7  94869811.902 7      2440.818          43.000
G21  20695713.258 8 108756728.368 8      -473.418          51.000    20695710.680 8  84745519.726 8      -368.894          50.000
G26  20334968.164 8 106860973.171 8       608.895          49.000    20334970.742 8  83268297.451 8       474.460          49.000
G29  22689687.352 5 119235105.963 5     -2615.160          34.000    22689708.688 5  92910531.784 5     -2037.793          33.000
G31  23110919.156 6 121448666.502 6     -3056.910          39.000    23110916.883 6  94635307.318 6     -2382.008          40.000
R13  19602099.812 6 104674115.793 6     -1777.266          40.000    19602102.453 7  81413209.667 7     -1382.318          43.000
R23  19298947.656 6 103236431.268 6      -350.082          39.000    19298952.031 4  80294957.629 4      -272.286          28.000
R24  20691359.953 7 110646051.329 7      2263.785          42.000    20691356.516 5  86057952.823 5      1760.725          32.000
C05  39621250.453 5 206318247.232 5        10.535          35.000    39621251.961 5 159538362.697 5         7.911          34.000
C11  24175882.297 6 125890151.924 6      2261.324          39.000
C12  21559729.672 8 112267248.398 8       -50.297          48.000    21559728.836 8  86812162.549 8       -39.044          51.000
C24  23443488.945 8 122076410.521 8     -2571.684          50.000
E02  24443559.031 8 128451755.385 8     -2158.016          51.000    24443559.352 8  98424077.487 8     -1653.559          51.000
E15  26405688.617 7 138762808.104 7      2581.145          47.000    26405693.234 7 106324813.331 7      1977.775          46.000
E30  22418727.609 7 117811217.105 7       549.938          45.000    22418728.148 6  90270936.232 6       421.327          41.000
E36  24336941.469 8 127891506.544 8     -1850.258          51.000    24336944.539 8  97994824.353 8     -1417.718          50.000
> 2020 05 13 13 32 30.0000000  0 16        .000000000000
G18  20336959.320 8 106871510.874 8      -394.066          51.000    20336959.672 8  83276513.581 8      -307.065          51.000
G20  23150311.648 7 121655714.253 7      3129.152          46.000    23150312.023 6  94796670.572 6      2438.304          40.000
G21  20698460.195 8 108771163.178 8      -485.113          51.000    20698457.359 8  84756767.644 8      -378.010          50.000
G26  20331540.500 8 106842960.603 8       595.625          50.000    20331543.164 8  83254261.681 8       464.123          50.000
G31  23128393.883 5 121540502.550 5     -3062.125          34.000    23128394.102 5  94706867.905 5     -2386.068          33.000
R13  19612155.328 6 104727813.125 6     -1798.926          40.000    19612158.141 7  81454974.241 7     -1399.164          44.000
R22  22458316.797 5 119884004.219 5     -3492.551          31.000
R23  19300956.445 6 103247181.164 6      -363.113          40.000    19300962.406 4  80303318.696 4      -282.421          29.000
C05                                                                  39621194.219 5 159538129.428 5        10.542          34.000
C11  24162874.242 6 125822412.254 6      2258.859          36.000    24162871.969 5  97293887.191 5      1746.059          32.000
C12  21560048.664 8 112268908.719 8       -56.559          48.000    21560047.508 8  86813446.409 8       -43.686          50.000
C24  23458337.859 8 122153732.888 8     -2579.410          50.000
E02  24455909.172 8 128516652.517 8     -2164.699          51.000    24455909.758 8  98473803.833 8     -1658.645          51.000
E15  26390969.383 8 138685458.998 8      2579.039          48.000    26390975.422 7 106265545.881 7      1976.267          47.000
E30  22415626.500 7 117794920.570 7       540.359          46.000    22415628.086 7  90258449.269 7       414.006          42.000
E36  24347523.828 8 127947116.623 8     -1853.297          51.000    24347526.688 8  98037434.659 8     -1420.020          50.000
> 2020 05 13 13 33  0.0000000  0 16        .000000000000
G18  20339276.625 8 106883688.454 8      -418.004          51.000    20339277.281 8  83286002.612 8      -325.717          51.000
G20  23132482.172 7 121562019.998 7      3117.055          44.000    23132480.453 6  94723662.154 6      2428.880          39.000
G21  20701287.547 8 108786020.993 8      -505.496          51.000    20701284.672 8  84768345.166 8      -393.890          49.000
G26  20328202.172 8 106825417.413 8       573.973          50.000    20328204.781 8  83240591.662 8       447.251          50.000
G31  23145907.352 6 121632546.426 6     -3074.863          36.000    23145912.266 6  94778590.464 6     -2396.000          36.000
R13  19622347.844 6 104782240.081 6     -1829.672          41.000    19622350.859 7  81497306.289 7     -1423.081          44.000
R23  19303051.367 6 103258386.079 6      -384.691          36.000    19303056.719 4  80312033.581 4      -299.207          27.000
R24  20666110.078 5 110510938.816 5      2233.773          35.000    20666112.070 5  85952966.050 5      1737.379          35.000
C05                                                                  39621133.234 5 159537884.963 5         6.138          34.000
C11  24149895.039 6 125754828.959 6      2246.699          38.000    24149893.766 4  97241627.471 4      1737.052          29.000
C12  21560416.234 8 112270822.378 8       -71.109          48.000    21560414.938 8  86814926.159 8       -54.971          51.000
C24  23473245.508 8 122231357.737 8     -2595.688          51.000
E02  24468310.398 8 128581820.961 8     -2179.957          51.000    24468311.945 8  98523738.064 8     -1670.339          51.000
E15  26376275.703 8 138608243.852 8      2568.441          48.000    26376282.906 7 106206381.063 7      1968.134          47.000
E30  22412593.055 7 117778980.074 7       522.289          45.000    22412594.672 6  90246235.115 6       400.210          41.000
E36  24358137.133 8 128002889.761 8     -1864.949          51.000    24358140.164 8  98080169.925 8     -1429.014          50.000
> 2020 05 13 13 33 30.0000000  0 16        .000000000000
G18  20341700.391 8 106896425.385 8      -432.980          51.000    20341701.016 8  83295927.485 8      -337.387          50.000
G20  23114692.453 7 121468535.886 7      3113.742          44.000    23114689.125 6  94650817.503 6      2426.296          36.000
G21  20704202.211 8 108801338.200 8      -517.332          51.000    20704199.570 8  84780280.664 8      -403.116          49.000
G26  20324960.516 8 106808381.833 8       560.230          51.000    20324962.992 8  83227317.183 8       436.543          51.000
G31  23163468.672 6 121724832.629 6     -3079.273          41.000    23163477.844 6  94850501.796 6     -2399.434          41.000
R13  19632684.180 7 104837432.774 7     -1851.316          42.000    19632687.188 7  81540233.928 7     -1439.913          45.000
R23  19305237.031 6 103270081.632 6      -397.047          39.000    19305243.492 5  80321130.139 5      -308.814          31.000
R24  20653597.977 6 110444052.914 6      2223.262          39.000    20653605.227 5  85900943.811 5      1729.207          35.000
C05  39621074.164 5 206317328.702 5        10.441          34.000    39621075.922 5 159537653.695 5         8.219          34.000
C11  24136953.242 6 125687438.868 6      2243.820          37.000    24136949.156 4  97189493.307 4      1735.511          28.000
C12  21560839.297 8 112273025.523 8       -77.418          48.000    21560838.250 8  86816629.778 8       -59.807          51.000
C24  23488218.133 8 122309319.886 8     -2603.461          51.000
E02  24480769.320 8 128647296.956 8     -2186.770          51.000    24480772.305 8  98573907.945 8     -1675.526          51.000
E15  26361614.719 8 138531200.359 8      2566.105          48.000    26361622.391 7 106147347.776 7      1966.207          47.000
E30  22409634.156 7 117763433.675 7       512.562          44.000    22409635.758 6  90234322.935 6       392.770          41.000
E36  24368788.164 8 128058861.737 8     -1868.125          51.000    24368791.664 8  98123057.541 8     -1431.408          50.000
> 2020 05 13 13 34  0.0000000  0 17        .000000000000
G18  20344222.852 8 106909680.919 8      -450.574          51.000    20344223.227 8  83306256.467 8      -351.097          51.000
G20  23096936.125 7 121375225.490 7      3107.387          45.000    23096932.234 6  94578108.188 6      2421.340          37.000
G21  20707196.508 8 108817073.773 8      -531.547          50.000    20707194.141 8  84792542.155 8      -414.192          50.000
G26  20321808.133 8 106791815.277 8       544.359          51.000    20321810.555 8  83214408.181 8       424.179          51.000
G31  23181068.547 7 121817318.441 7     -3086.047          42.000    23181081.711 7  94922568.627 7     -2404.715          43.000
R12  22914480.648 5 122404987.971 5     -4441.785          33.000    22914479.305 5  95203911.418 5     -3454.725          33.000
R13  19643155.961 6 104893349.114 6     -1876.051          41.000    19643159.102 7  81583724.377 7     -1459.154          45.000
R23  19307508.055 6 103282226.153 6      -412.207          38.000    19307515.180 5  80330575.845 5      -320.605          31.000
R24  20641158.797 5 110377553.563 5      2210.043          35.000    20641167.102 5  85849222.157 5      1718.922          32.000
C05  39621013.164 5 206317011.633 5        10.352          35.000    39621014.867 5 159537407.686 5         8.624          34.000
C11  24124041.680 5 125620202.937 5      2238.328          35.000    24124044.172 5  97137520.350 5      1730.479          32.000
C12  21561310.133 8 112275478.131 8       -85.895          48.000    21561309.406 8  86818526.302 8       -66.495          51.000
C24  23503247.398 8 122387577.936 8     -2613.539          51.000
E02  24493278.672 8 128713039.926 8     -2195.918          50.000    24493282.977 8  98624282.391 8     -1682.613          51.000
E15  26346978.992 7 138454289.359 7      2561.344          47.000    26346986.203 7 106088416.010 7      1962.645          47.000
E30  22406742.570 7 117748242.546 7       500.406          44.000    22406744.656 7  90222682.947 7       383.488          42.000
E36  24379469.227 8 128114991.517 8     -1873.648          51.000    24379472.992 8  98166066.056 8     -1435.674          49.000
> 2020 05 13 13 34 30.0000000  0 18        .000000000000
G18  20346841.898 8 106923443.929 8      -467.105          51.000    20346842.227 8  83316980.906 8      -363.978          51.000
G20  23079211.625 7 121282081.485 7      3102.027          47.000    23079208.102 6  94505528.549 6      2417.167          38.000
G21  20710268.281 8 108833216.128 8      -544.730          49.000    20710265.969 8  84805120.621 8      -424.465          49.000
G26  20318743.203 8 106775708.842 8       529.410          51.000    20318745.648 8  83201857.708 8       412.527          51.000
G31  23198704.297 7 121909991.009 7     -3091.992          44.000    23198721.422 7  94994780.978 7     -2409.345          43.000
R12  22939435.773 4 122538344.804 4     -4445.125          28.000    22939435.000 5  95307594.278 5     -3457.329          33.000
R13  19653760.641 6 104949976.085 6     -1899.352          41.000    19653763.891 7  81627767.571 7     -1477.273          45.000
R22  22536951.500 5 120303748.402 5     -3498.906          34.000    22536954.188 4  93569606.868 4     -2721.365          28.000
R23  19309861.039 6 103294807.710 6      -426.234          39.000    19309866.266 4  80340361.469 4      -331.516          29.000
R24  20628793.867 6 110311430.832 6      2198.039          36.000    20628798.078 4  85797798.339 4      1709.586          29.000
C05  39620946.359 5 206316663.850 5        12.031          35.000    39620948.172 5 159537138.782 5         9.666          34.000
C11  24111157.203 5 125553111.335 5      2234.105          30.000    24111163.375 6  97085640.916 6      1727.564          37.000
C12  21561826.742 8 112278169.653 8       -93.520          48.000    21561826.125 8  86820607.546 8       -72.321          51.000
C24  23518330.945 8 122466119.920 8     -2622.641          51.000
E02  24505837.180 8 128779038.896 8     -2204.094          50.000    24505841.938 8  98674852.995 8     -1688.857          51.000
E15  26332366.578 7 138377501.334 7      2557.605          46.000    26332372.422 7 106029578.507 7      1959.772          47.000
E30  22403917.211 7 117733397.478 7       489.262          45.000    22403919.562 7  90211308.167 7       374.769          42.000
E36  24390178.266 8 128171267.749 8     -1878.141          51.000    24390181.633 8  98209186.785 8     -1439.146          49.000
> 2020 05 13 13 35  0.0000000  0 18        .000000000000
G18  20349567.070 8 106937764.552 8      -487.035          51.000    20349567.219 8  83328139.839 8      -379.505          50.000
G20  23061529.320 8 121189158.197 8      3093.348          48.000    23061526.031 6  94433120.862 6      2410.401          39.000
G21  20713426.820 8 108849815.345 8      -561.285          48.000    20713424.820 8  84818055.089 8      -437.365          48.000
G26  20315775.789 8 106760114.868 8       510.883          51.000    20315778.203 8  83189706.558 8       398.091          51.000
G31  23216384.656 7 122002898.807 7     -3101.273          42.000    23216406.289 6  95067176.633 6     -2416.577          40.000
R12  22964430.023 5 122671848.143 5     -4454.086          33.000    22964425.828 5  95411426.956 5     -3464.292          30.000
R13  19664507.742 6 105007364.565 6     -1926.098          40.000    19664510.977 7  81672403.023 7     -1498.076          45.000
R22  22556627.531 6 120408778.644 6     -3501.984          37.000    22556630.656 5  93651297.137 5     -2723.766          31.000
R23  19312304.328 6 103307876.596 6      -444.102          38.000    19312309.531 5  80350526.162 5      -345.412          31.000
R24  20616511.086 6 110245736.915 6      2182.254          40.000    20616514.273 5  85746703.121 5      1697.309          33.000
C05  39620883.680 5 206316337.690 5        10.066          34.000    39620885.648 5 159536887.730 5         7.524          34.000
C11                                                                  24098318.328 6  97033912.572 6      1721.260          37.000
C12  21562399.031 8 112281150.131 8      -104.668          48.000    21562398.500 8  86822912.235 8       -80.933          51.000
C24  23533478.180 8 122544994.644 8     -2635.074          51.000
E02  24518454.516 8 128845344.224 8     -2215.754          51.000    24518458.914 8  98725658.349 8     -1697.788          51.000
E15  26317787.461 7 138300888.105 7      2550.449          45.000    26317791.469 8 105970874.957 8      1954.091          48.000
E30  22401167.961 7 117718950.637 7       474.387          45.000    22401170.344 7  90200238.495 7       363.551          43.000
E36  24400924.719 8 128227740.379 8     -1886.062          50.000    24400927.516 8  98252457.992 8     -1445.225          49.000
> 2020 05 13 13 35 30.0000000  0 17        .000000000000
G18  20352397.648 8 106952639.087 8      -504.242          51.000    20352397.430 8  83339730.388 8      -392.919          50.000
G20  23043889.117 8 121096455.905 8      3087.211          49.000    23043886.211 6  94360885.362 6      2405.622          41.000
G21  20716671.664 8 108866867.597 8      -575.273          48.000    20716670.055 8  84831342.549 8      -448.268          48.000
G26  20312905.594 8 106745031.862 8       495.070          51.000    20312908.055 8  83177953.570 8       385.769          51.000
G31  23234108.594 6 122096036.323 6     -3107.859          41.000    23234135.047 6  95139751.280 6     -2421.709          37.000
R13  19675396.172 6 105065509.697 6     -1949.930          40.000    19675399.766 7  81717626.982 7     -1516.612          45.000
R22  22576313.102 5 120513863.208 5     -3502.820          34.000    22576317.609 5  93733029.570 5     -2724.416          30.000
R23  19314838.516 6 103321428.843 6      -459.078          39.000    19314843.508 4  80361066.801 4      -357.061          28.000
R24  20604307.234 6 110180469.738 6      2169.094          38.000    20604311.070 5  85695939.774 5      1687.073          34.000
C05  39620824.594 5 206316029.114 5        10.688          34.000    39620826.438 5 159536648.968 5         8.449          33.000
C11                                                                  24085508.625 4  96982333.379 4      1717.844          28.000
C12  21563026.195 8 112284416.420 8      -112.895          48.000    21563026.078 8  86825437.936 8       -87.228          51.000
C24  23548688.258 8 122624197.517 8     -2644.824          51.000
E02  24531129.820 8 128911952.435 8     -2224.547          51.000    24531133.727 8  98776695.778 8     -1704.547          51.000
E15  26303241.164 7 138224447.674 7      2545.957          45.000    26303244.016 8 105912303.758 8      1950.753          48.000
E30  22398494.219 7 117704900.263 7       462.430          45.000    22398496.844 7  90189472.621 7       354.410          43.000
E36  24411707.727 8 128284405.501 8     -1891.242          49.000    24411710.445 8  98295876.706 8     -1449.179          49.000
> 2020 05 13 13 36  0.0000000  0 17        .000000000000
G18  20355332.594 8 106968061.769 8      -521.523          51.000    20355332.273 8  83351748.064 8      -406.382          51.000
G20  23026290.406 8 121003973.149 8      3080.809          49.000    23026288.875 7  94288820.949 7      2400.630          44.000
G21  20720001.523 8 108884366.708 8      -589.023          48.000    20720000.195 8  84844978.215 8      -458.979          48.000
G26  20310131.961 8 106730456.218 8       479.156          51.000    20310134.680 8  83166595.923 8       373.369          51.000
G31  23251874.898 6 122189396.039 6     -3113.859          41.000    23251906.258 5  95212499.035 5     -2426.387          35.000
R13  19686424.539 6 105124404.398 6     -1973.906          38.000    19686428.805 7  81763433.929 7     -1535.263          45.000
R22  22596008.164 5 120618995.038 5     -3503.215          34.000
R23  19317460.930 6 103335457.646 6      -473.703          39.000    19317465.203 4  80371978.115 4      -368.433          29.000
R24  20592180.938 5 110115624.946 5      2156.648          32.000    20592185.609 5  85645504.953 5      1677.393          33.000
C05  39620768.156 5 206315734.957 5        11.332          35.000    39620769.820 5 159536421.495 5         9.010          34.000
C11                                                                  24072729.922 5  96930890.777 5      1713.286          31.000
C12  21563707.203 8 112287963.252 8      -121.062          48.000    21563707.359 8  86828180.586 8       -93.610          51.000
C24  23563959.750 8 122703721.863 8     -2654.441          51.000
E02  24543861.875 8 128978857.935 8     -2233.289          51.000    24543864.758 8  98827960.994 8     -1711.204          51.000
E15  26288726.969 7 138148175.899 7      2541.352          45.000    26288729.742 8 105853861.757 8      1947.356          49.000
E30  22395895.211 7 117691242.561 7       450.551          45.000    22395898.023 7  90179007.625 7       345.227          44.000
E36  24422526.156 8 128341257.118 8     -1896.363          49.000    24422529.195 8  98339438.332 8     -1453.034          48.000
> 2020 05 13 13 36 30.0000000  0 17        .000000000000
G18  20358363.617 8 106983989.833 8      -540.320          51.000    20358363.250 8  83364159.565 8      -421.029          50.000
G20  23008725.727 8 120911670.806 8      3072.754          48.000    23008725.750 7  94216897.097 7      2394.354          46.000
G21  20723408.414 8 108902269.850 8      -604.488          49.000    20723407.203 8  84858928.720 8      -471.030          49.000
G26  20307447.211 8 106716347.451 8       461.445          51.000    20307449.844 8  83155602.077 8       359.568          51.000
G31  23269675.305 7 122282933.366 7     -3121.910          42.000    23269709.648 5  95285385.188 5     -2432.666          33.000
R12  23039591.711 5 123073378.737 5     -4469.609          30.000    23039593.758 4  95723730.278 4     -3476.369          29.000
R13  19697584.852 6 105184004.944 6     -1999.367          38.000    19697589.773 7  81809789.861 7     -1555.063          45.000
R22  22615702.164 6 120724130.493 6     -3505.449          36.000
R23  19320164.703 6 103349919.213 6      -490.191          40.000    19320168.555 4  80383226.017 4      -381.260          29.000
C05  39620706.398 5 206315413.464 5        10.172          34.000    39620708.062 5 159536171.920 5         7.974          34.000
C11  24059981.992 4 125286663.901 4      2208.914          29.000    24059991.352 5  96879570.978 5      1708.242          35.000
C12  21564434.156 8 112291748.789 8      -131.102          48.000    21564434.062 8  86831107.794 8      -101.358          51.000
C24  23579284.656 8 122783524.451 8     -2665.660          50.000
E02  24556642.406 8 129046018.256 8     -2243.848          51.000    24556644.234 8  98879421.460 8     -1719.267          51.000
E15  26274237.102 7 138072031.703 7      2535.105          46.000    26274240.539 8 105795517.546 8      1942.465          50.000
E30  22393363.344 7 117677936.845 7       436.617          47.000    22393365.891 7  90168812.332 7       334.548          45.000
E36  24433372.016 8 128398252.401 8     -1903.156          49.000    24433375.242 8  98383110.047 8     -1458.340          48.000
> 2020 05 13 13 37  0.0000000  0 17        .000000000000
G18  20361495.805 8 107000449.638 8      -557.668          51.000    20361495.055 8  83376985.373 8      -434.546          50.000
G20  22991200.930 8 120819579.363 8      3065.930          48.000    22991202.453 8  94145137.601 8      2389.039          48.000
G21  20726897.344 8 108920603.170 8      -618.316          49.000    20726896.188 8  84873214.408 8      -481.805          49.000
G26  20304856.672 8 106702734.064 8       445.316          51.000    20304858.961 8  83144994.244 8       347.000          51.000
G31  23287514.516 6 122376672.876 6     -3128.230          41.000    23287550.266 5  95358428.856 5     -2437.570          32.000
R13  19708882.664 6 105244336.432 6     -2023.258          38.000    19708887.688 7  81856714.339 7     -1573.645          45.000
R22  22635402.570 6 120829295.503 6     -3506.105          39.000
R23  19322953.555 6 103364839.885 6      -504.988          41.000    19322956.523 4  80394830.962 4      -392.769          27.000
R24  20568152.242 6 109987094.913 6      2127.992          37.000    20568153.297 5  85545548.728 5      1655.102          33.000
C05  39620644.609 5 206315091.908 5        10.676          35.000    39620646.406 5 159535923.770 5         8.288          34.000
C11  24047274.859 5 125220471.490 5      2203.141          32.000    24047279.273 5  96828386.775 5      1703.925          34.000
C12  21565211.875 8 112295799.544 8      -139.660          48.000    21565211.797 8  86834240.098 8      -107.897          51.000
C24  23594667.969 8 122863630.469 8     -2675.406          50.000
E02  24569476.281 8 129113459.970 8     -2252.840          51.000    24569477.609 8  98931097.521 8     -1726.181          51.000
E15  26259777.062 7 137996043.107 7      2530.312          46.000    26259781.297 8 105737292.554 8      1938.748          51.000
E30  22390904.023 7 117665011.382 7       424.398          47.000    22390905.852 7  90158908.402 7       325.203          45.000
E36  24444250.312 8 128455417.526 8     -1908.469          50.000    24444253.383 8  98426911.867 8     -1462.318          48.000
> 2020 05 13 13 37 30.0000000  0 18        .000000000000
G18  20364731.102 8 107017451.669 8      -575.262          51.000    20364730.523 8  83390233.707 8      -448.256          50.000
G20  22973719.102 7 120727713.327 7      3058.793          47.000    22973721.562 7  94073553.725 7      2383.478          47.000
G21  20730469.875 8 108939376.712 8      -632.715          49.000    20730468.969 8  84887843.161 8      -493.025          49.000
G26  20302362.742 8 106689628.790 8       428.777          51.000    20302365.008 8  83134782.347 8       334.112          51.000
G31  23305394.336 6 122470623.421 6     -3134.711          40.000    23305430.516 4  95431636.949 4     -2442.626          27.000
R13  19720320.031 6 105305408.985 6     -2047.617          39.000    19720324.500 7  81904215.208 7     -1592.591          44.000
R22  22655111.164 7 120934500.051 7     -3507.039          42.000
R23  19325830.453 6 103380229.543 6      -520.344          40.000    19325833.000 4  80406800.730 4      -404.709          28.000
R24  20556254.172 6 109923459.688 6      2114.664          39.000    20556253.406 5  85496054.741 5      1644.742          34.000
C05  39620585.117 5 206314781.878 5        10.551          35.000    39620586.898 5 159535684.514 5         8.343          34.000
C11  24034602.172 5 125154477.733 5      2196.934          30.000
C12  21566042.891 8 112300126.436 8      -148.395          49.000    21566042.875 8  86837585.925 8      -114.663          51.000
C24  23610111.750 8 122944049.467 8     -2685.367          51.000
C25  23073353.414 6 120149022.156 6       310.164          38.000
E02  24582365.633 8 129181193.790 8     -2262.102          51.000    24582366.656 8  98982997.418 8     -1733.281          51.000
E15  26245349.164 7 137920222.375 7      2525.000          47.000    26245354.133 8 105679196.182 8      1934.776          51.000
E30  22388519.305 7 117652478.708 7       411.750          47.000    22388520.344 7  90149305.441 7       315.449          45.000
E36  24455162.828 8 128512762.849 8     -1913.977          50.000    24455165.664 7  98470851.748 7     -1466.524          47.000
> 2020 05 13 13 38  0.0000000  0 18        .000000000000
G18  20368065.109 8 107034972.268 8      -592.816          51.000    20368064.828 8  83403886.127 8      -461.935          50.000
G20  22956275.891 7 120636053.310 7      3051.785          44.000    22956279.477 7  94002130.395 7      2378.017          44.000
G21  20734121.859 8 108958566.809 8      -646.602          50.000    20734120.781 8  84902796.466 8      -503.845          50.000
G26  20299961.375 8 106677010.170 8       412.402          51.000    20299963.891 8  83124949.656 8       321.352          51.000
G31  23323309.906 6 122564759.384 6     -3140.992          39.000    23323341.305 5  95504989.613 5     -2447.529          35.000
R13  19731891.961 6 105367197.563 6     -2071.332          40.000    19731895.352 7  81952272.979 7     -1611.036          44.000
R22  22674822.828 6 121039719.630 6     -3507.578          41.000
R23  19328789.469 6 103396063.928 6      -535.352          39.000    19328793.508 4  80419116.418 4      -416.382          27.000
R24  20544428.719 6 109860222.673 6      2100.848          39.000    20544424.547 5  85446870.439 5      1633.996          31.000
C05  39620523.508 5 206314461.125 5        10.688          35.000    39620525.453 5 159535436.490 5         8.424          34.000
C11  24021960.523 5 125088636.382 5      2191.707          35.000    24021982.672 5  96726524.672 5      1695.450          30.000
C12  21566922.633 8 112304706.551 8      -157.004          48.000    21566922.531 8  86841127.561 8      -121.339          51.000
C24  23625611.219 8 123024757.122 8     -2695.137          51.000
C25  23071612.930 5 120139963.119 5       293.254          35.000
E02  24595306.180 8 129249196.327 8     -2271.289          51.000    24595306.617 8  99035103.235 8     -1740.362          50.000
E15  26230948.961 8 137844547.571 8      2519.879          48.000    26230954.758 8 105621211.603 8      1930.846          51.000
E30  22386205.133 8 117640317.224 8       399.098          48.000    22386205.922 7  90139986.898 7       305.739          45.000
E36  24466105.133 8 128570264.635 8     -1919.371          49.000    24466107.805 7  98514911.529 7     -1470.651          47.000
> 2020 05 13 13 38 30.0000000  0 20        .000000000000
G18  20371496.859 8 107053006.095 8      -606.266          51.000    20371496.469 8  83417938.452 8      -472.415          50.000
G20  22938871.164 7 120544598.211 7      3048.418          42.000    22938875.938 7  93930866.734 7      2375.391          42.000
G21  20737851.992 8 108978168.150 8      -656.801          49.000    20737850.844 8  84918070.237 8      -511.793          49.000
G26  20297652.016 8 106664875.151 8       399.902          51.000    20297654.688 8  83115493.781 8       311.612          51.000
G29  22885736.562 5 120265350.863 5     -2663.117          33.000
G31  23341259.602 6 122659074.417 6     -3143.426          39.000    23341288.945 5  95578481.643 5     -2449.441          30.000
R12  23140215.078 5 123610874.972 5     -4485.109          30.000    23140223.359 5  96141819.602 5     -3488.424          32.000
R13  19743596.578 6 105429695.772 6     -2091.492          40.000    19743598.773 7  82000882.719 7     -1626.713          43.000
R22  22694535.930 6 121144948.441 6     -3504.574          38.000    22694539.172 4  94223886.487 4     -2725.783          29.000
R23  19331831.148 6 103412336.998 6      -546.250          37.000    19331835.609 4  80431773.239 4      -424.861          27.000
R24  20532677.711 6 109797379.889 6      2091.359          39.000    20532668.047 5  85397992.834 5      1626.619          30.000
C05  39620459.086 5 206314126.543 5        14.500          34.000    39620461.016 5 159535176.974 5        11.514          34.000
C11  24009349.258 5 125022955.521 5      2190.820          32.000    24009366.570 5  96675736.193 5      1693.812          34.000
C12  21567849.938 8 112309535.153 8      -161.785          48.000    21567849.664 8  86844861.356 8      -125.033          51.000
C24  23641164.734 8 123105747.296 8     -2701.047          50.000
C25  23069967.461 5 120131397.706 5       280.305          34.000
E02  24608296.914 8 129317462.489 8     -2276.562          51.000    24608297.086 8  99087411.055 8     -1744.358          51.000
E15  26216575.430 7 137769015.078 7      2518.801          47.000    26216582.266 8 105563336.077 8      1929.975          51.000
E30  22383960.984 8 117628523.569 8       390.324          49.000    22383961.766 7  90130950.207 7       299.119          46.000
E36  24477076.117 8 128627917.450 8     -1920.836          48.000    24477078.898 7  98559087.064 7     -1471.848          46.000
> 2020 05 13 13 39  0.0000000  0 18        .000000000000
G18  20375036.320 8 107071606.683 8      -632.449          51.000    20375036.281 8  83432432.422 8      -492.818          51.000
G20  22921516.391 7 120453405.571 7      3032.219          43.000    22921521.672 6  93859807.578 6      2362.771          41.000
G21  20741670.383 8 108998234.028 8      -679.527          50.000    20741669.312 8  84933706.004 8      -529.502          50.000
G26  20295445.445 8 106653279.418 8       374.578          51.000    20295448.008 8  83106458.144 8       291.879          51.000
G31  23359253.188 6 122753619.967 6     -3158.395          36.000    23359278.148 5  95652153.588 5     -2461.096          35.000
R13  19755443.586 6 105492956.665 6     -2124.398          39.000    19755445.234 7  82050085.640 7     -1652.310          43.000
R22  22714260.688 6 121250240.006 6     -3514.352          36.000    22714263.797 5  94305779.906 5     -2733.388          30.000
R23  19334964.820 6 103429102.699 6      -569.832          38.000    19334969.547 4  80444815.214 4      -443.206          29.000
R24  20521011.539 6 109734987.625 6      2069.082          38.000    20521001.297 5  85349465.584 5      1609.286          32.000
C05  39620402.289 5 206313830.377 5         5.742          35.000    39620404.195 5 159534949.448 5         4.646          33.000
C11                                                                  23996787.539 5  96625113.937 5      1682.706          34.000
C12  21568835.570 8 112314665.921 8      -178.996          49.000    21568834.820 8  86848828.789 8      -138.314          51.000
C24  23656781.898 8 123187072.175 8     -2719.340          49.000
C25  23068428.391 5 120123380.457 5       254.699          33.000
E02  24621348.109 8 129386046.103 8     -2294.223          51.000    24621348.375 8  99139962.113 8     -1757.887          51.000
E15  26202239.219 7 137693680.200 7      2504.941          47.000    26202247.109 8 105505611.967 8      1919.392          50.000
E30  22381797.477 8 117617153.361 8       369.129          49.000    22381798.164 7  90122237.956 7       282.827          46.000
E36  24488085.930 8 128685774.787 8     -1934.906          48.000    24488088.969 7  98603419.298 7     -1482.501          45.000
> 2020 05 13 13 39 30.0000000  0 17        .000000000000
G18  20378683.039 8 107090770.519 8      -646.535          50.000    20378683.391 8  83447365.282 8      -503.794          50.000
G20  22904212.648 7 120362475.761 7      3028.496          44.000    22904216.102 6  93788953.230 6      2359.870          39.000
G21  20745576.492 8 109018760.707 8      -690.336          49.000    20745575.258 8  84949700.813 8      -537.924          49.000
G26  20293341.273 8 106642221.707 8       361.277          51.000    20293343.625 8  83097841.748 8       281.515          51.000
G31  23377289.328 5 122848390.809 5     -3160.449          30.000    23377277.406 4  95726053.266 4     -2462.691          29.000
R13  19767431.367 6 105556976.213 6     -2144.809          38.000    19767434.188 7  82099878.577 7     -1668.187          42.000
R22  22733996.125 4 121355613.952 4     -3510.863          29.000    22734001.414 4  94387719.198 4     -2730.671          29.000
R23  19338190.586 6 103446356.917 6      -581.344          37.000    19338196.750 5  80458235.170 5      -452.159          30.000
R24  20509415.617 4 109673098.815 4      2058.875          29.000    20509424.148 5  85301312.435 5      1601.347          34.000
C05  39620352.445 5 206313571.309 5         9.855          35.000
C11  23984244.695 5 124892253.346 5      2173.090          31.000    23984250.906 5  96574656.293 5      1680.906          33.000
C12  21569878.555 8 112320095.918 8      -184.328          48.000    21569877.508 8  86853027.631 8      -142.477          51.000
C24  23672462.000 8 123268727.417 8     -2725.633          48.000
E02  24634459.414 8 129454943.924 8     -2300.035          51.000    24634459.750 8  99192753.918 8     -1762.407          51.000
E15  26187940.336 7 137618541.119 7      2503.043          47.000    26187948.852 8 105448037.890 8      1918.021          50.000
E30  22379714.430 8 117606205.064 8       359.621          50.000    22379715.227 8  90113848.994 8       275.584          48.000
E36  24499134.031 8 128743833.109 8     -1936.898          48.000    24499137.281 7  98647905.533 7     -1484.045          45.000
> 2020 05 13 13 40  0.0000000  0 17        .000000000000
G18  20382431.906 8 107110471.965 8      -663.609          50.000    20382432.398 8  83462717.064 8      -517.098          50.000
G20  22886955.656 7 120271787.663 7      3020.926          43.000    22886956.875 6  93718287.296 6      2353.974          38.000
G21  20749565.219 8 109039722.166 8      -703.965          49.000    20749563.898 8  84966034.429 8      -548.544          49.000
G26  20291334.977 8 106631678.622 8       344.914          51.000    20291337.227 8  83089626.360 8       268.764          51.000
R12  23215994.328 4 124015676.886 4     -4503.520          29.000    23216007.289 5  96456682.199 5     -3502.734          32.000
R13  19779556.523 6 105621727.130 6     -2168.543          38.000    19779560.078 7  82150240.341 7     -1686.648          42.000
R22  22753738.016 5 121460978.058 5     -3510.496          31.000    22753744.391 4  94469658.591 4     -2730.386          27.000
R23  19341502.703 6 103464073.315 6      -596.246          38.000    19341508.867 4  80472022.582 4      -463.750          27.000
C05  39620305.234 5 206313325.243 5        10.230          35.000
C11  23971744.672 5 124827189.253 5      2166.984          31.000    23971752.469 5  96524344.666 5      1676.607          30.000
C12  21570973.766 7 112325800.289 7      -192.684          47.000    21570972.969 8  86857438.640 8      -148.938          51.000
C24  23688200.820 8 123350686.829 8     -2735.004          49.000
C25  23065658.953 5 120108990.032 5       224.164          31.000
E02  24647626.008 8 129524130.641 8     -2309.008          51.000    24647625.992 8  99245767.083 8     -1769.207          51.000
E15  26173674.547 8 137543574.059 8      2498.117          48.000    26173682.906 8 105390595.626 8      1914.079          50.000
E30  22377707.023 8 117595655.129 8       347.094          50.000    22377707.984 8  90105765.269 8       265.976          48.000
E36  24510215.516 8 128802066.767 8     -1941.918          48.000    24510218.820 7  98692526.102 7     -1487.966          45.000
> 2020 05 13 13 40 30.0000000  0 18        .000000000000
G18  20386272.703 8 107130655.810 8      -681.645          50.000    20386273.297 8  83478444.719 8      -531.152          50.000
G20  22869735.039 7 120181290.072 7      3012.469          44.000    22869735.523 6  93647769.794 6      2347.381          38.000
G21  20753626.227 8 109061063.142 8      -718.547          50.000    20753624.992 8  84982663.768 8      -559.907          50.000
G26  20289416.508 8 106621597.140 8       327.559          51.000    20289418.742 8  83081770.661 8       255.240          51.000
G29  22946858.633 5 120586555.225 5     -2684.789          32.000
R12  23241304.289 5 124150864.768 5     -4508.121          31.000    23241315.227 5  96561828.188 5     -3506.319          33.000
R13  19791808.570 6 105687151.475 6     -2192.891          41.000    19791811.992 7  82201125.871 7     -1705.585          42.000
R22  22773478.117 5 121566336.557 5     -3512.273          34.000    22773480.875 5  94551604.081 5     -2731.768          32.000
R23  19344891.000 6 103482195.051 6      -611.684          37.000    19344895.766 4  80486114.302 4      -475.754          26.000
R24  20486478.656 5 109550406.800 5      2031.559          35.000    20486484.570 4  85205890.525 4      1580.107          28.000
C05  39620250.227 5 206313038.802 5         9.500          35.000
C12  21572111.508 8 112331724.963 8      -201.973          48.000    21572110.789 8  86862019.972 8      -156.103          51.000
C24  23703988.133 8 123432894.839 8     -2745.238          49.000
C25  23064408.031 4 120102510.777 4       206.941          28.000
E02  24660837.070 8 129593551.299 8     -2318.711          51.000    24660837.086 8  99298959.492 8     -1776.657          51.000
E15  26159431.641 8 137468725.529 8      2492.168          48.000    26159439.047 8 105333244.193 8      1909.607          50.000
E30  22375765.180 8 117585450.366 8       333.641          50.000    22375765.906 8  90097946.033 8       255.638          48.000
E36  24521319.859 7 128860420.505 7     -1947.840          47.000    24521322.984 7  98737238.679 7     -1492.596          45.000
> 2020 05 13 13 41  0.0000000  0 17        .000000000000
G18  20390219.125 8 107151394.238 8      -697.422          51.000    20390219.914 8  83494604.531 8      -543.446          50.000
G20  22852565.312 7 120091059.345 7      3006.250          43.000    22852565.367 6  93577460.175 6      2342.532          40.000
G21  20757773.133 8 109082855.705 8      -730.562          49.000    20757772.000 8  84999645.003 8      -569.269          49.000
G26  20287600.039 8 106612051.722 8       312.520          51.000    20287602.305 8  83074332.669 8       243.519          51.000
R12  23266644.344 5 124286214.815 5     -4511.324          34.000    23266651.875 5  96667100.335 5     -3508.811          30.000
R13  19804200.781 6 105753322.705 6     -2214.953          41.000    19804203.969 7  82252592.324 7     -1722.744          43.000
R22  22793224.938 6 121671744.006 6     -3511.465          36.000    22793228.555 5  94633587.600 5     -2731.139          32.000
R23  19348367.180 5 103500795.297 5      -624.754          34.000    19348372.930 4  80500581.216 4      -485.920          24.000
R24  20475125.586 6 109489699.306 6      2019.680          37.000    20475132.508 4  85158673.610 4      1570.862          26.000
C05  39620201.344 5 206312784.709 5        10.871          35.000
C11                                                                  23946848.750 5  96424035.960 5      1668.216          33.000
C12  21573305.352 7 112337942.089 7      -208.871          47.000    21573304.859 8  86866827.436 8      -161.549          51.000
C24  23719837.031 8 123515422.207 8     -2753.059          49.000
E02  24674105.977 8 129663278.440 8     -2326.137          51.000    24674106.438 8  99352386.747 8     -1782.403          51.000
E15  26145225.500 8 137394069.531 8      2488.516          49.000    26145231.375 8 105276040.319 8      1906.734          50.000
E30  22373903.227 8 117575665.064 8       322.391          50.000    22373903.672 8  90090448.189 8       247.039          48.000
E36  24532460.906 7 128918966.601 7     -1951.602          46.000    24532463.703 7  98782098.640 7     -1495.416          45.000
> 2020 05 13 13 41 30.0000000  0 15        .000000000000
G18  20394246.516 8 107172557.810 8      -718.223          51.000    20394247.164 8  83511095.631 8      -559.654          51.000
G20  22835422.156 7 120000970.244 7      2994.426          44.000    22835422.703 6  93507260.950 6      2333.322          40.000
G21  20761981.344 8 109104970.303 8      -748.434          49.000    20761980.133 8  85016877.152 8      -583.195          50.000
G26  20285861.430 8 106602915.186 8       291.641          51.000    20285863.656 8  83067213.292 8       227.252          51.000
R12  23291989.781 5 124421593.555 5     -4518.703          35.000    23291993.016 5  96772394.783 5     -3514.553          31.000
R13  19816707.867 6 105820107.494 6     -2242.582          40.000    19816710.977 7  82304536.039 7     -1744.230          44.000
R23  19351908.641 6 103519741.856 6      -643.238          38.000
R24  20463830.477 6 109429305.672 6      2001.480          36.000    20463833.641 4  85111688.254 4      1556.716          28.000
C11  23934436.461 5 124632889.054 5      2147.578          32.000    23934442.094 6  96374053.640 6      1660.429          38.000
C12  21574530.641 7 112344324.029 7      -221.332          47.000    21574530.750 8  86871762.359 8      -171.178          51.000
C24  23735722.555 8 123598139.865 8     -2766.258          49.000
E02  24687407.898 8 129733182.926 8     -2339.023          51.000    24687409.500 8  99405949.887 8     -1792.260          51.000
E15  26131031.609 8 137319478.406 8      2479.305          49.000    26131036.078 8 105218886.151 8      1899.769          50.000
E30  22372096.914 8 117566171.881 8       305.551          51.000    22372097.148 8  90083174.175 8       234.225          49.000
E36  24543613.906 7 128977575.576 7     -1960.613          45.000    24543616.586 7  98827006.811 7     -1502.306          45.000
> 2020 05 13 13 42  0.0000000  0 17        .000000000000
G18  20398395.781 8 107194360.888 8      -730.438          51.000    20398395.945 8  83528085.032 8      -569.172          51.000
G20  22818347.797 7 119911241.756 7      2992.070          46.000    22818348.703 7  93437342.691 7      2331.486          43.000
G21  20766291.562 8 109127621.225 8      -756.723          50.000    20766290.445 8  85034527.223 8      -589.654          49.000
G26  20284241.766 8 106594404.040 8       280.527          51.000    20284244.023 8  83060581.221 8       218.593          51.000
G31  23467966.797 5 123325002.837 5     -3187.730          32.000    23467959.867 5  96097372.026 5     -2483.946          31.000
R12  23317379.734 5 124557216.554 5     -4516.684          35.000    23317383.031 5  96877879.130 5     -3512.985          33.000
R13  19829370.430 6 105887722.619 6     -2260.453          40.000    19829373.211 7  82357125.607 7     -1758.130          44.000
R23  19355556.250 5 103539252.304 5      -652.859          33.000    19355565.961 4  80530488.153 4      -507.776          26.000
R24  20452637.352 5 109369445.292 5      1993.980          34.000    20452642.125 4  85065120.800 4      1550.880          28.000
C05  39620090.477 5 206312206.848 5        13.105          35.000
C11  23922078.414 5 124568546.469 5      2147.047          30.000    23922088.195 6  96324299.886 6      1660.085          39.000
C12  21575828.828 8 112351083.953 8      -224.492          48.000    21575829.219 8  86876989.567 8      -173.580          51.000
C24  23751685.078 8 123681259.388 8     -2770.301          48.000
E02  24700784.008 8 129803479.379 8     -2342.527          51.000    24700787.312 8  99459813.375 8     -1794.912          51.000
E15  26116891.070 8 137245168.281 8      2479.539          50.000    26116894.797 8 105161947.289 8      1899.936          50.000
E30  22370387.203 8 117557187.117 8       298.215          51.000    22370387.227 8  90076289.750 8       228.508          49.000
E36  24554819.609 7 129036461.792 7     -1960.113          44.000    24554822.617 7  98872127.432 7     -1501.959          45.000
> 2020 05 13 13 42 30.0000000  0 20        .000000000000
G18  20402623.414 8 107216576.089 8      -748.695          51.000    20402623.609 8  83545395.604 8      -583.396          51.000
G20  22801299.477 8 119821650.347 8      2982.797          48.000    22801300.859 7  93367531.268 7      2324.260          43.000
G21  20770660.609 8 109150580.945 8      -771.758          50.000    20770659.695 8  85052417.909 8      -601.370          50.000
G26  20282698.242 8 106586293.208 8       262.527          51.000    20282700.672 8  83054261.092 8       204.567          51.000
G29  23008304.125 5 120909451.888 5     -2697.656          35.000
G31  23486189.812 6 123420764.150 6     -3194.641          37.000    23486184.898 6  96171991.123 6     -2489.336          37.000
R12  23342771.086 5 124692850.697 5     -4522.223          33.000    23342774.344 5  96983372.119 5     -3517.293          32.000
R13  19842144.992 6 105955936.349 6     -2284.957          40.000    19842147.438 7  82410180.724 7     -1777.189          45.000
R22  22852449.016 5 121987899.429 5     -3511.352          32.000    22852454.266 5  94879506.741 5     -2731.051          34.000
R23  19359264.453 6 103559094.899 6      -667.836          37.000    19359275.039 4  80545941.844 4      -519.434          26.000
R24  20441500.102 5 109309888.610 5      1979.031          35.000    20441500.266 4  85018800.445 4      1539.247          25.000
C05  39620026.133 5 206311871.946 5        11.191          35.000
C11  23909733.008 5 124504247.467 5      2139.977          31.000    23909746.953 5  96274601.580 5      1654.672          33.000
C12  21577156.469 7 112357997.156 7      -234.395          47.000    21577156.844 8  86882335.296 8      -181.200          51.000
C24  23767681.039 8 123764554.729 8     -2780.703          48.000
C25  23060420.992 4 120081680.812 4       141.984          29.000
E02  24714191.703 8 129873940.839 8     -2352.770          51.000    24714196.094 8  99513803.302 8     -1802.739          51.000
E15  26102760.984 8 137170913.752 8      2472.941          50.000    26102764.641 8 105105051.009 8      1894.788          49.000
E30  22368731.242 8 117548485.636 8       283.910          51.000    22368731.062 8  90069622.385 8       217.631          49.000
E36  24566034.688 7 129095398.100 7     -1966.641          45.000    24566038.508 7  98917286.421 7     -1506.975          45.000
> 2020 05 13 13 43  0.0000000  0 18        .000000000000
G18  20406948.125 8 107239301.913 8      -776.609          51.000    20406948.172 8  83563104.049 8      -605.150          50.000
G20  22784296.852 8 119732298.520 8      2963.660          49.000    22784297.969 7  93297906.523 7      2309.346          42.000
G21  20775107.078 8 109173947.493 8      -796.332          50.000    20775106.102 8  85070625.617 8      -620.518          50.000
G26  20281250.047 8 106578683.378 8       234.547          51.000    20281252.719 8  83048331.344 8       182.764          51.000
G31  23504443.555 6 123516687.040 6     -3210.551          36.000    23504439.961 6  96246736.134 6     -2501.731          36.000
R12  23368182.688 6 124828593.905 6     -4537.348          37.000    23368184.977 4  97088949.953 4     -3529.054          29.000
R13  19855049.961 6 106024847.343 6     -2319.684          41.000    19855052.391 7  82463778.126 7     -1804.201          45.000
R22  22872185.055 5 122093263.973 5     -3522.781          31.000    22872192.141 5  94961456.875 5     -2739.944          35.000
R23  19363055.375 5 103579369.578 5      -693.930          34.000    19363062.266 4  80561710.404 4      -539.726          25.000
R24  20430439.195 5 109250737.396 5      1953.910          33.000
C05  39619960.703 5 206311531.023 5          .855          35.000
C11  23897422.312 5 124440147.325 5      2123.203          35.000    23897412.297 4  96224992.327 4      1641.240          29.000
C12  21578532.250 8 112365161.896 8      -253.738          48.000    21578532.555 8  86887875.518 8      -196.140          51.000
C24  23783729.266 7 123848122.674 7     -2800.727          47.000
E02  24727650.305 8 129944666.101 8     -2372.660          51.000    24727654.711 8  99567995.366 8     -1818.012          51.000
E15  26088660.258 8 137096815.032 8      2456.605          49.000    26088664.406 8 105048274.091 8      1882.349          50.000
E30  22367148.203 8 117540167.928 8       260.129          51.000    22367148.188 8  90063249.075 8       199.257          50.000
E36  24577277.953 7 129154483.012 7     -1982.711          46.000    24577282.508 7  98962559.264 7     -1519.286          45.000
> 2020 05 13 13 43 30.0000000  0 19        .000000000000
G18  20411402.164 8 107262707.680 8      -783.285          51.000    20411401.836 8  83581342.316 8      -610.352          51.000
G20  22767372.789 8 119643360.113 8      2965.801          49.000    22767373.367 7  93228603.939 7      2311.017          42.000
G21  20779663.266 8 109197890.279 8      -799.504          50.000    20779662.125 8  85089282.334 8      -622.990          50.000
G26  20279929.961 8 106571746.095 8       228.305          51.000    20279932.547 8  83042925.667 8       177.900          51.000
G31  23522760.328 6 123612939.735 6     -3205.621          36.000    23522758.930 6  96321738.106 6     -2497.896          36.000
R12  23393647.172 6 124964616.152 6     -4530.289          37.000    23393648.094 4  97194744.837 4     -3523.564          28.000
R13  19868117.141 6 106094626.188 6     -2332.023          40.000    19868119.875 7  82518050.524 7     -1813.799          45.000
R22  22891958.617 5 122198828.674 5     -3513.363          30.000    22891958.305 5  95043531.452 5     -2732.616          35.000
R23  19366957.070 5 103600248.542 5      -697.516          35.000    19366964.883 4  80577934.230 4      -542.509          24.000
R24  20419487.492 6 109192165.266 6      1951.078          38.000    20419508.742 4  84927335.159 4      1517.514          25.000
C05  39619926.648 5 206311353.371 5        11.422          35.000
C11  23885180.688 5 124376387.339 5      2127.957          34.000    23885183.797 5  96175688.677 5      1645.269          35.000
C12  21579988.828 8 112372746.653 8      -251.727          48.000    21579988.992 8  86893740.533 8      -194.648          51.000
C24  23799861.984 7 123932130.277 7     -2799.496          47.000
C25  23059011.328 5 120074335.630 5       106.734          31.000
E02  24741191.914 8 130015824.847 8     -2370.996          51.000    24741195.594 8  99622519.558 8     -1816.701          51.000
E15  26074621.422 8 137023043.346 8      2461.898          48.000    26074626.531 8 104991747.773 8      1886.279          50.000
E30  22365670.898 8 117532405.407 8       257.738          51.000    22365671.281 8  90057301.163 8       197.401          50.000
E36  24588581.742 7 129213885.943 7     -1977.262          46.000    24588586.398 7  99008075.766 7     -1514.952          44.000
> 2020 05 13 13 44  0.0000000  0 19        .000000000000
G18  20415922.023 8 107286460.014 8      -801.793          51.000    20415921.828 8  83599850.643 8      -624.774          51.000
G20  22750464.578 8 119554506.177 8      2955.910          48.000    22750464.656 7  93159367.182 7      2303.310          42.000
G21  20784265.703 8 109222075.949 8      -814.656          50.000    20784264.641 8  85108128.328 8      -634.797          50.000
G26  20278674.852 8 106565150.199 8       209.785          51.000    20278677.484 8  83037786.018 8       163.469          51.000
G31  23541075.922 5 123709187.093 5     -3212.445          34.000    23541076.977 5  96396735.929 5     -2503.207          34.000
R12  23419099.531 5 125100576.614 5     -4535.504          34.000    23419100.430 4  97300489.656 4     -3527.623          27.000
R13  19881282.523 6 106164933.286 6     -2357.031          37.000    19881285.727 7  82572733.786 7     -1833.247          44.000
R22  22911699.906 5 122304202.973 5     -3514.125          32.000    22911703.250 5  95125489.162 5     -2733.208          33.000
R23  19370909.734 6 103621391.853 6      -713.473          36.000    19370916.250 4  80594371.936 4      -554.929          25.000
R24  20408580.852 5 109133834.860 5      1935.684          30.000
C05  39619860.688 5 206311010.378 5        10.004          35.000
C11                                                                  23872950.203 5  96126394.117 5      1640.352          35.000
C12  21581462.898 8 112380421.880 8      -261.570          48.000    21581463.039 8  86899675.506 8      -202.341          51.000
C24  23816015.273 7 124016246.385 7     -2810.074          45.000
C25  23058444.820 5 120071375.858 5        88.598          33.000
E02  24754752.781 8 130087084.059 8     -2381.301          51.000    24754755.359 8  99677120.722 8     -1824.621          51.000
E15  26060581.797 8 136949267.146 8      2454.961          48.000    26060587.688 8 104935217.995 8      1881.074          50.000
E30  22364236.352 8 117524866.761 8       243.223          51.000    22364236.898 8  90051524.796 8       186.359          51.000
E36  24599882.773 7 129273273.625 7     -1983.656          46.000    24599886.633 7  99053580.603 7     -1519.867          44.000
> 2020 05 13 13 44 30.0000000  0 18        .000000000000
G18  20420552.766 8 107310794.913 8      -821.332          51.000    20420552.656 8  83618812.912 8      -639.999          50.000
G20  22733617.656 7 119465976.683 7      2945.215          47.000    22733617.789 7  93090383.216 7      2294.973          44.000
G21  20788959.141 8 109246740.327 8      -830.324          51.000    20788958.180 8  85127347.332 8      -647.006          51.000
G26  20277530.000 8 106559133.930 8       190.605          51.000    20277532.977 8  83033098.010 8       148.524          51.000
G31  23559435.375 4 123805663.717 4     -3220.203          29.000    23559438.539 4  96471912.529 4     -2509.255          28.000
R12  23444584.641 5 125236713.298 5     -4541.234          34.000
R13  19894591.539 6 106236007.133 6     -2382.273          38.000    19894595.344 7  82628013.436 7     -1852.879          45.000
R22  22931452.758 5 122409653.325 5     -3516.426          32.000    22931456.844 5  95207506.050 5     -2735.001          30.000
R23  19374956.719 6 103643039.195 6      -730.734          36.000    19374964.172 4  80611208.300 4      -568.349          27.000
C05  39619808.320 5 206310738.349 5         7.750          35.000
C11                                                                  23860763.750 6  96077290.340 6      1633.643          36.000
C12  21582999.453 8 112388422.020 8      -272.500          48.000    21582999.641 8  86905861.719 8      -210.542          51.000
C24  23832232.953 7 124100704.099 7     -2821.301          44.000
C25  23057989.016 4 120068999.208 4        68.387          28.000
E02  24768377.680 8 130158680.069 8     -2392.379          51.000    24768379.383 8  99731979.951 8     -1833.121          51.000
E15  26046587.000 8 136875724.277 8      2447.152          50.000    26046593.102 8 104878867.013 8      1875.190          49.000
E30  22362889.703 8 117517790.134 8       227.852          51.000    22362890.438 8  90046102.440 8       174.600          51.000
E36  24611226.062 7 129332882.259 7     -1990.871          46.000    24611229.125 7  99099254.738 7     -1525.470          44.000
> 2020 05 13 13 45  0.0000000  0 17        .000000000000
G18  20425300.281 8 107335743.674 8      -834.230          51.000    20425299.945 8  83638253.506 8      -650.050          50.000
G20  22716839.117 7 119377807.434 7      2940.465          46.000    22716840.398 7  93021679.933 7      2291.271          45.000
G21  20793749.633 8 109271914.620 8      -840.098          50.000    20793748.633 8  85146963.652 8      -654.622          50.000
G26  20276501.734 8 106553730.887 8       177.359          51.000    20276504.930 8  83028887.842 8       138.202          51.000
R12  23470108.141 5 125373055.859 5     -4540.152          34.000    23470108.234 4  97512414.571 4     -3531.230          26.000
R13  19908050.625 6 106307878.336 6     -2401.297          39.000    19908054.672 7  82683913.273 7     -1867.675          45.000
R22  22951225.406 5 122515210.641 5     -3512.492          34.000    22951230.250 4  95289619.230 4     -2731.938          28.000
R23  19379104.336 6 103665222.321 6      -740.867          38.000    19379109.969 4  80628462.753 4      -576.230          28.000
C05  39619775.312 5 206310565.714 5        11.773          34.000
C11  23848601.984 5 124185911.886 5      2110.266          31.000    23848629.695 5  96028402.310 5      1631.725          33.000
C12  21584604.719 8 112396778.995 8      -277.078          49.000    21584604.758 8  86912323.866 8      -214.239          51.000
C24  23848521.797 7 124185533.696 7     -2826.211          44.000
C25  23057648.375 5 120067231.126 5        55.500          31.000
E02  24782072.352 8 130230644.613 8     -2397.340          51.000    24782073.664 8  99787121.559 8     -1836.920          51.000
E15  26032643.320 8 136802447.962 8      2445.621          51.000    26032648.828 7 104822720.258 7      1873.950          47.000
E30  22361637.250 8 117511208.957 8       218.668          51.000    22361638.211 8  90041059.719 8       167.527          51.000
E36  24622617.516 7 129392743.323 7     -1991.922          46.000    24622620.250 7  99145122.277 7     -1526.236          44.000
> 2020 05 13 13 45 30.0000000  0 15        .000000000000
G18  20430130.852 8 107361128.597 8      -855.945          51.000    20430130.391 8  83658033.974 8      -666.970          49.000
G20  22700096.312 7 119289825.139 7      2927.078          46.000    22700098.336 7  92953122.350 7      2280.840          44.000
G21  20798603.266 8 109297421.190 8      -858.316          49.000    20798602.461 8  85166838.911 8      -668.818          49.000
G26  20275556.852 8 106548765.484 8       155.512          51.000    20275560.117 8  83025018.695 8       121.178          51.000
R12  23495635.312 5 125509421.618 5     -4548.555          34.000
R13  19921625.477 6 106380364.911 6     -2429.008          40.000    19921629.438 7  82740291.720 7     -1889.228          46.000
R22  22970984.961 6 122620694.445 6     -3517.453          36.000    22970991.266 5  95371662.123 5     -2735.800          31.000
R23  19383318.281 6 103687759.830 6      -759.797          38.000    19383324.516 4  80645991.946 4      -590.953          28.000
R24  20376389.984 5 108961702.406 5      1891.551          34.000    20376393.672 4  84748008.822 4      1471.206          24.000
C12  21586244.625 8 112405317.362 8      -290.176          49.000    21586244.586 8  86918926.277 8      -224.464          51.000
C24  23864850.008 7 124270558.421 7     -2839.891          46.000
E02  24795802.570 8 130302800.276 8     -2410.926          50.000    24795804.508 8  99842409.612 8     -1847.330          51.000
E15  26018717.125 8 136729262.320 8      2435.414          51.000    26018721.344 7 104766642.999 7      1866.031          46.000
E30  22360445.594 8 117504947.577 8       200.793          51.000    22360446.680 8  90036262.033 8       153.833          51.000
E36  24634023.227 7 129452679.209 7     -2001.695          44.000    24634026.125 7  99191047.194 7     -1533.749          44.000
> 2020 05 13 13 46  0.0000000  0 17        .000000000000
G18  20435048.172 8 107386969.223 8      -871.867          51.000    20435047.852 8  83678169.543 8      -679.374          49.000
G20  22683393.586 7 119202053.414 7      2919.391          45.000    22683395.758 7  92884728.843 7      2274.850          42.000
G21  20803523.758 8 109323279.308 8      -870.633          50.000    20803523.195 8  85186988.096 8      -678.415          50.000
G26  20274699.516 8 106544259.576 8       139.707          51.000    20274702.797 8  83021507.586 8       108.863          51.000
R12  23521171.180 5 125645828.581 5     -4549.809          30.000    23521173.227 4  97724578.667 4     -3538.746          25.000
R13  19935319.148 6 106453486.026 6     -2450.961          41.000    19935323.008 7  82797163.673 7     -1906.303          46.000
R22  22990735.297 6 122726124.252 6     -3516.316          36.000    22990742.438 5  95453663.066 5     -2734.913          33.000
R23  19387601.742 6 103710671.506 6      -772.812          39.000    19387605.883 4  80663812.107 4      -601.076          28.000
R24  20365803.695 5 108905068.089 5      1878.859          35.000    20365807.445 4  84703985.292 4      1461.341          25.000
C05  39619671.555 5 206310025.275 5         8.320          34.000
C11  23824380.258 5 124059815.484 5      2094.293          32.000
C12  21587922.891 8 112414057.345 8      -297.516          48.000    21587922.930 8  86925684.569 8      -229.964          51.000
C24  23881220.297 8 124355796.916 8     -2847.738          48.000
E02  24809571.773 7 130375167.002 7     -2418.484          47.000    24809575.625 8  99897859.420 8     -1853.124          51.000
E15  26004812.258 8 136656188.853 8      2431.113          51.000    26004814.922 7 104710651.690 7      1862.861          46.000
E30  22359319.023 8 117499027.656 8       188.824          51.000    22359320.414 8  90031725.986 8       144.746          51.000
E36  24645446.617 7 129512709.737 7     -2005.410          45.000    24645450.242 7  99237044.608 7     -1536.556          43.000
> 2020 05 13 13 46 30.0000000  0 19        .000000000000
G18  20440058.727 8 107413299.981 8      -886.898          51.000    20440058.258 8  83698687.017 8      -691.090          49.000
G20  22666738.352 7 119114531.001 7      2912.105          46.000    22666740.227 7  92816529.582 7      2269.173          42.000
G21  20808517.758 8 109349523.365 8      -882.348          49.000    20808517.172 8  85207437.999 8      -687.544          49.000
G26  20273936.617 8 106540249.729 8       124.402          51.000    20273939.586 8  83018383.043 8        96.937          50.000
G31  23633174.125 5 124193150.249 5     -3237.910          33.000    23633176.156 5  96773902.735 5     -2523.050          33.000
R12  23546725.789 5 125782381.032 5     -4551.305          31.000
R13  19949137.789 6 106527275.122 6     -2471.891          41.000    19949141.719 7  82854555.163 7     -1922.582          45.000
R22  23010482.953 5 122831535.097 5     -3514.676          35.000    23010490.086 5  95535649.231 5     -2733.637          32.000
R23  19391961.406 6 103733991.879 6      -785.047          40.000    19391966.516 5  80681950.182 5      -610.589          30.000
R24  20355291.242 5 108848829.353 5      1866.438          32.000    20355292.625 4  84660240.105 4      1451.674          26.000
C05  39619611.500 5 206309712.356 5        10.113          35.000
C11  23812315.914 5 123996983.865 5      2090.867          31.000
C12  21589646.406 8 112423033.786 8      -304.238          48.000    21589646.711 8  86932625.734 8      -235.326          51.000
C24  23897637.984 8 124441282.559 8     -2854.648          49.000
C25  23057160.469 5 120064682.726 5         3.809          30.000
E02  24823387.391 7 130447779.602 7     -2425.566          46.000    24823393.531 8  99953497.657 8     -1858.620          51.000
E15  25990935.312 8 136583263.879 8      2427.230          50.000    25990936.953 7 104654774.189 7      1859.715          47.000
E30  22358264.570 8 117493485.760 8       177.289          51.000    22358266.320 8  90027479.593 8       135.851          51.000
E36  24656894.469 7 129572869.581 7     -2008.551          45.000    24656898.977 7  99283141.084 7     -1539.025          43.000
> 2020 05 13 13 47  0.0000000  0 17        .000000000000
G18  20445156.055 8 107440086.596 8      -901.133          51.000    20445155.383 8  83719559.713 8      -702.181          50.000
G20  22650125.227 7 119027228.184 7      2905.691          46.000    22650125.383 6  92748501.418 6      2264.175          40.000
G21  20813578.641 8 109376118.974 8      -892.918          49.000    20813577.992 8  85228161.842 8      -695.780          49.000
G26  20273261.898 8 106536703.997 8       109.773          51.000    20273264.773 8  83015620.130 8        85.538          51.000
G29  23147823.195 5 121642583.154 5     -2728.848          32.000    23147817.945 5  94786437.147 5     -2126.378          30.000
G31  23651661.594 5 124290289.043 5     -3240.102          35.000    23651661.016 5  96849595.130 5     -2524.761          35.000
R13  19963074.438 6 106601695.917 6     -2491.699          40.000    19963078.359 7  82912437.971 7     -1937.991          44.000
R22  23030220.203 5 122936891.981 5     -3511.336          30.000    23030227.539 5  95617593.443 5     -2731.036          32.000
R23  19396390.898 6 103757685.926 6      -796.465          40.000    19396395.859 4  80700378.891 4      -619.473          29.000
C05  39619542.039 5 206309350.583 5        12.094          35.000
C12  21591409.062 8 112432213.592 8      -309.988          49.000    21591409.539 8  86939724.146 8      -239.724          51.000
C24  23914096.320 8 124526980.692 8     -2860.766          50.000
C25  23057175.695 4 120064765.737 4       -11.539          28.000
E02  24837244.688 8 130520604.297 8     -2431.691          48.000    24837251.953 8 100009298.383 8     -1863.193          51.000
E15  25977080.000 8 136510455.062 8      2424.336          48.000    25977081.758 8 104598985.661 8      1857.623          48.000
E30  22357275.852 8 117488289.753 8       166.758          51.000    22357277.922 8  90023498.228 8       127.817          51.000
E36  24668360.617 7 129633124.664 7     -2010.824          43.000    24668365.719 7  99329310.540 7     -1540.594          43.000
> 2020 05 13 13 47 30.0000000  0 15        .000000000000
G18  20450411.352 8 107467703.716 8      -923.711          51.000    20450410.969 8  83741079.559 8      -719.775          49.000
G20  22633626.148 8 118940523.703 8      2891.000          48.000    22633623.562 6  92680939.550 6      2252.730          36.000
G21  20818777.805 8 109403440.878 8      -912.148          49.000    20818777.047 8  85249451.644 8      -710.765          49.000
G26  20272747.164 8 106533999.160 8        86.883          51.000    20272750.203 8  83013512.455 8        67.701          51.000
R13  19977200.398 6 106677128.381 6     -2520.348          40.000    19977204.078 7  82971107.621 7     -1960.270          43.000
R22  23050018.891 5 123042575.641 5     -3517.324          32.000    23050026.547 5  95699791.884 5     -2735.697          30.000
R23  19400961.391 6 103782134.462 6      -816.742          40.000    19400967.117 5  80719394.450 5      -635.241          30.000
R24  20334524.781 5 108737817.771 5      1836.027          34.000
C05  39619534.742 5 206309312.526 5         6.586          35.000
C12  21593282.320 8 112441968.814 8      -324.191          49.000    21593282.703 8  86947267.491 8      -250.719          51.000
C24  23930666.562 8 124613261.831 8     -2875.090          51.000
E02  24851214.656 8 130594016.126 8     -2446.125          50.000    24851222.070 8 100065548.980 8     -1874.363          51.000
E15  25963318.250 8 136438138.938 8      2412.984          49.000    25963321.094 8 104543574.662 8      1848.919          48.000
E30  22356424.461 8 117483816.371 8       147.645          51.000    22356426.859 8  90020070.562 8       113.169          51.000
E36  24679916.531 6 129693849.837 6     -2021.281          41.000    24679921.383 7  99375840.238 7     -1548.828          42.000
> 2020 05 13 13 48  0.0000000  0 16        .000000000000
G18  20455705.641 8 107495525.519 8      -937.516          50.000    20455705.164 8  83762758.896 8      -730.532          49.000
G20  22617122.977 8 118853796.243 8      2884.531          49.000    22617116.258 5  92613359.776 5      2247.690          35.000
G21  20823996.109 8 109430862.893 8      -922.281          48.000    20823995.219 8  85270819.435 8      -718.661          49.000
G26  20272273.945 8 106531511.670 8        72.492          51.000    20272277.008 8  83011574.143 8        56.487          51.000
R13  19991396.141 6 106752934.659 6     -2539.934          39.000    19991399.750 7  83030068.023 7     -1975.507          43.000
R22  23069758.938 5 123147950.199 5     -3514.023          30.000    23069766.938 4  95781749.758 4     -2733.132          29.000
R23  19405554.312 6 103806700.475 6      -827.742          39.000    19405559.977 5  80738501.386 5      -643.796          30.000
R24  20324231.852 6 108682795.884 6      1825.320          37.000    20324236.008 4  84531078.132 4      1419.694          27.000
C05  39619470.695 5 206308980.072 5         9.293          35.000
C11  23776363.461 6 123809746.333 6      2072.691          36.000    23776369.602 5  95737571.755 5      1602.404          30.000
C12  21595147.180 8 112451680.157 8      -329.574          49.000    21595147.383 8  86954776.913 8      -254.848          51.000
C24  23947229.711 8 124699505.162 8     -2880.727          51.000
E02  24865177.523 8 130667389.643 8     -2451.828          49.000    24865184.422 8 100121770.231 8     -1878.662          51.000
E15  25949531.758 8 136365691.626 8      2410.371          49.000    25949535.875 8 104488063.128 8      1846.995          49.000
E30  22355591.750 8 117479441.929 8       137.535          51.000    22355594.383 8  90016718.716 8       105.369          51.000
E36  24691442.531 6 129754419.615 6     -2023.055          39.000    24691447.062 7  99422250.821 7     -1550.166          42.000
> 2020 05 13 13 48 30.0000000  0 17        .000000000000
G18  20461106.320 8 107523906.731 8      -947.926          50.000    20461105.609 8  83784874.119 8      -738.643          49.000
G20  22600683.750 8 118767404.853 8      2881.434          48.000    22600675.430 5  92546041.842 5      2245.276          35.000
G21  20829300.828 8 109458739.812 8      -929.320          48.000    20829299.906 8  85292541.714 8      -724.146          48.000
G26  20271909.977 8 106529598.401 8        61.605          51.000    20271912.812 8  83010083.282 8        48.004          51.000
G29  23194722.906 5 121889061.275 5     -2735.438          35.000    23194725.086 5  94978512.221 5     -2131.513          35.000
R13  20005728.984 6 106829474.228 6     -2555.652          38.000    20005732.945 7  83089598.768 7     -1987.730          43.000
R23  19410235.266 6 103831744.435 6      -835.203          39.000    19410239.789 4  80757979.995 4      -649.605          28.000
R24  20314031.891 6 108628246.454 6      1817.902          36.000    20314033.930 4  84488659.816 4      1413.927          29.000
C05  39619417.836 5 206308703.706 5        15.621          35.000
C11  23764442.328 6 123747664.417 6      2072.914          37.000    23764452.070 5  95689566.174 5      1603.057          32.000
C12  21597071.328 8 112461699.937 8      -331.688          49.000    21597071.438 8  86962524.837 8      -256.512          51.000
C24  23963853.047 8 124786061.519 8     -2883.027          51.000
C25  23057905.836 5 120068547.107 5       -60.109          31.000
E02  24879200.688 8 130741079.985 8     -2454.078          50.000    24879206.945 8 100178234.212 8     -1880.424          51.000
E15  25935788.414 8 136293469.775 8      2411.164          49.000    25935793.742 8 104432724.348 8      1847.497          49.000
E30  22354845.805 8 117475523.278 8       130.531          51.000    22354848.555 8  90013716.106 8       100.011          51.000
E36  24703005.992 6 129815188.917 6     -2021.445          38.000    24703010.539 7  99468814.331 7     -1548.986          42.000
> 2020 05 13 13 49  0.0000000  0 17        .000000000000
G18  20466594.000 8 107552745.616 8      -972.461          50.000    20466593.609 8  83807345.969 8      -757.762          49.000
G20  22584289.820 8 118681252.221 8      2864.094          49.000    22584283.047 6  92478909.963 6      2231.761          37.000
G21  20834672.859 8 109486969.719 8      -950.395          49.000    20834671.820 8  85314539.036 8      -740.567          49.000
G26  20271636.336 8 106528159.869 8        36.379          51.000    20271639.078 8  83008962.348 8        28.347          51.000
G29  23210384.758 5 121971333.610 5     -2747.102          30.000    23210380.570 4  95042620.382 4     -2140.596          28.000
R13  20020180.070 6 106906642.080 6     -2586.168          39.000    20020184.000 7  83149618.194 7     -2011.464          43.000
R23  19414987.094 6 103857162.637 6      -856.992          40.000    19414991.680 5  80777749.654 5      -666.553          31.000
R24  20303900.195 6 108574067.120 6      1796.211          36.000    20303900.266 4  84446506.525 4      1397.053          27.000
C05  39619357.211 5 206308388.590 5         7.375          34.000
C11  23752546.336 5 123685719.553 5      2059.121          33.000    23752554.188 5  95641698.480 5      1592.708          30.000
C12  21599035.531 8 112471928.137 8      -347.863          49.000    21599035.648 8  86970433.932 8      -268.987          51.000
C24  23980516.688 8 124872829.413 8     -2899.176          51.000
C25  23058324.172 5 120070734.752 5       -84.359          31.000
E02  24893265.031 8 130814985.854 8     -2470.559          51.000    24893270.344 8 100234863.317 8     -1893.031          51.000
E15  25922068.875 8 136221373.606 8      2397.562          48.000    25922075.375 8 104377481.870 8      1837.081          50.000
E30  22354167.781 8 117471960.811 8       109.320          51.000    22354170.547 8  90010986.423 8        83.795          51.000
E36  24714588.172 6 129876056.417 6     -2034.367          39.000    24714592.617 6  99515453.058 6     -1558.681          41.000
> 2020 05 13 13 49 30.0000000  0 15        .000000000000
G18  20472217.875 8 107582300.059 8      -986.914          50.000    20472217.602 8  83830375.393 8      -769.024          49.000
G20  22567990.945 8 118595600.870 8      2856.797          48.000    22567986.398 6  92412168.689 6      2226.075          40.000
G21  20840161.203 8 109515810.634 8      -961.398          49.000    20840160.062 8  85337012.476 8      -749.142          49.000
G26  20271502.320 8 106527456.284 8        21.371          51.000    20271505.141 8  83008414.074 8        16.650          51.000
R13  20034798.375 6 106984699.470 6     -2606.547          40.000    20034801.852 7  83210329.486 7     -2027.314          43.000
R23  19419857.633 6 103883217.724 6      -868.938          38.000    19419863.312 5  80798014.730 5      -675.840          30.000
R24  20293889.195 5 108520522.287 5      1783.953          31.000    20293888.125 4  84404860.677 4      1387.525          28.000
C11  23740724.484 4 123624182.798 4      2055.996          29.000    23740731.984 5  95594103.764 5      1589.316          33.000
C12  21601089.070 8 112482621.235 8      -354.180          50.000    21601089.062 8  86978702.516 8      -273.926          51.000
C24  23997269.094 8 124960063.734 8     -2905.574          50.000
C25  23058879.484 5 120073650.532 5       -99.578          32.000
E02  24907419.680 8 130889365.570 8     -2477.109          51.000    24907423.922 8 100291855.486 8     -1898.102          51.000
E15  25908422.648 7 136149663.002 7      2393.984          47.000    25908430.195 8 104322534.831 8      1834.364          50.000
E30  22353606.969 8 117469014.555 8        97.961          51.000    22353609.883 8  90008728.909 8        75.046          51.000
E36  24726238.633 6 129937280.316 6     -2036.531          40.000    24726242.812 6  99562364.872 6     -1560.710          40.000
> 2020 05 13 13 50  0.0000000  0 15        .000000000000
G18  20477906.289 8 107612193.480 8     -1005.035          51.000    20477906.102 8  83853668.958 8      -783.144          49.000
G20  22551716.203 7 118510078.188 7      2845.711          47.000    22551714.172 7  92345527.676 7      2217.437          43.000
G21  20845694.094 8 109544885.883 8      -975.891          50.000    20845692.969 8  85359668.508 8      -760.437          50.000
G26  20271436.969 8 106527113.088 8         2.430          51.000    20271439.562 8  83008146.634 8         1.893          51.000
R13  20049511.172 6 107063262.328 6     -2630.141          38.000    20049514.320 7  83271433.917 7     -2045.668          43.000
R23  19424775.148 6 103909525.514 6      -884.043          40.000    19424780.203 5  80818476.317 5      -687.592          30.000
C05  39619288.969 5 206308033.329 5         8.570          35.000
C11  23728907.664 5 123562648.779 5      2047.598          31.000    23728913.656 5  95546526.468 5      1582.870          32.000
C12  21603160.469 8 112493407.064 8      -363.875          50.000    21603160.211 8  86987042.803 8      -281.423          51.000
C24  24014038.180 8 125047390.648 8     -2915.301          48.000
C25  23059506.609 5 120076922.698 5      -118.637          30.000
E02  24921592.883 8 130963842.996 8     -2487.109          51.000    24921596.391 8 100348922.521 8     -1905.665          51.000
E15  25894778.383 7 136077963.377 7      2386.910          46.000    25894786.773 8 104267596.158 8      1828.919          49.000
E30  22353092.234 8 117466310.111 8        83.180          51.000    22353095.141 8  90006656.658 8        63.798          51.000
E36  24737885.508 7 129998484.351 7     -2042.578          42.000    24737889.797 6  99609261.494 6     -1565.158          41.000
> 2020 05 13 13 50 30.0000000  0 16        .000000000000
G18  20483685.531 8 107642563.333 8     -1012.586          51.000    20483685.555 8  83877333.776 8      -789.028          49.000
G20  22535493.008 8 118424826.071 8      2844.777          48.000    22535492.555 7  92279097.470 7      2216.710          45.000
G21  20851297.812 8 109574332.864 8      -980.258          49.000    20851296.562 8  85382614.204 8      -763.837          49.000
G26  20271466.922 8 106527269.992 8        -5.953          51.000    20271469.375 8  83008268.890 8        -4.639          51.000
G29  23257532.633 5 122219140.920 5     -2748.199          34.000
G31  23781953.500 5 124975022.484 5     -3266.379          33.000
R13  20064343.680 6 107142468.672 6     -2643.031          37.000    20064347.375 7  83333038.774 7     -2055.694          42.000
R23  19429767.250 6 103936226.133 6      -888.824          40.000    19429771.938 4  80839243.493 4      -691.302          29.000
C05  39619236.422 5 206307759.371 5        16.887          35.000
C11  23717122.234 5 123501278.361 5      2050.336          30.000    23717132.055 4  95499071.328 4      1585.054          27.000
C12  21605276.117 8 112504422.667 8      -363.488          50.000    21605275.617 8  86995560.758 8      -281.027          51.000
C24  24030850.117 7 125134945.686 7     -2914.699          47.000
E02  24935810.727 8 131038556.065 8     -2486.750          51.000    24935814.094 8 100406170.150 8     -1905.402          51.000
E15  25881162.602 7 136006414.135 7      2389.965          45.000    25881171.086 8 104212772.701 8      1831.266          48.000
E30  22352650.258 8 117463987.034 8        78.688          51.000    22352652.984 8  90004876.636 8        60.353          51.000
E36  24749554.852 7 130059806.404 7     -2038.512          42.000    24749559.492 6  99656248.487 6     -1561.965          41.000
> 2020 05 13 13 51  0.0000000  0 14        .000000000000
G18  20489551.703 8 107673389.715 8     -1042.219          51.000    20489551.625 8  83901354.334 8      -812.115          50.000
G20  22519318.414 8 118339829.272 8      2821.719          48.000    22519319.180 7  92212866.217 7      2198.745          46.000
G21  20856968.398 8 109604131.609 8     -1006.414          50.000    20856967.250 8  85405834.016 8      -784.219          49.000
G26  20271588.570 8 106527909.318 8       -36.559          51.000    20271590.852 8  83008767.058 8       -28.487          51.000
G29  23273265.359 5 122301828.067 5     -2764.492          30.000
R13  20079292.789 6 107222296.593 6     -2678.473          39.000    20079296.328 7  83395127.106 7     -2083.257          42.000
R23  19434829.094 6 103963298.843 6      -915.863          41.000    19434831.828 4  80860300.108 4      -712.335          28.000
C05  39619176.891 5 206307449.241 5         3.711          35.000
C12  21607432.312 8 112515649.204 8      -384.969          51.000    21607431.672 8  87004241.829 8      -297.788          51.000
C24  24047703.070 8 125222708.604 8     -2936.109          48.000
E02  24950069.750 8 131113485.306 8     -2508.602          51.000    24950073.062 8 100463583.435 8     -1922.175          51.000
E15  25867572.328 7 135934997.299 7      2371.059          46.000    25867579.320 8 104158050.730 8      1816.695          48.000
E30  22352277.648 8 117462027.593 8        51.910          51.000    22352280.344 8  90003375.243 8        39.760          51.000
E36  24761242.859 7 130121226.895 7     -2056.332          42.000    24761247.836 6  99703310.932 6     -1575.835          41.000
> 2020 05 13 13 51 30.0000000  0 18        .000000000000
G18  20495542.547 8 107704871.660 8     -1051.590          51.000    20495542.484 8  83925885.707 8      -819.421          49.000
G20  22503231.055 7 118255291.380 7      2819.121          47.000    22503232.430 7  92146992.521 7      2196.715          45.000
G21  20862743.812 8 109634481.310 8     -1012.062          51.000    20862742.953 8  85429483.131 8      -788.620          50.000
G26  20271840.289 8 106529232.294 8       -46.734          51.000    20271842.273 8  83009797.938 8       -36.416          51.000
G29  23289047.492 5 122384773.495 5     -2760.461          32.000
G31  23819397.711 5 125171817.143 5     -3280.203          35.000    23819396.172 5  97536447.386 5     -2556.009          34.000
R13  20094396.164 6 107302947.478 6     -2693.035          40.000    20094399.133 6  83457855.558 6     -2094.583          41.000
R23  19439998.016 6 103990946.015 6      -922.020          40.000    19440000.109 4  80881803.473 4      -717.126          29.000
R24  20254500.328 5 108309925.251 5      1730.703          33.000
C05  39619148.531 5 206307301.762 5        10.855          35.000
C11  23693668.758 4 123379150.323 4      2031.957          29.000    23693671.922 5  95404596.798 5      1571.733          31.000
C12  21609666.930 8 112527284.860 8      -385.918          51.000    21609666.328 8  87013239.252 8      -298.413          51.000
C24  24064634.914 8 125310875.978 8     -2936.941          50.000
C25  23062009.008 4 120089929.423 4      -166.070          29.000
E02  24964407.898 8 131188830.206 8     -2509.504          51.000    24964411.086 8 100521315.194 8     -1922.894          51.000
E15  25854045.789 7 135863913.920 7      2372.652          47.000    25854050.305 8 104103584.290 8      1818.042          48.000
E30  22352012.641 8 117460632.905 8        45.922          51.000    22352015.094 8  90002306.585 8        35.178          51.000
E36  24772987.859 6 130182945.177 6     -2053.336          41.000    24772992.508 6  99750601.543 6     -1573.356          41.000
> 2020 05 13 13 52  0.0000000  0 15        .000000000000
G18  20501590.031 8 107736651.215 8     -1073.797          51.000    20501590.211 8  83950649.005 8      -836.725          50.000
G20  22487163.016 7 118170858.459 7      2803.172          44.000    22487165.453 7  92081200.622 7      2184.287          44.000
G21  20868555.953 8 109665023.966 8     -1030.949          51.000    20868555.086 8  85453282.591 8      -803.337          50.000
G26  20272154.383 8 106530883.319 8       -70.207          51.000    20272156.211 8  83011084.441 8       -54.707          51.000
G31  23838135.391 6 125270268.105 6     -3290.332          40.000    23838129.992 6  97613162.296 6     -2563.901          40.000
R13  20109585.461 6 107384055.977 6     -2720.676          40.000    20109588.117 7  83520939.914 7     -2116.081          42.000
R23  19445205.336 6 104018803.162 6      -941.676          38.000    19445208.555 4  80903470.152 4      -732.414          28.000
C05  39619083.508 5 206306962.779 5         4.910          35.000
C11  23681981.695 5 123318255.223 5      2020.160          31.000    23681978.766 5  95357508.982 5      1561.775          34.000
C12  21611911.961 8 112538975.854 8      -400.188          50.000    21611911.594 8  87022279.482 8      -309.468          51.000
C24  24081576.617 8 125399092.445 8     -2950.887          51.000
E02  24978756.984 8 131264233.240 8     -2524.039          49.000    24978760.023 8 100579091.525 8     -1934.046          51.000
E15  25840515.078 7 135792808.074 7      2360.984          47.000    25840517.781 8 104049100.632 8      1808.922          49.000
E30  22351787.156 8 117459447.224 8        26.367          51.000    22351789.312 8  90001398.079 8        20.153          51.000
E36  24784721.688 6 130244603.755 6     -2064.156          41.000    24784725.258 6  99797846.419 6     -1581.420          40.000
> 2020 05 13 13 52 30.0000000  0 15        .000000000000
G18  20507761.078 8 107769080.480 8     -1085.199          51.000    20507761.406 8  83975918.574 8      -845.610          50.000
G20  22471182.781 6 118086887.218 6      2797.902          41.000    22471185.836 6  92015768.466 6      2180.184          41.000
G21  20874471.828 8 109696111.747 8     -1038.660          51.000    20874470.914 8  85477506.838 8      -809.346          50.000
G26  20272598.312 8 106533216.408 8       -82.484          51.000    20272600.094 8  83012902.421 8       -64.274          51.000
G31  23856923.977 7 125368993.538 7     -3288.527          42.000    23856914.703 6  97690091.082 6     -2562.492          41.000
R13  20124926.992 6 107465978.601 6     -2737.523          40.000    20124929.797 7  83584657.476 7     -2129.185          43.000
R23  19450518.492 6 104047228.791 6      -949.934          36.000    19450521.492 4  80925578.929 4      -738.837          26.000
C05  39619049.352 5 206306784.890 5         9.867          34.000
C11  23670359.648 5 123257748.949 5      2019.270          30.000    23670349.000 5  95310683.155 5      1561.735          34.000
C12  21614234.781 8 112551072.105 8      -403.281          50.000    21614234.680 8  87031633.077 8      -311.785          51.000
C24  24098594.664 8 125487706.336 8     -2953.703          51.000
E02  24993183.258 7 131340046.970 7     -2527.148          47.000    24993187.188 8 100637182.573 8     -1936.407          51.000
E15  25827047.492 7 135722033.872 7      2360.320          47.000    25827049.633 8 103994871.065 8      1808.557          50.000
E30  22351668.578 8 117458824.818 8        18.086          51.000    22351670.750 8  90000921.149 8        13.867          51.000
E36  24796510.930 6 130306555.150 6     -2063.105          41.000    24796512.922 6  99845315.674 6     -1580.842          38.000
> 2020 05 13 13 53  0.0000000  0 15        .000000000000
G18  20514002.953 8 107801881.955 8     -1112.480          51.000    20514003.172 8  84001478.159 8      -866.868          50.000
G20  22455239.188 6 118003104.345 6      2776.887          41.000    22455242.125 6  91950483.115 6      2163.811          41.000
G21  20880438.648 8 109727467.089 8     -1062.422          50.000    20880437.734 8  85501939.582 8      -827.861          50.000
G26  20273119.727 8 106535956.276 8      -111.070          51.000    20273121.328 8  83015037.382 8       -86.551          51.000
G31  23875710.977 6 125467714.668 6     -3303.656          40.000    23875699.648 6  97767016.512 6     -2574.281          37.000
R13  20140367.469 6 107548431.931 6     -2770.605          39.000    20140370.883 7  83648787.831 7     -2154.915          44.000
R23  19455884.469 6 104075939.816 6      -975.000          38.000    19455890.008 4  80947909.766 4      -758.336          28.000
C05  39618993.406 5 206306493.614 5        -1.227          35.000
C11  23658751.086 5 123197308.465 5      2002.508          31.000    23658731.789 5  95263908.142 5      1548.967          34.000
C12  21616582.977 8 112563299.546 8      -422.590          50.000    21616582.914 8  87041088.111 8      -326.713          51.000
C24  24115635.906 8 125576441.991 8     -2972.629          50.000
E02  25007634.375 7 131415994.395 7     -2546.660          47.000    25007639.758 8 100695376.076 8     -1951.370          51.000
E15  25813590.664 8 135651315.800 8      2343.398          48.000    25813593.203 8 103940684.502 8      1795.639          51.000
E30  22351604.867 8 117458490.249 8        -6.535          51.000    22351607.000 8  90000664.790 8        -5.016          51.000
E36  24808302.711 6 130368522.333 6     -2078.922          40.000    24808303.688 6  99892797.018 6     -1592.814          38.000
> 2020 05 13 13 53 30.0000000  0 14        .000000000000
G18  20520369.219 8 107835337.022 8     -1117.770          51.000    20520369.562 8  84027547.052 8      -870.986          51.000
G20  22439386.586 7 117919795.945 7      2777.531          44.000    22439388.336 7  91885567.512 7      2164.310          44.000
G21  20886509.719 8 109759371.220 8     -1064.172          50.000    20886508.852 8  85526799.958 8      -829.225          50.000
G26  20273772.523 8 106539386.562 8      -117.586          51.000    20273774.102 8  83017710.328 8       -91.625          51.000
G31  23894549.953 6 125566711.515 6     -3296.250          40.000    23894537.477 5  97844156.846 5     -2568.503          33.000
R13  20155960.625 6 107631700.424 6     -2780.656          39.000    20155964.914 7  83713552.156 7     -2162.733          44.000
R23  19461359.422 6 104105222.895 6      -977.090          40.000    19461363.969 4  80970685.466 4      -759.959          24.000
C11                                                                  23647183.047 5  95217400.833 5      1551.837          30.000
C12  21619010.094 8 112575937.981 8      -419.879          50.000    21619009.969 8  87050860.945 8      -324.695          51.000
C24  24132753.648 8 125665577.677 8     -2969.508          49.000
E02  25022165.469 8 131492357.452 8     -2544.047          49.000    25022171.320 8 100753888.029 8     -1949.368          51.000
E15  25800198.383 8 135580937.288 8      2348.578          48.000    25800201.562 8 103886758.139 8      1799.575          51.000
E30  22351649.938 8 117458727.118 8        -9.129          51.000    22351652.023 8  90000846.281 8        -6.980          51.000
E36  24820151.250 6 130430787.152 6     -2072.199          40.000    24820151.977 6  99940506.407 6     -1587.831          38.000
> 2020 05 13 13 54  0.0000000  0 16        .000000000000
G18  20526799.766 8 107869130.038 8     -1133.090          51.000    20526800.211 8  84053879.285 8      -882.927          50.000
G20  22423565.367 7 117836650.917 7      2767.711          46.000    22423566.258 7  91820779.225 7      2156.658          45.000
G21  20892625.141 8 109791508.492 8     -1076.180          50.000    20892624.359 8  85551841.990 8      -838.582          50.000
G26  20274496.977 8 106543193.776 8      -134.090          51.000    20274498.641 8  83020676.981 8      -104.486          51.000
G31  23913380.695 6 125665667.553 6     -3298.738          39.000    23913366.047 4  97921265.414 4     -2570.445          27.000
R07  22977437.688 6 123000029.322 6       840.879          36.000    22977439.117 5  95666689.318 5       654.017          31.000
R13  20171646.688 6 107715462.077 6     -2801.414          40.000    20171650.930 7  83778700.070 7     -2178.878          43.000
R23  19466881.438 5 104134756.081 5      -989.055          33.000    19466884.289 4  80993654.143 4      -769.265          25.000
C05  39618918.094 5 206306102.312 5        10.730          35.000
C11  23635648.383 5 123077009.961 5      2001.605          31.000    23635645.375 5  95170920.598 5      1548.040          33.000
C12  21621456.164 8 112588675.718 8      -427.199          51.000    21621456.055 8  87060710.561 8      -330.347          51.000
C24  24149887.922 8 125754800.032 8     -2976.512          48.000
E02  25036716.078 8 131568820.992 8     -2551.426          50.000    25036721.984 8 100812476.928 8     -1955.030          51.000
E15  25786810.812 7 135510584.665 7      2343.582          47.000    25786814.477 8 103832851.629 8      1795.756          51.000
E30  22351744.023 8 117459221.925 8       -21.805          51.000    22351746.281 8  90001225.414 8       -16.722          51.000
E36  24831996.398 6 130493034.392 6     -2075.789          41.000    24831997.273 6  99988202.331 6     -1590.339          38.000
> 2020 05 13 13 54 30.0000000  0 16        .000000000000
G18  20533328.977 8 107903441.276 8     -1152.043          51.000    20533329.352 8  84080615.312 8      -897.696          51.000
G20  22407810.430 8 117753854.100 8      2754.309          48.000    22407811.078 7  91756262.274 7      2146.214          45.000
G21  20898819.312 8 109824059.131 8     -1091.457          50.000    20898818.734 8  85577206.117 8      -850.486          50.000
G26  20275327.930 8 106547560.369 8      -154.523          51.000    20275329.562 8  83024079.519 8      -120.408          51.000
G31  23932236.766 6 125764761.836 6     -3305.375          37.000    23932221.820 5  97998481.666 5     -2575.629          34.000
R07  22972807.641 6 122975240.422 6       813.648          37.000    22972810.836 4  95647409.060 4       632.838          29.000
R13  20187458.828 6 107799897.898 6     -2825.438          38.000    20187462.984 7  83844372.357 7     -2197.566          44.000
R23  19472481.875 6 104164722.904 6     -1005.883          40.000    19472488.891 4  81016961.300 4      -782.353          26.000
C05  39618873.562 5 206305870.446 5         7.117          35.000
C11                                                                  23624146.203 5  95124607.217 5      1540.812          34.000
C12  21623955.898 8 112601692.320 8      -438.246          51.000    21623955.672 8  87070775.834 8      -338.967          51.000
C24  24167072.906 7 125844287.111 7     -2986.930          46.000
E02  25051320.258 8 131645565.733 8     -2562.625          51.000    25051325.547 8 100871281.273 8     -1963.594          51.000
E15  25773462.484 7 135440440.272 7      2334.902          46.000    25773466.609 8 103779104.660 8      1789.039          51.000
E30  22351921.773 8 117460157.067 8       -38.301          51.000    22351924.375 8  90001941.939 8       -29.359          51.000
E36  24843872.625 7 130555444.825 7     -2082.832          42.000    24843873.961 6 100036023.288 6     -1596.122          37.000
> 2020 05 13 13 55  0.0000000  0 16        .000000000000
G18  20539946.602 8 107938217.371 8     -1168.984          51.000    20539947.117 8  84107713.568 8      -910.897          51.000
G20  22392111.758 7 117671356.209 7      2742.988          47.000    22392112.742 7  91691978.242 7      2137.393          46.000
G21  20905082.062 8 109856970.213 8     -1105.090          50.000    20905081.664 8  85602851.121 8      -861.109          50.000
G26  20276255.703 8 106552435.087 8      -172.957          51.000    20276257.297 8  83027878.000 8      -134.772          51.000
G31  23951107.922 5 125863939.621 5     -3309.270          35.000    23951092.930 5  98075720.959 5     -2578.670          30.000
R07  22968306.047 6 122951155.166 6       789.004          36.000    22968309.570 4  95628676.059 4       613.670          29.000
R13  20203386.516 6 107884952.047 6     -2847.430          38.000    20203391.445 7  83910525.549 7     -2214.668          44.000
R23  19478155.695 6 104195069.117 6     -1020.211          41.000    19478159.289 4  81040563.823 4      -793.503          26.000
C05  39618826.195 5 206305623.513 5         6.949          35.000
C11  23612671.430 5 122957366.145 5      1986.746          32.000    23612678.117 4  95078421.044 4      1535.964          28.000
C12  21626499.414 8 112614935.963 8      -447.281          51.000    21626498.789 8  87081016.650 8      -345.736          51.000
C24  24184298.219 7 125933985.489 7     -2995.461          46.000
E02  25065968.016 8 131722538.767 8     -2571.539          51.000    25065972.516 8 100930260.542 8     -1970.358          51.000
E15  25760143.469 7 135370452.870 7      2328.332          45.000    25760148.430 8 103725477.936 8      1784.044          51.000
E30  22352173.633 8 117461481.349 8       -52.605          51.000    22352176.281 8  90002956.631 8       -40.290          51.000
E36  24855770.055 6 130617965.553 6     -2087.863          41.000    24855771.914 6 100083928.745 6     -1599.672          36.000
> 2020 05 13 13 55 30.0000000  0 17        .000000000000
G18  20546665.656 8 107973526.062 8     -1183.926          51.000    20546666.234 8  84135226.850 8      -922.537          51.000
G20  22376483.305 7 117589229.658 7      2733.348          47.000    22376484.984 7  91627983.548 7      2129.881          46.000
G21  20911426.336 8 109890309.109 8     -1116.508          50.000    20911425.789 8  85628829.468 8      -870.006          50.000
G26  20277293.484 8 106557887.899 8      -189.562          51.000    20277295.133 8  83032126.939 8      -147.711          51.000
G31  23970006.180 5 125963267.745 5     -3311.797          34.000    23969994.273 5  98153119.491 5     -2580.621          34.000
R07  22963951.922 5 122927846.093 5       765.898          35.000    22963954.383 5  95610546.781 5       595.702          30.000
R13  20219443.031 6 107970692.926 6     -2867.395          39.000    20219448.234 7  83977212.884 7     -2230.196          43.000
R23  19483912.773 6 104225863.409 6     -1031.676          36.000    19483916.758 4  81064517.960 4      -802.414          26.000
C05  39618789.047 5 206305430.496 5         7.426          34.000
C11  23601243.453 5 122897870.538 5      1981.781          35.000
C12  21629099.531 8 112628474.819 8      -454.230          51.000    21629098.547 8  87091485.755 8      -351.300          51.000
C21  26163791.180 7 136241730.460 7      2980.699          43.000
C24  24201576.977 7 126023961.700 7     -3001.844          46.000
E02  25080672.141 8 131799808.368 8     -2578.648          51.000    25080676.289 8 100989467.066 8     -1975.904          51.000
E15  25746868.055 7 135300692.236 7      2323.574          47.000    25746873.203 8 103672024.984 8      1780.290          51.000
E30  22352513.102 8 117463264.661 8       -65.172          51.000    22352515.469 8  90004323.067 8       -49.916          51.000
E36  24867701.703 6 130680664.864 6     -2090.758          39.000    24867704.117 5 100131971.075 5     -1602.392          35.000
> 2020 05 13 13 56  0.0000000  0 17        .000000000000
G18  20553474.344 8 108009305.546 8     -1200.297          51.000    20553474.469 8  84163106.967 8      -935.299          50.000
G20  22360914.281 7 117507416.948 7      2721.961          47.000    22360916.727 7  91564233.423 7      2121.009          46.000
G21  20917840.219 8 109924014.176 8     -1129.426          50.000    20917839.641 8  85655093.160 8      -880.072          50.000
G26  20278429.750 8 106563859.059 8      -207.516          51.000    20278431.688 8  83036779.785 8      -161.700          51.000
G31  23988920.211 5 126062682.694 5     -3315.086          35.000    23988912.070 5  98230585.649 5     -2583.172          31.000
R07  22959730.672 5 122905253.698 5       741.367          34.000    22959735.047 5  95592974.995 5       576.619          32.000
R13  20235616.523 6 108057055.706 6     -2888.836          40.000    20235620.781 6  84044383.892 6     -2246.875          41.000
R23  19489741.172 5 104257042.559 5     -1045.531          35.000    19489747.047 4  81088768.455 4      -813.191          24.000
C05  39618750.789 5 206305230.746 5         6.785          34.000
C11  23589852.461 5 122838548.833 5      1974.352          32.000
C12  21631744.516 8 112642248.608 8      -462.883          50.000    21631743.539 8  87102136.509 8      -357.843          51.000
C21  26146622.609 6 136152339.868 6      2979.918          40.000
C24  24218897.461 7 126114153.959 7     -3009.699          45.000
E02  25095420.297 8 131877313.179 8     -2587.234          48.000    25095424.820 8 101048853.842 8     -1982.405          51.000
E15  25733625.078 8 135231098.482 8      2317.137          49.000    25733629.703 8 103618699.936 8      1775.495          51.000
E30  22352928.656 8 117465447.336 8       -79.188          51.000    22352930.859 8  90005995.500 8       -60.667          51.000
E36  24879655.250 6 130743481.464 6     -2095.871          36.000    24879658.797 5 100180103.267 5     -1605.586          34.000
> 2020 05 13 13 56 30.0000000  0 15        .000000000000
G18  20560379.180 8 108045590.232 8     -1217.531          51.000    20560379.039 8  84191380.746 8      -948.726          51.000
G20  22345412.914 8 117425957.201 8      2709.770          48.000    22345415.375 7  91500758.316 7      2111.509          46.000
G21  20924330.227 8 109958119.759 8     -1143.098          51.000    20924329.805 8  85681668.947 8      -890.725          50.000
G26  20279671.625 8 106570385.197 8      -226.426          51.000    20279673.820 8  83041865.070 8      -176.436          51.000
G31  24007857.641 5 126162218.169 5     -3319.711          31.000    24007854.758 4  98308145.626 4     -2586.791          29.000
R07  22955650.031 5 122883416.430 5       715.883          34.000    22955655.938 5  95575990.461 5       556.795          31.000
R13  20251912.828 6 108144074.310 6     -2911.125          41.000    20251915.500 6  84112064.944 6     -2264.211          41.000
C05  39618718.391 5 206305061.993 5         6.281          35.000
C12  21634441.461 8 112656292.572 8      -472.309          51.000    21634440.656 8  87112996.194 8      -365.125          51.000
C21  26129461.438 6 136062992.393 6      2977.488          37.000
C24  24236265.875 7 126204595.874 7     -3018.578          46.000
E02  25110219.672 8 131955088.210 8     -2596.668          49.000    25110225.117 8 101108447.663 8     -1989.571          51.000
E15  25720421.070 8 135161708.138 8      2309.992          50.000    25720425.016 8 103565530.768 8      1769.973          51.000
E30  22353427.070 8 117468065.962 8       -94.203          51.000    22353429.219 8  90008001.968 8       -72.125          51.000
E36  24891637.289 6 130806450.296 6     -2100.949          39.000    24891642.734 5 100228352.128 5     -1609.681          34.000
> 2020 05 13 13 57  0.0000000  0 19        .000000000000
G18  20567363.273 8 108082291.456 8     -1235.793          51.000    20567363.219 8  84219979.119 8      -962.956          50.000
G20  22329963.086 8 117344766.090 8      2696.434          50.000    22329964.781 7  91437492.519 7      2101.117          44.000
G21  20930879.719 8 109992537.567 8     -1157.898          51.000    20930879.148 8  85708488.021 8      -902.259          50.000
G26  20281002.656 8 106577379.747 8      -246.477          51.000    20281004.969 8  83047315.352 8      -192.060          51.000
G31  24026802.055 5 126261703.362 5     -3324.445          32.000    24026801.945 4  98385729.628 4     -2590.468          26.000
R07  22951695.648 6 122862247.245 6       688.773          37.000    22951701.078 4  95559525.470 4       535.710          29.000
R13  20268314.953 6 108231656.274 6     -2934.117          41.000    20268316.836 7  84180184.192 7     -2282.091          43.000
R23  19501621.141 5 104320501.597 5     -1075.156          31.000
R24  20152565.609 5 107764813.058 5      1571.117          32.000
C05  39618675.297 5 206304837.232 5         2.859          35.000
C11  23567176.094 5 122720456.267 5      1958.734          35.000
C12  21637173.859 8 112670519.922 8      -482.723          51.000    21637173.141 8  87123997.690 8      -373.278          51.000
C21  26112294.336 6 135973604.308 6      2974.797          38.000
C24  24253665.031 7 126295198.999 7     -3028.219          45.000
C25  23078692.250 4 120176805.391 4      -361.258          28.000
E02  25125054.484 8 132033045.332 8     -2607.062          50.000    25125060.367 8 101168181.009 8     -1997.604          51.000
E15  25707239.109 8 135092434.685 8      2301.734          50.000    25707242.461 8 103512451.150 8      1763.598          51.000
E30  22353991.867 8 117471034.031 8      -110.223          51.000    22353994.078 8  90010276.193 8       -84.480          51.000
E36  24903631.766 6 130869483.402 6     -2107.488          41.000    24903638.188 5 100276650.199 5     -1614.850          33.000
> 2020 05 13 13 57 30.0000000  0 16        .000000000000
G18  20574438.469 8 108119471.519 8     -1254.160          51.000    20574438.133 8  84248950.591 8      -977.268          50.000
G20  22314577.242 8 117263910.459 8      2682.633          51.000    22314578.266 7  91374488.161 7      2090.366          44.000
G21  20937500.453 8 110027329.756 8     -1172.840          50.000    20937499.500 8  85735598.819 8      -913.901          50.000
G26  20282435.070 8 106584907.126 8      -266.742          51.000    20282437.492 8  83053180.834 8      -207.851          51.000
R07  22947877.898 5 122841812.708 5       661.719          33.000    22947884.266 5  95543631.935 5       514.670          30.000
R13  20284833.336 6 108319863.529 6     -2957.719          39.000    20284835.375 7  84248789.821 7     -2300.445          43.000
R22  23444608.914 4 125148905.375 4     -3509.203          28.000
R24  20143765.750 5 107717745.636 5      1555.066          33.000
C11  23555885.289 5 122661655.024 5      1950.242          35.000    23555881.023 5  94849762.952 5      1508.003          34.000
C12  21639953.461 8 112684993.429 8      -493.375          51.000    21639952.859 8  87135189.517 8      -381.518          51.000
C21  26095133.305 6 135884241.364 6      2971.285          41.000
C24  24271106.523 7 126386024.454 7     -3038.207          43.000
E02  25139936.250 8 132111247.354 8     -2617.742          51.000    25139941.977 8 101228101.984 8     -2005.737          51.000
E15  25694091.008 8 135023342.446 8      2293.141          48.000    25694094.523 8 103459510.362 8      1757.076          51.000
E30  22354635.383 8 117474415.970 8      -126.547          51.000    22354637.820 8  90012867.531 8       -96.944          51.000
E36  24915650.844 6 130932643.532 6     -2114.395          41.000    24915655.992 5 100325023.599 5     -1620.165          32.000
> 2020 05 13 13 58  0.0000000  0 18        .000000000000
G18  20581596.797 8 108157088.698 8     -1268.812          51.000    20581596.531 8  84278262.694 8      -988.685          50.000
G20  22299248.172 8 117183353.131 8      2672.535          50.000    22299248.898 7  91311716.275 7      2082.495          44.000
G21  20944184.523 8 110062454.765 8     -1184.105          51.000    20944183.539 8  85762968.970 8      -922.680          50.000
G26  20283961.250 8 106592927.763 8      -283.379          51.000    20283963.867 8  83059430.677 8      -220.815          51.000
R07  22944190.711 5 122822074.016 5       638.332          32.000    22944197.219 5  95528279.601 5       496.484          31.000
R13  20301459.367 5 108408652.656 5     -2976.668          34.000    20301462.547 7  84317848.047 7     -2315.186          44.000
R22  23464284.172 5 125253935.174 5     -3508.148          31.000
R23  19513767.445 5 104385496.414 5     -1102.602          34.000
R24  20135024.523 5 107671057.531 5      1541.680          30.000    20135030.297 4  83744152.880 4      1199.084          26.000
C05  39618585.633 5 206304370.078 5         1.258          35.000
C11  23544621.078 6 122603001.523 6      1944.898          37.000    23544613.648 5  94804408.465 5      1504.233          32.000
C12  21642772.305 8 112699672.918 8      -500.258          51.000    21642772.047 8  87146540.629 8      -386.864          51.000
C21  26077970.828 7 135794866.548 7      2971.543          42.000
C24  24288582.219 7 126477030.452 7     -3044.246          42.000
E02  25154857.023 8 132189653.058 8     -2624.570          51.000    25154862.500 8 101288179.023 8     -2010.963          51.000
E15  25680969.055 7 134954391.859 7      2288.289          47.000    25680973.906 8 103406678.092 8      1753.382          51.000
E30  22355350.180 8 117478172.222 8      -139.082          51.000    22355352.766 8  90015745.690 8      -106.566          51.000
E36  24927686.555 6 130995889.578 6     -2117.207          39.000    24927688.773 5 100373472.792 5     -1622.991          30.000
> 2020 05 13 13 58 30.0000000  0 18        .000000000000
G18  20588860.836 8 108195261.506 8     -1278.406          51.000    20588860.906 8  84308007.750 8      -996.161          50.000
G20  22283998.625 8 117103217.050 8      2667.441          48.000    22283999.547 7  91249272.664 7      2078.529          44.000
G21  20950954.516 8 110098030.965 8     -1190.051          51.000    20950953.641 8  85790690.684 8      -927.312          50.000
G26  20285604.109 8 106601562.255 8      -294.770          51.000    20285607.117 8  83066158.841 8      -229.691          51.000
R07  22940656.930 5 122803155.032 5       620.387          34.000    22940662.945 5  95513564.789 5       482.526          33.000
R13  20318216.336 6 108498141.898 6     -2991.273          36.000    20318220.984 7  84387450.808 7     -2326.546          44.000
R22  23483970.281 5 125359018.677 5     -3500.004          31.000
R23  19519967.367 5 104418639.723 5     -1109.441          35.000
R24  20126393.117 5 107624869.177 5      1534.934          34.000    20126401.211 4  83708228.079 4      1193.840          28.000
C05  39618554.367 5 206304208.216 5         7.664          35.000
C11  23533408.344 5 122544614.928 5      1945.238          34.000    23533397.719 5  94759260.311 5      1504.239          30.000
C12  21645653.492 8 112714676.869 8      -502.281          51.000    21645653.383 8  87158142.628 8      -388.275          51.000
C21  26060829.758 7 135705601.398 7      2977.008          42.000
C24  24306115.570 7 126568333.846 7     -3045.137          42.000
E02  25169839.008 8 132268381.457 8     -2626.301          50.000    25169844.141 8 101348503.316 8     -2012.324          50.000
E15  25667897.102 8 134885703.422 8      2288.645          48.000    25667903.117 8 103354046.705 8      1753.691          51.000
E30  22356159.203 8 117482423.448 8      -146.574          51.000    22356161.633 8  90019003.133 8      -112.286          51.000
E36  24939761.406 6 131059340.657 6     -2114.777          38.000
> 2020 05 13 13 59  0.0000000  0 17        .000000000000
G18  20596197.812 8 108233817.909 8     -1303.984          51.000    20596197.945 8  84338051.704 8     -1016.092          50.000
G20  22268796.820 7 117023334.753 7      2646.098          45.000    22268798.109 7  91187026.782 7      2061.897          44.000
G21  20957777.602 8 110133886.521 8     -1212.402          51.000    20957776.492 8  85818630.081 8      -944.729          50.000
G26  20287331.586 8 106610640.706 8      -322.426          51.000    20287334.695 8  83073232.959 8      -251.241          51.000
R13  20335073.484 6 108588155.405 6     -3021.844          39.000    20335077.680 7  84457461.290 7     -2350.326          44.000
R22  23503634.438 4 125463981.972 4     -3508.750          29.000
R23  19526216.664 5 104452078.747 5     -1132.418          34.000
R24  20117820.125 6 107579007.743 6      1510.457          39.000    20117823.742 4  83672593.628 4      1174.794          25.000
C11                                                                  23522202.836 5  94714188.147 5      1491.263          30.000
C12  21648564.609 8 112729836.008 8      -520.273          51.000    21648564.453 8  87169864.627 8      -402.308          51.000
C21  26043677.500 7 135616279.840 7      2965.887          43.000
C24  24323674.398 7 126659763.786 7     -3062.250          42.000
C25  23087712.734 5 120223850.507 5      -435.508          35.000
E02  25184849.500 8 132347261.105 8     -2644.332          50.000    25184853.047 8 101408943.528 8     -2026.156          48.000
E15  25654843.570 8 134817107.263 8      2272.496          49.000    25654849.625 8 103301486.042 8      1741.212          51.000
E30  22357029.930 8 117486999.812 8      -170.453          51.000    22357032.367 8  90022509.699 8      -130.610          51.000
E36  24951841.945 6 131122825.401 6     -2129.055          38.000    24951843.609 5 100470732.327 5     -1631.632          31.000
> 2020 05 13 13 59 30.0000000  0 20        .000000000000
G18  20603631.055 8 108272880.033 8     -1308.266          51.000    20603631.195 8  84368489.720 8     -1019.428          50.000
G20  22253667.312 7 116943832.761 7      2646.000          46.000    22253669.047 7  91125077.242 7      2061.821          44.000
G21  20964677.031 8 110170143.487 8     -1212.973          51.000    20964675.852 8  85846882.258 8      -945.173          50.000
G26  20289167.305 8 106620287.335 8      -328.789          51.000    20289170.531 8  83080749.802 8      -256.199          51.000
R07  22933977.539 5 122767394.109 5       572.992          32.000    22933981.555 5  95485742.335 5       445.664          34.000
R13  20352051.797 6 108678815.364 6     -3030.180          40.000    20352055.375 7  84527974.532 7     -2356.809          43.000
R14  20067657.883 5 106971904.906 5      1300.582          31.000    20067655.227 4  83200367.349 4      1011.567          28.000
R22  23523298.664 5 125568962.587 5     -3496.754          34.000
R23  19532545.812 5 104485937.834 5     -1133.426          33.000
R24  20109331.570 5 107533599.425 5      1508.383          34.000    20109334.453 4  83637282.447 4      1173.193          26.000
C05  39618468.320 5 206303760.030 5         8.496          35.000
C11  23511059.078 5 122428252.285 5      1934.273          30.000
C12  21651528.875 8 112745272.406 8      -516.996          50.000    21651528.781 8  87181801.021 8      -399.765          51.000
C21  26026538.000 7 135527027.029 7      2976.074          43.000
C24  24341281.094 7 126751440.705 7     -3057.598          43.000
C25  23090209.875 5 120236873.136 5      -441.453          32.000
E02  25199911.992 8 132426414.635 8     -2640.824          49.000    25199913.922 8 101469593.600 8     -2023.429          49.000
E15  25641831.672 8 134748727.558 8      2277.988          49.000    25641837.430 8 103249091.258 8      1745.418          51.000
E30  22357986.133 8 117492025.542 8      -172.750          51.000    22357988.781 8  90026360.574 8      -132.385          51.000
E36  24963952.172 6 131186466.636 6     -2121.555          38.000    24963957.016 5 100519501.292 5     -1625.601          33.000
