     3.02           OBSERVATION DATA    M (MIXED)           RINEX VERSION / TYPE
SAVERINEX           SC600               20200511 125931 LCL PGM / RUN BY / DATE
       G = GPS       R = GLONASS       C = COMPASS          COMMENT
       S = SBAS      J = QZSS          E = GALILEO          COMMENT
BEAN                                                        MARKER NAME
1                                                           MARKER NUMBER
GEODETIC                                                    MARKER TYPE
Unige DICCA         GTER                                    OBSERVER / AGENCY
SC60291900056       SC600               2.12(191226)        REC # / TYPE / VERS
                    HEMA45          NONE                    ANT # / TYPE
  4509407.8091   693652.4678  4442337.6214                  APPROX POSITION XYZ
        0.0000        0.0000        0.0000                  ANTENNA: DELTA H/E/N
G    8 C1C L1C D1C S1C C2Y L2Y D2Y S2Y                      SYS / # / OBS TYPES
R    8 C1C L1C D1C S1C C2P L2P D2P S2P                      SYS / # / OBS TYPES
C    8 C1I L1I D1I S1I C7I L7I D7I S7I                      SYS / # / OBS TYPES
E    8 C1C L1C D1C S1C C7Q L7Q D7Q S7Q                      SYS / # / OBS TYPES
DBHZ                                                        COMMENT
     30.000                                                 INTERVAL
  2020    05    11    10    00    0.0000000     GPS         TIME OF FIRST OBS
  2020    05    11    10    59   30.0000000     GPS         TIME OF LAST OBS
     0                                                      RCV CLOCK OFFS APPL
G L1C  0.00000                                              SYS / PHASE SHIFT
G L2Y  0.00000                                              SYS / PHASE SHIFT
R L1C  0.00000                                              SYS / PHASE SHIFT
R L2P  0.25000                                              SYS / PHASE SHIFT
C L1I  0.00000                                              SYS / PHASE SHIFT
C L7I  0.00000                                              SYS / PHASE SHIFT
E L1C  0.50000                                              SYS / PHASE SHIFT
E L7Q -0.25000                                              SYS / PHASE SHIFT
 14 R04  6 R05  1 R06 -4 R07  5 R09 -2 R10 -7 R14 -7 R15  0 GLONASS SLOT / FRQ #
    R16 -1 R17  4 R18 -3 R19  3 R20  2 R21  4               GLONASS SLOT / FRQ #
 C1C   71.950 C2C   71.950 C2P   71.950                     GLONASS COD/PHS/BIS
    18                                                      LEAP SECONDS
*** Above antenna height is from mark to ANTENNA BOTTOM.    COMMENT
    17     4        0.0000        ANT MEASURE TYPE/HEIGT    COMMENT
    0.0000    0.0000    0.0458    0.0405    0.0000          COMMENT
                    BASE STATION                            COMMENT
                                                            END OF HEADER
> 2020 05 11 10 00  0.0000000  0 18        .000000000000
G06  23780775.086 6 124968816.878 6     -1451.715          37.000    23780778.281 6  97378295.757 6     -1131.206          36.000
G12  20752974.344 8 109057610.797 8     -1603.246          48.000    20752972.562 7  84979959.708 7     -1249.283          47.000
G24  22872132.375 8 120193865.928 8     -3292.379          48.000    22872134.039 8  93657544.682 8     -2565.493          48.000
G25  20165637.492 7 105971153.149 7       257.016          44.000    20165639.555 7  82574914.668 7       200.272          44.000
G29  21428392.727 8 112606948.245 8      2556.832          50.000    21428390.648 8  87745692.738 8      1992.340          50.000
R09  19358644.625 8 103374072.961 8       257.664          51.000    19358645.969 8  80402100.607 8       200.405          48.000
R18  22671624.609 5 121022670.863 5     -3863.496          30.000
R19  19779774.062 6 105808468.874 6      -713.180          37.000    19779774.898 6  82295490.517 6      -554.692          41.000
R20  21108487.930 6 112876571.141 6      3750.629          39.000    21108492.070 7  87792906.612 7      2917.159          46.000
C05  39679226.766 5 206620145.390 5        33.902          35.000    39679222.180 6 159771784.917 6        26.137          37.000
C11  22348170.148 8 116372829.051 8      1715.449          51.000    22348169.781 8  89986800.027 8      1326.440          51.000
C12  22722845.953 6 118323793.757 6     -1566.762          38.000    22722843.812 6  91495484.994 6     -1211.553          41.000
C24  24878189.656 7 129547360.008 7     -2710.008          42.000
C25  21771003.047 8 113367294.347 8      -362.012          51.000
E01  23664562.820 8 124358109.674 8      -196.727          51.000    23664564.375 8  95287383.056 8      -150.759          51.000
E04  27205148.812 8 142964025.342 8     -2650.492          48.000    27205152.734 7 109543827.073 7     -2030.894          47.000
E21  26213332.602 5 137751995.147 5     -2014.180          35.000    26213331.875 6 105550255.542 6     -1543.297          37.000
E26  23486434.508 8 123422074.969 8      1266.699          51.000    23486439.742 8  94570204.745 8       970.639          51.000
> 2020 05 11 10 00 30.0000000  0 18        .000000000000
G02  22920870.188 5 120449949.500 5       -51.152          35.000
G06  23789107.039 5 125012597.079 5     -1468.078          35.000    23789110.133 5  97412410.145 5     -1143.957          34.000
G12  20762147.398 8 109105815.232 8     -1611.652          48.000    20762145.656 8  85017521.596 8     -1255.833          48.000
G24  22890944.164 7 120292720.430 7     -3299.160          47.000    22890943.891 7  93734574.064 7     -2570.780          47.000
G25  20164196.570 7 105963580.230 7       246.465          45.000    20164198.398 7  82569013.704 7       192.051          45.000
G29  21413829.477 8 112530420.898 8      2543.914          48.000    21413828.219 8  87686061.067 8      1982.271          49.000
R09  19357232.945 8 103366533.881 8       243.676          51.000    19357233.891 8  80396236.883 8       189.523          48.000
R19  19783844.812 5 105830244.579 5      -739.672          35.000    19783845.789 6  82312427.173 6      -575.300          41.000
R20  21087485.047 6 112764258.460 6      3735.684          40.000    21087489.742 7  87705552.367 7      2905.535          47.000
C05  39679025.742 5 206619098.056 5        34.855          35.000    39679021.133 6 159770975.064 6        26.774          36.000
C11  22338323.430 8 116321555.134 8      1701.582          50.000    22338323.141 8  89947151.774 8      1315.741          51.000
C12  22731906.758 5 118370979.561 5     -1579.539          32.000    22731905.477 6  91531972.100 6     -1221.968          41.000
C24  24893813.742 6 129628710.628 6     -2714.941          41.000
C25  21773116.609 8 113378301.815 8      -373.184          51.000
E01  23665697.758 8 124364073.187 8      -202.078          51.000    23665699.008 8  95291952.503 8      -154.863          51.000
E04  27220284.391 8 143043563.494 8     -2653.387          48.000    27220288.312 7 109604771.832 7     -2033.097          46.000
E21  26224835.039 6 137812445.924 6     -2017.164          36.000    26224835.859 6 105596574.874 6     -1545.643          36.000
E26  23479236.875 8 123384248.872 8      1253.758          51.000    23479241.664 8  94541221.123 8       960.675          51.000
> 2020 05 11 10 01  0.0000000  0 17        .000000000000
G06  23797551.406 5 125056977.008 5     -1487.254          33.000    23797557.438 5  97446991.894 5     -1158.899          32.000
G12  20771383.852 7 109154353.385 7     -1621.699          47.000    20771382.336 7  85055343.507 7     -1263.665          47.000
G24  22909809.422 8 120391857.382 8     -3307.516          48.000    22909807.586 7  93811823.525 7     -2577.288          47.000
G25  20162832.250 7 105956410.460 7       234.176          45.000    20162833.633 7  82563426.869 7       182.475          45.000
G29  21399354.984 8 112454362.111 8      2529.359          49.000    21399355.469 8  87626794.434 8      1970.929          49.000
R09  19355916.047 8 103359501.829 8       227.859          51.000    19355916.852 8  80390767.489 8       177.224          49.000
R19  19788080.680 5 105852905.924 5      -768.512          34.000    19788082.258 6  82330052.661 6      -597.731          40.000
R20  21066583.180 6 112652487.292 6      3718.664          39.000    21066588.102 7  87618619.263 7      2892.294          46.000
C05  39678835.914 5 206618109.381 5        33.090          35.000    39678831.352 6 159770210.538 6        26.031          36.000
C11  22328571.789 8 116270778.282 8      1686.117          49.000    22328571.672 8  89907887.881 8      1303.770          51.000
C12  22741060.508 5 118418643.902 5     -1595.219          35.000    22741059.383 7  91568829.119 7     -1233.388          42.000
C24  24909481.859 6 129710292.989 6     -2721.551          41.000
C25  21775309.516 8 113389722.028 8      -385.758          51.000
E01  23666878.516 8 124370277.411 8      -208.996          51.000    23666879.547 8  95296706.373 8      -160.143          51.000
E04  27235451.812 8 143123268.551 8     -2657.688          48.000    27235455.445 7 109665844.493 7     -2036.419          45.000
E21  26236371.031 6 137873062.627 6     -2021.551          37.000    26236370.273 5 105643021.400 5     -1548.822          33.000
E26  23472128.797 8 123346894.769 8      1239.129          51.000    23472133.383 8  94512599.161 8       949.403          51.000
> 2020 05 11 10 01 30.0000000  0 17        .000000000000
G02  22921653.406 5 120454101.140 5       -85.613          32.000
G06  23806089.750 5 125101852.047 5     -1504.645          34.000    23806098.203 5  97481959.483 5     -1172.447          34.000
G12  20780664.023 8 109203121.038 8     -1630.184          48.000    20780662.477 8  85093344.268 8     -1270.273          48.000
G24  22928708.188 8 120491171.315 8     -3314.207          48.000    22928706.148 8  93889210.899 8     -2582.502          48.000
G25  20161525.156 7 105949540.761 7       223.141          47.000    20161526.219 7  82558073.861 7       173.879          47.000
G29  21384951.289 8 112378670.664 8      2516.125          51.000    21384952.594 8  87567814.053 8      1960.617          51.000
R09  19354674.812 8 103352872.869 8       213.500          51.000    19354675.266 8  80385611.642 8       166.056          49.000
R19  19792461.945 5 105876346.394 5      -795.062          35.000    19792463.914 6  82348284.134 6      -618.385          41.000
R20  21045763.609 6 112541156.430 6      3702.695          38.000    21045768.367 7  87532028.574 7      2879.871          46.000
C05  39678637.695 6 206617078.078 6        34.676          36.000    39678633.266 6 159769413.317 6        26.675          37.000
C11  22318895.828 8 116220397.550 8      1672.062          48.000    22318896.273 8  89868930.309 8      1292.839          51.000
C12  22750286.352 5 118466682.896 5     -1608.043          33.000    22750285.078 7  91605975.864 7     -1243.519          44.000
C24  24925174.500 6 129792004.229 6     -2726.445          40.000
C25  21777562.219 8 113401453.370 8      -397.043          51.000
E01  23668085.492 8 124376619.679 8      -214.449          51.000    23668086.398 8  95301566.019 8      -164.333          51.000
E04  27250631.086 7 143203035.446 7     -2660.691          47.000    27250634.391 7 109726964.529 7     -2038.688          45.000
E26  23465091.016 8 123309910.540 8      1225.867          51.000    23465095.164 8  94484260.598 8       939.271          51.000
> 2020 05 11 10 02  0.0000000  0 16        .000000000000
G06  23814735.844 5 125147288.467 5     -1523.234          34.000    23814744.078 5  97517364.475 5     -1186.936          34.000
G12  20790000.695 8 109252185.098 8     -1639.688          48.000    20789998.844 8  85131576.002 8     -1277.679          48.000
G24  22947653.164 8 120590727.954 8     -3321.977          48.000    22947651.781 8  93966787.449 8     -2588.553          48.000
G25  20160287.984 7 105943038.835 7       211.188          47.000    20160289.258 7  82553007.415 7       164.562          47.000
G29  21370631.172 8 112303415.172 8      2501.875          51.000    21370632.484 8  87509173.400 8      1949.513          51.000
R09  19353522.156 8 103346717.475 8       197.902          51.000    19353522.758 8  80380824.093 8       153.924          50.000
R19  19797002.070 5 105900633.715 5      -823.074          35.000    19797004.750 6  82367174.234 6      -640.169          41.000
R20  21025040.344 6 112430338.789 6      3685.941          40.000    21025044.758 7  87445837.078 7      2866.843          45.000
C05  39678444.078 6 206616069.240 6        33.715          36.000    39678439.609 6 159768633.239 6        25.796          36.000
C11  22309309.055 8 116170480.949 8      1656.785          48.000    22309310.297 8  89830331.634 8      1281.122          51.000
C12  22759595.430 5 118515161.838 5     -1622.754          32.000    22759594.812 7  91643462.851 7     -1254.714          44.000
C24  24940903.195 5 129873910.856 5     -2732.895          35.000
C25  21779887.648 8 113413563.434 8      -409.305          51.000
E01  23669331.648 8 124383168.026 8      -221.062          51.000    23669332.547 8  95306583.564 8      -169.368          51.000
E04  27265834.492 7 143282929.782 7     -2664.656          47.000    27265837.758 7 109788182.223 7     -2041.794          44.000
E26  23458136.836 8 123273364.798 8      1211.547          51.000    23458140.703 8  94456258.023 8       928.334          51.000
> 2020 05 11 10 02 30.0000000  0 19        .000000000000
G06  23823473.891 5 125193208.170 5     -1539.512          32.000    23823481.680 5  97553146.012 5     -1199.620          35.000
G12  20799378.984 8 109301468.173 8     -1647.957          48.000    20799377.211 8  85169978.392 8     -1284.122          48.000
G24  22966629.500 8 120690449.642 8     -3328.215          48.000    22966629.078 8  94044492.623 8     -2593.414          48.000
G25  20159106.148 7 105936827.922 7       200.629          47.000    20159107.875 7  82548167.738 7       156.334          47.000
G29  21356379.688 8 112228520.570 8      2488.965          51.000    21356380.914 8  87450813.994 8      1939.453          51.000
G32  22384479.125 5 117631224.350 5     -1269.992          33.000    22384482.844 5  91660701.800 5      -989.604          30.000
R09  19352443.812 8 103340958.971 8       183.836          51.000    19352444.891 8  80376345.245 8       142.984          50.000
R18  22781021.117 5 121606594.123 5     -3920.250          32.000
R19  19801685.984 5 105925687.365 5      -849.277          34.000    19801688.227 6  82386660.402 6      -660.549          41.000
R20  21004399.102 6 112319960.136 6      3670.109          40.000    21004403.250 7  87359987.047 7      2854.530          45.000
C05  39678240.266 6 206615007.775 6        35.277          36.000    39678235.695 6 159767812.447 6        26.919          37.000
C11  22299797.344 8 116120953.415 8      1642.871          48.000    22299799.133 8  89792033.827 8      1270.478          51.000
C12  22768974.523 6 118564002.974 6     -1635.621          36.000    22768974.391 7  91681229.930 7     -1264.579          44.000
C24  24956653.148 6 129955936.028 6     -2737.812          37.000
C25  21782271.453 8 113425976.660 8      -420.344          51.000
E01  23670602.492 8 124389846.011 8      -226.230          51.000    23670603.461 8  95311700.450 8      -173.330          51.000
E04  27281047.125 7 143362872.792 7     -2667.090          46.000    27281050.398 7 109849437.219 7     -2043.507          44.000
E26  23451251.469 8 123237181.619 8      1198.609          51.000    23451255.398 8  94428533.280 8       918.466          51.000
E33  26485760.422 6 139183612.523 6      3125.949          40.000
> 2020 05 11 10 03  0.0000000  0 18        .000000000000
G06  23832324.273 5 125239704.377 5     -1559.812          33.000    23832328.781 5  97589388.202 5     -1215.438          33.000
G12  20808818.164 8 109351071.440 8     -1658.578          48.000    20808816.680 7  85208630.245 7     -1292.402          47.000
G24  22985656.172 8 120790436.055 8     -3337.176          48.000    22985656.586 8  94122404.089 8     -2600.397          48.000
G25  20157999.094 8 105931009.856 8       187.613          48.000    20158000.914 8  82543634.180 8       146.192          48.000
G29  21342216.148 8 112154090.034 8      2473.414          51.000    21342217.148 8  87392816.224 8      1927.339          51.000
R09  19351459.422 8 103335702.015 8       167.035          51.000    19351460.672 8  80372256.491 8       129.913          51.000
R18  22803089.172 5 121724383.919 5     -3932.340          34.000    22803098.188 4  94674597.845 4     -3058.493          26.000
R19  19806531.883 6 105951609.613 6      -878.762          36.000    19806534.438 6  82406822.158 6      -683.481          41.000
R20  20983860.062 6 112210127.974 6      3652.184          40.000    20983864.070 7  87274562.073 7      2840.587          46.000
C05  39678045.773 5 206613994.815 5        33.184          35.000    39678041.125 6 159767029.160 6        25.524          36.000
C11  22290380.320 8 116071916.828 8      1626.531          48.000    22290382.125 8  89754115.631 8      1257.713          51.000
C12  22778442.891 5 118613305.655 5     -1650.441          33.000    22778442.578 7  91719353.851 7     -1276.528          42.000
C24  24972447.359 6 130038180.097 6     -2744.891          40.000
C25  21784733.094 8 113438794.479 8      -433.824          51.000
E01  23671917.367 8 124396755.910 8      -234.031          51.000    23671918.406 8  95316995.038 8      -179.332          51.000
E04  27296288.000 7 143442964.243 7     -2672.059          46.000    27296291.117 7 109910805.960 7     -2047.359          44.000
E26  23444454.656 8 123201463.743 8      1182.887          51.000    23444458.234 8  94401165.075 8       906.395          51.000
E33  26467933.297 6 139089930.061 6      3120.113          39.000    26467926.906 5 106575390.717 5      2390.410          31.000
> 2020 05 11 10 03 30.0000000  0 18        .000000000000
G06  23841275.781 5 125286745.341 5     -1572.953          35.000    23841279.445 5  97626040.383 5     -1225.678          35.000
G12  20818308.922 8 109400945.658 8     -1663.586          48.000    20818307.492 7  85247493.270 7     -1296.301          47.000
G24  23004724.008 8 120890637.411 8     -3340.152          49.000    23004724.820 8  94200483.062 8     -2602.716          49.000
G25  20156957.641 8 105925536.482 8       180.043          48.000    20156959.141 8  82539369.234 8       140.293          48.000
G29  21328131.625 8 112080076.926 8      2463.320          51.000    21328132.156 8  87335143.722 8      1919.470          51.000
R09  19350559.938 8 103330899.134 8       155.926          51.000    19350561.359 8  80368520.913 8       121.276          51.000
R18  22825216.727 5 121842501.467 5     -3939.461          34.000
R19  19811530.977 6 105978349.729 6      -901.648          36.000    19811533.531 6  82427620.031 6      -701.279          41.000
R20  20963414.664 6 112100797.014 6      3639.297          39.000    20963419.211 8  87189526.895 8      2830.564          48.000
C05  39677851.406 6 206612983.413 6        37.039          36.000    39677846.617 6 159766246.297 6        28.556          37.000
C11  22281048.711 8 116023324.415 8      1615.605          48.000    22281050.484 8  89716540.867 8      1249.322          51.000
C12  22787989.266 5 118663039.949 5     -1660.363          31.000    22787989.336 7  91757796.149 7     -1284.082          42.000
C24  24988275.062 6 130120594.654 6     -2746.895          41.000
C25  21787263.469 8 113451969.562 8      -441.879          51.000
E01  23673267.297 8 124403849.813 8      -236.246          51.000    23673268.289 8  95322430.604 8      -180.987          51.000
E04  27311547.758 7 143523153.942 7     -2671.281          47.000    27311550.148 7 109972249.995 7     -2046.841          45.000
E26  23437737.383 8 123166163.799 8      1172.984          51.000    23437740.492 8  94374117.094 8       898.807          51.000
E33  26450129.711 6 138996371.144 6      3119.875          39.000    26450117.852 5 106503663.836 5      2390.967          31.000
> 2020 05 11 10 04  0.0000000  0 19        .000000000000
G06  23850322.992 5 125334289.430 5     -1591.902          32.000    23850326.031 5  97663087.711 5     -1240.446          34.000
G12  20827846.367 8 109451065.228 8     -1672.500          48.000    20827844.945 7  85286547.446 7     -1303.247          47.000
G24  23023827.781 8 120991026.119 8     -3347.023          50.000    23023828.875 8  94278707.985 8     -2608.070          50.000
G25  20155976.828 8 105920382.570 8       168.773          48.000    20155978.008 8  82535353.203 8       131.512          48.000
G29  21314121.820 8 112006457.659 8      2449.742          50.000    21314122.141 8  87277778.065 8      1908.890          50.000
G32  22406693.586 6 117747953.729 6     -1319.504          37.000    22406690.406 6  91751647.480 6     -1028.179          37.000
R09  19349740.977 8 103326526.080 8       140.969          51.000    19349742.562 8  80365119.648 8       109.642          51.000
R18  22847400.148 6 121960916.554 6     -3949.711          36.000
R19  19816677.711 6 106005880.149 6      -928.453          38.000    19816679.789 6  82449032.582 6      -722.133          40.000
R20  20943058.648 6 111991944.968 6      3622.871          40.000    20943063.664 8  87104864.189 8      2817.789          48.000
C05  39677652.227 6 206611946.588 6        37.086          36.000    39677647.523 6 159765444.551 6        29.091          37.000
C11  22271797.445 7 115975152.096 7      1601.074          47.000    22271799.477 8  89679290.973 8      1237.983          51.000
C12  22797613.438 6 118713139.623 6     -1674.234          36.000    22797610.781 7  91796536.315 7     -1294.461          44.000
C24  25004130.219 6 130203153.911 6     -2751.984          40.000
C25  21789857.703 8 113465477.440 8      -453.543          51.000
E01  23674647.508 8 124411102.863 8      -242.152          51.000    23674648.516 8  95327988.134 8      -185.548          51.000
E04  27326821.086 7 143603414.632 7     -2674.176          47.000    27326822.430 7 110033748.403 7     -2049.125          45.000
E26  23431094.922 8 123131257.419 8      1159.266          51.000    23431097.617 8  94347370.678 8       888.280          51.000
E33  26432346.359 6 138902912.435 6      3115.898          40.000    26432339.133 5 106432073.790 5      2387.324          34.000
> 2020 05 11 10 04 30.0000000  0 21        .000000000000
G02  22926390.062 5 120478981.716 5      -187.480          32.000
G06  23859477.469 5 125382398.156 5     -1609.809          34.000    23859481.789 5  97700572.681 5     -1254.396          34.000
G12  20837440.977 7 109501485.584 7     -1682.293          47.000    20837439.641 7  85325836.008 7     -1310.881          47.000
G24  23042977.867 8 121091657.190 8     -3355.031          50.000    23042979.070 8  94357121.777 8     -2614.310          50.000
G25  20155067.508 8 105915604.360 8       156.680          48.000    20155068.680 8  82531629.920 8       122.088          48.000
G29  21300198.344 8 111933289.522 8      2434.859          51.000    21300198.367 8  87220763.920 8      1897.293          51.000
G32  22414295.367 5 117787918.607 5     -1338.273          35.000    22414295.234 5  91782788.927 5     -1042.810          35.000
R09  19349013.328 8 103322641.424 8       124.777          51.000    19349015.070 8  80362098.229 8        97.049          51.000
R18  22869649.891 6 122079682.404 6     -3961.262          37.000
R19  19821982.797 6 106034256.204 6      -956.762          38.000    19821984.258 6  82471102.855 6      -744.145          40.000
R20  20922803.805 6 111883633.524 6      3604.887          39.000    20922808.875 7  87020621.971 7      2803.801          47.000
C05  39677459.188 6 206610941.149 6        36.055          36.000    39677454.602 6 159764667.082 6        28.124          36.000
C11  22262637.812 7 115927456.456 7      1585.258          47.000    22262639.766 8  89642409.669 8      1225.906          51.000
C12  22807318.500 5 118763678.238 5     -1688.027          32.000    22807316.430 7  91835616.011 7     -1305.583          42.000
C24  25020022.875 6 130285912.973 6     -2758.625          39.000
C25  21792526.633 8 113479374.248 8      -466.219          51.000
E01  23676068.703 8 124418571.662 8      -249.129          51.000    23676069.906 8  95333710.960 8      -190.831          51.000
E04  27342118.109 7 143683800.492 7     -2678.246          46.000    27342118.539 7 110095342.717 7     -2052.040          46.000
E21  26317640.812 5 138300140.286 5     -2043.633          35.000
E26  23424538.109 8 123096801.691 8      1144.449          51.000    23424540.531 8  94320969.561 8       876.913          51.000
E33  26414593.242 6 138809612.110 6      3110.754          40.000    26414587.516 6 106360583.962 6      2383.738          38.000
> 2020 05 11 10 05  0.0000000  0 20        .000000000000
G02  22927534.672 6 120484993.359 6      -206.355          39.000
G06  23868738.484 5 125431064.508 5     -1629.164          34.000    23868743.875 5  97738494.486 5     -1269.482          33.000
G12  20847092.625 7 109552206.062 7     -1693.016          46.000    20847091.289 7  85365358.430 7     -1319.233          46.000
G24  23062173.648 8 121192529.682 8     -3363.801          49.000    23062174.828 8  94435723.680 8     -2621.143          49.000
G25  20154229.797 8 105911202.380 8       143.043          48.000    20154231.000 8  82528199.784 8       111.462          48.000
G29  21286361.320 8 111860574.128 8      2418.844          51.000    21286361.273 8  87164102.575 8      1884.813          51.000
R09  19348377.602 8 103319246.797 8       107.629          50.000    19348379.250 8  80359457.968 8        83.711          51.000
R18  22891964.250 6 122198795.235 6     -3973.582          36.000    22891959.406 4  95043537.915 4     -3090.558          26.000
R19  19827445.531 6 106063476.712 6      -985.496          39.000    19827447.461 6  82493829.923 6      -766.497          39.000
R20  20902650.609 6 111775866.588 6      3585.656          39.000    20902655.453 7  86936803.271 7      2788.844          46.000
C05  39677272.086 6 206609966.499 6        34.934          36.000    39677267.664 6 159763914.224 6        26.678          37.000
C11  22253570.539 8 115880238.978 8      1568.480          48.000    22253572.031 8  89605898.124 8      1212.909          51.000
C12                                                                  22817105.203 6  91875034.171 6     -1317.535          40.000
C24  25035953.828 6 130368871.574 6     -2766.035          39.000
C25  21795270.414 8 113493660.997 8      -480.234          51.000
E01  23677531.039 8 124426257.074 8      -257.234          51.000    23677532.477 8  95339599.761 8      -197.108          51.000
E04  27357438.484 7 143764309.988 7     -2683.195          46.000    27357438.516 7 110157031.782 7     -2055.913          46.000
E21  26329341.258 5 138361618.133 5     -2049.516          33.000    26329349.008 5 106017378.069 5     -1570.423          32.000
E26  23418067.242 8 123062797.967 8      1128.484          51.000    23418069.836 8  94294914.762 8       864.746          51.000
E33  26396870.273 6 138716472.483 6      3104.473          39.000    26396865.336 6 106289217.278 6      2378.871          41.000
> 2020 05 11 10 05 30.0000000  0 19        .000000000000
G02  22928752.938 5 120491391.890 5      -233.848          32.000
G06  23878078.750 5 125480148.389 5     -1656.730          32.000    23878084.922 5  97776741.700 5     -1290.959          33.000
G12  20856774.367 7 109603084.649 7     -1712.480          46.000    20856772.914 7  85405004.030 7     -1334.403          45.000
G24  23081387.727 7 121293499.623 7     -3381.016          47.000    23081389.078 7  94514401.506 7     -2634.558          47.000
G25  20153436.742 7 105907035.027 7       121.242          47.000    20153437.750 7  82524952.503 7        94.474          47.000
G29  21272583.727 8 111788171.722 8      2394.398          51.000    21272583.984 8  87107685.128 8      1865.768          51.000
R09  19347806.875 8 103316199.879 8        81.844          50.000    19347808.969 8  80357088.131 8        63.656          51.000
R18  22914315.531 5 122318107.460 5     -3994.738          34.000    22914314.406 5  95136341.733 5     -3107.022          30.000
R19  19833038.695 6 106093395.368 6     -1023.180          38.000    19833040.320 6  82517099.995 6      -795.806          39.000
R20  20882572.734 6 111668504.115 6      3557.770          38.000    20882577.969 7  86853299.154 7      2767.154          46.000
C05  39677064.266 6 206608884.459 6        23.875          36.000    39677059.930 6 159763077.479 6        18.655          37.000
C11  22244568.359 8 115833360.275 8      1543.379          48.000    22244569.430 8  89569648.531 8      1193.387          51.000
C12  22826952.930 5 118865920.614 5     -1728.457          31.000    22826951.281 6  91914680.965 6     -1335.719          41.000
C24  25051896.266 6 130451888.869 6     -2781.941          39.000
C25  21798062.094 8 113508197.851 8      -502.340          51.000
E01  23679007.734 8 124434017.915 8      -273.727          51.000    23679009.383 8  95345546.365 8      -209.691          51.000
E04  27372754.734 7 143844799.465 7     -2696.211          45.000    27372755.078 7 110218705.522 7     -2066.075          47.000
E26  23411655.414 8 123029105.410 8      1104.164          51.000    23411658.695 8  94269098.395 8       846.045          51.000
E33  26379150.602 6 138623353.849 6      3089.766          36.000    26379146.875 7 106217866.699 7      2367.546          42.000
> 2020 05 11 10 06  0.0000000  0 18        .000000000000
G06  23887539.914 5 125529869.254 5     -1666.551          32.000    23887547.195 5  97815485.091 5     -1298.617          32.000
G12  20866528.180 7 109654341.523 7     -1713.191          46.000    20866526.258 7  85444944.428 7     -1334.954          45.000
G24  23100661.789 7 121394786.364 7     -3379.801          46.000    23100663.508 7  94593326.186 7     -2633.614          47.000
G25  20152730.328 8 105903323.160 8       118.000          48.000    20152731.203 8  82522060.152 8        91.948          48.000
G29  21258907.875 8 111716304.727 8      2388.430          51.000    21258908.539 8  87051684.904 8      1861.114          51.000
R09  19347343.641 8 103313726.215 8        74.695          50.000    19347346.117 8  80355164.160 8        58.096          51.000
R18  22936745.812 5 122437838.986 5     -3996.105          34.000    22936746.906 5  95229466.191 5     -3108.085          33.000
R19  19838803.805 6 106124235.085 6     -1041.551          39.000    19838805.242 6  82541086.453 6      -810.092          38.000
R20  20862613.062 6 111561774.474 6      3548.824          38.000    20862619.250 7  86770287.234 7      2760.197          47.000
C05  39676877.688 6 206607912.780 6        32.371          36.000    39676873.461 6 159762326.129 6        24.663          37.000
C11  22235673.273 8 115787039.993 8      1536.281          49.000    22235674.039 8  89533830.754 8      1188.004          51.000
C12  22836900.273 6 118917705.425 6     -1733.012          38.000    22836896.625 6  91954724.264 6     -1340.017          41.000
C24  25067892.688 6 130535182.896 6     -2779.352          41.000
C25  21800943.797 8 113523204.098 8      -506.398          50.000
E01  23680540.922 8 124442075.408 8      -271.898          51.000    23680542.695 8  95351720.281 8      -208.332          51.000
E04  27388108.906 7 143925487.771 7     -2691.086          45.000    27388109.789 7 110280531.609 7     -2062.088          47.000
E26  23405345.117 8 122995945.718 8      1098.066          51.000    23405348.930 8  94243690.310 8       841.382          51.000
E33  26361476.414 6 138530478.924 6      3093.227          37.000    26361474.641 7 106146702.868 7      2370.200          43.000
> 2020 05 11 10 06 30.0000000  0 18        .000000000000
G06  23897072.773 5 125579964.812 5     -1682.656          30.000    23897080.266 4  97854522.140 4     -1311.167          28.000
G12  20876304.703 7 109705716.887 7     -1720.762          47.000    20876302.094 7  85484977.169 7     -1340.856          46.000
G24  23119945.977 7 121496129.020 7     -3385.371          43.000    23119947.961 7  94672294.412 7     -2637.955          43.000
G25  20152061.453 8 105899808.021 8       107.512          48.000    20152062.266 8  82519321.084 8        83.775          48.000
G29  21245284.664 8 111644715.189 8      2375.309          50.000    21245285.438 8  86995900.868 8      1850.893          50.000
R09  19346938.586 8 103311564.112 8        60.414          50.000    19346941.383 8  80353482.495 8        46.989          51.000
R18  22959204.867 5 122557723.085 5     -4004.867          34.000    22959205.820 5  95322709.328 5     -3114.900          33.000
R19  19844691.461 6 106155730.609 6     -1067.020          39.000    19844693.125 6  82565582.998 6      -829.904          38.000
R20  20842723.414 6 111455417.844 6      3532.383          39.000    20842730.562 8  86687565.433 8      2747.409          48.000
C05  39676663.125 6 206606796.112 6        33.633          36.000    39676658.828 6 159761461.859 6        25.657          37.000
C11  22226836.547 8 115741022.573 8      1522.527          50.000    22226836.828 8  89498247.163 8      1177.333          51.000
C12  22846893.727 6 118969744.827 6     -1745.121          37.000    22846890.430 6  91994964.394 6     -1349.583          41.000
C24  25083893.148 7 130618496.476 7     -2783.812          42.000
C25  21803866.258 8 113538423.719 8      -517.141          50.000
E01  23682081.477 8 124450171.042 8      -276.883          51.000    23682083.156 8  95357923.415 8      -212.154          51.000
E04  27403451.594 7 144006114.069 7     -2692.969          45.000    27403452.906 7 110342310.141 7     -2063.336          47.000
E26  23399087.328 8 122963060.807 8      1085.215          51.000    23399091.453 8  94218492.768 8       831.540          51.000
E33  26343799.125 6 138437590.735 6      3089.816          36.000    26343798.773 7 106075528.829 7      2367.695          43.000
> 2020 05 11 10 07  0.0000000  0 18        .000000000000
G06  23906758.508 5 125630863.338 5     -1705.801          32.000    23906766.922 5  97894183.171 5     -1329.186          33.000
G12  20886184.891 7 109757637.331 7     -1735.270          46.000    20886182.422 7  85525434.663 7     -1352.158          46.000
G24  23139321.875 7 121597953.587 7     -3397.539          43.000    23139323.492 7  94751638.156 7     -2647.436          43.000
G25  20151511.266 8 105896916.838 8        90.469          48.000    20151511.953 8  82517068.203 8        70.495          48.000
G29  21231795.805 8 111573831.953 8      2355.504          51.000    21231796.586 8  86940667.194 8      1835.458          51.000
R09  19346673.484 8 103310149.141 8        39.227          50.000    19346676.289 8  80352381.958 8        30.510          51.000
R18  22981772.875 5 122678189.419 5     -4021.219          31.000    22981773.477 5  95416405.293 5     -3127.618          33.000
R19  19850782.766 6 106188314.490 6     -1099.844          38.000    19850784.023 6  82590926.017 6      -855.434          38.000
R20  20822986.086 6 111349872.695 6      3509.176          40.000    20822993.344 7  86605474.757 7      2729.359          47.000
C05  39676501.758 6 206605955.836 6        27.836          36.000    39676497.539 6 159760812.064 6        21.833          37.000
C11  22218139.406 8 115695732.271 8      1502.012          50.000    22218139.117 8  89463225.855 8      1161.430          51.000
C12  22857015.508 6 119022460.251 6     -1764.016          39.000    22857013.828 6  92035727.291 6     -1364.097          41.000
C24  25099978.258 6 130702252.363 6     -2794.574          40.000
C25  21806911.312 8 113554280.547 8      -534.688          50.000
E01  23683710.773 8 124458732.495 8      -288.730          51.000    23683712.188 8  95364483.484 8      -221.220          51.000
E04  27418863.789 7 144087103.513 7     -2701.262          47.000    27418865.141 7 110404366.951 7     -2069.807          47.000
E26  23392963.172 8 122930878.764 8      1065.480          51.000    23392967.578 8  94193833.805 8       816.395          51.000
E33  26326200.539 6 138345118.504 6      3079.820          36.000    26326201.516 7 106004673.530 7      2359.865          42.000
> 2020 05 11 10 07 30.0000000  0 20        .000000000000
G02  22934693.094 5 120522607.291 5      -294.445          33.000
G06  23916521.703 5 125682166.720 5     -1717.309          31.000    23916530.312 5  97934159.882 5     -1338.159          31.000
G12  20896093.383 7 109809706.344 7     -1738.828          45.000    20896091.625 7  85566007.934 7     -1354.928          45.000
G24  23158712.820 7 121699861.811 7     -3399.152          43.000    23158715.570 7  94831047.160 7     -2648.690          42.000
G25  20151004.430 8 105894253.816 8        84.137          48.000    20151005.000 8  82514993.116 8        65.561          48.000
G29  21218366.516 8 111503260.083 8      2346.352          51.000    21218366.680 8  86885676.108 8      1828.326          51.000
G32  22461985.516 5 118038551.417 5     -1443.016          32.000
R09  19346473.211 8 103309080.261 8        29.012          50.000    19346475.938 8  80351550.605 8        22.565          51.000
R19  19857001.555 6 106221582.088 6     -1121.086          37.000    19857003.180 6  82616800.846 6      -871.953          37.000
R20  20803326.211 6 111244740.398 6      3496.480          39.000    20803332.953 7  86523705.167 7      2719.485          47.000
C05  39676318.477 6 206605000.769 6        32.312          36.000    39676314.297 6 159760073.522 6        25.626          37.000
C11  22209506.320 8 115650777.693 8      1492.129          50.000    22209505.781 8  89428464.167 8      1153.736          50.000
C12  22867193.391 7 119075457.807 7     -1772.273          42.000    22867191.602 6  92076708.340 6     -1370.428          41.000
C24  25116072.258 6 130786057.533 6     -2795.168          39.000
C25  21810003.797 8 113570382.809 8      -541.605          51.000
E01  23685353.422 8 124467364.335 8      -289.762          51.000    23685354.758 8  95371097.487 8      -222.034          51.000
E04  27434269.656 7 144168058.394 7     -2698.805          47.000    27434270.867 7 110466397.261 7     -2067.814          47.000
E21  26388133.000 5 138670575.129 5     -2068.672          35.000    26388138.445 6 106254085.001 6     -1585.371          37.000
E26  23386897.703 8 122899004.539 8      1056.465          51.000    23386901.953 8  94169410.691 8       809.529          51.000
E33  26308606.477 6 138252668.259 6      3080.504          38.000    26308608.406 7 105933835.056 7      2360.386          42.000
> 2020 05 11 10 08  0.0000000  0 19        .000000000000
G02  22936410.297 5 120531656.172 5      -310.754          33.000
G06  23926371.633 5 125733929.142 5     -1734.621          32.000    23926379.344 5  97974491.181 5     -1351.650          31.000
G12  20906039.883 7 109861975.477 7     -1747.152          44.000    20906038.523 7  85606737.111 7     -1361.417          44.000
G24  23178129.812 7 121801904.529 7     -3405.172          45.000    23178134.641 7  94910560.981 7     -2653.381          45.000
G25  20150550.820 7 105891871.147 7        73.051          46.000    20150551.344 7  82513136.489 7        56.923          47.000
G29  21205007.086 8 111433053.471 8      2332.539          51.000    21205006.391 8  86830969.661 8      1817.563          51.000
R09  19346348.094 8 103308411.991 8        14.035          51.000    19346350.742 8  80351030.827 8        10.916          51.000
R19  19863357.711 6 106255584.066 6     -1147.121          38.000    19863359.320 6  82643246.837 6      -892.205          37.000
R20  20783754.359 6 111140077.291 6      3479.266          40.000    20783760.109 7  86442300.532 7      2706.095          46.000
C05  39676122.781 5 206603982.462 5        33.602          35.000    39676118.883 6 159759286.140 6        25.762          37.000
C11  22200948.133 8 115606211.454 8      1477.531          51.000    22200947.219 8  89394002.752 8      1142.491          51.000
C12  22877434.781 6 119128787.299 6     -1785.027          41.000    22877432.945 6  92117946.033 6     -1380.194          39.000
C24  25132184.812 6 130869963.055 6     -2799.984          38.000
C25  21813153.461 8 113586782.596 8      -553.164          51.000
E01  23687019.469 8 124476119.129 8      -295.477          51.000    23687020.844 8  95377805.704 8      -226.398          51.000
E04  27449678.484 7 144249028.738 7     -2700.809          47.000    27449679.508 7 110528439.437 7     -2069.460          47.000
E21                                                                  26399954.617 5 106301656.692 5     -1587.633          34.000
E26  23380901.031 8 122867491.043 8      1042.812          51.000    23380905.148 8  94145263.981 8       799.065          51.000
E33  26291027.617 6 138160294.065 6      3076.234          40.000    26291029.391 6 105863054.859 6      2357.246          41.000
> 2020 05 11 10 08 30.0000000  0 19        .000000000000
G02  22938242.023 5 120541263.391 5      -328.707          34.000
G12  20916040.133 7 109914527.248 7     -1756.797          45.000    20916038.758 7  85647686.563 7     -1368.930          45.000
G24  23197588.977 7 121904163.244 7     -3412.602          47.000    23197595.055 7  94990243.095 7     -2659.170          47.000
G25  20150166.523 7 105889852.169 7        60.871          47.000    20150167.086 7  82511563.248 7        47.432          47.000
G29  21191732.852 8 111363296.837 8      2317.457          50.000    21191732.125 8  86776613.860 8      1805.814          50.000
G32  22478654.156 6 118126100.449 6     -1477.793          36.000    22478664.391 5  92046349.854 5     -1151.527          35.000
R09  19346314.109 8 103308230.125 8        -2.371          51.000    19346316.602 8  80350889.364 8        -1.844          51.000
R18  23049688.672 5 123040802.534 5     -4044.535          30.000
R19  19869866.977 6 106290403.658 6     -1174.797          37.000    19869868.508 6  82670328.752 6      -913.731          38.000
R20  20764287.039 6 111035972.128 6      3460.285          41.000    20764291.414 7  86361329.894 7      2691.336          45.000
C05  39675930.789 6 206602983.728 6        32.758          36.000    39675927.102 6 159758513.853 6        25.182          37.000
C11  22192480.414 8 115562116.910 8      1461.582          51.000    22192479.367 8  89359906.087 8      1130.179          50.000
C12  22887754.727 6 119182529.509 6     -1798.555          40.000    22887753.109 6  92159502.888 6     -1390.947          40.000
C24  25148332.391 6 130954050.834 6     -2806.438          39.000
C25  21816376.133 8 113603562.984 8      -566.047          51.000
E01  23688724.875 8 124485080.566 8      -302.453          51.000    23688726.211 8  95384672.255 8      -231.807          51.000
E04  27465105.500 7 144330095.927 7     -2704.141          47.000    27465106.578 7 110590555.808 7     -2072.058          47.000
E26  23374988.953 8 122836422.337 8      1027.871          51.000    23374993.078 8  94121458.097 8       787.563          51.000
E33  26273479.852 6 138068081.025 6      3070.703          41.000    26273480.141 6 105792398.169 6      2352.978          40.000
> 2020 05 11 10 09  0.0000000  0 19        .000000000000
G02  22940132.086 5 120551206.847 5      -344.125          31.000
G12  20926087.922 7 109967329.111 7     -1764.113          44.000    20926086.922 7  85688830.848 7     -1374.637          45.000
G24  23217083.578 8 122006604.292 8     -3417.492          48.000    23217089.547 8  95070067.287 8     -2662.981          48.000
G25  20149845.461 7 105888164.979 7        51.004          47.000    20149846.234 7  82510248.560 7        39.743          47.000
G29  21178537.930 8 111293959.128 8      2304.398          49.000    21178537.891 8  86722584.479 8      1795.635          49.000
G32  22487132.234 6 118170642.517 6     -1492.621          41.000    22487154.008 6  92081058.098 6     -1163.081          41.000
R09  19346365.430 8 103308503.826 8       -16.480          51.000    19346367.523 8  80351102.226 8       -12.818          50.000
R19  19876522.359 6 106326005.849 6     -1199.355          36.000    19876523.555 6  82698019.353 6      -932.835          39.000
R20  20744918.352 7 110932395.944 7      3443.750          42.000    20744920.562 7  86280770.695 7      2678.472          43.000
C05  39675736.578 5 206601970.938 5        33.367          35.000    39675732.859 6 159757735.196 6        26.514          37.000
C11  22184097.109 8 115518463.155 8      1448.004          51.000    22184096.078 8  89326150.278 8      1119.679          51.000
C12  22898147.898 6 119236651.021 6     -1810.230          40.000    22898146.680 7  92201353.062 7     -1399.682          43.000
C24  25164508.523 6 131038288.499 6     -2810.125          38.000
C25  21819665.773 8 113620692.749 8      -576.582          51.000
E01  23690463.703 8 124494217.202 8      -307.238          51.000    23690464.938 8  95391673.051 8      -235.419          51.000
E04  27480544.180 7 144411226.131 7     -2705.164          47.000    27480545.594 7 110652720.474 7     -2072.794          47.000
E21  26423642.922 5 138857180.289 5     -2078.395          32.000    26423645.984 6 106397063.391 6     -1592.641          36.000
E26  23369155.711 8 122805767.283 8      1015.176          51.000    23369159.469 8  94097969.169 8       777.859          51.000
E33  26255956.930 7 137975999.083 7      3067.566          44.000    26255956.422 7 105721841.961 7      2350.174          42.000
> 2020 05 11 10 09 30.0000000  0 18        .000000000000
G12  20936186.516 7 110020398.103 7     -1772.492          44.000    20936185.594 7  85730183.299 7     -1381.163          44.000
G24  23236616.320 8 122109244.257 8     -3423.852          49.000    23236621.594 8  95150046.468 8     -2667.936          49.000
G25  20149591.133 8 105886827.858 8        39.441          48.000    20149592.180 8  82509206.623 8        30.731          48.000
G29  21165426.609 8 111225060.201 8      2290.133          51.000    21165427.320 8  86668897.017 8      1784.519          51.000
G32  22495705.539 6 118215689.587 6     -1509.234          39.000    22495728.344 5  92116159.833 5     -1176.024          33.000
R09  19346505.789 8 103309252.602 8       -32.059          51.000    19346507.492 8  80351684.597 8       -24.934          50.000
R19  19883327.250 6 106362406.937 6     -1225.957          36.000    19883328.383 6  82726331.304 6      -953.519          40.000
R20  20725651.961 6 110829371.198 6      3425.500          41.000    20725653.633 7  86200640.426 7      2664.278          44.000
C05  39675543.602 5 206600966.051 5        34.137          35.000    39675539.797 6 159756958.166 6        26.499          37.000
C11  22175802.086 8 115475269.059 8      1432.906          50.000    22175800.953 8  89292749.888 8      1107.975          51.000
C12  22908616.914 6 119291167.893 6     -1823.156          40.000    22908616.562 6  92243508.993 6     -1409.680          41.000
C24  25180716.906 6 131122693.323 6     -2815.133          40.000
C25  21823026.156 8 113638190.310 8      -588.594          51.000
E01  23692239.414 8 124503547.530 8      -313.434          51.000    23692240.672 8  95398822.265 8      -240.196          51.000
E04  27495997.711 7 144492435.353 7     -2707.570          47.000    27495999.578 7 110714945.681 7     -2074.578          47.000
E21                                                                  26435524.500 6 106444891.465 6     -1595.134          38.000
E26  23363404.914 8 122775544.799 8      1000.992          51.000    23363408.102 8  94074811.675 8       766.976          51.000
E33  26238463.016 7 137884068.360 7      3062.582          47.000    26238462.750 7 105651401.570 7      2346.558          44.000
> 2020 05 11 10 10  0.0000000  0 20        .000000000000
G06  23966765.039 5 125946194.930 5     -1802.887          35.000    23966770.133 5  98139904.820 5     -1404.850          35.000
G12  20946337.977 7 110073745.447 7     -1782.520          42.000    20946336.812 6  85771752.670 6     -1388.976          41.000
G24  23256188.711 8 122212092.968 8     -3431.516          49.000    23256192.727 8  95230188.283 8     -2673.908          49.000
G25  20149405.609 8 105885852.443 8        26.883          48.000    20149406.820 8  82508446.548 8        20.948          49.000
G29  21152401.617 8 111156613.013 8      2274.316          51.000    21152402.422 8  86615561.548 8      1772.195          51.000
G32  22504373.539 5 118261251.409 5     -1526.660          33.000    22504397.766 4  92151662.776 4     -1189.599          29.000
R09  19346737.719 8 103310489.570 8       -49.062          51.000    19346739.062 8  80352646.672 8       -38.160          50.000
R16  22909155.070 5 122376593.375 5     -3276.824          30.000
R19  19890283.344 6 106399616.784 6     -1253.363          36.000    19890284.812 6  82755272.270 6      -974.841          40.000
R20  20706491.117 6 110726913.133 6      3405.852          39.000    20706494.031 7  86120950.858 7      2648.996          46.000
C05  39675354.008 5 206599978.837 5        32.695          35.000    39675350.320 6 159756193.755 6        25.506          37.000
C11  22167597.531 8 115432547.124 8      1416.535          49.000    22167596.547 8  89259714.592 8      1095.346          51.000
C12  22919163.750 6 119346090.085 6     -1837.539          40.000    22919163.641 6  92285978.284 6     -1420.479          37.000
C24  25196959.977 6 131207276.428 6     -2821.777          41.000
C25  21826459.664 8 113656067.724 8      -601.918          51.000
E01  23694054.172 8 124513083.711 8      -320.871          51.000    23694055.445 8  95406129.213 8      -245.901          51.000
E04  27511468.070 8 144573733.374 8     -2710.996          48.000    27511470.305 7 110777238.938 7     -2077.179          46.000
E21  26447426.062 5 138982162.298 5     -2086.340          34.000    26447426.008 6 106492815.329 6     -1598.729          36.000
E26  23357738.617 8 122745767.279 8       985.535          51.000    23357741.508 8  94051995.150 8       755.168          51.000
E33  26221000.734 8 137792302.444 8      3056.469          49.000    26221001.094 7 105581087.466 7      2342.011          45.000
> 2020 05 11 10 10 30.0000000  0 19        .000000000000
G06  23977108.102 6 126000543.303 6     -1820.434          36.000    23977110.781 6  98182254.097 6     -1418.523          36.000
G12  20956537.414 7 110127343.999 7     -1790.812          43.000    20956536.531 7  85813517.732 7     -1395.435          43.000
G24  23275795.242 8 122315121.869 8     -3437.266          49.000    23275797.727 8  95310470.528 8     -2678.389          49.000
G25  20149283.773 8 105885212.232 8        15.641          48.000    20149285.109 8  82507947.674 8        12.187          48.000
G29  21139458.078 8 111088592.267 8      2260.207          51.000    21139458.500 8  86562558.398 8      1761.200          51.000
G32  22513134.219 5 118307319.231 5     -1542.648          31.000    22513160.227 5  92187544.040 5     -1202.061          30.000
R09  19347056.391 8 103312189.055 8       -64.363          51.000    19347057.414 8  80353968.481 8       -50.057          50.000
R19  19897385.336 5 106437605.801 5     -1278.934          35.000    19897386.977 6  82784819.255 6      -994.726          41.000
R20  20687431.945 6 110624998.614 6      3387.820          37.000    20687436.328 8  86041684.006 8      2634.971          48.000
C05  39675162.703 5 206598982.831 5        33.371          35.000    39675159.039 6 159755423.604 6        25.433          36.000
C11  22159478.688 8 115390271.662 8      1401.715          50.000    22159477.805 8  89227024.544 8      1083.792          51.000
C12  22929783.500 6 119401389.366 6     -1849.547          41.000    22929783.125 6  92328739.125 6     -1430.172          40.000
C24  25213232.961 7 131292010.581 7     -2827.219          43.000
C25  21829960.984 8 113674299.072 8      -613.730          51.000
E01  23695903.039 8 124522799.609 8      -327.000          51.000    23695904.344 8  95413573.862 8      -250.567          51.000
E04  27526949.945 7 144655091.687 7     -2712.953          47.000    27526952.188 7 110839578.387 7     -2078.888          45.000
E21                                                                  26459344.203 5 106540814.567 5     -1601.339          34.000
E26  23352151.953 8 122716408.905 8       971.445          51.000    23352154.742 8  94029499.798 8       744.369          51.000
E33  26203565.117 8 137700676.646 8      3051.773          49.000    26203566.086 7 105510880.715 7      2338.417          47.000
> 2020 05 11 10 11  0.0000000  0 19        .000000000000
G06  23987547.164 6 126055399.471 6     -1837.168          37.000    23987549.180 6  98224999.165 6     -1431.556          37.000
G12  20966786.375 6 110181201.677 6     -1799.938          41.000    20966785.727 6  85855484.702 6     -1402.552          41.000
G24  23295436.859 7 122418337.553 7     -3443.789          47.000    23295438.039 7  95390898.285 7     -2683.475          47.000
G25  20149227.289 8 105884915.687 8         3.895          48.000    20149228.836 8  82507716.590 8         3.035          48.000
G29  21126597.586 8 111021007.302 8      2245.285          51.000    21126597.305 8  86509894.810 8      1749.573          51.000
G32  22521990.188 5 118353859.447 5     -1559.504          34.000    22521993.555 5  92223793.540 5     -1215.189          34.000
R09  19347463.234 8 103314361.043 8       -80.605          51.000    19347464.164 8  80355657.785 8       -62.696          50.000
R19  19904634.047 5 106476380.713 5     -1305.750          35.000    19904635.203 6  82814977.497 6     -1015.583          41.000
R20  20668476.352 6 110523639.996 6      3368.883          37.000    20668482.320 7  85962849.505 7      2620.242          47.000
C05  39674971.383 6 206597986.673 6        33.090          36.000    39674967.789 6 159754653.293 6        25.309          36.000
C11  22151447.664 8 115348451.893 8      1386.066          50.000    22151446.648 8  89194686.844 8      1071.794          51.000
C12  22940477.086 6 119457072.369 6     -1862.668          41.000    22940477.188 7  92371796.791 7     -1440.526          43.000
C24  25229536.766 7 131376903.527 7     -2832.668          44.000
C25  21833531.688 8 113692893.148 8      -626.148          51.000
E01  23697787.727 8 124532704.068 8      -333.648          51.000    23697789.016 8  95421162.989 8      -255.620          51.000
E04  27542444.422 7 144736516.686 7     -2715.539          47.000    27542446.320 7 110901968.951 7     -2080.804          44.000
E21                                                                  26471285.250 5 106588895.543 5     -1604.188          33.000
E26  23346646.961 8 122687478.793 8       956.898          51.000    23346649.469 8  94007332.579 8       733.199          51.000
E33  26186158.023 8 137609201.259 8      3046.426          48.000    26186159.273 7 105440789.234 7      2334.196          47.000
> 2020 05 11 10 11 30.0000000  0 21        .000000000000
G02  22951217.922 5 120609480.543 5      -428.395          32.000
G06  23998079.797 6 126110750.054 6     -1851.414          40.000    23998082.625 6  98268129.498 6     -1442.660          40.000
G12  20977082.203 6 110235305.714 6     -1805.832          41.000    20977081.188 6  85897643.687 6     -1407.142          40.000
G24  23315110.945 7 122521726.576 7     -3447.223          46.000    23315110.719 7  95471461.148 7     -2686.148          45.000
G25  20149234.008 8 105884951.140 8        -4.809          49.000    20149235.766 8  82507744.210 8        -3.750          49.000
G29  21113817.891 8 110953848.005 8      2233.512          51.000    21113817.523 8  86457562.927 8      1740.399          51.000
G32  22530937.812 6 118400878.079 6     -1573.621          38.000    22530942.539 6  92260431.411 6     -1226.195          39.000
R09  19347956.477 8 103316994.767 8       -93.570          51.000    19347957.531 8  80357706.220 8       -72.777          51.000
R18  23187002.305 5 123773740.905 5     -4095.938          32.000
R19  19912026.859 6 106515926.964 6     -1329.383          37.000    19912028.102 6  82845735.690 6     -1033.964          41.000
R20  20649623.812 6 110422828.420 6      3353.293          39.000    20649630.195 7  85884440.491 7      2608.117          46.000
C05  39674777.695 5 206596977.598 5        36.051          35.000    39674774.109 6 159753873.780 6        27.581          37.000
C11  22143502.031 8 115307076.969 8      1373.562          49.000    22143501.070 8  89162693.130 8      1062.207          51.000
C12  22951241.820 7 119513125.569 7     -1872.449          43.000    22951242.102 7  92415140.699 7     -1448.102          42.000
C24  25245868.547 7 131461942.862 7     -2835.273          44.000
C25  21837169.906 8 113711838.723 8      -635.492          51.000
E01  23699706.133 8 124542785.741 8      -337.027          51.000    23699707.195 8  95428887.911 8      -258.278          51.000
E04  27557948.914 7 144817994.722 7     -2714.840          46.000    27557950.047 7 110964400.104 7     -2080.100          42.000
E21                                                                  26483243.461 5 106637047.414 5     -1604.233          30.000
E26  23341221.086 8 122658965.881 8       945.453          51.000    23341223.734 8  93985485.049 8       724.411          51.000
E33  26168777.383 7 137517866.464 7      3044.102          47.000    26168778.805 7 105370805.467 7      2332.443          47.000
> 2020 05 11 10 12  0.0000000  0 20        .000000000000
G06  24008702.477 6 126166573.200 6     -1871.762          39.000    24008706.328 6  98311628.047 6     -1458.519          40.000
G12  20987420.844 6 110289635.711 6     -1818.008          40.000    20987419.156 6  85939978.718 6     -1416.629          39.000
G24  23334813.500 7 122625267.479 7     -3457.152          44.000    23334812.516 7  95552142.339 7     -2693.888          43.000
G25  20149300.141 8 105885298.501 8       -19.977          50.000    20149302.047 8  82508014.879 8       -15.566          50.000
G29  21101114.969 8 110887095.335 8      2215.098          50.000    21101114.977 8  86405547.865 8      1726.050          51.000
G32  22539972.117 6 118448356.973 6     -1593.203          40.000
R09  19348532.508 8 103320071.224 8      -113.176          51.000    19348533.766 8  80360099.000 8       -88.029          50.000
R18  23210044.758 5 123896758.380 5     -4107.477          31.000
R19  19919559.484 6 106556221.736 6     -1358.824          37.000    19919560.492 7  82877076.026 7     -1056.863          42.000
R20  20630870.984 6 110322547.312 6      3330.617          39.000    20630876.758 7  85806444.095 7      2590.483          45.000
C05  39674577.953 6 206595937.902 6        31.762          36.000    39674574.453 6 159753069.776 6        24.823          36.000
C11  22135637.898 8 115266127.764 8      1354.652          48.000    22135637.156 8  89131028.588 8      1047.576          51.000
C12  22962073.430 6 119569527.282 6     -1889.043          41.000    22962073.180 6  92458754.008 6     -1460.746          40.000
C24  25262224.047 7 131547108.102 7     -2844.223          44.000
C25  21840871.883 8 113731116.313 8      -651.230          51.000
E01  23701654.539 8 124553025.029 8      -347.047          51.000    23701655.211 8  95436733.597 8      -265.904          51.000
E04  27573459.039 7 144899503.630 7     -2720.602          44.000    27573458.844 6 111026854.900 6     -2084.506          40.000
E21                                                                  26495216.219 5 106685255.891 5     -1610.701          33.000
E26  23335870.805 8 122630850.823 8       927.363          51.000    23335873.406 8  93963942.352 8       710.574          51.000
E33  26151419.492 7 137426654.046 7      3035.047          43.000    26151421.086 7 105300915.448 7      2325.624          47.000
> 2020 05 11 10 12 30.0000000  0 21        .000000000000
G02  22956331.320 5 120636334.729 5      -465.461          34.000
G06  24019431.023 6 126222953.962 6     -1887.523          37.000    24019435.500 6  98355561.057 6     -1470.801          36.000
G12  20997818.250 5 110344277.637 5     -1825.297          35.000    20997817.297 5  85982556.818 5     -1422.309          35.000
G24  23354561.031 7 122729045.369 7     -3461.781          43.000    23354559.742 7  95633008.133 7     -2697.495          43.000
G25  20149442.188 8 105886044.647 8       -30.246          51.000    20149444.188 8  82508596.287 8       -23.568          51.000
G29  21088505.719 8 110820837.685 8      2201.754          49.000    21088506.414 8  86353918.493 8      1715.649          49.000
G32  22549111.359 6 118496374.944 6     -1608.199          41.000
R09  19349208.258 8 103323679.770 8      -127.801          51.000    19349209.461 8  80362905.649 8       -99.401          50.000
R18  23233146.820 5 124020085.217 5     -4114.969          33.000    23233149.664 4  96460092.083 4     -3200.531          24.000
R19  19927248.234 6 106597351.163 6     -1383.477          38.000    19927249.758 7  82909065.597 7     -1076.037          42.000
R20  20612234.516 6 110222888.767 6      3312.965          41.000    20612239.805 7  85728931.926 7      2576.750          46.000
C05  39674388.695 5 206594952.601 5        32.930          35.000    39674385.328 6 159752307.849 6        25.941          37.000
C11  22127871.938 8 115225690.933 8      1340.812          48.000    22127871.516 8  89099760.228 8      1036.801          51.000
C12  22972987.727 6 119626361.536 6     -1900.289          40.000    22972987.070 6  92502701.855 6     -1469.433          41.000
C24  25278620.133 7 131632484.479 7     -2848.035          45.000
C25  21844654.219 8 113750812.333 8      -662.168          51.000
E01  23703649.547 8 124563509.171 8      -352.145          51.000    23703649.883 8  95444766.889 8      -269.792          51.000
E04  27588990.836 6 144981128.320 6     -2721.082          41.000    27588988.953 6 111089398.463 6     -2085.320          38.000
E21                                                                  26507221.273 5 106733591.294 5     -1611.892          34.000
E26  23330612.781 8 122603221.119 8       914.273          51.000    23330615.461 8  93942771.514 8       700.577          51.000
E33  26134100.633 6 137335652.769 6      3031.180          39.000    26134102.953 7 105231187.215 7      2322.661          47.000
> 2020 05 11 10 13  0.0000000  0 19        .000000000000
G06  24030253.430 5 126279827.705 5     -1903.359          34.000    24030256.859 5  98399878.199 5     -1483.140          34.000
G12  21008263.242 6 110399168.258 6     -1833.469          37.000    21008262.680 6  86025328.658 6     -1428.680          37.000
G24  23374341.617 7 122832995.274 7     -3467.539          43.000    23374340.289 7  95714007.970 7     -2701.982          44.000
G25  20149648.164 8 105887126.951 8       -41.051          51.000    20149650.125 8  82509439.617 8       -31.988          51.000
G29  21075979.180 8 110755013.228 8      2187.445          50.000    21075980.305 8  86302626.697 8      1704.503          50.000
G32  22558339.883 7 118544883.473 7     -1623.816          44.000
R09  19349971.805 8 103327758.017 8      -143.309          51.000    19349973.359 8  80366077.620 8      -111.459          51.000
R18  23256294.539 5 124143653.271 5     -4122.426          32.000    23256299.148 4  96556213.076 4     -3206.331          24.000
R19  19935080.492 6 106639248.950 6     -1408.852          38.000    19935081.484 6  82941652.754 6     -1095.770          41.000
R20  20593703.336 6 110123792.279 6      3294.520          41.000    20593708.781 8  85651856.897 8      2562.404          48.000
C05  39674198.055 6 206593959.585 6        33.496          36.000    39674194.680 6 159751541.014 6        26.101          36.000
C11  22120192.602 8 115185705.082 8      1325.793          48.000    22120192.703 8  89068840.602 8      1025.205          51.000
C12  22983972.875 6 119683564.527 6     -1912.199          40.000    22983971.914 6  92546934.833 6     -1478.857          39.000
C24  25295044.562 7 131718009.147 7     -2852.828          46.000
C25  21848504.875 8 113770865.043 8      -673.910          51.000
E01  23705679.438 8 124574175.879 8      -358.117          51.000    23705679.586 8  95452940.073 8      -274.404          51.000
E04  27604531.898 6 145062804.037 6     -2723.027          40.000    27604530.078 6 111151981.056 6     -2086.003          37.000
E26  23325434.977 8 122576014.659 8       900.352          51.000    23325438.430 8  93921925.015 8       689.844          51.000
E33  26116808.930 6 137244801.837 6      3026.293          38.000    26116813.695 7 105161574.106 7      2318.848          46.000
> 2020 05 11 10 13 30.0000000  0 20        .000000000000
G06  24041171.000 5 126337196.527 5     -1920.184          31.000    24041172.789 4  98444581.103 4     -1496.250          25.000
G12  21018756.125 6 110454310.382 6     -1842.199          36.000    21018755.609 5  86068296.563 5     -1435.483          35.000
G24  23394155.766 7 122937119.453 7     -3473.578          44.000    23394154.891 7  95795143.625 7     -2706.684          44.000
G25  20149918.844 8 105888549.205 8       -53.000          51.000    20149920.719 8  82510547.857 8       -41.299          51.000
G29  21063536.672 8 110689627.011 8      2172.395          51.000    21063537.617 8  86251676.410 8      1692.775          51.000
G32  22567659.461 7 118593852.811 7     -1640.094          45.000    22567659.797 7  92410768.190 7     -1277.995          43.000
R09  19350824.422 8 103332311.143 8      -159.477          50.000    19350826.188 8  80369618.929 8      -124.037          51.000
R16  23038988.500 5 123070113.692 5     -3327.258          32.000
R18  23279487.047 5 124267462.920 5     -4130.750          33.000
R19  19943056.836 6 106681916.326 6     -1434.707          40.000    19943057.750 7  82974838.479 7     -1115.883          42.000
R20  20575278.547 6 110025265.495 6      3274.879          40.000    20575284.094 8  85575224.948 8      2547.128          48.000
C05  39674006.766 5 206592962.799 5        33.293          35.000    39674003.172 6 159750770.220 6        25.925          37.000
C11  22112600.969 8 115146174.650 8      1310.234          49.000    22112601.578 8  89038273.174 8      1013.229          51.000
C12  22995029.109 6 119741138.138 6     -1925.098          39.000    22995027.852 6  92591454.313 6     -1488.683          39.000
C24  25311498.125 7 131803685.184 7     -2858.090          46.000
C25  21852424.781 8 113791278.648 8      -686.340          51.000
E01  23707744.859 8 124585029.406 8      -364.672          51.000    23707745.172 8  95461256.400 8      -279.385          51.000
E04  27620083.422 6 145144532.673 6     -2724.941          40.000    27620082.984 6 111214604.271 6     -2087.969          38.000
E26  23320338.883 8 122549235.934 8       885.672          51.000    23320342.648 8  93901406.256 8       678.656          51.000
E33  26099548.508 6 137154106.897 6      3020.906          40.000    26099554.320 7 105092080.553 7      2314.643          46.000
> 2020 05 11 10 14  0.0000000  0 18        .000000000000
G12  21029302.375 6 110509731.051 6     -1849.285          36.000    21029301.648 6  86111481.530 6     -1440.998          36.000
G24  23414008.094 7 123041443.163 7     -3478.105          46.000    23414008.523 7  95876434.784 7     -2710.212          45.000
G25  20150259.531 8 105890339.089 8       -63.031          51.000    20150261.305 8  82511942.560 8       -49.115          51.000
G29  21051183.500 8 110624707.999 8      2158.871          51.000    21051183.828 8  86201090.178 8      1682.237          51.000
G32  22577073.688 7 118643324.795 7     -1655.059          44.000    22577078.266 7  92449350.551 7     -1289.656          44.000
R09  19351771.547 8 103337368.180 8      -174.172          50.000    19351773.266 8  80373552.186 8      -135.467          51.000
R18  23302732.172 5 124391523.087 5     -4137.430          34.000
R19  19951181.828 6 106725379.286 6     -1458.992          38.000    19951182.430 6  83008642.996 6     -1134.772          41.000
R20  20556966.648 6 109927340.153 6      3256.973          41.000    20556971.445 8  85499060.773 8      2533.201          48.000
C05  39673819.891 5 206591990.594 5        34.965          35.000    39673816.227 6 159750017.683 6        26.907          36.000
C11  22105102.648 8 115107127.741 8      1296.141          50.000    22105103.383 8  89008079.639 8      1002.303          51.000
C12  23006161.625 6 119799107.781 6     -1936.098          38.000    23006160.188 7  92636280.075 7     -1497.044          42.000
C24  25327985.188 7 131889539.270 7     -2862.027          44.000
C25  21856419.531 8 113812080.815 8      -697.230          51.000
E01  23709851.031 8 124596097.778 8      -369.801          51.000    23709851.734 8  95469737.345 8      -283.339          51.000
E04  27635650.703 6 145226339.884 6     -2725.504          40.000    27635652.141 6 111277287.679 6     -2088.424          40.000
E26  23315329.703 8 122522913.115 8       872.559          51.000    23315333.672 8  93881236.835 8       668.581          51.000
E33  26082325.047 7 137063597.322 7      3016.684          42.000    26082330.336 7 105022729.078 7      2311.368          46.000
> 2020 05 11 10 14 30.0000000  0 17        .000000000000
G24  23433886.562 7 123145904.218 7     -3485.215          46.000    23433888.391 7  95957832.971 7     -2715.752          46.000
G25  20150658.516 8 105892435.240 8       -75.996          51.000    20150660.250 8  82513575.908 8       -59.218          51.000
G29  21038907.820 8 110560195.893 8      2142.598          51.000    21038907.266 8  86150821.021 8      1669.557          51.000
G32  22586570.953 7 118693237.402 7     -1672.016          44.000    22586575.672 7  92488243.471 7     -1302.869          44.000
R09  19352801.438 8 103342868.171 8      -191.773          49.000    19352802.938 8  80377829.965 8      -149.157          50.000
R18  23326011.609 5 124515797.580 5     -4147.379          33.000    23326019.602 4  96845681.067 4     -3225.739          25.000
R19  19959442.922 6 106769572.615 6     -1486.125          40.000    19959443.945 6  83043015.572 6     -1155.878          41.000
R20  20538756.078 6 109829956.950 6      3236.000          41.000    20538760.180 8  85423318.276 8      2516.889          48.000
C05  39673625.969 5 206590980.258 5        33.184          35.000    39673622.172 6 159749236.384 6        26.083          36.000
C11  22097685.742 8 115068504.197 8      1279.426          50.000    22097686.320 8  88978213.463 8       989.406          51.000
C12  23017358.320 6 119857410.894 6     -1949.871          38.000    23017356.945 7  92681363.790 7     -1507.652          43.000
C24  25344493.289 7 131975509.835 7     -2868.566          42.000
C25  21860477.352 8 113833211.133 8      -710.832          51.000
E01  23711986.500 8 124607320.091 8      -377.527          51.000    23711987.633 8  95478336.240 8      -289.274          51.000
E04  27651221.461 6 145308162.302 6     -2728.570          41.000    27651225.211 6 111339982.771 6     -2090.696          40.000
E26  23310395.859 8 122496985.545 8       856.773          51.000    23310399.875 8  93861370.275 8       656.477          51.000
E33  26065126.219 7 136973213.680 7      3009.711          44.000    26065130.508 7 104953474.110 7      2306.196          46.000
> 2020 05 11 10 15  0.0000000  0 19        .000000000000
G06  24074493.586 5 126512315.660 5     -1970.914          32.000    24074492.945 5  98581033.847 5     -1535.777          31.000
G12  21050533.094 5 110621294.189 5     -1868.336          35.000    21050531.312 6  86198406.165 6     -1455.846          36.000
G24  23453802.102 7 123250560.610 7     -3491.941          45.000    23453805.328 7  96039383.374 7     -2720.993          45.000
G25  20151127.289 8 105894898.222 8       -88.488          51.000    20151129.055 8  82515495.105 8       -68.952          51.000
G29  21026721.047 8 110496152.308 8      2126.758          51.000    21026719.883 8  86100916.935 8      1657.214          51.000
G32  22596163.422 7 118743647.931 7     -1688.875          45.000    22596166.953 7  92527524.392 7     -1316.006          43.000
R09  19353926.102 8 103348873.741 8      -208.879          50.000    19353927.461 8  80382500.988 8      -162.461          50.000
R18  23349341.219 5 124640328.965 5     -4155.625          30.000    23349348.109 4  96942537.294 4     -3232.153          26.000
R19  19967851.984 6 106814555.555 6     -1513.129          38.000    19967853.023 6  83078002.301 6     -1176.878          41.000
R20  20520658.680 6 109733181.046 6      3215.449          40.000    20520662.906 8  85348048.134 8      2500.902          49.000
C05                                                                  39673432.570 6 159748472.884 6        24.950          37.000
C11  22090361.773 8 115030364.664 8      1263.047          50.000    22090362.188 8  88948721.594 8       976.656          51.000
C12  23028629.891 6 119916105.656 6     -1963.055          38.000    23028628.930 6  92726750.347 6     -1518.097          41.000
C24  25361035.508 7 132061656.120 7     -2874.629          42.000
C25  21864609.992 8 113854729.947 8      -724.031          51.000
E01  23714162.867 8 124618757.298 8      -385.031          51.000    23714164.219 8  95487099.811 8      -294.994          51.000
E04  27666806.641 7 145390058.628 7     -2731.359          42.000    27666811.766 7 111402734.424 7     -2092.824          44.000
E26  23305549.008 8 122471514.355 8       841.184          51.000    23305553.047 8  93841853.405 8       644.552          51.000
E33  26047963.461 7 136883018.433 7      3003.109          46.000    26047966.602 7 104884363.491 7      2301.066          46.000
> 2020 05 11 10 15 30.0000000  0 18        .000000000000
G12  21061221.781 6 110677466.735 6     -1876.043          36.000    21061219.562 6  86242176.879 6     -1461.852          36.000
G24  23473751.070 7 123355394.363 7     -3495.926          44.000    23473755.648 7  96121071.978 7     -2724.098          44.000
G25  20151662.688 8 105897711.529 8       -98.227          51.000    20151664.469 8  82517687.282 8       -76.540          51.000
G29  21014620.117 8 110432561.827 8      2113.555          50.000    21014618.805 8  86051365.897 8      1646.923          50.000
G32  22605847.750 7 118794539.542 7     -1702.898          45.000    22605851.508 7  92567168.660 7     -1326.937          42.000
R09  19355142.508 8 103355369.212 8      -223.301          50.000    19355144.125 8  80387553.011 8      -173.678          50.000
R18  23372714.969 4 124765134.278 4     -4161.773          29.000    23372719.711 4  97039574.529 4     -3236.935          27.000
R19  19976404.672 6 106860308.374 6     -1536.422          40.000    19976406.367 7  83113587.825 7     -1194.995          42.000
R20  20502671.695 6 109636999.275 6      3197.660          40.000    20502676.383 8  85273240.068 8      2487.066          48.000
C05  39673247.898 5 206589011.936 5        34.543          35.000    39673244.086 6 159747714.393 6        26.379          37.000
C11  22083127.883 8 114992693.418 8      1249.215          50.000    22083127.906 8  88919591.810 8       965.987          51.000
C12  23039973.797 6 119975173.849 6     -1973.836          37.000    23039972.414 6  92772425.510 6     -1526.168          39.000
C24  25377609.578 7 132147961.063 7     -2878.121          44.000
C25  21868814.234 8 113876621.192 8      -734.508          51.000
E01  23716377.055 8 124630393.289 8      -389.816          51.000    23716378.328 8  95496015.692 8      -298.655          51.000
E04  27682402.344 7 145472010.113 7     -2731.164          45.000    27682408.219 7 111465528.349 7     -2092.752          44.000
E26  23300786.039 8 122446483.518 8       828.426          51.000    23300789.969 8  93822673.948 8       634.798          51.000
E33  26030833.859 7 136792996.822 7      2999.219          46.000    26030835.742 7 104815385.940 7      2298.142          47.000
> 2020 05 11 10 16  0.0000000  0 18        .000000000000
G02  22977364.523 5 120746864.000 5      -585.797          34.000
G06  24097184.867 5 126631558.427 5     -2002.750          32.000    24097183.391 5  98673937.518 5     -1560.587          33.000
G24  23493734.938 7 123460412.554 7     -3502.469          43.000    23493740.711 7  96202904.361 7     -2729.193          43.000
G25  20152266.469 8 105900884.341 8      -110.281          51.000    20152268.133 8  82520159.591 8       -85.933          51.000
G29  21002606.992 8 110369434.739 8      2097.684          49.000    21002606.039 8  86002175.950 8      1634.559          49.000
G32  22615624.125 7 118845915.232 7     -1719.469          43.000    22615627.539 7  92607201.652 7     -1339.846          43.000
R09  19356452.664 8 103362365.249 8      -240.258          51.000    19356454.477 8  80392994.356 8      -186.867          50.000
R19  19985102.828 6 106906837.911 6     -1562.594          39.000    19985104.383 6  83149777.463 6     -1215.351          41.000
R20  20484798.648 6 109541424.101 6      3176.871          40.000    20484803.367 7  85198903.811 7      2470.900          47.000
C05                                                                  39673058.703 6 159746967.078 6        25.811          37.000
C11  22075985.422 8 114955500.167 8      1232.930          48.000    22075985.078 8  88890831.628 8       953.440          51.000
C12  23051390.023 5 120034622.532 5     -1987.168          32.000    23051389.055 6  92818394.967 6     -1536.317          41.000
C24  25394216.484 7 132234432.980 7     -2883.805          45.000
C25  21873091.812 8 113898894.369 8      -747.594          51.000
E01  23718630.945 8 124642237.633 8      -397.074          51.000    23718632.094 8  95505091.215 8      -304.243          51.000
E04  27698009.789 6 145554024.169 6     -2733.648          41.000    27698015.938 7 111528370.242 7     -2094.569          42.000
E26  23296108.617 8 122421902.794 8       813.105          51.000    23296112.070 8  93803839.376 8       623.008          51.000
E33  26013739.156 7 136703159.953 7      2992.668          47.000    26013740.234 7 104746549.945 7      2293.083          47.000
> 2020 05 11 10 16 30.0000000  0 18        .000000000000
G02  22980756.688 5 120764697.707 5      -603.137          35.000
G06  24108664.656 5 126691889.642 5     -2019.570          35.000    24108663.523 5  98720948.777 5     -1573.691          34.000
G24  23513746.109 7 123565575.236 7     -3508.531          43.000    23513753.234 7  96284849.322 7     -2733.920          43.000
G25  20152931.336 8 105904378.288 8      -122.641          51.000    20152932.727 8  82522882.141 8       -95.564          51.000
G29  20990675.102 8 110306733.785 8      2082.203          50.000    20990674.438 8  85953318.098 8      1622.499          50.000
G32  22625484.727 6 118897736.291 6     -1735.484          41.000    22625488.570 6  92647581.636 6     -1352.329          41.000
R09  19357849.328 8 103369823.813 8      -257.168          51.000    19357851.250 8  80398795.446 8      -200.023          49.000
R19  19993938.219 6 106954102.255 6     -1588.488          39.000    19993939.797 7  83186538.591 7     -1235.491          42.000
R20  20467032.320 6 109446420.155 6      3156.680          41.000    20467036.812 7  85125011.908 7      2455.198          45.000
C05  39672872.609 5 206587057.341 5        32.570          35.000    39672869.117 6 159746203.484 6        24.959          37.000
C11  22068927.172 7 114918747.380 7      1216.977          47.000    22068926.727 8  88862412.043 8       941.101          51.000
C12  23062871.250 6 120094411.666 6     -1999.133          36.000    23062871.367 7  92864627.773 7     -1545.977          43.000
C24  25410848.047 7 132321033.062 7     -2889.543          45.000
C25  21877435.438 8 113921511.659 8      -760.461          51.000
E01  23720917.367 8 124654252.392 8      -404.074          51.000    23720918.344 8  95514297.323 8      -309.666          51.000
E04  27713621.062 5 145636060.414 5     -2735.746          34.000    27713627.211 6 111591229.164 6     -2096.368          37.000
E26  23291509.508 8 122397734.396 8       797.926          51.000    23291512.375 8  93785320.756 8       611.437          51.000
E33  25996672.273 8 136613471.254 8      2986.340          48.000    25996673.125 8 104677827.493 8      2288.318          48.000
> 2020 05 11 10 17  0.0000000  0 17        .000000000000
G06  24120236.891 5 126752711.394 5     -2035.891          35.000    24120237.469 5  98768342.228 5     -1586.411          35.000
G24  23533790.664 7 123670908.414 7     -3513.848          47.000    23533798.078 8  96366927.091 8     -2738.063          48.000
G25  20153662.539 8 105908221.092 8      -133.809          51.000    20153663.867 8  82525876.532 8      -104.266          51.000
G29  20978830.070 8 110244487.941 8      2067.422          51.000    20978829.492 8  85904814.905 8      1610.978          51.000
G32  22635434.383 6 118950028.097 6     -1750.621          38.000    22635438.352 6  92688328.444 6     -1364.123          38.000
R09  19359338.266 8 103377774.411 8      -273.035          51.000    19359339.531 8  80404979.238 8      -212.361          49.000
R19  20002915.773 6 107002127.466 6     -1613.250          40.000    20002918.094 7  83223891.556 7     -1254.750          42.000
R20  20449379.242 7 109352019.041 7      3136.871          42.000    20449382.391 7  85051588.888 7      2439.792          43.000
C05  39672683.859 5 206586075.126 5        32.730          35.000    39672680.695 6 159745443.983 6        25.131          37.000
C11  22061959.031 8 114882463.255 8      1201.840          48.000    22061958.680 8  88834354.850 8       929.312          51.000
C12  23074423.430 5 120154567.154 5     -2010.934          33.000    23074424.195 7  92911143.797 7     -1555.132          43.000
C24  25427508.719 7 132407788.037 7     -2894.379          45.000
C25  21881850.570 8 113944500.891 8      -772.359          51.000
E01  23723241.672 8 124666465.743 8      -410.324          51.000    23723242.227 8  95523655.593 8      -314.407          51.000
E04  27729241.602 5 145718147.558 5     -2736.949          34.000    27729247.414 6 111654124.723 6     -2096.703          37.000
E26  23286994.305 8 122374006.541 8       783.707          51.000    23286996.625 8  93767139.688 8       600.479          51.000
E33  25979638.938 8 136523960.401 8      2980.820          48.000    25979639.977 8 104609241.282 8      2284.017          49.000
> 2020 05 11 10 17 30.0000000  0 17        .000000000000
G06  24131901.555 6 126814018.295 6     -2050.930          37.000    24131904.508 6  98816113.751 6     -1598.127          36.000
G24  23553867.258 8 123776406.679 8     -3518.766          49.000    23553874.047 8  96449133.492 8     -2741.898          49.000
G25  20154459.445 8 105912409.417 8      -144.906          51.000    20154460.984 8  82529140.162 8      -112.914          51.000
G29  20967071.484 8 110182694.941 8      2052.773          51.000    20967070.570 8  85856664.529 8      1599.564          51.000
G32  22645472.570 6 119002784.999 6     -1765.773          37.000    22645474.352 6  92729437.710 6     -1375.927          37.000
R09  19360918.844 8 103386214.396 8      -288.969          51.000    19360920.016 8  80411543.651 8      -224.753          49.000
R19  20012034.586 6 107050906.823 6     -1637.961          40.000    20012036.422 7  83261831.019 7     -1273.970          43.000
R20  20431838.953 7 109258220.512 7      3117.043          42.000    20431841.266 7  84978634.534 7      2424.370          44.000
C05  39672495.570 5 206585094.719 5        33.520          35.000    39672492.539 6 159744685.860 6        25.478          37.000
C11  22055080.406 8 114846644.904 8      1186.727          48.000    22055080.188 8  88806657.810 8       917.667          51.000
C12  23086044.336 5 120215083.382 5     -2022.703          33.000    23086045.805 6  92957938.838 6     -1564.043          40.000
C24  25444197.344 7 132494693.725 7     -2898.734          43.000
C25  21886336.344 8 113967858.987 8      -784.242          51.000
E01  23725603.133 8 124678874.642 8      -416.363          51.000    23725603.414 8  95533163.709 8      -319.065          51.000
E04  27744870.016 5 145800275.290 5     -2737.559          30.000    27744874.930 5 111717053.011 5     -2097.673          34.000
E26  23282562.297 8 122350716.321 8       769.555          51.000    23282564.672 8  93749293.959 8       589.686          51.000
E33  25962638.648 7 136434625.775 7      2975.422          46.000    25962640.664 8 104540790.073 8      2279.881          50.000
> 2020 05 11 10 18  0.0000000  0 17        .000000000000
G06  24143657.148 5 126875800.913 5     -2066.539          35.000    24143662.156 6  98864255.999 6     -1610.290          36.000
G24  23573973.570 8 123882061.284 8     -3524.051          50.000    23573979.180 8  96531461.695 8     -2746.017          50.000
G25  20155320.695 8 105916935.703 8      -156.109          51.000    20155322.539 8  82532667.134 8      -121.644          51.000
G29  20955397.648 8 110121348.178 8      2037.793          51.000    20955396.398 8  85808861.823 8      1587.891          51.000
G32  22655598.305 6 119055997.073 6     -1780.809          40.000    22655599.383 6  92770901.633 6     -1387.643          40.000
R09  19362589.898 8 103395137.620 8      -305.031          51.000    19362591.398 8  80418483.914 8      -237.247          49.000
R19  20021292.375 6 107100430.371 6     -1662.883          40.000    20021294.789 7  83300349.324 7     -1293.356          43.000
R20  20414409.992 6 109165020.636 6      3097.012          40.000    20414412.453 7  84906145.760 7      2408.787          45.000
C05  39672306.328 5 206584108.886 5        33.387          35.000    39672303.297 6 159743923.550 6        25.663          37.000
C11  22048289.570 8 114811285.325 8      1171.398          48.000    22048289.648 8  88779315.551 8       905.766          51.000
C12  23097733.891 6 120275951.331 6     -2034.629          37.000    23097734.414 6  93005005.719 6     -1573.044          39.000
C24  25460913.281 7 132581741.998 7     -2903.637          45.000
C25  21890891.555 8 113991578.868 8      -796.277          51.000
E01  23728000.289 8 124691472.081 8      -422.676          51.000    23728000.477 8  95542816.278 8      -323.877          51.000
E04                                                                  27760508.906 5 111780006.711 5     -2098.816          32.000
E26  23278212.344 8 122327856.760 8       755.148          51.000    23278214.961 8  93731778.205 8       578.620          51.000
E33  25945670.852 7 136345461.741 7      2969.645          47.000    25945673.906 8 104472469.554 8      2275.373          50.000
> 2020 05 11 10 18 30.0000000  0 17        .000000000000
G06  24155504.578 5 126938062.650 5     -2083.520          34.000    24155510.336 5  98912771.511 5     -1623.531          34.000
G24  23594110.016 8 123987875.205 8     -3529.898          50.000    23594113.039 8  96613913.996 8     -2750.576          50.000
G25  20156247.273 8 105921805.220 8      -168.207          51.000    20156249.281 8  82536461.549 8      -131.070          51.000
G29  20943809.867 8 110060453.828 8      2022.125          51.000    20943808.242 8  85761411.660 8      1575.682          51.000
G32  22665811.320 6 119109667.302 6     -1796.586          40.000    22665812.133 6  92812722.571 6     -1399.943          39.000
R09  19364352.656 8 103404550.469 8      -322.098          51.000    19364354.250 8  80425804.988 8      -250.523          48.000
R19  20030690.117 6 107150700.132 6     -1688.152          40.000    20030692.164 7  83339448.006 7     -1313.007          43.000
R20  20397093.922 6 109072427.597 6      3076.152          40.000    20397097.914 7  84834128.951 7      2392.563          47.000
C05  39672117.008 5 206583122.842 5        32.223          35.000    39672113.984 6 159743161.013 6        25.672          37.000
C11  22041588.273 8 114776390.422 8      1155.359          50.000    22041588.336 8  88752332.595 8       893.322          51.000
C12  23109491.352 5 120337174.140 5     -2047.121          35.000    23109491.602 7  93052347.037 7     -1582.713          42.000
C24  25477658.148 7 132668937.216 7     -2909.102          45.000
C25  21895517.391 8 114015665.943 8      -809.141          51.000
E01  23730434.398 8 124704263.679 8      -429.750          51.000    23730434.594 8  95552617.626 8      -329.268          51.000
E04                                                                  27776149.891 5 111843045.242 5     -2099.926          31.000
E26  23273945.602 8 122305433.621 8       740.016          51.000    23273948.695 8  93714596.849 8       567.034          51.000
E33  25928737.695 8 136256475.341 8      2963.020          49.000    25928740.930 8 104404285.168 8      2270.411          50.000
> 2020 05 11 10 19  0.0000000  0 16        .000000000000
G06  24167444.719 5 127000809.149 5     -2099.023          35.000    24167451.102 5  98961664.904 5     -1635.606          35.000
G24  23614277.781 8 124093854.552 8     -3535.301          50.000    23614276.320 8  96696495.161 8     -2754.783          50.000
G25  20157240.750 8 105927025.931 8      -179.789          51.000    20157242.695 8  82540529.635 8      -140.095          51.000
G29  20932310.047 8 110000021.048 8      2006.820          51.000    20932308.164 8  85714321.200 8      1563.756          50.000
G32  22676112.516 6 119163801.195 6     -1811.980          40.000    22676114.922 6  92854904.780 6     -1411.933          40.000
R09  19366208.781 8 103414461.963 8      -338.477          51.000    19366209.945 8  80433513.910 8      -263.263          49.000
R19  20040228.141 6 107201721.549 6     -1713.129          41.000    20040230.094 7  83379131.312 7     -1332.434          44.000
R20  20379893.688 6 108980453.292 6      3056.055          39.000    20379898.734 8  84762593.389 8      2376.931          48.000
C05  39671929.039 5 206582144.416 5        32.461          34.000    39671926.008 6 159742404.463 6        25.318          36.000
C11  22034978.094 8 114741968.467 8      1139.645          50.000    22034978.117 8  88725715.360 8       881.173          51.000
C12  23121317.539 5 120398757.606 5     -2059.113          35.000    23121318.211 7  93099967.340 7     -1591.853          43.000
C24  25494432.836 7 132756286.549 7     -2914.117          45.000
C25  21900215.188 8 114040128.365 8      -821.609          51.000
E01  23732907.016 8 124717257.812 8      -436.434          51.000    23732907.383 8  95562574.150 8      -334.398          51.000
E26  23269763.469 8 122283455.303 8       725.336          51.000    23269766.750 8  93697756.343 8       555.759          51.000
E33  25911840.641 8 136167676.358 8      2956.871          51.000    25911843.633 8 104336244.410 8      2265.681          50.000
> 2020 05 11 10 19 30.0000000  0 17        .000000000000
G06  24179473.750 5 127064021.961 5     -2114.797          34.000    24179479.438 5  99010921.608 5     -1647.897          34.000
G12  21148479.875 5 111136010.900 5     -1942.566          30.000
G24  23634473.305 8 124199980.976 8     -3539.488          49.000    23634470.391 8  96779190.980 8     -2758.046          50.000
G25  20158297.906 8 105932581.209 8      -190.219          51.000    20158299.703 8  82544858.429 8      -148.222          51.000
G29  20920894.805 8 109940033.977 8      1992.648          50.000    20920893.102 8  85667578.072 8      1552.716          50.000
G32  22686498.859 6 119218379.801 6     -1826.492          41.000    22686501.523 7  92897433.500 7     -1423.244          42.000
R09  19368155.266 8 103424856.467 8      -354.078          51.000    19368156.703 8  80441598.500 8      -275.394          49.000
R19  20049903.062 6 107253475.050 6     -1736.840          41.000    20049904.617 7  83419384.029 7     -1350.875          44.000
R20  20362806.477 6 108889083.547 6      3036.121          38.000    20362812.484 8  84691528.099 8      2361.428          48.000
C05  39671739.461 5 206581157.355 5        33.219          35.000    39671736.453 6 159741643.207 6        25.708          36.000
C11  22028455.578 8 114708003.526 8      1125.039          51.000    22028455.820 8  88699451.531 8       869.882          51.000
C12  23133210.156 6 120460683.553 6     -2069.250          37.000    23133210.727 6  93147852.403 6     -1600.066          41.000
C24  25511233.898 7 132843772.803 7     -2918.055          46.000
C25  21904981.922 8 114064950.014 8      -832.785          51.000
E01  23735415.133 8 124730438.297 8      -442.055          51.000    23735415.805 8  95572673.477 8      -338.711          51.000
E26  23265662.992 8 122261905.647 8       711.551          51.000    23265666.102 8  93681244.267 8       545.256          51.000
E33  25894976.188 8 136079049.959 8      2951.812          50.000    25894979.117 8 104268335.904 8      2261.734          50.000
> 2020 05 11 10 20  0.0000000  0 17        .000000000000
G02  23007238.945 5 120903813.083 5      -725.293          35.000
G06  24191584.883 5 127127636.551 5     -2133.879          30.000    24191589.977 5  99060516.362 5     -1662.757          31.000
G24  23654690.547 8 124306222.013 8     -3549.078          49.000    23654688.781 8  96861976.121 8     -2765.515          49.000
G25  20159412.938 8 105938440.740 8      -206.285          51.000    20159414.648 8  82549424.288 8      -160.742          51.000
G29  20909558.625 8 109880463.303 8      1972.836          50.000    20909557.672 8  85621159.392 8      1537.278          50.000
G32  22696963.578 7 119273370.255 7     -1845.754          43.000    22696966.219 7  92940283.194 7     -1438.250          43.000
R09  19370186.633 8 103435704.063 8      -375.137          51.000    19370188.211 8  80450035.513 8      -291.773          49.000
R19  20059708.320 7 107305926.957 7     -1765.914          43.000    20059710.023 7  83460179.940 7     -1373.489          45.000
R20  20345827.852 6 108798291.071 6      3010.543          39.000    20345833.766 8  84620911.757 8      2341.533          48.000
C05  39671542.500 5 206580131.512 5        28.617          35.000    39671539.547 6 159740849.975 6        22.234          37.000
C11  22022015.289 8 114674466.017 8      1104.980          51.000    22022015.531 8  88673518.219 8       854.332          51.000
C12  23145162.203 5 120522919.983 5     -2085.844          35.000    23145162.695 6  93195977.495 6     -1612.650          40.000
C24  25528055.328 7 132931364.993 7     -2927.340          47.000
C25  21909811.852 8 114090100.998 8      -849.684          51.000
E01  23737953.102 8 124743775.241 8      -453.160          51.000    23737954.016 8  95582892.676 8      -347.233          51.000
E26  23261638.344 8 122240754.753 8       692.383          51.000    23261641.445 8  93665037.740 8       530.539          51.000
E33  25878138.680 8 135990567.729 8      2941.039          50.000    25878141.664 8 104200537.853 8      2253.499          50.000
> 2020 05 11 10 20 30.0000000  0 15        .000000000000
G24  23674955.102 8 124412711.468 8     -3549.988          48.000    23674954.781 8  96944954.872 8     -2766.228          49.000
G25  20160611.609 8 105944740.104 8      -213.422          51.000    20160613.352 8  82554332.877 8      -166.303          51.000
G29  20898327.742 8 109821445.772 8      1961.781          50.000    20898327.641 8  85575171.730 8      1528.661          50.000
G32  22707531.969 7 119328905.878 7     -1856.602          43.000    22707532.406 7  92983557.679 7     -1446.706          42.000
R09  19372328.875 8 103447143.791 8      -387.250          51.000    19372330.977 8  80458933.048 8      -301.194          50.000
R19  20069669.508 7 107359211.990 7     -1786.109          43.000    20069671.383 7  83501623.847 7     -1389.196          46.000
R20  20328983.789 6 108708217.134 6      2994.469          39.000    20328989.047 7  84550854.200 7      2329.028          47.000
C05  39671363.805 5 206579201.291 5        33.648          35.000    39671360.883 6 159740130.693 6        25.333          37.000
C11  22015683.055 8 114641490.807 8      1093.633          51.000    22015683.234 8  88648019.703 8       845.645          51.000
C12  23157198.617 5 120585599.147 5     -2092.715          33.000    23157199.148 6  93244445.064 6     -1618.404          38.000
C24  25544922.734 7 133019196.707 7     -2927.785          47.000
C25  21914730.867 8 114115716.002 8      -857.750          51.000
E01  23740546.695 8 124757404.653 8      -455.320          51.000    23740547.680 8  95593335.976 8      -348.912          51.000
E26  23257715.133 8 122220138.635 8       682.148          51.000    23257718.438 8  93649241.000 8       522.673          51.000
E33  25861354.250 8 135902367.062 8      2939.102          48.000    25861357.680 8 104132955.544 8      2252.054          50.000
> 2020 05 11 10 21  0.0000000  0 17        .000000000000
G02  23015659.484 5 120948106.335 5      -756.062          32.000
G12  21181937.461 5 111311827.934 5     -1968.031          35.000    21181936.516 6  86736485.890 6     -1533.534          36.000
G24  23695236.695 7 124519291.203 7     -3555.992          47.000    23695237.562 7  97028003.996 7     -2770.903          47.000
G25  20161864.211 8 105951322.816 8      -225.789          51.000    20161866.016 8  82559462.261 8      -175.940          51.000
G29  20887172.352 8 109762826.332 8      1945.703          49.000    20887172.891 8  85529494.254 8      1516.132          49.000
G32  22718173.680 7 119384827.802 7     -1872.098          42.000    22718173.258 6  93027133.137 6     -1458.780          41.000
R09  19374552.383 8 103459017.553 8      -404.828          51.000    19374554.297 8  80468168.188 8      -314.866          49.000
R19  20079756.141 7 107413168.227 7     -1811.434          43.000    20079758.023 7  83543589.795 7     -1408.893          46.000
R20  20312245.164 6 108618705.695 6      2972.641          39.000    20312249.578 7  84481234.164 7      2312.054          46.000
C05  39671173.734 5 206578210.759 5        32.383          35.000    39671170.820 6 159739365.500 6        25.143          37.000
C11  22009429.344 8 114608923.342 8      1077.090          51.000    22009429.133 8  88622836.491 8       832.880          51.000
C12  23169290.211 6 120648564.289 6     -2105.414          36.000    23169289.930 6  93293133.700 6     -1627.967          37.000
C24  25561806.227 7 133107112.175 7     -2933.637          47.000
C25  21919709.234 8 114141640.172 8      -871.000          51.000
E01  23743166.188 8 124771170.488 8      -462.914          51.000    23743167.148 8  95603883.804 8      -354.652          51.000
E26  23253864.031 8 122199901.319 8       666.480          51.000    23253867.461 8  93633734.479 8       510.698          51.000
E33  25844593.648 7 135814293.335 7      2931.957          47.000    25844597.789 8 104065470.496 8      2246.526          51.000
> 2020 05 11 10 21 30.0000000  0 17        .000000000000
G02  23020022.375 5 120970998.897 5      -772.211          35.000
G12  21193189.711 6 111370955.789 6     -1975.680          39.000    21193187.445 6  86782559.500 6     -1539.488          39.000
G24  23715543.648 7 124626006.710 7     -3559.891          45.000    23715545.695 7  97111158.902 7     -2773.944          45.000
G25  20163179.672 8 105958235.876 8      -236.555          51.000    20163181.625 8  82564849.055 8      -184.328          51.000
G29  20876101.953 8 109704651.973 8      1931.148          51.000    20876102.484 8  85484163.575 8      1504.791          51.000
G32  22728897.609 6 119441180.409 6     -1886.359          40.000    22728897.719 6  93071044.233 6     -1469.890          39.000
R09  19376866.430 8 103471374.194 8      -420.477          51.000    19376868.000 8  80477778.911 8      -327.037          49.000
R19  20089976.516 7 107467840.295 7     -1834.938          43.000    20089978.156 7  83586112.506 7     -1427.174          46.000
R20  20295621.055 6 108529807.717 6      2952.641          39.000    20295624.953 7  84412091.324 7      2296.501          45.000
C05  39670981.250 5 206577208.465 5        32.812          35.000    39670978.391 6 159738590.467 6        25.231          37.000
C11  22003262.906 8 114576810.526 8      1062.344          51.000    22003262.289 8  88598004.824 8       821.417          51.000
C12  23181446.172 6 120711859.995 6     -2115.918          37.000    23181445.062 6  93342077.831 6     -1636.153          39.000
C24  25578714.547 7 133195157.076 7     -2937.566          47.000
C25  21924755.875 8 114167920.331 8      -882.473          51.000
E01  23745820.625 8 124785120.113 8      -468.629          51.000    23745821.883 8  95614572.464 8      -359.082          51.000
E26  23250093.844 8 122180090.128 8       652.699          51.000    23250097.633 8  93618554.477 8       500.099          51.000
E33  25827866.461 7 135726395.372 7      2926.332          46.000    25827871.398 8 103998120.101 8      2242.272          51.000
> 2020 05 11 10 22  0.0000000  0 16        .000000000000
G12  21204497.320 6 111430372.654 6     -1984.258          39.000    21204493.797 6  86828858.271 6     -1546.178          39.000
G24  23735887.008 7 124732913.681 7     -3565.551          45.000    23735889.719 7  97194463.009 7     -2778.351          45.000
G25  20164569.148 8 105965537.846 8      -248.555          51.000    20164571.273 8  82570538.898 8      -193.679          51.000
G29  20865128.328 8 109646982.695 8      1915.066          51.000    20865128.320 8  85439226.472 8      1492.260          51.000
G32  22739713.891 6 119498019.850 6     -1901.426          38.000    22739716.711 6  93115334.710 6     -1481.630          38.000
R09  19379282.359 8 103484274.316 8      -437.730          51.000    19379283.547 8  80487812.337 8      -340.457          50.000
R19  20100341.461 7 107523285.181 7     -1859.734          43.000    20100343.289 7  83629236.296 7     -1446.460          47.000
R20  20279122.703 6 108441585.894 6      2930.805          40.000    20279126.734 7  84343474.403 7      2279.515          45.000
C05  39670797.445 5 206576251.519 5        31.984          34.000    39670794.539 6 159737850.450 6        25.170          37.000
C11  21997194.742 8 114545210.833 8      1046.078          51.000    21997194.078 8  88573569.961 8       808.915          51.000
C12  23193675.914 5 120775542.205 5     -2127.645          33.000    23193675.125 6  93391320.948 6     -1645.348          40.000
C24  25595658.750 8 133283388.725 8     -2942.980          48.000
C25  21929882.023 8 114194614.711 8      -895.465          51.000
E01  23748521.234 8 124799312.586 8      -475.820          51.000    23748523.008 8  95625447.196 8      -364.611          51.000
E26  23246415.734 8 122160764.055 8       637.391          51.000    23246420.039 8  93603746.209 8       488.390          51.000
E33  25811184.633 7 135638733.544 7      2919.367          47.000    25811189.953 8 103930950.644 8      2236.978          51.000
> 2020 05 11 10 22 30.0000000  0 16        .000000000000
G12  21215846.461 6 111490015.066 6     -1992.336          37.000    21215844.227 6  86875332.866 6     -1552.470          37.000
G24  23756254.844 7 124839948.179 7     -3570.215          45.000    23756257.398 7  97277866.492 7     -2781.986          45.000
G25  20166020.633 8 105973165.917 8      -259.898          51.000    20166022.875 8  82576482.835 8      -202.518          51.000
G29  20854239.164 8 109589756.583 8      1899.945          51.000    20854238.406 8  85394634.684 8      1480.477          51.000
G32  22750610.266 6 119555280.985 6     -1915.820          41.000    22750615.539 6  93159953.726 6     -1492.847          40.000
R09  19381788.078 8 103497655.014 8      -454.203          51.000    19381789.656 8  80498219.521 8      -353.272          50.000
R19  20110838.117 7 107579435.517 7     -1883.660          44.000    20110839.859 7  83672908.784 7     -1465.069          47.000
R20  20262739.438 6 108353979.537 6      2909.723          39.000    20262743.148 7  84275336.162 7      2263.118          44.000
C05  39670610.477 5 206575277.718 5        32.371          34.000    39670607.523 6 159737097.455 6        25.364          37.000
C11  21991213.133 8 114514062.436 8      1030.551          51.000    21991212.086 8  88549484.059 8       796.836          51.000
C12  23205966.414 5 120839546.679 5     -2138.430          34.000    23205966.953 6  93440813.407 6     -1654.128          39.000
C24  25612626.477 7 133371744.061 7     -2947.406          47.000
C25  21935075.922 8 114221661.349 8      -907.656          51.000
E01  23751256.305 8 124813685.531 8      -482.375          51.000    23751258.203 8  95636460.212 8      -369.597          51.000
E26  23242818.164 8 122141860.676 8       622.816          51.000    23242822.516 8  93589261.810 8       477.205          51.000
E33  25794536.484 7 135551246.759 7      2913.016          47.000    25794541.828 8 103863915.329 8      2232.045          51.000
> 2020 05 11 10 23  0.0000000  0 16        .000000000000
G12  21227239.914 5 111549900.170 5     -2000.051          34.000    21227239.242 5  86921992.587 5     -1558.487          35.000
G24  23776648.820 7 124947120.750 7     -3574.820          43.000    23776651.102 7  97361377.523 7     -2785.577          44.000
G25  20167536.609 8 105981132.600 8      -271.422          51.000    20167538.859 8  82582690.634 8      -211.498          51.000
G29  20843436.508 8 109532987.135 8      1884.434          51.000    20843435.320 8  85350398.730 8      1468.387          51.000
G32  22761588.953 6 119612973.722 6     -1930.660          41.000    22761595.859 6  93204909.077 6     -1504.411          41.000
R09  19384386.547 8 103511529.889 8      -471.039          51.000    19384388.047 8  80509011.086 8      -366.364          50.000
R19  20121468.773 7 107636301.453 7     -1907.656          43.000    20121470.297 7  83717137.825 7     -1483.733          47.000
R20  20246474.430 6 108267004.465 6      2888.340          39.000    20246477.570 7  84207688.913 7      2246.487          44.000
C05  39670422.648 5 206574300.484 5        32.824          34.000    39670419.758 6 159736341.049 6        25.107          37.000
C11  21985320.414 8 114483378.205 8      1014.734          51.000    21985319.031 8  88525757.057 8       784.739          51.000
C12  23218322.484 6 120903884.184 6     -2150.383          39.000    23218322.055 6  93490563.187 6     -1662.852          37.000
C24  25629620.289 8 133460234.717 8     -2952.188          48.000
C25  21940339.797 8 114249072.828 8      -920.047          51.000
E01  23754028.219 8 124828251.861 8      -489.023          51.000    23754030.008 8  95647621.410 8      -374.706          51.000
E26  23239303.594 8 122123392.865 8       608.117          50.000    23239307.805 8  93575111.146 8       465.852          51.000
E33  25777924.430 8 135463949.453 8      2906.422          48.000    25777929.516 8 103797025.199 8      2227.020          51.000
> 2020 05 11 10 23 30.0000000  0 16        .000000000000
G12  21238680.211 6 111610022.358 6     -2007.699          37.000    21238679.773 6  86968841.073 6     -1564.441          37.000
G24  23797069.500 6 125054435.138 6     -3579.605          40.000    23797072.102 6  97444999.038 6     -2789.306          40.000
G25  20169118.117 8 105989443.123 8      -282.680          51.000    20169120.281 8  82589166.352 8      -220.270          51.000
G29  20832721.336 8 109476680.472 8      1869.207          50.000    20832720.367 8  85306523.394 8      1456.525          50.000
G32  22772650.031 6 119671100.763 6     -1944.609          36.000    22772657.344 5  93250202.878 5     -1515.277          35.000
R09  19387078.688 8 103525905.645 8      -487.434          51.000    19387080.008 8  80520192.221 8      -379.118          50.000
R19  20132233.391 7 107693885.144 7     -1931.219          44.000    20132234.922 7  83761925.145 7     -1502.062          47.000
R20  20230329.953 6 108180669.273 6      2866.934          40.000    20230332.742 7  84140539.351 7      2229.840          46.000
C05  39670234.859 5 206573322.182 5        32.863          35.000    39670232.102 6 159735585.342 6        25.300          37.000
C11  21979517.648 8 114453163.647 8       999.352          50.000    21979516.758 8  88502393.272 8       772.871          51.000
C12  23230743.344 6 120968557.953 6     -2161.660          36.000    23230741.562 6  93540572.925 6     -1671.110          36.000
C24  25646641.023 8 133548865.016 8     -2956.555          48.000
C25  21945674.758 8 114276854.562 8      -932.156          51.000
E01  23756838.148 8 124843017.233 8      -495.418          51.000    23756839.492 8  95658935.127 8      -379.558          51.000
E26  23235872.883 8 122105366.248 8       593.676          50.000    23235877.156 8  93561298.534 8       454.897          51.000
E33  25761349.617 8 135376848.687 8      2900.219          48.000    25761354.148 8 103730285.646 8      2222.228          49.000
> 2020 05 11 10 24  0.0000000  0 16        .000000000000
G12  21250167.844 6 111670390.807 6     -2016.156          40.000    21250167.898 6  87015881.393 6     -1571.031          40.000
G24  23817517.422 6 125161893.991 6     -3584.441          39.000    23817521.867 6  97528733.133 6     -2793.071          38.000
G25  20170765.984 8 105998102.041 8      -294.410          51.000    20170767.992 8  82595913.553 8      -229.411          51.000
G29  20822095.477 8 109420842.189 8      1853.516          50.000    20822094.672 8  85263013.048 8      1444.301          50.000
G32  22783793.828 6 119729664.130 6     -1959.230          36.000    22783801.266 6  93295836.791 6     -1526.670          36.000
R09  19389865.578 8 103540787.508 8      -504.359          51.000    19389866.773 8  80531767.002 8      -392.283          50.000
R19  20143132.648 7 107752187.855 7     -1955.461          43.000    20143133.867 7  83807271.702 7     -1520.911          47.000
R20  20214306.469 6 108094981.394 6      2845.477          40.000    20214309.680 8  84073893.260 8      2213.148          48.000
C05  39670048.211 5 206572350.305 5        32.258          34.000    39670045.469 6 159734833.778 6        25.228          36.000
C11  21973805.859 8 114423423.677 8       983.465          50.000    21973805.500 8  88479396.464 8       760.562          51.000
C12  23243227.609 5 121033570.218 5     -2172.031          30.000    23243226.812 6  93590844.516 6     -1679.866          37.000
C24  25663689.453 8 133637638.698 8     -2961.449          48.000
C25  21951081.758 8 114305011.229 8      -944.684          51.000
E01  23759686.953 8 124857986.709 8      -502.320          51.000    23759687.836 8  95670405.243 8      -384.892          51.000
E26  23232527.414 8 122087785.676 8       578.629          50.000    23232531.578 8  93547827.705 8       443.377          51.000
E33  25744813.484 7 135289950.802 7      2893.199          47.000    25744816.625 7 103663701.572 7      2216.945          47.000
> 2020 05 11 10 24 30.0000000  0 16        .000000000000
G12  21261700.758 7 111730997.034 7     -2023.617          42.000    21261700.805 7  87063107.040 7     -1576.845          42.000
G24  23837991.477 6 125269487.807 6     -3588.664          40.000    23837998.156 6  97612572.420 6     -2796.365          40.000
G25  20172478.703 8 106007101.874 8      -305.254          51.000    20172480.586 8  82602926.400 8      -237.860          51.000
G29  20811557.742 8 109365465.408 8      1838.547          51.000    20811557.211 8  85219862.336 8      1432.634          51.000
G32  22795019.930 6 119788654.023 6     -1972.934          41.000    22795025.977 6  93341802.965 6     -1537.354          41.000
R09  19392746.031 8 103556168.913 8      -520.625          51.000    19392747.453 8  80543730.278 8      -404.934          49.000
R19  20154164.281 7 107811199.007 7     -1978.336          43.000    20154165.531 7  83853169.264 7     -1538.706          47.000
R20  20198402.758 6 108009936.640 6      2824.680          39.000    20198406.875 8  84007747.356 8      2196.970          48.000
C05  39669861.062 5 206571375.360 5        34.035          34.000    39669858.617 6 159734080.711 6        25.472          37.000
C11  21968183.867 8 114394151.169 8       968.320          49.000    21968183.727 8  88456761.095 8       748.809          51.000
C12  23255774.875 5 121098911.808 5     -2183.195          34.000    23255775.547 6  93641370.855 6     -1688.176          37.000
C24  25680763.602 7 133726547.486 7     -2965.488          47.000
C25  21956559.523 8 114333535.581 8      -956.547          51.000
E01  23762573.023 8 124873153.150 8      -508.387          51.000    23762573.969 8  95682026.272 8      -389.576          51.000
E26  23229265.469 8 122070643.984 8       564.461          51.000    23229269.484 8  93534693.162 8       432.545          51.000
E33  25728315.305 8 135203250.066 8      2887.102          48.000    25728315.766 7 103597268.575 7      2212.198          45.000
> 2020 05 11 10 25  0.0000000  0 16        .000000000000
G12  21273278.727 6 111791840.230 6     -2031.398          40.000    21273278.328 6  87110517.367 6     -1582.908          41.000
G24  23858491.383 6 125377214.143 6     -3592.754          41.000    23858499.305 6  97696515.003 6     -2799.552          41.000
G25  20174256.164 8 106016442.179 8      -316.648          51.000    20174257.898 8  82610204.558 8      -246.739          51.000
G29  20801107.898 8 109310550.354 8      1823.090          51.000    20801107.328 8  85177071.441 8      1420.589          51.000
G32  22806326.734 6 119848067.480 6     -1987.191          41.000    22806331.797 6  93388099.079 6     -1548.464          41.000
R09  19395720.109 8 103572050.467 8      -537.375          51.000    19395721.359 8  80556082.578 8      -417.961          49.000
R19  20165327.273 7 107870915.016 7     -2001.961          43.000    20165328.797 7  83899615.053 7     -1557.081          47.000
R20  20182618.531 6 107925537.222 6      2802.777          39.000    20182623.625 8  83942103.366 8      2179.938          48.000
C05  39669673.633 5 206570399.265 5        32.977          34.000    39669671.227 6 159733325.907 6        25.339          37.000
C11  21962651.570 8 114365346.042 8       952.746          49.000    21962652.117 8  88434487.182 8       736.703          51.000
C12  23268386.344 5 121164580.457 5     -2193.801          35.000    23268386.844 5  93692150.032 5     -1696.739          35.000
C24  25697863.148 7 133815590.202 7     -2969.988          46.000
C25  21962107.953 8 114362427.405 8      -968.801          51.000
E01  23765496.414 8 124888516.603 8      -515.094          51.000    23765497.695 8  95693798.269 8      -394.697          51.000
E26  23226087.156 8 122053941.126 8       549.758          51.000    23226091.008 8  93521894.868 8       421.231          51.000
E33  25711855.172 8 135116747.897 8      2880.309          48.000    25711852.953 7 103530987.757 7      2206.999          44.000
> 2020 05 11 10 25 30.0000000  0 16        .000000000000
G12  21284902.227 6 111852923.151 6     -2040.008          41.000    21284901.906 6  87158114.412 6     -1589.616          41.000
G24  23879017.109 7 125485074.841 7     -3597.301          42.000    23879025.562 6  97780562.261 6     -2803.092          41.000
G25  20176098.969 8 106026126.062 8      -328.344          51.000    20176100.617 8  82617750.441 8      -255.852          51.000
G29  20790746.883 8 109256101.159 8      1807.324          51.000    20790745.797 8  85134643.546 8      1408.305          51.000
G32  22817713.656 6 119907904.934 6     -2001.703          41.000    22817718.094 6  93434725.587 6     -1559.772          41.000
R09  19398788.828 8 103588436.446 8      -554.434          51.000    19398789.953 8  80568827.226 8      -431.229          49.000
R19  20176622.359 7 107931335.861 7     -2025.359          42.000    20176623.938 7  83946609.050 7     -1575.280          47.000
R20  20166956.531 6 107841789.245 6      2780.559          40.000    20166962.227 8  83876966.063 8      2162.657          49.000
C05  39669486.227 5 206569423.956 5        32.949          34.000    39669483.922 6 159732571.722 6        25.445          37.000
C11  21957210.000 8 114337011.685 8       936.793          49.000    21957210.945 8  88412577.291 8       724.415          51.000
C12  23281060.461 4 121230577.044 4     -2205.027          29.000    23281060.336 5  93743182.817 5     -1705.384          33.000
C24  25714988.852 7 133904769.000 7     -2974.855          46.000
C25  21967727.422 8 114391689.957 8      -981.410          51.000
E01  23768458.133 8 124904080.617 8      -521.969          51.000    23768459.484 8  95705723.930 8      -399.947          51.000
E26  23222993.062 8 122037680.453 8       534.777          51.000    23222996.891 8  93509435.389 8       409.770          51.000
E33  25695433.469 8 135030449.186 8      2873.328          48.000    25695431.297 7 103464862.836 7      2201.740          46.000
> 2020 05 11 10 26  0.0000000  0 17        .000000000000
G12  21296570.883 7 111914241.950 7     -2048.438          42.000    21296570.023 7  87205895.257 7     -1596.185          42.000
G24  23899567.500 7 125593064.491 7     -3602.469          42.000    23899575.328 7  97864710.006 7     -2807.122          42.000
G25  20178006.625 8 106036150.794 8      -340.465          51.000    20178008.250 8  82625561.904 8      -265.297          51.000
G29  20780474.180 8 109202116.149 8      1791.133          51.000    20780473.008 8  85092577.318 8      1395.688          51.000
G32  22829179.977 6 119968161.110 6     -2016.484          41.000    22829184.234 6  93481678.404 6     -1571.287          41.000
R09  19401951.188 8 103605324.721 8      -571.965          51.000    19401952.977 8  80581962.521 8      -444.862          49.000
R19  20188047.984 6 107992455.551 6     -2049.688          41.000    20188049.484 7  83994146.598 7     -1594.198          46.000
R20  20151417.781 6 107758693.205 6      2758.395          41.000    20151423.125 8  83812335.804 8      2145.418          49.000
C05  39669298.781 5 206568447.844 5        32.645          34.000    39669296.242 6 159731816.163 6        24.636          37.000
C11  21951858.867 8 114309145.717 8       920.426          49.000    21951859.477 8  88391029.561 8       711.738          51.000
C12  23293796.562 5 121296897.166 5     -2218.070          31.000    23293795.820 5  93794465.575 5     -1713.935          32.000
C24  25732139.969 7 133994080.487 7     -2979.988          47.000
C25  21973417.547 8 114421320.681 8      -994.398          51.000
E01  23771457.742 8 124919842.929 8      -529.355          51.000    23771458.977 8  95717801.540 8      -405.604          51.000
E21                                                                  26839035.727 5 108069675.074 5     -1687.088          32.000
E26  23219982.656 8 122021859.550 8       519.375          51.000    23219986.555 8  93497312.885 8       397.948          51.000
E33  25679049.898 7 134944353.048 7      2865.758          47.000    25679049.898 8 103398893.098 8      2195.864          48.000
> 2020 05 11 10 26 30.0000000  0 17        .000000000000
G12  21308288.086 7 111975815.227 7     -2056.172          43.000    21308286.586 7  87253874.473 7     -1602.209          43.000
G24  23920145.648 6 125701200.874 6     -3606.457          40.000    23920152.359 6  97948972.064 6     -2810.229          40.000
G25  20179982.727 8 106046535.552 8      -351.484          51.000    20179984.344 8  82633653.922 8      -273.884          51.000
G29  20770293.203 8 109148615.097 8      1775.809          51.000    20770292.508 8  85050888.191 8      1383.747          51.000
G32  22840728.539 6 120028852.526 6     -2029.824          39.000    22840732.875 6  93528970.424 6     -1581.681          39.000
R09  19405211.609 8 103622735.940 8      -588.449          51.000    19405213.758 8  80595504.552 8      -457.683          49.000
R19  20199607.219 6 108054290.431 6     -2072.617          41.000    20199608.922 7  84042240.396 7     -1612.036          46.000
R20  20136005.008 6 107676271.636 6      2736.715          41.000    20136010.258 8  83748230.137 8      2128.556          50.000
C05  39669114.453 5 206567488.116 5        32.090          35.000    39669111.852 6 159731075.006 6        24.850          37.000
C11  21946601.250 8 114281767.462 8       905.066          48.000    21946601.820 8  88369858.957 8       699.831          51.000
C12  23306598.195 5 121363557.651 5     -2227.219          33.000    23306596.695 5  93846011.740 5     -1722.411          34.000
C24  25749320.094 7 134083542.783 7     -2983.949          45.000
C25  21979182.305 8 114451338.769 8     -1006.477          51.000
E01  23774498.820 8 124935823.143 8      -535.699          51.000    23774499.961 8  95730046.115 8      -410.486          51.000
E21                                                                  26851607.734 5 108120296.620 5     -1689.300          30.000
E26  23217059.328 8 122006497.891 8       505.004          51.000    23217063.359 8  93485542.277 8       386.951          51.000
E33  25662708.133 7 134858480.455 7      2859.211          46.000    25662711.039 8 103333094.619 8      2190.869          50.000
> 2020 05 11 10 27  0.0000000  0 16        .000000000000
G12  21320049.023 6 112037618.916 6     -2063.559          40.000    21320048.328 6  87302033.182 6     -1607.971          41.000
G24  23940747.117 6 125809459.054 6     -3610.352          41.000    23940752.477 7  98033329.060 7     -2813.261          42.000
G25  20182022.773 8 106057256.741 8      -362.570          51.000    20182024.562 8  82642008.088 8      -282.522          51.000
G29  20760199.898 8 109095575.162 8      1760.645          51.000    20760199.359 8  85009558.356 8      1371.931          51.000
G32  22852355.102 6 120089953.219 6     -2043.227          40.000    22852359.703 6  93576581.315 6     -1592.125          40.000
R09  19408565.680 8 103640646.903 8      -605.066          50.000    19408567.766 8  80609435.311 8      -470.607          49.000
R19  20211295.469 6 108116813.543 6     -2095.371          39.000    20211296.734 7  84090869.499 7     -1629.730          45.000
R20  20120714.312 6 107594503.333 6      2715.078          40.000    20120719.656 8  83684632.582 8      2111.727          50.000
C05  39668929.125 5 206566523.262 5        32.598          35.000    39668926.297 6 159730328.094 6        25.497          37.000
C11  21941432.719 8 114254853.812 8       889.723          48.000    21941433.367 8  88349047.638 8       687.969          51.000
C12  23319460.203 5 121430533.391 5     -2237.531          33.000    23319458.711 6  93897801.564 6     -1729.932          36.000
C24  25766524.359 7 134173131.724 7     -2988.055          44.000
C25  21985017.164 8 114481720.991 8     -1018.484          51.000
E01  23777576.859 8 124951998.108 8      -542.074          51.000    23777578.078 8  95742439.907 8      -415.293          51.000
E26  23214219.109 8 121991572.163 8       490.664          51.000    23214222.945 8  93474105.675 8       375.942          51.000
E33  25646404.477 7 134772809.638 7      2852.629          45.000    25646409.797 8 103267450.713 8      2185.852          51.000
> 2020 05 11 10 27 30.0000000  0 17        .000000000000
G02  23079866.070 5 121285509.801 5      -973.641          33.000
G12  21331854.461 6 112099657.176 6     -2072.039          41.000    21331854.125 6  87350374.601 6     -1614.579          41.000
G24  23961372.703 7 125917841.443 7     -3614.879          43.000    23961376.578 7  98117782.802 7     -2816.792          42.000
G25  20184127.766 8 106068319.080 8      -374.445          51.000    20184129.742 8  82650628.089 8      -291.776          51.000
G29  20750195.477 8 109043002.032 8      1744.621          51.000    20750194.781 8  84968592.278 8      1359.448          51.000
G32  22864060.383 7 120151465.164 7     -2057.336          43.000    22864065.062 7  93624512.651 7     -1603.119          42.000
R09  19412014.062 8 103659063.341 8      -622.371          49.000    19412016.492 8  80623759.180 8      -484.066          49.000
R19  20223111.984 6 108180025.851 6     -2118.512          40.000    20223113.820 7  84140034.632 7     -1647.731          44.000
R20  20105547.023 6 107513395.845 6      2692.484          39.000    20105552.438 8  83621548.984 8      2094.158          50.000
C05  39668743.438 5 206565556.089 5        32.469          34.000    39668740.586 6 159729580.244 6        25.080          37.000
C11  21936354.656 8 114228409.790 8       873.594          48.000    21936354.992 8  88328599.427 8       675.470          51.000
C12  23332383.500 5 121497826.826 5     -2248.320          30.000    23332382.266 5  93949837.138 5     -1738.559          34.000
C24  25783753.812 7 134262851.127 7     -2992.945          44.000
C25  21990922.820 8 114512472.144 8     -1031.184          51.000
E01  23780692.891 8 124968372.991 8      -549.285          51.000    23780693.977 8  95754986.889 8      -420.854          51.000
E26  23211462.820 8 121977087.315 8       475.418          51.000    23211466.766 8  93463006.881 8       364.266          51.000
E33  25630141.000 7 134687347.038 7      2845.211          46.000    25630147.453 8 103201966.365 8      2180.109          51.000
> 2020 05 11 10 28  0.0000000  0 17        .000000000000
G02  23085471.922 5 121314960.290 5      -989.090          31.000
G12  21343705.570 7 112161933.721 7     -2080.207          44.000    21343704.336 7  87398901.807 7     -1620.937          44.000
G24  23982022.320 7 126026350.397 7     -3619.262          44.000    23982025.344 7  98202335.145 7     -2820.207          44.000
G25  20186298.570 8 106079726.803 8      -386.289          51.000    20186300.602 8  82659517.212 8      -301.004          51.000
G29  20740280.750 8 108990900.754 8      1728.480          51.000    20740280.016 8  84927993.896 8      1346.868          51.000
G32  22875844.594 7 120213390.102 7     -2071.238          46.000    22875848.234 7  93672765.793 7     -1613.952          46.000
R09  19415558.656 8 103677990.473 8      -639.781          51.000    19415561.055 8  80638480.285 8      -497.611          50.000
R19  20235058.266 6 108243928.632 6     -2141.902          38.000    20235059.609 7  84189736.791 7     -1665.921          43.000
R20  20090503.930 6 107432956.759 6      2670.098          36.000    20090509.789 8  83558985.256 8      2076.743          48.000
C05                                                                  39668555.438 6 159728834.618 6        24.790          37.000
C11  21931367.383 7 114202439.708 7       857.512          47.000    21931367.867 8  88308517.700 8       663.167          51.000
C12                                                                  23345367.430 5  94002120.305 5     -1747.418          32.000
C24  25801009.594 7 134352704.385 7     -2997.633          44.000
C25  21996900.102 8 114543596.600 8     -1044.008          51.000
E01  23783847.898 8 124984952.472 8      -556.270          51.000    23783848.836 8  95767690.635 8      -426.241          51.000
E26  23208791.070 8 121963047.813 8       460.383          51.000    23208795.445 8  93452249.354 8       352.731          51.000
E33  25613918.844 7 134602098.739 7      2837.723          47.000    25613925.219 8 103136646.232 8      2174.407          50.000
> 2020 05 11 10 28 30.0000000  0 17        .000000000000
G02  23091151.547 5 121344818.205 5     -1005.863          30.000
G12  21355601.055 7 112224443.189 7     -2087.605          42.000    21355599.250 7  87447610.493 7     -1626.709          42.000
G24  24002694.406 7 126134978.926 7     -3622.945          43.000    24002697.305 7  98286980.666 7     -2823.077          43.000
G25  20188534.250 8 106091475.217 8      -397.320          51.000    20188536.352 8  82668671.818 8      -309.600          51.000
G29  20730454.930 8 108939267.337 8      1713.285          51.000    20730454.148 8  84887760.084 8      1335.027          51.000
G32  22887706.148 7 120275720.673 7     -2084.434          46.000    22887708.750 7  93721335.023 7     -1624.237          47.000
R09  19419198.164 8 103697424.407 8      -656.281          51.000    19419200.672 8  80653595.537 8      -510.441          49.000
R19  20247131.922 6 108308514.011 6     -2164.133          39.000    20247132.742 7  84239969.849 7     -1683.214          42.000
R20  20075584.891 6 107353183.707 6      2647.797          37.000    20075591.102 7  83496939.584 7      2059.398          47.000
C05  39668372.773 5 206563626.104 5        31.750          34.000    39668369.961 6 159728086.784 6        24.938          37.000
C11  21926469.883 7 114176939.124 7       842.094          47.000    21926470.984 8  88288799.038 8       651.194          51.000
C12                                                                  23358411.516 4  94054644.767 4     -1755.254          29.000
C24  25818290.609 7 134442685.991 7     -3001.453          45.000
C25  22002948.227 8 114575089.787 8     -1055.875          51.000
E01  23787040.961 8 125001732.329 8      -562.723          51.000    23787041.883 8  95780547.904 8      -431.123          51.000
E26  23206203.648 8 121949449.264 8       445.941          51.000    23206207.734 8  93441829.675 8       341.698          51.000
E33  25597737.406 8 134517061.811 8      2830.910          49.000    25597742.789 8 103071488.073 8      2169.256          50.000
> 2020 05 11 10 29  0.0000000  0 16        .000000000000
G12  21367537.578 7 112287168.914 7     -2093.625          42.000    21367534.734 7  87496487.610 7     -1631.396          42.000
G24  24023385.570 7 126243709.846 7     -3625.246          42.000    24023388.766 7  98371705.993 7     -2824.870          42.000
G25  20190831.758 8 106103548.328 8      -407.172          51.000    20190833.906 8  82678079.439 8      -317.277          51.000
G29  20720715.305 8 108888086.994 8      1699.141          51.000    20720714.656 8  84847879.320 8      1324.006          51.000
G32  22899641.328 8 120338438.264 8     -2096.340          48.000    22899643.562 8  93770205.820 8     -1633.512          48.000
R09  19422929.859 8 103717349.637 8      -671.727          51.000    19422931.859 8  80669092.926 8      -522.454          49.000
R19  20259329.633 6 108373762.176 6     -2185.480          36.000    20259330.406 7  84290718.432 7     -1699.815          42.000
R20  20060788.844 6 107274063.545 6      2627.211          38.000    20060794.453 7  83435401.654 7      2043.386          45.000
C05                                                                  39668181.180 6 159727327.523 6        26.161          37.000
C11  21921659.719 8 114151892.514 8       828.133          48.000    21921661.148 8  88269431.407 8       640.265          51.000
C12  23371514.883 5 121701615.187 5     -2277.633          31.000    23371512.008 4  94107393.827 4     -1762.183          29.000
C24  25835592.906 7 134532779.272 7     -3004.273          45.000
C25  22009063.930 8 114606936.029 8     -1066.746          51.000
E01  23790269.141 8 125018697.000 8      -567.891          51.000    23790270.016 8  95793546.796 8      -435.149          51.000
E26  23203696.914 8 121936275.809 8       432.750          50.000    23203700.914 8  93431735.737 8       331.567          51.000
E33  25581593.500 8 134432222.084 8      2825.336          49.000    25581597.594 8 103006481.028 8      2164.922          50.000
> 2020 05 11 10 29 30.0000000  0 17        .000000000000
G12  21379521.680 6 112350145.200 6     -2103.254          40.000    21379518.820 6  87545560.042 6     -1638.899          41.000
G24  24044102.070 6 126352576.245 6     -3630.852          41.000    24044105.797 6  98456536.897 6     -2829.235          41.000
G25  20193197.664 8 106115981.103 8      -420.121          51.000    20193199.820 8  82687767.311 8      -327.370          51.000
G29  20711068.938 8 108837394.538 8      1681.969          51.000    20711068.383 8  84808378.687 8      1310.625          51.000
G32  22911656.234 8 120401575.221 8     -2111.133          48.000    22911658.727 8  93819403.403 8     -1645.039          48.000
R09  19426760.320 8 103737802.711 8      -690.254          51.000    19426761.953 8  80685000.850 8      -536.864          49.000
R19  20271656.703 6 108439705.600 6     -2209.469          38.000    20271657.875 6  84342007.745 6     -1718.479          40.000
R20  20046122.562 6 107195634.495 6      2602.926          37.000    20046127.938 7  83374401.308 7      2024.501          46.000
C05  39667998.547 5 206561677.129 5        32.176          35.000    39667995.703 6 159726580.709 6        24.917          36.000
C11  21916943.453 8 114127334.688 8       810.832          48.000    21916945.250 8  88250441.727 8       626.954          51.000
C12  23384680.578 4 121770167.342 4     -2290.250          28.000    23384676.695 5  94160401.823 5     -1770.658          34.000
C24  25852922.383 7 134623017.994 7     -3010.113          43.000
C25  22015253.875 8 114639170.031 8     -1080.625          50.000
E01  23793539.211 8 125035881.892 8      -576.129          51.000    23793540.094 8  95806714.435 8      -441.455          51.000
E21  26927484.461 5 141504882.535 5     -2225.855          33.000
E26  23201277.828 8 121923562.677 8       416.531          51.000    23201281.594 8  93421994.510 8       319.121          50.000
E33  25565493.945 8 134347616.310 8      2816.605          49.000    25565496.727 8 102941653.242 8      2158.178          49.000
> 2020 05 11 10 30  0.0000000  0 17        .000000000000
G12  21391551.359 7 112413360.038 7     -2110.781          42.000    21391548.688 6  87594818.342 6     -1644.765          41.000
G24  24064841.367 6 126461564.193 6     -3634.414          39.000    24064845.680 6  98541462.528 6     -2832.014          39.000
G25  20195629.820 8 106128761.657 8      -431.168          51.000    20195631.852 8  82697726.183 8      -335.975          51.000
G29  20701513.531 8 108787179.148 8      1666.516          51.000    20701513.008 8  84769249.812 8      1298.584          51.000
G32  22923748.117 7 120465117.021 7     -2124.117          47.000    22923751.062 7  93868916.442 7     -1655.159          47.000
R09  19430687.453 8 103758772.453 8      -706.961          51.000    19430688.883 8  80701310.621 8      -549.859          49.000
R19  20284111.328 5 108506328.541 5     -2230.668          35.000    20284112.281 6  84393825.613 6     -1734.961          40.000
R20  20031583.789 6 107117887.510 6      2580.660          36.000    20031589.492 7  83313931.463 7      2007.180          47.000
C05  39667814.172 5 206560716.887 5        32.762          35.000    39667811.359 6 159725838.186 6        25.300          36.000
C11  21912318.531 7 114103254.042 7       795.508          47.000    21912321.086 8  88231821.065 8       615.134          51.000
C12                                                                  23397902.648 5  94213653.123 5     -1777.989          34.000
C24  25870276.797 6 134713389.546 6     -3014.066          41.000
C25  22021515.906 8 114671780.176 8     -1092.578          49.000
E01  23796849.000 8 125053275.579 8      -582.547          51.000    23796850.188 8  95820042.044 8      -446.391          51.000
E21  26940212.359 5 141571768.441 5     -2229.336          33.000
E26  23198944.156 8 121911298.166 8       402.043          50.000    23198947.289 8  93412597.033 8       308.125          49.000
E33  25549436.609 8 134263234.402 8      2809.742          49.000    25549438.789 8 102876996.978 8      2152.940          49.000
> 2020 05 11 10 30 30.0000000  0 16        .000000000000
G12  21403625.227 6 112476808.097 6     -2118.637          39.000    21403623.867 6  87644258.394 6     -1650.886          39.000
G24  24085602.594 6 126570667.715 6     -3638.922          38.000    24085607.062 6  98626478.214 6     -2835.524          38.000
G25  20198127.320 8 106141885.710 8      -442.887          51.000    20198129.375 8  82707952.722 8      -345.107          51.000
G29  20692048.180 8 108737437.302 8      1650.434          51.000    20692047.734 8  84730489.944 8      1286.052          51.000
G32  22935915.656 7 120529056.764 7     -2137.781          47.000    22935918.859 7  93918739.590 7     -1665.804          47.000
R09  19434710.586 8 103780255.200 8      -724.457          51.000    19434711.867 8  80718019.412 8      -563.467          49.000
R19  20296690.938 6 108573623.367 6     -2253.863          36.000    20296692.844 6  84446165.986 6     -1753.008          39.000
R20  20017171.977 5 107040820.748 5      2557.367          35.000    20017177.875 7  83253990.695 7      1989.066          47.000
C05  39667630.133 5 206559758.217 5        31.703          34.000    39667627.172 6 159725096.855 6        24.720          37.000
C11  21907784.727 8 114079646.653 8       779.184          48.000    21907787.656 8  88213566.340 8       602.457          51.000
C12                                                                  23411187.625 5  94267143.014 5     -1786.773          35.000
C24  25887654.961 6 134803888.911 6     -3018.500          40.000
C25  22027849.625 8 114704762.346 8     -1105.402          51.000
E01  23800197.859 8 125070874.288 8      -589.926          51.000    23800199.461 8  95833526.743 8      -452.006          51.000
E26  23196694.961 8 121899478.213 8       386.684          51.000    23196697.875 8  93403540.212 8       296.254          49.000
E33  25533421.203 8 134179073.880 8      2801.809          49.000    25533423.578 8 102812510.342 8      2146.792          50.000
> 2020 05 11 10 31  0.0000000  0 17        .000000000000
G02  23121064.680 5 121501975.853 5     -1089.703          33.000
G12  21415743.219 6 112540488.612 6     -2128.367          38.000    21415742.375 6  87693879.568 6     -1658.465          39.000
G24  24106385.680 6 126679884.356 6     -3644.000          40.000    24106390.000 6  98711582.056 6     -2839.481          40.000
G25  20200690.023 8 106155352.947 8      -456.227          51.000    20200692.273 8  82718446.669 8      -355.501          51.000
G29  20682673.094 8 108688169.662 8      1632.738          51.000    20682672.680 8  84692099.572 8      1272.264          51.000
G32  22948158.250 7 120593391.436 7     -2152.773          46.000    22948160.828 7  93968870.473 7     -1677.486          46.000
R09  19438829.812 8 103802251.624 8      -743.379          51.000    19438830.711 8  80735127.727 8      -578.187          48.000
R19  20309395.938 5 108641586.748 5     -2278.363          34.000    20309397.828 6  84499026.404 6     -1772.060          38.000
R20  20002887.133 6 106964436.386 6      2532.840          37.000    20002893.445 7  83194580.657 7      1969.987          47.000
C05  39667446.453 5 206558801.685 5        29.887          35.000    39667443.352 6 159724356.434 6        23.125          37.000
C11  21903342.148 8 114056512.309 8       761.641          48.000    21903344.875 8  88195677.366 8       589.000          51.000
C12                                                                  23424530.859 5  94320869.498 5     -1795.735          35.000
C24  25905057.695 6 134894514.909 6     -3024.586          41.000
C25  22034255.078 8 114738116.252 8     -1119.562          51.000
E01  23803585.703 8 125088678.091 8      -598.480          51.000    23803587.648 8  95847168.587 8      -458.552          51.000
E26  23194530.359 8 121888102.593 8       370.215          51.000    23194532.906 8  93394823.844 8       283.680          49.000
E33  25517448.539 8 134095136.109 8      2792.629          50.000    25517450.852 8 102748194.376 8      2139.804          51.000
> 2020 05 11 10 31 30.0000000  0 18        .000000000000
G02  23127330.812 6 121534876.786 6     -1104.098          38.000
G12  21427904.938 6 112604399.720 6     -2133.770          36.000    21427903.117 6  87743680.501 6     -1662.675          36.000
G24  24127190.211 6 126789211.633 6     -3645.516          40.000    24127194.500 6  98796772.100 6     -2840.665          40.000
G25  20203317.805 8 106169162.144 8      -465.453          51.000    20203320.180 8  82729207.072 8      -362.691          51.000
G29  20673387.906 8 108639375.441 8      1619.211          51.000    20673387.680 8  84654078.090 8      1261.723          51.000
G32  22960475.109 7 120658117.141 7     -2163.473          46.000    22960477.094 7  94019306.056 7     -1685.823          46.000
R09  19443044.984 8 103824761.017 8      -758.180          50.000    19443045.742 8  80752635.019 8      -589.695          48.000
R19  20322225.172 5 108710213.483 5     -2297.984          32.000    20322226.383 6  84552402.749 6     -1787.318          37.000
R20  19988730.711 6 106888736.391 6      2512.594          38.000    19988736.797 8  83135702.889 8      1954.240          48.000
C05  39667262.648 5 206557845.349 5        32.660          35.000    39667259.539 6 159723616.120 6        25.098          37.000
C11  21898989.773 7 114033849.817 7       748.156          47.000    21898992.648 8  88178153.312 8       578.522          51.000
C12                                                                  23437931.914 6  94374830.362 6     -1801.930          36.000
C24  25922485.297 7 134985265.392 7     -3026.340          42.000
C25  22040731.844 8 114771840.808 8     -1129.719          51.000
E01  23807012.539 8 125106686.246 8      -603.047          51.000    23807014.516 8  95860967.029 8      -462.093          51.000
E21  26978481.305 5 141772877.984 5     -2239.566          31.000
E26  23192450.023 8 121877170.269 8       357.660          51.000    23192452.180 8  93386447.163 8       274.012          49.000
E33  25501518.766 8 134011421.667 8      2787.309          51.000    25501520.711 8 102684049.552 8      2135.757          51.000
> 2020 05 11 10 32  0.0000000  0 17        .000000000000
G02  23133687.305 6 121568271.405 6     -1121.625          38.000    23133653.664 4  94728443.193 4      -873.994          29.000
G12  21440111.477 5 112668544.348 5     -2142.309          32.000    21440111.797 5  87793672.804 5     -1669.331          33.000
G24  24148016.523 6 126898653.174 6     -3650.469          39.000    24148020.438 6  98882051.145 6     -2844.524          39.000
G25  20206011.734 8 106183319.022 8      -478.062          51.000    20206014.188 8  82740238.403 8      -372.516          51.000
G29  20664193.758 8 108591060.807 8      1601.953          51.000    20664193.758 8  84616430.351 8      1248.278          51.000
G32  22972866.617 7 120723236.953 7     -2177.430          44.000    22972868.844 7  94070048.716 7     -1696.702          44.000
R09  19447357.328 8 103847790.040 8      -776.738          50.000    19447358.344 8  80770546.459 8      -604.130          48.000
R19  20335178.664 5 108779506.279 5     -2321.047          30.000    20335180.523 6  84606297.165 6     -1805.259          36.000
R20  19974704.234 6 106813728.878 6      2488.102          40.000    19974710.070 8  83077363.712 8      1935.190          49.000
C05  39667079.914 5 206556893.839 5        31.148          34.000    39667076.820 6 159722880.318 6        24.385          37.000
C11  21894729.336 8 114011665.133 8       731.164          48.000    21894732.055 8  88160998.718 8       565.355          51.000
C12                                                                  23451391.758 6  94429028.417 6     -1811.007          37.000
C24  25939938.359 7 135076145.323 7     -3031.758          43.000
C25  22047280.805 8 114805941.791 8     -1143.430          51.000
E01  23810479.531 8 125124904.954 8      -611.242          51.000    23810481.625 8  95874926.795 8      -468.342          51.000
E26  23190454.898 8 121866687.164 8       341.496          50.000    23190457.609 8  93378414.684 8       261.711          49.000
E33  25485632.938 8 133927938.047 8      2778.559          51.000    25485634.641 8 102620081.601 8      2128.984          51.000
> 2020 05 11 10 32 30.0000000  0 17        .000000000000
G02  23140092.352 5 121601929.116 5     -1131.559          35.000    23140061.492 5  94754669.812 5      -881.722          31.000
G12  21452318.266 5 112732695.999 5     -2142.848          33.000    21452318.914 5  87843661.189 5     -1669.748          32.000
G24  24168820.211 6 127007976.853 6     -3647.465          40.000    24168822.336 6  98967238.292 6     -2842.183          40.000
G25  20208728.016 8 106197593.638 8      -482.789          51.000    20208730.523 8  82751361.475 8      -376.199          51.000
G29  20655047.305 8 108542996.595 8      1592.973          50.000    20655047.180 8  84578977.742 8      1241.280          50.000
G32  22985288.805 7 120788518.193 7     -2183.750          45.000    22985291.375 7  94120917.213 7     -1701.623          45.000
R09  19451723.656 8 103871105.767 8      -787.086          51.000    19451724.695 8  80788680.907 8      -612.178          48.000
R19  20348211.906 5 108849227.486 5     -2336.594          30.000    20348214.570 5  84660524.798 5     -1817.351          35.000
R20  19960764.461 6 106739182.780 6      2472.051          40.000    19960770.070 8  83019383.420 8      1922.706          49.000
C05  39666854.664 5 206555720.509 5        37.637          35.000    39666851.539 6 159721973.041 6        29.103          37.000
C11  21890517.305 8 113989730.516 8       722.027          48.000    21890519.383 8  88144037.470 8       558.342          51.000
C12  23464911.750 4 122187930.445 4     -2344.691          29.000    23464866.664 6  94483285.982 6     -1813.508          36.000
C24  25957372.539 7 135166925.939 7     -3029.188          43.000
C25  22053858.469 8 114840191.385 8     -1149.066          51.000
E01  23813942.977 8 125143104.750 8      -611.422          51.000    23813944.977 8  95888872.080 8      -468.498          51.000
E26  23188501.664 8 121856423.436 8       333.465          51.000    23188504.852 8  93370550.304 8       255.506          50.000
E33  25469747.430 8 133844457.141 8      2777.602          51.000    25469749.211 8 102556115.736 8      2128.250          51.000
> 2020 05 11 10 33  0.0000000  0 17        .000000000000
G02  23146674.742 6 121636519.579 6     -1156.312          38.000    23146645.125 4  94781640.094 4      -901.023          25.000
G12  21464655.969 6 112797523.502 6     -2160.379          36.000    21464655.688 6  87894176.151 6     -1683.406          36.000
G24  24189728.953 6 127117852.353 6     -3659.633          41.000    24189728.570 6  99052855.450 6     -2851.665          41.000
G25  20211594.430 8 106212656.961 8      -502.945          51.000    20211596.938 8  82763099.117 8      -391.905          51.000
G29  20646075.688 8 108495854.179 8      1568.316          48.000    20646075.766 8  84542243.442 8      1222.068          48.000
G32  22997869.227 7 120854629.161 7     -2205.176          46.000    22997871.539 7  94172432.239 7     -1718.319          46.000
R09  19456271.438 8 103895390.965 8      -813.203          51.000    19456272.484 8  80807569.374 8      -632.491          49.000
R19  20361452.836 5 108920056.448 5     -2366.871          31.000    20361455.734 5  84715613.970 5     -1840.900          34.000
R20  19947038.805 6 106665783.160 6      2439.938          40.000    19947044.383 8  82962294.863 8      1897.732          49.000
C05  39666714.383 5 206554990.177 5        29.465          34.000    39666711.430 6 159721408.306 6        22.612          37.000
C11  21886480.898 8 113968710.893 8       697.684          48.000    21886482.594 8  88127783.762 8       539.487          51.000
C12                                                                  23478483.656 6  94538115.514 6     -1827.741          36.000
C24  25974914.992 7 135258271.309 7     -3042.137          43.000
C25  22060592.219 8 114875254.484 8     -1170.129          51.000
E01  23817530.586 8 125161956.998 8      -626.914          51.000    23817532.328 8  95903317.304 8      -480.384          51.000
E26  23186717.891 8 121847050.164 8       309.926          49.000    23186720.914 8  93363368.188 8       237.476          50.000
E33  25453990.016 8 133761651.612 8      2761.176          50.000    25453992.234 8 102492667.363 8      2115.763          51.000
> 2020 05 11 10 33 30.0000000  0 17        .000000000000
G02  23153302.742 5 121671356.061 5     -1168.566          32.000
G12  21476991.516 5 112862340.246 5     -2163.953          35.000    21476988.852 5  87944682.681 5     -1686.203          35.000
G24  24210611.891 6 127227591.375 6     -3659.238          40.000    24210611.133 6  99138366.302 6     -2851.355          40.000
G25  20214480.500 8 106227823.291 8      -510.828          51.000    20214483.008 8  82774917.027 8      -398.048          51.000
G29  20637149.375 8 108448948.893 8      1555.934          50.000    20637149.570 8  84505693.856 8      1212.413          50.000
G32  23010476.773 8 120920881.433 8     -2214.367          48.000    23010478.367 8  94224057.364 8     -1725.481          48.000
R09  19460870.617 8 103919949.379 8      -826.766          51.000    19460871.398 8  80826670.348 8      -643.040          49.000
R19  20374769.867 5 108991291.971 5     -2385.258          30.000    20374772.562 5  84771019.371 5     -1855.201          32.000
R20  19933397.344 6 106592835.224 6      2420.633          40.000    19933402.500 7  82905557.609 7      1882.717          47.000
C05                                                                  39666525.898 6 159720660.844 6        25.352          37.000
C11  21882489.664 8 113947926.835 8       685.348          49.000    21882491.195 8  88111712.231 8       529.978          51.000
C12                                                                  23492111.977 6  94592990.222 6     -1832.311          36.000
C24  25992435.523 7 135349501.090 7     -3042.590          44.000
C25  22067351.531 8 114910451.672 8     -1179.039          51.000
E01  23821111.859 8 125180776.493 8      -630.254          51.000    23821113.656 8  95917737.426 8      -482.955          51.000
E26  23184972.812 8 121837881.733 8       298.695          49.000    23184976.312 8  93356343.043 8       228.835          51.000
E33  25438230.586 8 133678837.529 8      2756.965          50.000    25438233.398 8 102429212.436 8      2112.572          51.000
> 2020 05 11 10 34  0.0000000  0 17        .000000000000
G02  23160024.773 5 121706752.761 5     -1185.875          35.000
G12  21489371.328 6 112927396.713 6     -2171.918          37.000    21489369.055 6  87995376.016 6     -1692.407          36.000
G24  24231516.180 6 127337443.458 6     -3663.180          39.000    24231517.102 6  99223965.268 6     -2854.429          39.000
G25  20217433.961 8 106243343.592 8      -522.883          51.000    20217436.250 8  82787010.758 8      -407.441          51.000
G29  20628316.492 8 108402532.399 8      1539.508          50.000    20628316.758 8  84469525.148 8      1199.616          50.000
G32  23023158.484 7 120987523.317 7     -2227.516          47.000    23023159.609 7  94275986.067 7     -1735.726          47.000
R09  19465568.898 8 103945036.846 8      -844.664          51.000    19465569.711 8  80846182.815 8      -656.961          49.000
R19  20388209.570 5 109063186.038 5     -2407.043          33.000    20388211.961 5  84826936.955 5     -1872.148          31.000
R20  19919888.836 6 106520596.676 6      2396.656          41.000    19919892.281 7  82849372.068 7      1864.066          46.000
C05  39666345.664 5 206553069.440 5        32.316          34.000    39666342.609 6 159719923.063 6        24.527          36.000
C11  21878591.773 8 113927627.332 8       669.008          50.000    21878592.578 8  88096015.373 8       517.268          51.000
C12                                                                  23505798.664 5  94648100.877 5     -1840.536          33.000
C24  26009981.359 7 135440863.073 7     -3047.379          44.000
C25  22074184.273 8 114946031.689 8     -1192.000          51.000
E01  23824734.664 8 125199814.684 8      -637.891          51.000    23824736.789 8  95932325.120 8      -488.800          51.000
E26  23183314.742 8 121829169.280 8       283.262          50.000    23183318.883 8  93349667.265 8       217.027          51.000
E33  25422517.383 8 133596267.686 8      2748.500          49.000    25422520.922 8 102365944.642 8      2106.089          51.000
> 2020 05 11 10 34 30.0000000  0 17        .000000000000
G02  23166839.648 5 121742571.052 5     -1207.520          35.000
G12  21501794.766 5 112992683.077 5     -2186.016          34.000    21501792.633 5  88046248.443 5     -1703.392          33.000
G24  24252439.922 6 127447397.482 6     -3672.094          39.000    24252442.453 6  99309643.668 6     -2861.372          38.000
G25  20220453.016 8 106259208.344 8      -540.121          51.000    20220455.133 8  82799372.896 8      -420.874          51.000
G29  20619575.164 8 108356595.683 8      1517.766          51.000    20619575.625 8  84433730.330 8      1182.678          51.000
G32  23035911.883 8 121054542.604 8     -2245.781          48.000    23035913.281 8  94328208.842 8     -1749.962          48.000
R09  19470364.367 8 103970644.653 8      -867.883          51.000    19470365.383 8  80866099.972 8      -675.020          50.000
R19  20401770.367 4 109135725.332 4     -2435.102          28.000    20401770.172 4  84883333.301 4     -1893.971          27.000
R20  19906511.719 6 106449060.399 6      2367.230          41.000    19906513.531 7  82793732.750 7      1841.179          46.000
C05  39666163.102 5 206552119.453 5        26.684          34.000    39666159.992 6 159719187.666 6        20.205          37.000
C11  21874785.117 8 113907802.818 8       647.504          50.000    21874785.031 8  88080685.810 8       500.691          51.000
C12  23519574.430 5 122472609.287 5     -2395.754          34.000    23519541.844 4  94703447.568 4     -1852.322          29.000
C24  26027550.547 7 135532346.947 7     -3056.973          44.000
C25  22081088.484 8 114981985.169 8     -1210.156          50.000
E01  23828397.328 8 125219062.513 8      -650.605          51.000    23828399.891 8  95947073.461 8      -498.498          51.000
E26  23181741.680 8 121820903.358 8       262.539          49.000    23181745.906 8  93343333.621 8       201.199          51.000
E33  25406849.289 8 133513934.257 8      2734.891          49.000    25406853.000 8 102302858.036 8      2095.607          50.000
> 2020 05 11 10 35  0.0000000  0 16        .000000000000
G12  21514257.305 6 113058170.223 6     -2185.844          40.000    21514254.969 6  88097277.394 6     -1703.255          40.000
G24  24273377.930 6 127557423.774 6     -3668.320          39.000    24273380.953 6  99395378.405 6     -2858.434          40.000
G25  20223532.289 8 106275389.491 8      -544.246          51.000    20223534.297 8  82811981.576 8      -424.091          51.000
G29  20610920.289 8 108311111.260 8      1508.980          51.000    20610920.555 8  84398287.927 8      1175.829          51.000
G32  23048731.172 8 121121908.417 8     -2250.887          48.000    23048733.305 8  94380701.643 8     -1753.941          48.000
R09  19475252.242 8 103996744.822 8      -877.832          51.000    19475253.477 8  80886400.083 8      -682.758          50.000
R19  20415441.883 4 109208860.550 4     -2447.953          29.000    20415451.953 5  84940244.489 5     -1903.964          30.000
R20  19893260.625 6 106378200.300 6      2351.160          40.000    19893262.188 7  82738619.378 7      1828.683          47.000
C05  39665975.719 5 206551143.841 5        33.285          34.000    39665972.688 6 159718433.232 6        25.780          37.000
C11  21871064.250 8 113888425.585 8       638.836          51.000    21871063.805 8  88065702.126 8       493.904          51.000
C12  23533364.781 5 122544437.266 5     -2398.281          34.000    23533335.078 5  94758989.295 5     -1854.023          30.000
C24  26045137.500 7 135623924.043 7     -3053.754          42.000
C25  22088059.180 8 115018284.336 8     -1215.371          51.000
E01  23832094.703 8 125238492.396 8      -650.332          51.000    23832097.750 8  95961961.288 8      -498.300          51.000
E26  23180248.312 7 121813055.947 7       254.957          47.000    23180252.727 8  93337320.674 8       195.381          51.000
E33  25391221.562 8 133431810.979 8      2734.266          50.000    25391224.484 8 102239932.455 8      2095.075          50.000
> 2020 05 11 10 35 30.0000000  0 14        .000000000000
G24  24294341.703 6 127667586.563 6     -3673.340          37.000    24294344.945 6  99481219.477 6     -2862.343          38.000
G25  20226684.344 8 106291953.448 8      -557.273          51.000    20226686.133 8  82824888.547 8      -434.239          51.000
G29  20602364.156 8 108266145.843 8      1491.410          51.000    20602364.164 8  84363249.926 8      1162.138          51.000
G32  23061628.664 8 121189684.421 8     -2264.891          48.000    23061631.266 8  94433514.092 8     -1764.853          48.000
R09  19480245.188 8 104023405.447 8      -896.766          51.000    19480246.281 8  80907136.113 8      -697.484          50.000
R20  19880148.406 6 106308086.288 6      2326.020          40.000    19880150.305 7  82684086.312 7      1809.126          46.000
C05  39665796.406 5 206550210.536 5        32.410          34.000    39665793.359 6 159717710.768 6        24.581          37.000
C11  21867441.852 8 113869561.428 8       621.500          50.000    21867441.281 8  88051115.163 8       480.692          51.000
C12  23547219.078 4 122616593.027 4     -2409.984          28.000    23547191.094 5  94814784.628 5     -1862.662          31.000
C24  26062754.484 6 135715659.396 6     -3059.527          41.000
C25  22095108.969 8 115054994.941 8     -1229.316          51.000
E01  23835839.492 8 125258171.157 8      -658.777          51.000    23835842.820 8  95977039.809 8      -504.721          51.000
E26  23178847.422 7 121805693.463 7       238.641          47.000    23178851.977 8  93331679.286 8       182.872          51.000
E33  25375646.992 8 133349965.914 8      2724.812          50.000    25375648.664 8 102177220.053 8      2087.822          49.000
> 2020 05 11 10 36  0.0000000  0 15        .000000000000
G12  21539328.133 5 113189923.323 5     -2199.348          32.000    21539317.312 5  88199937.732 5     -1713.780          33.000
G24  24315320.320 6 127777826.715 6     -3673.008          38.000    24315323.258 6  99567120.831 6     -2862.084          38.000
G25  20229898.359 8 106308843.375 8      -565.629          51.000    20229900.016 8  82838049.524 8      -440.750          51.000
G29  20593895.664 8 108221643.391 8      1478.496          51.000    20593896.039 8  84328572.688 8      1152.075          51.000
G32  23074592.953 7 121257811.089 7     -2274.023          47.000    23074595.500 7  94486599.773 7     -1771.966          47.000
R09  19485332.227 8 104050569.590 8      -911.098          51.000    19485333.602 8  80928263.753 8      -708.632          50.000
R20  19867165.602 6 106238663.159 6      2305.176          40.000    19867167.234 7  82630090.555 7      1792.914          46.000
C05  39665614.273 5 206549261.411 5        34.961          34.000    39665611.141 6 159716978.834 6        26.768          37.000
C11  21863907.023 8 113851154.137 8       608.777          51.000    21863906.445 8  88036881.491 8       470.697          51.000
C24  26080390.516 6 135807495.764 6     -3060.129          41.000
C25  22102226.945 8 115092060.835 8     -1238.664          51.000
E01  23839620.883 8 125278042.527 8      -662.789          51.000    23839624.195 8  95992265.918 8      -507.842          51.000
E13  26777454.531 6 140716476.666 6     -2352.797          40.000
E26  23177527.914 7 121798759.254 7       226.711          46.000    23177532.133 8  93326366.037 8       173.732          51.000
E33  25360114.938 8 133268344.102 8      2719.742          50.000    25360115.898 8 102114678.708 8      2084.021          50.000
> 2020 05 11 10 36 30.0000000  0 17        .000000000000
G02  23194991.883 5 121890504.919 5     -1265.488          34.000
G12  21551909.703 5 113256071.590 5     -2209.273          33.000
G24  24336311.578 5 127888136.794 5     -3678.238          35.000    24336314.359 5  99653076.704 5     -2866.163          34.000
G25  20233173.141 8 106326053.060 8      -579.285          51.000    20233174.891 8  82851459.648 8      -451.394          51.000
G29  20585514.320 8 108177598.283 8      1460.184          51.000    20585514.914 8  84294251.790 8      1137.802          51.000
G32  23087622.164 8 121326279.433 8     -2288.383          49.000    23087624.656 8  94539951.666 8     -1783.155          48.000
R09  19490512.406 8 104078231.426 8      -930.734          51.000    19490513.977 8  80949778.480 8      -723.908          50.000
R20  19854311.258 6 106169927.149 6      2279.227          39.000    19854313.234 7  82576629.220 7      1772.732          47.000
C05                                                                  39665424.820 6 159716228.611 6        24.983          37.000
C11  21860458.711 8 113833197.513 8       590.668          50.000    21860458.266 8  88022996.310 8       456.694          51.000
C12  23575066.961 5 122761537.001 5     -2427.359          31.000    23575090.109 4  94927045.128 4     -1877.544          29.000
C24  26098044.188 6 135899426.125 6     -3066.145          40.000
C25  22109412.227 8 115129475.685 8     -1253.371          51.000
E01  23843437.859 8 125298100.659 8      -672.094          51.000    23843440.859 8  96007635.125 8      -514.987          51.000
E13  26790924.102 6 140787258.563 6     -2363.711          40.000
E26  23176288.555 7 121792246.987 7       209.559          47.000    23176292.820 8  93321376.114 8       160.652          51.000
E33  25344624.719 8 133186940.970 8      2709.461          51.000    25344625.695 8 102052304.913 8      2075.964          51.000
> 2020 05 11 10 37  0.0000000  0 16        .000000000000
G02  23202259.836 5 121928645.957 5     -1281.543          32.000
G24  24357304.617 5 127998456.682 5     -3681.918          35.000    24357307.375 5  99739040.224 5     -2869.030          35.000
G25  20236497.711 8 106343524.436 8      -590.902          51.000    20236499.547 8  82865073.683 8      -460.443          51.000
G29  20577209.242 8 108133952.747 8      1444.008          51.000    20577209.438 8  84260242.270 8      1125.201          51.000
G32  23100704.734 7 121395028.589 7     -2300.512          47.000    23100707.094 7  94593522.380 7     -1792.607          47.000
R09  19495774.867 8 104106332.619 8      -948.410          51.000    19495776.281 8  80971634.957 8      -737.655          49.000
R20  19841574.531 6 106101821.302 6      2255.340          38.000    19841577.539 8  82523658.016 8      1754.153          48.000
C05  39665226.719 5 206547243.716 5        31.883          34.000    39665223.477 6 159715417.799 6        24.856          37.000
C11  21857085.820 8 113815634.078 8       574.688          50.000    21857085.648 8  88009415.150 8       444.361          51.000
C12  23589080.477 5 122834425.883 5     -2437.102          31.000    23589090.891 5  94983407.401 5     -1884.727          35.000
C24  26115704.406 6 135991392.032 6     -3070.328          41.000
C25  22116653.344 8 115167182.054 8     -1265.926          51.000
E01  23847279.484 8 125318287.985 8      -679.332          51.000    23847282.219 8  96023103.327 8      -520.515          51.000
E13  26804427.711 6 140858218.800 6     -2372.621          39.000
E26  23175118.703 8 121786098.727 8       194.605          49.000    23175123.250 8  93316665.096 8       149.128          51.000
E33  25329165.492 8 133105700.231 8      2701.047          50.000    25329166.609 8 101990055.526 8      2069.663          51.000
> 2020 05 11 10 37 30.0000000  0 16        .000000000000
G02  23209609.742 6 121967314.899 6     -1308.848          36.000
G24  24378320.984 5 128108899.199 5     -3695.863          35.000    24378323.211 6  99825099.262 6     -2879.897          36.000
G25  20239893.984 8 106361371.781 8      -613.863          51.000    20239895.781 8  82878980.693 8      -478.335          51.000
G29  20569001.695 8 108090821.569 8      1416.449          51.000    20569001.344 8  84226633.592 8      1103.727          51.000
G32  23113861.703 7 121464170.104 7     -2324.031          47.000    23113864.414 7  94647398.864 7     -1810.936          47.000
R09  19501141.391 8 104134990.069 8      -977.484          51.000    19501143.148 8  80993924.042 8      -760.269          49.000
R20  19828978.219 6 106034464.169 6      2219.871          39.000    19828982.133 8  82471269.135 8      1726.566          49.000
C05  39665032.125 5 206546230.057 5        20.703          34.000    39665028.898 6 159714633.973 6        15.961          37.000
C11  21853810.102 8 113798577.062 8       547.578          50.000    21853810.312 8  87996225.581 8       423.458          51.000
C12  23603152.289 5 122907627.997 5     -2457.477          30.000    23603149.422 5  95040011.850 5     -1900.382          35.000
C24  26133393.258 6 136083505.882 6     -3085.488          41.000
C25  22123972.016 8 115205293.184 8     -1289.773          51.000
E01  23851167.406 8 125338719.302 8      -697.855          51.000    23851170.164 8  96038758.472 8      -534.723          51.000
E13  26817986.562 6 140929469.956 6     -2392.551          39.000    26817985.523 5 107984914.955 5     -1833.298          32.000
E26  23174039.852 8 121780428.723 8       168.320          49.000    23174044.328 8  93312320.551 8       128.916          51.000
E33  25313759.250 8 133024737.896 8      2681.375          50.000    25313760.297 8 101928019.470 8      2054.578          51.000
> 2020 05 11 10 38  0.0000000  0 16        .000000000000
G02  23217062.828 6 122006470.846 6     -1319.289          37.000
G24  24399362.383 6 128219469.975 6     -3693.523          36.000    24399363.508 6  99911258.248 6     -2878.073          37.000
G25  20243363.359 8 106379603.116 8      -620.074          51.000    20243365.008 8  82893186.922 8      -483.175          51.000
G29  20560893.492 8 108048213.505 8      1405.578          51.000    20560892.523 8  84193432.537 8      1095.256          51.000
G32  23127093.859 7 121533709.162 7     -2330.523          46.000    23127097.609 7  94701585.147 7     -1815.992          46.000
R09  19506613.516 8 104164212.408 8      -989.594          50.000    19506615.406 8  81016652.508 8      -769.684          48.000
R20  19816523.930 6 105967866.326 6      2201.020          38.000    19816528.766 8  82419470.815 8      1711.904          50.000
C05  39664845.867 5 206545260.525 5        25.957          34.000    39664842.516 6 159713883.487 6        19.833          37.000
C11  21850632.789 8 113782034.303 8       536.934          49.000    21850633.695 8  87983433.685 8       415.176          51.000
C12                                                                  23617265.625 5  95096940.186 5     -1903.358          30.000
C24  26151112.703 7 136175774.725 7     -3084.082          42.000
C25  22131369.867 8 115243816.938 8     -1296.926          51.000
E01  23855103.258 8 125359403.093 8      -699.723          51.000    23855106.266 8  96054607.067 8      -536.154          51.000
E13  26831601.836 6 141001018.454 6     -2395.988          39.000    26831600.836 5 108039737.829 5     -1836.309          32.000
E26  23173053.555 8 121775244.992 8       158.641          51.000    23173057.719 8  93308348.590 8       121.550          51.000
E33  25298407.570 8 132944063.715 8      2678.301          49.000    25298408.578 8 101866204.185 8      2052.204          50.000
> 2020 05 11 10 38 30.0000000  0 15        .000000000000
G12  21602725.273 6 113523117.428 6     -2250.125          36.000    21602717.625 6  88459519.043 6     -1753.341          36.000
G24  24420461.484 6 128330343.322 6     -3701.031          36.000    24420461.531 6  99997652.982 6     -2883.923          36.000
G25  20246939.266 8 106398394.106 8      -635.805          51.000    20246940.641 8  82907829.240 8      -495.432          51.000
G29  20552918.242 8 108006304.808 8      1385.188          51.000    20552917.250 8  84160776.454 8      1079.367          51.000
G32  23140435.086 7 121603805.729 7     -2346.602          47.000    23140438.664 7  94756220.954 7     -1828.524          47.000
R09  19512224.555 8 104194178.821 8     -1011.395          49.000    19512226.797 8  81039959.670 8      -786.640          48.000
R20  19804245.344 6 105902208.914 6      2172.887          38.000    19804251.109 8  82368403.953 8      1690.023          49.000
C05  39664701.250 5 206544507.226 5        21.539          34.000    39664697.836 6 159713300.953 6        16.513          37.000
C11  21847587.828 8 113766179.949 8       516.941          48.000    21847589.180 8  87971174.088 8       399.665          51.000
C24  26168895.875 6 136268371.791 6     -3092.250          41.000
C25  22138880.359 8 115282927.413 8     -1313.668          51.000
E01  23859120.789 8 125380515.457 8      -710.996          51.000    23859123.883 8  96070784.062 8      -544.759          51.000
E13  26845306.797 6 141073038.307 6     -2408.539          38.000    26845305.797 5 108094921.842 5     -1845.627          32.000
E26  23172193.266 8 121770723.193 8       139.562          51.000    23172197.109 8  93304883.837 8       106.964          51.000
E33  25283143.828 8 132863855.154 8      2665.719          48.000    25283145.391 8 101804745.677 8      2042.576          50.000
> 2020 05 11 10 39  0.0000000  0 16        .000000000000
G12  21615528.938 5 113590432.303 5     -2245.270          34.000    21615527.531 5  88511972.092 5     -1749.567          34.000
G24  24441541.406 6 128441117.564 6     -3691.527          36.000    24441541.633 6 100083970.515 6     -2876.515          36.000
G25  20250545.633 8 106417345.247 8      -635.062          51.000    20250546.844 8  82922596.367 8      -494.854          51.000
G29  20545000.094 8 107964695.963 8      1381.340          51.000    20544999.430 8  84128354.005 8      1076.369          51.000
G32  23153808.719 7 121674083.568 7     -2346.008          47.000    23153812.055 7  94810982.859 7     -1828.058          47.000
R09  19517899.461 8 104224484.003 8     -1016.617          48.000    19517901.922 8  81063530.363 8      -790.702          48.000
R20  19792067.273 6 105837087.728 6      2161.023          39.000    19792072.922 8  82317754.148 8      1680.796          48.000
C05  39664522.289 5 206543575.233 5        33.289          34.000    39664518.836 6 159712580.263 6        25.777          37.000
C11  21844598.867 7 113750617.908 7       513.191          47.000    21844600.773 8  87959140.512 8       396.772          51.000
C24  26186665.781 6 136360900.265 6     -3083.590          41.000
C25  22146427.328 8 115322228.605 8     -1313.875          51.000
E01  23863143.961 8 125401657.378 8      -706.000          51.000    23863146.734 8  96086983.698 8      -540.931          51.000
E13  26859024.750 6 141145128.305 6     -2404.836          38.000    26859024.250 5 108150159.588 5     -1842.478          32.000
E21  27172583.070 5 142792894.707 5     -2291.348          34.000
E26  23171382.883 8 121766463.766 8       136.918          51.000    23171386.375 8  93301620.142 8       104.899          50.000
E33  25267892.898 8 132783714.345 8      2669.453          48.000    25267895.141 8 101743339.077 8      2045.425          49.000
> 2020 05 11 10 39 30.0000000  0 15        .000000000000
G12  21628377.555 6 113657962.128 6     -2259.125          40.000    21628379.008 6  88564592.709 6     -1760.357          40.000
G24  24462635.117 6 128551966.353 6     -3700.848          37.000    24462636.602 6 100170346.139 6     -2883.780          39.000
G25  20254215.789 8 106436631.720 8      -653.020          51.000    20254216.953 8  82937624.796 8      -508.846          51.000
G29  20537172.766 8 107923563.050 8      1358.602          51.000    20537171.914 8  84096302.367 8      1058.651          51.000
G32  23167247.203 7 121744701.923 7     -2364.418          47.000    23167250.602 8  94866010.092 8     -1842.404          48.000
R09  19523671.469 8 104255306.508 8     -1040.734          49.000    19523674.102 8  81087503.391 8      -809.460          50.000
R20  19780023.656 6 105772683.084 6      2130.164          39.000    19780028.758 8  82267661.655 8      1656.794          48.000
C05  39664342.367 5 206542638.337 5        27.188          34.000    39664338.992 6 159711855.804 6        20.594          37.000
C11  21841699.375 7 113735521.848 7       490.891          46.000    21841701.875 8  87947467.288 8       379.555          51.000
C24  26204455.531 6 136453532.976 6     -3094.164          40.000
C25  22154044.227 8 115361894.182 8     -1332.789          51.000
E01  23867206.102 8 125423004.505 8      -719.676          51.000    23867208.508 8  96103340.568 8      -551.404          51.000
E13  26872788.664 6 141217461.993 6     -2419.820          37.000    26872788.742 5 108205584.123 5     -1854.163          31.000
E26  23170655.742 8 121762641.880 8       115.512          51.000    23170659.000 8  93298691.703 8        88.530          50.000
E33  25252689.031 8 132703818.199 8      2654.562          49.000    25252691.406 8 101682119.960 8      2033.926          49.000
> 2020 05 11 10 40  0.0000000  0 15        .000000000000
G12  21641271.930 5 113725729.747 5     -2262.008          32.000    21641274.828 5  88617398.612 5     -1762.607          32.000
G24  24483746.891 6 128662910.864 6     -3698.430          36.000    24483749.508 6 100256796.346 6     -2881.893          37.000
G25  20257954.102 8 106456276.559 8      -659.641          51.000    20257955.281 8  82952932.458 8      -514.006          51.000
G29  20529440.555 8 107882929.382 8      1347.180          51.000    20529439.578 8  84064639.766 8      1049.750          51.000
G32  23180754.094 8 121815681.081 8     -2370.969          48.000    23180757.977 8  94921318.497 8     -1847.508          48.000
R09  19529545.008 8 104286670.165 8     -1053.359          50.000    19529547.773 8  81111897.328 8      -819.280          50.000
R20  19768118.773 6 105709020.490 6      2110.875          39.000    19768123.406 7  82218146.324 7      1641.792          47.000
C05  39664165.867 5 206541719.523 5        31.531          34.000    39664162.586 6 159711145.289 6        24.234          37.000
C11  21838894.086 7 113720914.455 7       479.812          46.000    21838896.625 8  87936171.912 8       370.967          51.000
C24  26222269.375 6 136546291.828 6     -3092.805          39.000
C25  22161735.992 8 115401946.888 8     -1340.488          51.000
E01  23871311.758 8 125444580.390 8      -722.027          51.000    23871314.008 8  96119872.716 8      -553.215          51.000
E13  26886602.773 5 141290060.767 5     -2423.234          35.000    26886602.516 5 108261208.696 5     -1856.890          30.000
E26  23170016.195 8 121759280.577 8       105.371          51.000    23170019.391 8  93296116.167 8        80.703          49.000
E33  25237536.688 8 132624191.533 8      2650.656          49.000    25237539.258 8 101621107.318 8      2031.079          50.000
> 2020 05 11 10 40 30.0000000  0 16        .000000000000
G12  21654205.242 6 113793699.102 6     -2269.250          36.000    21654206.031 5  88670361.654 5     -1768.247          35.000
G24  24504869.805 6 128773959.463 6     -3701.195          36.000    24504873.820 5 100343291.807 5     -2884.048          34.000
G25  20261753.953 8 106476244.603 8      -671.109          51.000    20261755.125 8  82968491.973 8      -522.942          51.000
G29  20521796.867 8 107842760.088 8      1331.262          51.000    20521795.828 8  84033339.032 8      1037.347          51.000
G32  23194322.391 7 121886983.017 7     -2381.961          47.000    23194326.828 8  94976878.417 8     -1856.073          48.000
R09  19535513.836 8 104318540.047 8     -1070.754          50.000    19535515.844 8  81136685.025 8      -832.809          50.000
R19  20573628.852 4 110054983.464 4     -2675.234          28.000
R20  19756346.391 6 105646066.608 6      2086.562          39.000    19756350.805 7  82169182.212 7      1622.882          47.000
C05  39663986.164 5 206540784.049 5        30.676          34.000    39663982.953 6 159710421.850 6        24.355          37.000
C11  21836175.906 7 113706760.724 7       464.270          46.000    21836178.500 8  87925227.337 8       358.994          51.000
C24  26240099.242 6 136639141.019 6     -3096.391          36.000
C25  22169495.781 8 115442351.718 8     -1352.727          51.000
E01  23875454.484 8 125466350.265 8      -728.922          51.000    23875456.625 8  96136553.511 8      -558.522          51.000
E13  26900460.352 5 141362875.744 5     -2431.477          34.000
E26  23169457.383 8 121756344.539 8        90.746          50.000    23169460.844 8  93293866.505 8        69.566          48.000
E33  25222429.016 8 132544800.769 8      2642.418          49.000    25222432.320 8 101560275.476 8      2024.722          50.000
> 2020 05 11 10 41  0.0000000  0 14        .000000000000
G12  21667180.914 5 113861887.436 5     -2275.934          32.000    21667180.586 5  88723495.421 5     -1773.455          34.000
G24  24526007.148 6 128885036.346 6     -3703.883          38.000    24526012.727 6 100429845.223 6     -2886.142          38.000
G25  20265618.641 8 106496553.281 8      -682.809          51.000    20265619.844 8  82984316.905 8      -532.059          51.000
G29  20514244.883 8 107803073.247 8      1314.793          51.000    20514243.586 8  84002414.234 8      1024.514          51.000
G32  23207954.969 7 121958622.501 7     -2393.586          47.000    23207959.406 7  95032701.353 7     -1865.132          47.000
R09  19541580.531 8 104350934.271 8     -1088.738          50.000    19541582.266 8  81161880.518 8      -846.796          51.000
R20  19744710.305 6 105583841.185 6      2061.727          39.000    19744714.477 7  82120784.675 7      1603.565          47.000
C05                                                                  39663803.539 6 159709699.072 6        23.844          37.000
C11  21833548.211 7 113693077.945 7       448.043          47.000    21833550.852 8  87914646.951 8       346.485          51.000
C24  26257949.047 6 136732097.015 6     -3100.586          36.000
C25  22177326.312 8 115483126.042 8     -1365.508          51.000
E01  23879637.719 8 125488332.155 8      -736.441          51.000    23879639.680 8  96153396.760 8      -564.214          51.000
E26  23168983.086 8 121753851.240 8        75.578          50.000    23168986.453 7  93291956.067 7        57.905          46.000
E33  25207369.734 8 132465665.188 8      2633.473          48.000    25207373.438 8 101499639.148 8      2017.886          51.000
> 2020 05 11 10 41 30.0000000  0 14        .000000000000
G02  23271789.961 6 122294054.825 6     -1424.469          37.000
G24  24547156.234 6 128996176.654 6     -3707.445          38.000    24547164.383 5 100516448.062 5     -2888.918          35.000
G25  20269546.414 8 106517193.810 8      -695.594          51.000    20269547.820 8  83000400.418 8      -542.018          51.000
G29  20506782.688 8 107763860.321 8      1297.129          51.000    20506781.367 8  83971858.728 8      1010.753          51.000
G32  23221649.656 8 122030587.776 8     -2406.320          48.000    23221653.422 8  95088778.139 8     -1875.058          48.000
R09  19547744.109 8 104383844.488 8     -1107.617          51.000    19547745.602 8  81187477.343 8      -861.480          50.000
R20  19733208.680 6 105522337.464 6      2035.938          38.000    19733212.766 7  82072948.478 7      1583.507          46.000
C05  39663625.758 5 206538906.637 5        29.828          35.000    39663622.477 6 159708970.107 6        22.787          37.000
C11  21831009.781 8 113679857.181 8       431.016          49.000    21831011.773 8  87904423.827 8       333.258          51.000
C24  26275818.352 6 136825150.082 6     -3105.422          37.000
C25  22185226.008 8 115524260.931 8     -1379.141          51.000
E01  23883859.516 8 125510517.614 8      -744.871          51.000    23883861.281 8  96170396.008 8      -570.727          51.000
E26  23168591.094 8 121751791.651 8        59.430          49.000    23168593.805 7  93290377.960 7        45.624          45.000
E33  25192357.742 8 132386777.583 8      2623.508          50.000    25192361.156 8 101439192.843 8      2010.175          51.000
> 2020 05 11 10 42  0.0000000  0 14        .000000000000
G02  23279956.883 5 122336972.938 5     -1438.148          34.000    23279949.828 5  95327501.901 5     -1120.635          33.000
G24  24568318.594 6 129107387.628 6     -3707.355          37.000    24568331.188 5 100603105.834 5     -2888.855          33.000
G25  20273539.250 8 106538176.051 8      -704.758          51.000    20273540.781 8  83016750.192 8      -549.162          51.000
G29  20499412.688 8 107725131.659 8      1283.344          51.000    20499411.531 8  83941680.571 8      1000.008          51.000
G32  23235407.727 8 122102885.915 8     -2415.203          49.000    23235410.852 8  95145114.294 8     -1881.980          49.000
R09  19554005.789 8 104417281.070 8     -1123.023          51.000    19554007.289 8  81213483.533 8      -873.466          50.000
R20  19721843.953 6 105461567.224 6      2013.711          38.000    19721848.133 7  82025682.765 7      1566.223          46.000
C05                                                                  39663441.859 6 159708242.777 6        24.415          37.000
C11  21828562.000 8 113667108.107 8       417.559          49.000    21828563.164 8  87894565.442 8       322.910          51.000
C24  26293709.023 6 136918309.375 6     -3106.652          39.000
C25  22193197.094 8 115565766.121 8     -1389.266          51.000
E01  23888121.859 8 125532917.067 8      -749.742          51.000    23888123.750 8  96187559.215 8      -574.517          51.000
E26  23168283.352 8 121750175.663 8        46.957          49.000    23168285.984 7  93289139.758 7        35.998          45.000
E33  25177395.711 8 132308149.567 8      2617.020          50.000    25177398.148 8 101378945.433 8      2005.285          51.000
> 2020 05 11 10 42 30.0000000  0 14        .000000000000
G02  23288213.000 6 122380359.627 6     -1453.617          36.000
G24  24589495.562 6 129218669.826 6     -3710.176          37.000    24589506.695 5 100689923.524 5     -2891.034          32.000
G25  20277597.906 8 106559504.220 8      -716.191          51.000    20277599.352 8  83033369.537 8      -558.071          51.000
G29  20492135.734 8 107686891.795 8      1267.125          51.000    20492135.039 8  83911883.295 8       987.373          51.000
G32  23249229.234 8 122175518.311 8     -2425.969          49.000    23249232.102 8  95201710.918 8     -1890.368          49.000
R09  19560366.930 8 104451248.872 8     -1140.520          51.000    19560368.055 8  81239902.921 8      -887.074          49.000
R20  19710617.828 6 105401537.076 6      1989.105          39.000    19710622.172 7  81978992.661 7      1547.082          47.000
C05  39663265.820 5 206537031.733 5        31.719          35.000    39663262.430 6 159707520.245 6        24.666          37.000
C11  21826205.414 8 113654834.679 8       401.828          51.000    21826205.867 8  87885074.876 8       310.773          51.000
C24  26311620.695 6 137011577.967 6     -3110.324          39.000
C25  22201240.203 8 115607645.745 8     -1401.641          51.000
E01  23892425.711 8 125555535.214 8      -757.012          51.000    23892428.000 8  96204889.980 8      -580.006          51.000
E26  23168061.148 7 121749007.383 7        32.074          47.000    23168064.242 7  93288244.601 7        24.600          45.000
E33  25162484.625 8 132229787.081 8      2608.250          51.000    25162485.805 8 101318901.482 8      1998.568          51.000
> 2020 05 11 10 43  0.0000000  0 14        .000000000000
G02  23296556.281 6 122424203.532 6     -1469.965          36.000
G24  24610684.656 6 129330018.604 6     -3713.605          36.000    24610692.562 5 100776688.788 5     -2893.728          30.000
G25  20281720.445 8 106581168.530 8      -728.156          51.000    20281721.977 8  83050250.795 8      -567.394          51.000
G29  20484950.086 8 107649131.486 8      1250.316          51.000    20484949.898 8  83882459.693 8       974.273          51.000
G32  23263111.875 8 122248472.319 8     -2437.422          50.000    23263114.867 8  95258558.166 8     -1899.290          50.000
R09  19566825.484 8 104485738.391 8     -1158.758          51.000    19566827.133 8  81266728.047 8      -901.256          49.000
R20  19699528.922 6 105342239.095 6      1963.984          39.000    19699533.031 7  81932872.015 7      1527.540          47.000
C05                                                                  39663082.430 6 159706795.259 6        23.920          37.000
C11  21823938.430 8 113643027.020 8       385.527          51.000    21823938.070 8  87875944.458 8       298.160          51.000
C24  26329551.148 6 137104945.339 6     -3114.168          40.000
C25  22209353.102 8 115649889.931 8     -1414.547          51.000
E01  23896769.562 8 125578362.690 8      -764.785          51.000    23896772.055 8  96222381.159 8      -586.040          51.000
E26  23167921.852 7 121748276.833 7        16.680          46.000    23167925.547 7  93287684.863 7        12.798          46.000
E33  25147622.391 8 132151681.971 8      2598.832          51.000    25147622.766 8 101259054.747 8      1991.280          51.000
> 2020 05 11 10 43 30.0000000  0 14        .000000000000
G02  23304989.617 5 122468518.954 5     -1485.625          31.000
G24  24631888.195 6 129441442.791 6     -3715.684          36.000    24631893.312 5 100863512.725 5     -2895.344          33.000
G25  20285909.914 8 106603183.947 8      -739.457          51.000    20285911.461 8  83067405.650 8      -576.200          51.000
G29  20477858.758 8 107611865.856 8      1234.133          51.000    20477858.836 8  83853421.532 8       961.662          51.000
G32  23277057.977 8 122321760.106 8     -2448.398          49.000    23277061.281 8  95315665.499 8     -1907.843          49.000
R09  19573384.703 8 104520765.296 8     -1176.344          51.000    19573386.656 8  81293971.147 8      -914.937          49.000
R20  19688580.047 6 105283690.033 6      1939.371          38.000    19688584.172 8  81887333.879 8      1508.403          48.000
C05  39662908.055 5 206535169.394 5        31.047          34.000    39662904.633 6 159706079.384 6        23.926          37.000
C11  21821763.461 8 113631699.925 8       369.727          51.000    21821762.688 8  87867185.655 8       285.959          51.000
C24  26347503.070 6 137198425.407 6     -3117.516          40.000
C25  22217538.930 8 115692513.507 8     -1426.973          51.000
E01  23901156.523 8 125601415.022 8      -771.957          51.000    23901158.867 8  96240044.612 8      -591.467          51.000
E26  23167868.375 7 121747998.901 7         1.926          45.000    23167872.836 7  93287471.916 7         1.544          47.000
E33  25132811.844 8 132073850.985 8      2589.977          51.000    25132812.344 8 101199418.033 8      1984.539          51.000
> 2020 05 11 10 44  0.0000000  0 12        .000000000000
G24  24653100.023 6 129552909.401 6     -3716.805          37.000    24653101.898 5 100950369.767 5     -2896.218          33.000
G25  20290160.219 8 106625519.159 8      -750.266          51.000    20290161.734 8  83084809.691 8      -584.623          51.000
G29  20470855.578 8 107575063.855 8      1218.516          51.000    20470855.891 8  83824744.644 8       949.493          51.000
G32  23291061.102 8 122395347.448 8     -2458.340          49.000    23291064.477 8  95373006.241 8     -1915.589          48.000
R09  19580038.719 8 104556298.226 8     -1193.336          50.000    19580040.609 8  81321607.860 8      -928.150          49.000
R20  19677765.445 6 105225860.725 6      1915.129          39.000    19677770.070 8  81842355.557 8      1489.545          48.000
C05  39662726.648 5 206534224.401 5        31.871          34.000    39662723.188 6 159705349.644 6        23.896          37.000
C11  21819674.531 8 113620822.002 8       354.668          51.000    21819673.555 8  87858774.171 8       274.279          51.000
C25  22225791.383 8 115735485.214 8     -1438.652          51.000
E01  23905580.195 8 125624661.280 8      -778.562          51.000    23905582.781 8  96257856.658 8      -596.522          51.000
E26  23167895.406 7 121748142.095 7       -12.254          45.000    23167900.234 8  93287581.618 8        -9.383          48.000
E33  25118047.289 8 131996264.430 8      2581.648          50.000    25118048.398 8 101139968.597 8      1978.110          51.000
> 2020 05 11 10 44 30.0000000  0 13        .000000000000
G24  24674325.180 5 129664447.532 5     -3720.496          32.000    24674344.922 4 101037316.077 4     -2899.088          28.000
G25  20294477.164 8 106648204.806 8      -763.012          51.000    20294478.742 8  83102486.798 8      -594.555          51.000
G29  20463946.508 8 107538756.430 8      1201.027          51.000    20463946.750 8  83796453.142 8       935.865          51.000
G32  23305126.469 7 122469262.128 7     -2470.145          46.000    23305129.695 7  95430602.064 7     -1924.788          47.000
R09  19586793.117 8 104592368.887 8     -1212.289          49.000    19586795.297 8  81349662.802 8      -942.895          50.000
R20  19667091.688 6 105168783.649 6      1888.816          39.000    19667096.367 8  81797962.295 8      1469.082          48.000
C05  39662547.281 5 206533290.757 5        29.695          34.000    39662543.977 6 159704627.609 6        23.388          37.000
C11  21817677.641 8 113610423.557 8       337.637          51.000    21817676.469 8  87850733.451 8       261.097          51.000
C12  23805585.422 4 123961929.579 4     -2570.328          29.000
C25  22234116.477 8 115778835.313 8     -1452.246          51.000
E01  23910046.445 8 125648132.639 8      -787.168          51.000    23910049.344 8  96275841.182 8      -603.149          51.000
E26  23168008.289 7 121748736.877 7       -28.285          45.000    23168013.133 8  93288037.352 8       -21.634          49.000
E33  25103335.227 8 131918954.604 8      2571.402          50.000    25103337.102 8 101080731.192 8      1970.262          51.000
> 2020 05 11 10 45  0.0000000  0 14        .000000000000
G12  21772470.703 5 114415127.209 5     -2334.660          33.000
G24  24695564.203 5 129776065.737 5     -3721.172          32.000    24695562.789 5 101124196.135 5     -2899.614          31.000
G25  20298862.742 8 106671251.136 8      -773.891          51.000    20298864.375 8  83120444.972 8      -603.032          51.000
G29  20457133.773 8 107502954.389 8      1185.285          51.000    20457133.383 8  83768555.446 8       923.599          51.000
G32  23319255.445 7 122543511.538 7     -2480.199          47.000    23319258.477 7  95488458.733 7     -1932.623          47.000
R09  19593650.602 8 104628987.838 8     -1229.512          50.000    19593653.094 8  81378144.181 8      -956.287          50.000
R20  19656560.555 6 105112471.382 6      1864.285          38.000    19656565.336 8  81754163.886 8      1450.000          48.000
C05  39662372.219 5 206532379.555 5        30.711          34.000    39662368.898 6 159703923.246 6        23.494          37.000
C11  21815774.766 8 113600514.528 8       322.508          50.000    21815773.484 8  87843071.171 8       249.362          51.000
C12  23820417.031 4 124039161.343 4     -2579.426          27.000    23820423.016 5  95914972.020 5     -1994.032          31.000
C25  22242516.141 8 115822573.818 8     -1464.078          51.000
E01  23914557.664 8 125671839.828 8      -793.840          51.000    23914560.656 8  96294006.410 8      -608.258          51.000
E26  23168209.391 7 121749793.403 7       -42.500          47.000    23168214.062 8  93288846.867 8       -32.538          50.000
E33  25088678.492 8 131841933.440 8      2562.859          51.000    25088680.570 8 101021714.968 8      1963.788          51.000
> 2020 05 11 10 45 30.0000000  0 14        .000000000000
G12  21785782.180 6 114485082.441 6     -2355.750          38.000    21785804.141 5  89209222.746 5     -1835.658          31.000
G24  24716775.781 5 129887532.499 5     -3737.676          31.000    24716780.531 5 101211083.725 5     -2912.475          30.000
G25  20303276.445 8 106694445.441 8      -799.551          51.000    20303278.117 8  83138518.446 8      -623.027          51.000
G29  20450376.852 8 107467445.380 8      1154.633          51.000    20450376.023 8  83740886.085 8       899.714          51.000
G32  23333407.352 8 122617880.207 8     -2504.996          48.000    23333410.273 8  95546408.323 8     -1951.945          48.000
R09  19600570.531 8 104665939.681 8     -1261.641          50.000    19600572.750 8  81406884.501 8      -981.279          50.000
R20  19646132.469 6 105056709.060 6      1825.195          38.000    19646137.281 8  81710793.177 8      1419.596          48.000
C05  39662160.867 5 206531278.433 5        15.949          34.000    39662157.461 6 159703071.745 6        12.318          37.000
C11  21813925.016 8 113590883.874 8       292.516          49.000    21813924.016 8  87835624.150 8       226.192          51.000
C12                                                                  23835263.125 5  95974736.142 5     -2011.382          32.000
C25  22250949.703 8 115866489.893 8     -1490.719          51.000
E01  23919073.586 8 125695570.665 8      -815.480          51.000    23919076.539 8  96312189.778 8      -624.864          51.000
E26  23168457.883 7 121751098.756 7       -71.723          46.000    23168462.555 8  93289847.074 8       -54.998          51.000
E33  25074036.812 8 131764989.970 8      2539.441          51.000    25074038.445 8 100962758.301 8      1945.737          50.000
> 2020 05 11 10 46  0.0000000  0 14        .000000000000
G12  21799203.586 6 114555611.201 6     -2348.055          39.000    21799220.594 6  89264180.017 6     -1829.665          36.000
G24  24738068.164 5 129999431.276 5     -3724.387          34.000    24738074.289 5 101298277.452 5     -2902.123          34.000
G25  20307823.406 8 106718340.241 8      -795.453          51.000    20307825.250 8  83157137.753 8      -619.834          51.000
G29  20443780.586 8 107432781.991 8      1154.020          51.000    20443779.891 8  83713875.656 8       899.236          51.000
G32  23347686.727 8 122692917.747 8     -2499.777          48.000    23347689.750 8  95604879.081 8     -1947.878          48.000
R09  19607658.023 8 104703785.902 8     -1263.609          50.000    19607660.289 8  81436320.438 8      -982.807          50.000
R20  19635912.289 6 105002060.853 6      1815.996          37.000    19635917.781 8  81668289.042 8      1412.441          49.000
C05  39662018.266 5 206530535.846 5        31.176          34.000    39662014.938 6 159702497.500 6        24.171          38.000
C11  21812233.922 8 113582078.795 8       292.254          50.000    21812233.141 8  87828815.499 8       226.022          51.000
C12                                                                  23850218.625 5  96034965.737 5     -2005.534          32.000
C25  22259521.945 8 115911130.778 8     -1487.477          51.000
E01  23923699.367 8 125719878.104 8      -807.199          51.000    23923702.203 8  96330814.939 8      -618.470          51.000
E26  23168858.570 7 121753205.186 7       -70.805          47.000    23168863.305 8  93291461.086 8       -54.268          51.000
E33  25059515.359 8 131688678.283 8      2545.914          51.000    25059516.141 8 100904285.732 8      1950.822          48.000
> 2020 05 11 10 46 30.0000000  0 14        .000000000000
G12  21812615.969 7 114626092.450 7     -2351.789          42.000    21812632.148 4  89319100.461 4     -1832.551          27.000
G24  24759321.836 6 130111123.276 6     -3722.309          36.000    24759328.570 6 101385310.119 6     -2900.500          36.000
G25  20312385.578 8 106742314.778 8      -803.691          51.000    20312387.336 8  83175819.206 8      -626.253          51.000
G29  20437227.133 8 107398343.778 8      1141.004          51.000    20437226.383 8  83687040.648 8       889.094          51.000
G32  23361974.766 8 122768000.526 8     -2506.734          48.000    23361978.047 8  95663385.079 8     -1953.303          48.000
R09  19614794.898 8 104741896.224 8     -1277.906          50.000    19614797.000 8  81465961.783 8      -993.927          50.000
R20  19625783.141 6 104947896.896 6      1794.234          37.000    19625788.680 8  81626161.501 8      1395.516          48.000
C05  39661826.508 5 206529537.862 5        34.719          34.000    39661823.242 6 159701724.989 6        26.702          37.000
C11  21810583.445 8 113573484.031 8       279.867          50.000    21810582.898 8  87822169.468 8       216.438          51.000
C12                                                                  23865171.406 5  96095183.851 5     -2009.201          31.000
C25  22268115.102 8 115955881.315 8     -1496.723          51.000
E01  23928316.594 8 125744141.911 8      -811.242          51.000    23928319.625 8  96349406.668 8      -621.556          51.000
E26  23169294.070 8 121755491.881 8       -82.309          48.000    23169298.461 8  93293213.211 8       -63.151          51.000
E33  25044996.078 8 131612379.342 8      2539.949          50.000    25044995.328 7 100845822.963 7      1946.279          46.000
> 2020 05 11 10 47  0.0000000  0 14        .000000000000
G12  21826078.742 6 114696839.050 6     -2363.410          37.000    21826084.938 6  89374227.674 6     -1841.624          37.000
G24  24780596.031 6 130222920.322 6     -3728.352          36.000    24780602.758 5 101472424.586 5     -2905.215          35.000
G25  20317022.562 8 106766682.334 8      -819.254          51.000    20317024.203 8  83194806.918 8      -638.380          51.000
G29  20430776.156 8 107364444.047 8      1120.516          50.000    20430775.320 8  83660625.240 8       873.129          50.000
G32  23376330.477 8 122843438.977 8     -2520.926          49.000    23376333.938 8  95722168.258 8     -1964.358          49.000
R09  19622041.039 8 104780589.264 8     -1299.926          51.000    19622043.039 8  81496056.354 8     -1011.053          50.000
R20  19615804.820 6 104894537.656 6      1764.758          39.000    19615810.234 8  81584659.863 8      1372.589          48.000
C05  39661645.133 5 206528593.171 5        30.488          34.000    39661641.797 6 159700994.493 6        23.216          38.000
C11  21809032.695 8 113565409.710 8       260.031          49.000    21809032.664 8  87815925.895 8       201.091          51.000
C12                                                                  23880181.531 5  96155629.000 5     -2019.217          31.000
C25  22276789.039 8 116001051.738 8     -1513.113          51.000
E01  23932985.234 8 125768675.801 8      -822.707          51.000    23932988.375 8  96368205.349 8      -630.401          51.000
E26  23169823.352 8 121758271.790 8      -101.266          48.000    23169827.539 8  93295343.287 8       -77.614          51.000
E33  25030538.812 8 131536408.118 8      2526.445          48.000    25030536.609 7 100787611.309 7      1935.940          46.000
> 2020 05 11 10 47 30.0000000  0 15        .000000000000
G02  23375544.109 5 122839302.751 5     -1604.352          33.000
G12  21839580.383 6 114767789.055 6     -2368.941          41.000    21839584.141 6  89429513.247 6     -1845.931          40.000
G24  24801878.758 5 130334759.190 5     -3728.551          34.000    24801885.711 5 101559571.642 5     -2905.370          32.000
G25  20321722.594 8 106791381.388 8      -828.918          51.000    20321724.258 8  83214052.940 8      -645.910          51.000
G29  20424415.766 8 107331021.858 8      1105.996          50.000    20424415.102 8  83634581.969 8       861.815          50.000
G32  23390741.578 8 122919168.613 8     -2529.434          49.000    23390745.180 8  95781178.332 8     -1970.990          50.000
R09  19629384.781 8 104819803.053 8     -1315.965          51.000    19629386.695 8  81526555.951 8     -1023.528          49.000
R20  19605966.203 6 104841922.248 6      1741.160          40.000    19605971.141 8  81543736.794 8      1354.239          49.000
C05  39661462.359 5 206527641.902 5        31.504          34.000    39661459.141 6 159700258.864 6        24.246          38.000
C11  21807570.320 8 113557794.600 8       245.832          50.000    21807570.398 8  87810037.409 8       189.966          51.000
C12                                                                  23895238.141 5  96216252.424 5     -2024.195          30.000
C25  22285532.312 8 116046580.895 8     -1523.863          51.000
E01  23937693.828 8 125793418.782 8      -828.633          51.000    23937696.695 8  96387164.240 8      -634.920          51.000
E26  23170434.617 8 121761483.276 8      -114.629          50.000    23170438.695 8  93297804.024 8       -87.821          51.000
E33  25016132.133 7 131460704.721 7      2518.668          47.000    25016130.602 7 100729604.871 7      1929.841          47.000
> 2020 05 11 10 48  0.0000000  0 16        .000000000000
G02  23384717.938 5 122887534.377 5     -1621.992          33.000
G12  21853097.883 6 114838822.116 6     -2378.039          38.000    21853100.492 6  89484863.609 6     -1853.017          39.000
G14  22991894.086 6 120823270.553 6     -1130.684          36.000
G24  24823146.602 5 130446518.512 5     -3733.211          33.000    24823153.805 5 101646656.720 5     -2909.005          32.000
G25  20326463.039 8 106816292.624 8      -842.906          51.000    20326464.578 8  83233464.301 8      -656.810          51.000
G29  20418123.883 8 107297958.067 8      1087.227          51.000    20418123.070 8  83608817.985 8       847.190          51.000
G32  23405184.680 8 122995067.252 8     -2541.645          49.000    23405188.445 8  95840320.078 8     -1980.502          49.000
R09  19636803.531 8 104859416.579 8     -1336.199          51.000    19636805.266 8  81557366.435 8     -1039.266          49.000
R20  19596243.891 6 104789930.869 6      1713.434          40.000    19596248.305 8  81503299.087 8      1332.671          48.000
C05  39661255.789 5 206526565.814 5        28.887          34.000    39661252.477 6 159699426.731 6        22.461          37.000
C11  21806173.531 8 113550519.978 8       227.973          50.000    21806173.516 8  87804412.182 8       176.358          51.000
C12                                                                  23910316.656 5  96276961.405 5     -2031.408          31.000
C25  22294321.891 8 116092350.365 8     -1538.445          51.000
E01  23942419.547 8 125818251.950 8      -838.086          51.000    23942422.133 8  96406192.230 8      -642.182          51.000
E26  23171105.383 8 121765006.692 8      -131.414          49.000    23171109.141 8  93300503.767 8      -100.781          51.000
E33  25001754.148 8 131385151.452 8      2507.109          48.000    25001754.641 8 100671713.417 8      1920.987          49.000
> 2020 05 11 10 48 30.0000000  0 15        .000000000000
G12  21866713.539 6 114910369.270 6     -2393.438          38.000    21866710.797 6  89540614.612 6     -1865.016          38.000
G14  22998416.352 4 120857560.142 4     -1156.078          29.000
G25  20331325.945 8 106841847.215 8      -862.328          51.000    20331327.562 8  83253376.977 8      -671.944          51.000
G29  20411982.469 8 107265683.918 8      1062.773          51.000    20411981.352 8  83583669.311 8       828.135          51.000
G32  23419741.289 7 123071563.236 7     -2559.656          47.000    23419745.164 8  95899927.298 8     -1994.540          48.000
R09  19644379.055 8 104899868.242 8     -1362.215          51.000    19644380.766 8  81588828.815 8     -1059.500          49.000
R20  19586720.555 6 104739003.952 6      1680.117          41.000    19586724.586 8  81463689.281 8      1306.761          48.000
C05                                                                  39661104.008 6 159698828.653 6        16.106          37.000
C11  21804924.062 8 113544013.051 8       204.355          50.000    21804924.273 8  87799380.625 8       158.012          51.000
C12  23925498.172 4 124586349.047 4     -2642.668          29.000    23925497.039 5  96338084.880 5     -2044.046          31.000
C25  22303239.734 8 116138787.221 8     -1558.836          51.000
E01  23947244.461 8 125843607.075 8      -853.660          51.000    23947246.922 8  96425620.160 8      -654.106          51.000
E13                                                                  27128262.250 5 109234267.656 5     -1964.384          34.000
E26  23171917.188 8 121769273.011 8      -154.309          48.000    23171920.820 8  93303772.757 8      -118.263          50.000
E33  24987487.609 8 131310181.187 8      2489.488          49.000    24987490.000 8 100614268.678 8      1907.491          51.000
> 2020 05 11 10 49  0.0000000  0 14        .000000000000
G12  21880319.734 5 114981867.491 5     -2390.059          31.000    21880315.125 5  89596327.540 5     -1862.383          30.000
G25  20336204.273 8 106867482.479 8      -863.395          51.000    20336205.875 8  83273352.498 8      -672.775          51.000
G29  20405884.133 8 107233636.887 8      1056.754          51.000    20405882.984 8  83558697.639 8       823.448          51.000
G32  23434303.758 7 123148090.944 7     -2559.094          47.000    23434307.492 7  95959559.247 7     -1994.099          47.000
R09  19652004.281 8 104940586.409 8     -1369.566          51.000    19652006.102 8  81620498.478 8     -1065.218          49.000
R20  19577289.617 6 104688570.475 6      1665.133          41.000    19577293.281 8  81424463.286 8      1295.106          48.000
C05  39660909.930 5 206524764.183 5        30.957          34.000    39660906.594 6 159698033.590 6        23.902          37.000
C11  21803714.844 8 113537715.877 8       198.801          51.000    21803715.234 8  87794511.256 8       153.756          51.000
C12  23940672.297 4 124665364.644 4     -2640.730          28.000    23940671.977 5  96399190.090 5     -2042.563          32.000
C25  22312178.727 8 116185333.722 8     -1560.977          51.000
E01  23952061.773 8 125868921.856 8      -850.840          51.000    23952064.031 8  96445017.175 8      -651.906          51.000
E13  27142840.422 5 142636593.776 5     -2561.070          32.000    27142844.164 5 109292981.978 5     -1962.504          34.000
E26  23172763.102 8 121773719.279 8      -158.871          48.000    23172767.039 8  93307179.628 8      -121.735          49.000
E33  24973225.492 8 131235232.783 8      2490.188          49.000    24973229.156 8 100556840.688 8      1908.078          51.000
> 2020 05 11 10 49 30.0000000  0 13        .000000000000
G25  20341185.688 8 106893659.540 8      -871.254          51.000    20341187.094 8  83293750.210 8      -678.899          51.000
G29  20399916.742 8 107202278.382 8      1044.094          51.000    20399916.109 8  83534262.475 8       813.580          51.000
G32  23448959.641 7 123225108.639 7     -2565.184          47.000    23448963.008 7  96019572.993 7     -1998.844          47.000
R09  19659767.219 8 104982040.088 8     -1383.598          51.000    19659769.109 8  81652740.194 8     -1076.135          49.000
R20  19568039.031 6 104639101.336 6      1643.227          41.000    19568042.023 7  81385987.307 7      1278.065          46.000
C05  39660751.406 5 206523939.460 5        34.273          34.000    39660748.086 6 159697395.069 6        26.496          37.000
C11  21802633.555 8 113532084.955 8       186.801          50.000    21802633.875 8  87790157.052 8       144.594          51.000
C12                                                                  23955930.289 5  96460629.071 5     -2045.880          30.000
C25  22321226.609 8 116232446.555 8     -1569.656          51.000
E01  23956959.211 8 125894657.923 8      -854.512          51.000    23956961.375 8  96464737.006 8      -654.726          51.000
E13                                                                  27157505.594 5 109352015.959 5     -1965.569          33.000
E26  23173731.195 8 121778806.321 8      -169.953          48.000    23173735.188 7  93311077.496 7      -130.206          47.000
E33  24959055.734 8 131160769.046 8      2484.434          49.000    24959060.023 8 100499784.072 8      1903.606          51.000
> 2020 05 11 10 50  0.0000000  0 13        .000000000000
G25  20346199.305 8 106920006.151 8      -886.934          51.000    20346200.586 8  83314280.044 8      -691.114          51.000
G29  20394009.703 8 107171236.443 8      1023.504          51.000    20394009.516 8  83510073.950 8       797.536          51.000
G32  23463637.547 7 123302241.131 7     -2578.891          47.000    23463640.398 7  96079676.188 7     -2009.525          47.000
R09  19667597.188 8 105023851.204 8     -1405.582          51.000    19667599.023 8  81685259.921 8     -1093.230          50.000
R20  19558898.172 6 104590219.063 6      1613.465          40.000    19558900.289 7  81347967.743 7      1254.914          46.000
C05  39660560.727 5 206522946.429 5        29.633          34.000    39660557.734 6 159696627.928 6        23.292          37.000
C11  21801609.133 8 113526751.154 8       167.027          50.000    21801609.680 8  87786032.629 8       129.135          51.000
C12                                                                  23971201.391 4  96522115.004 4     -2054.624          29.000
C25  22330312.305 8 116279756.691 8     -1586.203          51.000
E01  23961865.961 8 125920443.573 8      -866.305          51.000    23961867.977 8  96484494.813 8      -663.747          51.000
E13                                                                  27172175.500 5 109411083.064 5     -1973.830          31.000
E26  23174750.562 7 121784161.692 7      -188.879          47.000    23174754.094 7  93315180.933 7      -144.722          45.000
E33  24944907.602 8 131086419.380 8      2470.512          49.000    24944912.016 8 100442814.835 8      1893.031          51.000
> 2020 05 11 10 50 30.0000000  0 11        .000000000000
G25  20351321.109 8 106946921.667 8      -910.578          51.000    20351322.359 8  83335253.166 8      -709.541          51.000
G29  20388239.008 8 107140910.635 8       994.879          51.000    20388238.875 8  83486443.449 8       775.230          51.000
G32  23478412.641 7 123379885.022 7     -2600.758          46.000    23478415.180 7  96140177.867 7     -2026.568          46.000
R09  19675570.078 8 105066425.758 8     -1435.969          51.000    19675571.781 8  81718373.425 8     -1116.865          50.000
R20  19549942.945 6 104542331.674 6      1575.406          40.000    19549945.109 7  81310722.019 7      1225.316          46.000
C05                                                                  39660411.336 6 159696038.300 6        13.568          37.000
C11  21800717.641 8 113522109.836 8       139.145          50.000    21800718.469 8  87782443.679 8       107.595          51.000
C25  22339511.703 8 116327659.617 8     -1610.688          51.000
E01  23966858.203 8 125946678.625 8      -886.094          51.000    23966860.141 8  96504596.962 8      -678.904          51.000
E26  23175896.570 7 121790184.381 7      -215.887          45.000    23175900.133 7  93319795.709 7      -165.342          43.000
E33  24930857.578 8 131012584.774 8      2448.484          49.000    24930861.383 8 100386240.260 8      1876.093          50.000
> 2020 05 11 10 51  0.0000000  0 14        .000000000000
G12  21935266.383 5 115270586.797 5     -2417.309          32.000    21935266.758 5  89821264.729 5     -1883.617          32.000
G14  23032321.789 5 121035651.454 5     -1226.590          32.000
G24  24951153.812 5 131119190.941 5     -3738.848          31.000
G25  20356490.750 8 106974088.528 8      -908.055          51.000    20356492.117 8  83356422.142 8      -707.575          51.000
G29  20382544.289 8 107110983.087 8       992.645          51.000    20382543.914 8  83463123.297 8       773.492          51.000
G32  23493223.773 7 123457719.687 7     -2595.801          45.000    23493226.555 7  96200828.207 7     -2022.705          45.000
R09  19683625.570 8 105109441.418 8     -1439.590          51.000    19683627.195 8  81751830.027 8     -1119.684          51.000
R20  19541113.719 6 104495117.469 6      1564.520          41.000    19541115.344 7  81273999.872 7      1216.849          45.000
C05  39660251.398 5 206521335.340 5        31.812          34.000    39660248.625 6 159695382.932 6        24.300          38.000
C11  21799898.547 8 113517845.901 8       137.551          49.000    21799899.445 8  87779146.541 8       106.312          51.000
C25  22348764.156 8 116375840.433 8     -1609.031          51.000
E01  23971875.773 8 125973045.958 8      -879.508          51.000    23971877.531 8  96524800.489 8      -673.873          51.000
E26  23177109.289 7 121796556.555 7      -216.508          45.000    23177112.375 6  93324678.280 6      -165.914          38.000
E33  24916845.773 8 130938949.221 8      2452.816          50.000    24916848.266 8 100329818.214 8      1879.440          49.000
> 2020 05 11 10 51 30.0000000  0 14        .000000000000
G12  21949064.531 6 115343098.293 6     -2419.457          36.000    21949055.797 5  89877767.052 5     -1885.291          34.000
G14  23039350.875 6 121072579.995 6     -1237.410          36.000
G25  20361686.383 8 107001391.942 8      -914.492          51.000    20361687.953 8  83377697.522 8      -712.591          51.000
G29  20376903.492 8 107081339.409 8       981.246          51.000    20376902.594 8  83440024.340 8       764.607          51.000
G32  23508048.805 7 123535627.594 7     -2600.520          44.000    23508052.078 7  96261535.637 7     -2026.379          43.000
R09  19691741.820 8 105152781.912 8     -1452.293          50.000    19691743.594 8  81785539.282 8     -1129.561          51.000
R20  19532388.680 6 104448461.049 6      1543.668          41.000    19532390.297 7  81237711.573 7      1200.634          45.000
C05  39660050.578 5 206520290.298 5        35.855          34.000    39660047.711 6 159694574.058 6        27.810          38.000
C11  21799129.859 8 113513845.346 8       126.750          49.000    21799130.773 8  87776053.053 8        98.047          51.000
C12  24017324.828 5 125064486.709 5     -2673.191          30.000
C25  22358048.227 8 116424185.176 8     -1616.465          51.000
E01  23976896.727 8 125999431.375 8      -882.098          51.000    23976898.258 8  96545017.861 8      -675.872          51.000
E26  23178366.352 7 121803163.143 7      -226.328          43.000
E33  24902850.500 8 130865399.593 8      2448.043          51.000    24902851.484 8 100273462.057 8      1875.740          49.000
> 2020 05 11 10 52  0.0000000  0 14        .000000000000
G12  21962923.625 6 115415925.307 6     -2432.621          37.000    21962906.062 5  89934430.231 5     -1895.561          33.000
G14  23046492.000 5 121110099.142 5     -1260.074          34.000
G25  20366967.234 8 107029143.389 8      -932.012          51.000    20366968.844 8  83399322.012 8      -726.246          51.000
G29  20371375.867 8 107052291.305 8       958.805          51.000    20371374.391 8  83417389.464 8       747.121          51.000
G32  23522946.711 7 123613917.177 7     -2615.523          45.000    23522950.547 7  96322540.493 7     -2038.070          45.000
R09  19699978.039 8 105196763.573 8     -1476.246          49.000    19699979.969 8  81819747.244 8     -1148.194          51.000
R20  19523827.523 6 104402680.736 6      1511.676          40.000    19523829.664 7  81202104.705 7      1175.751          46.000
C05                                                                  39659867.953 6 159693850.443 6        23.198          38.000
C11  21798471.062 8 113510416.356 8       105.277          49.000    21798472.070 8  87773401.543 8        81.404          51.000
C12  24032778.906 5 125144946.259 5     -2686.293          30.000    24032771.758 4  96770018.578 4     -2077.892          29.000
C25  22367423.047 8 116473002.201 8     -1634.617          51.000
E01  23981980.516 8 126026146.762 8      -895.543          51.000    23981981.891 8  96565488.080 8      -686.231          51.000
E26  23179727.062 7 121810315.316 7      -247.176          43.000
E33  24888931.133 8 130792248.981 8      2432.164          51.000    24888931.016 8 100217411.651 8      1863.660          49.000
> 2020 05 11 10 52 30.0000000  0 14        .000000000000
G12  21976832.008 6 115489011.473 6     -2438.750          38.000    21976814.758 5  89991380.330 5     -1900.328          30.000
G14  23053732.594 5 121148150.769 5     -1275.707          34.000
G25  20372322.758 8 107057286.824 8      -943.188          51.000    20372324.445 8  83421251.933 8      -734.954          51.000
G29  20365950.781 8 107023782.899 8       942.785          51.000    20365949.117 8  83395175.126 8       734.638          51.000
G32  23537906.445 7 123692529.539 7     -2624.301          45.000    23537910.805 7  96383796.833 7     -2044.913          46.000
R09  19708323.750 8 105241329.848 8     -1493.719          51.000    19708325.578 8  81854409.874 8     -1161.784          51.000
R20  19515419.664 6 104357720.773 6      1486.547          40.000    19515422.609 7  81167135.872 7      1156.206          47.000
C05                                                                  39659698.820 6 159693169.242 6        22.938          38.000
C11  21797911.328 8 113507502.989 8        89.965          49.000    21797912.516 8  87771148.749 8        69.588          51.000
C12  24048281.836 4 125225712.727 4     -2694.363          28.000    24048267.570 5  96832445.249 5     -2083.395          32.000
C25  22376877.922 8 116522235.705 8     -1646.621          51.000
E01  23987116.602 8 126053136.550 8      -902.797          51.000    23987118.023 8  96586168.553 8      -691.709          51.000
E26  23181180.977 7 121817956.620 7      -261.383          42.000    23181184.789 6  93341024.124 6      -200.559          36.000
E33  24875077.156 8 130719442.912 8      2422.555          51.000    24875076.664 8 100161625.246 8      1856.264          51.000
> 2020 05 11 10 53  0.0000000  0 13        .000000000000
G12  21990788.297 6 115562351.518 6     -2448.227          39.000    21990777.008 5  90048528.321 5     -1907.706          32.000
G25  20377751.945 8 107085817.366 8      -956.859          51.000    20377753.609 8  83443483.515 8      -745.605          51.000
G29  20360627.258 8 106995809.196 8       924.152          51.000    20360625.641 8  83373377.445 8       720.119          51.000
G32  23552926.195 7 123771456.949 7     -2635.434          46.000    23552930.922 7  96445298.669 7     -2053.588          46.000
R09  19716778.039 8 105286475.864 8     -1513.852          51.000    19716779.820 8  81889523.425 8     -1177.440          50.000
R20  19507163.758 6 104313577.581 6      1458.121          38.000    19507168.094 8  81132802.280 8      1134.094          48.000
C05                                                                  39659539.367 6 159692526.870 6        21.392          38.000
C11  21797449.609 8 113505100.005 8        72.227          49.000    21797450.812 8  87769290.603 8        55.920          51.000
C12                                                                  24063819.375 5  96895076.926 5     -2090.010          30.000
C25  22386411.461 8 116571880.654 8     -1661.047          49.000
E01  23992303.891 8 126080396.402 8      -912.500          51.000    23992305.539 8  96607055.963 8      -699.164          51.000
E26  23182726.906 7 121826081.833 7      -278.238          42.000    23182730.797 6  93347249.902 6      -213.166          40.000
E33  24861287.922 8 130646978.118 8      2410.492          51.000    24861287.438 8 100106100.319 8      1847.039          51.000
> 2020 05 11 10 53 30.0000000  0 12        .000000000000
G12  22004764.938 6 115635799.917 6     -2458.484          36.000    22004761.609 6  90105760.614 6     -1915.711          37.000
G25  20383227.109 8 107114589.814 8      -971.191          51.000    20383228.727 8  83465903.586 8      -756.773          51.000
G29  20355377.844 8 106968225.396 8       904.949          51.000    20355376.344 8  83351883.582 8       705.155          51.000
G32  23567977.594 7 123850551.183 7     -2647.367          47.000    23567981.906 7  96506930.512 7     -2062.884          47.000
R09  19725313.219 8 105332054.230 8     -1534.566          51.000    19725315.266 8  81924973.227 8     -1193.552          50.000
R20  19499033.172 6 104270104.668 6      1429.895          37.000    19499038.891 8  81098990.019 8      1112.140          49.000
C05  39659364.633 5 206516717.620 5        24.293          34.000    39659361.945 6 159691812.165 6        19.054          38.000
C11  21797058.438 8 113503063.076 8        53.895          49.000    21797059.453 8  87767715.524 8        41.638          51.000
C25  22395996.406 8 116621792.844 8     -1676.188          50.000
E01  23997515.102 8 126107781.567 8      -922.934          51.000    23997517.039 8  96628039.391 8      -707.186          51.000
E26  23184337.352 7 121834545.504 7      -295.676          45.000    23184342.430 7  93353735.015 7      -226.620          43.000
E33  24847535.992 8 130574711.012 8      2397.566          51.000    24847535.773 8 100050726.851 8      1837.099          51.000
> 2020 05 11 10 54  0.0000000  0 12        .000000000000
G12  22018792.312 6 115709512.503 6     -2456.473          38.000    22018792.500 6  90163198.964 6     -1914.138          38.000
G25  20388778.203 8 107143760.837 8      -974.250          51.000    20388779.984 8  83488634.237 8      -759.156          51.000
G29  20350232.617 8 106941187.972 8       896.977          51.000    20350231.133 8  83330815.471 8       698.943          51.000
G32  23583089.844 7 123929966.067 7     -2647.711          45.000    23583093.055 7  96568812.195 7     -2063.151          45.000
R09  19733959.508 8 105378224.498 8     -1544.031          51.000    19733961.594 8  81960883.414 8     -1200.913          50.000
R20  19491058.234 6 104227462.877 6      1412.000          37.000    19491064.938 8  81065824.193 8      1098.225          49.000
C05                                                                  39659196.414 6 159691145.354 6        25.013          38.000
C11  21796767.445 8 113501547.045 8        46.645          49.000    21796768.203 8  87766543.231 8        36.026          51.000
C25  22405662.688 8 116672127.336 8     -1680.008          51.000
E01  24002780.086 8 126135449.229 8      -922.172          51.000    24002782.273 8  96649239.280 8      -706.581          51.000
E26  23186042.227 7 121843503.851 7      -302.051          46.000    23186047.609 7  93360599.175 7      -231.459          45.000
E33  24833851.492 8 130502799.870 8      2395.898          51.000    24833851.938 8  99995626.114 8      1835.779          51.000
> 2020 05 11 10 54 30.0000000  0 13        .000000000000
G12  22032848.602 5 115783383.108 5     -2466.453          31.000    22032850.211 5  90220760.385 5     -1921.918          31.000
G25  20394384.922 8 107173224.114 8      -988.191          51.000    20394386.656 8  83511592.617 8      -770.019          51.000
G29  20345171.273 8 106914590.629 8       877.930          51.000    20345169.820 8  83310090.272 8       684.101          51.000
G32  23598242.062 7 124009592.386 7     -2659.035          44.000    23598244.477 7  96630858.610 7     -2071.975          44.000
R09  19742696.164 8 105424878.329 8     -1564.543          51.000    19742698.531 8  81997169.678 8     -1216.867          49.000
R10  19469943.102 6 103785759.813 6      1298.309          37.000
R20  19483218.992 6 104185545.051 6      1384.066          39.000    19483226.055 8  81033221.450 8      1076.496          48.000
C05  39659025.062 5 206514949.686 5        29.797          34.000    39659022.547 6 159690445.080 6        22.811          38.000
C11  21796556.094 8 113500446.037 8        28.469          49.000    21796556.711 8  87765691.870 8        22.002          51.000
C25  22415389.914 8 116722778.439 8     -1694.926          51.000
E01  24008078.594 8 126163293.555 8      -932.402          51.000    24008081.109 8  96670574.553 8      -714.435          51.000
E26  23187821.008 7 121852850.199 7      -319.316          46.000    23187825.984 7  93367760.641 7      -244.647          46.000
E33  24820214.500 8 130431139.933 8      2383.141          51.000    24820215.883 8  99940717.846 8      1826.037          51.000
> 2020 05 11 10 55  0.0000000  0 13        .000000000000
G12  22046945.281 5 115857459.638 5     -2472.535          31.000    22046946.359 5  90278482.310 5     -1926.666          31.000
G25  20400056.555 8 107203028.574 8      -999.070          51.000    20400058.219 8  83534816.853 8      -778.496          51.000
G29  20340202.859 8 106888482.304 8       862.125          51.000    20340201.945 8  83289746.143 8       671.789          51.000
G32  23613443.039 6 124089476.102 6     -2667.316          41.000    23613445.336 6  96693105.603 6     -2078.431          41.000
R09  19751532.625 8 105472065.729 8     -1581.645          50.000    19751535.031 8  82033870.991 8     -1230.168          49.000
R10  19462677.133 5 103747043.085 5      1282.523          34.000
R20  19475525.398 6 104144402.162 6      1358.570          39.000    19475531.953 8  81001221.433 8      1056.666          49.000
C05  39658852.398 5 206514050.474 5        29.648          34.000    39658849.703 6 159689748.931 6        23.231          38.000
C11  21796433.906 8 113499808.158 8        13.621          49.000    21796433.930 8  87765198.631 8        10.499          51.000
C25  22425186.969 8 116773794.324 8     -1706.547          51.000
E01  24013420.227 8 126191363.925 8      -939.367          51.000    24013422.844 8  96692083.016 8      -719.784          51.000
E26  23189682.898 7 121862632.976 7      -333.219          47.000    23189686.891 7  93375256.555 7      -255.383          47.000
E33  24806635.023 8 130359781.683 8      2373.613          51.000    24806637.102 8  99886040.738 8      1818.776          51.000
> 2020 05 11 10 55 30.0000000  0 12        .000000000000
G25  20405792.055 8 107233168.597 8     -1010.180          51.000    20405793.773 8  83558302.565 8      -787.153          51.000
G29  20335326.586 8 106862857.717 8       846.199          51.000    20335326.031 8  83269778.910 8       659.376          51.000
G32  23628691.523 6 124169608.619 6     -2675.074          41.000    23628694.211 6  96755546.529 6     -2084.473          41.000
R09  19760468.047 8 105519781.132 8     -1599.266          50.000    19760470.500 8  82070982.934 8     -1243.873          48.000
R10  19455505.156 5 103708816.136 5      1265.805          32.000
R20  19467975.633 6 104104029.240 6      1332.793          39.000    19467981.875 8  80969820.290 8      1036.620          48.000
C05  39658679.273 5 206513149.249 5        30.402          34.000    39658676.828 6 159689052.855 6        22.908          37.000
C11  21796399.531 8 113499627.371 8        -1.613          50.000    21796398.695 8  87765058.825 8        -1.247          51.000
C25  22435052.352 8 116825169.183 8     -1718.574          51.000
E01  24018803.859 8 126219655.214 8      -946.738          51.000    24018806.805 8  96713760.753 8      -725.447          51.000
E26  23191626.547 8 121872846.373 8      -347.672          48.000    23191629.992 8  93383082.383 8      -266.365          48.000
E33  24793112.391 8 130288721.125 8      2363.652          50.000    24793114.812 8  99831591.733 8      1811.143          51.000
> 2020 05 11 10 56  0.0000000  0 12        .000000000000
G25  20411589.156 8 107263632.520 8     -1022.121          51.000    20411590.883 8  83582040.649 8      -796.458          51.000
G29  20330540.109 8 106837705.010 8       829.273          50.000    20330539.617 8  83250179.405 8       646.187          50.000
G32  23643985.180 7 124249975.529 7     -2683.883          46.000    23643988.016 7  96818170.052 7     -2091.340          45.000
R09  19769500.539 8 105568012.804 8     -1617.551          51.000    19769502.617 8  82108496.435 8     -1258.095          49.000
R10  19448423.320 5 103671069.656 5      1249.148          34.000
R20  19460567.898 6 104064416.199 6      1306.516          38.000    19460573.469 7  80939010.129 7      1016.179          47.000
C05  39658504.148 5 206512237.658 5        29.480          34.000    39658501.836 6 159688347.917 6        22.769          38.000
C11  21796450.484 8 113499891.416 8       -17.555          50.000    21796449.211 8  87765263.029 8       -13.508          51.000
C25  22444984.047 8 116876891.004 8     -1731.094          49.000
E01  24024227.383 8 126248156.258 8      -954.727          51.000    24024230.648 8  96735599.202 8      -731.586          51.000
E26  23193649.906 8 121883478.159 8      -362.555          48.000    23193652.977 8  93391228.813 8      -277.939          48.000
E33  24779644.250 8 130217948.055 8      2353.074          49.000    24779646.789 8  99777363.058 8      1802.984          51.000
> 2020 05 11 10 56 30.0000000  0 13        .000000000000
G14  23114861.922 5 121469389.483 5     -1398.270          32.000
G25  20417450.539 8 107294434.471 8     -1030.902          51.000    20417452.453 8  83606042.144 8      -803.301          51.000
G29  20325846.430 8 106813038.323 8       815.516          51.000    20325846.078 8  83230958.617 8       635.467          51.000
G32  23659325.609 8 124330588.014 8     -2689.574          48.000    23659328.477 8  96880984.901 8     -2095.775          48.000
R09  19778632.602 8 105616774.981 8     -1632.766          51.000    19778634.172 8  82146422.540 8     -1269.932          50.000
R10  19441435.602 5 103633820.858 5      1234.320          35.000
R20  19453305.188 6 104025578.110 6      1283.188          38.000    19453310.172 8  80908802.716 8       998.035          48.000
C05  39658329.516 5 206511327.930 5        31.887          33.000    39658327.445 6 159687645.207 6        24.642          38.000
C11  21796589.664 8 113500614.160 8       -30.328          51.000    21796587.703 8  87765821.924 8       -23.400          50.000
C25  22454985.109 7 116928973.595 7     -1740.648          47.000
E01  24029693.789 8 126276881.721 8      -959.797          51.000    24029696.844 8  96757609.606 8      -735.393          51.000
E26  23195755.508 8 121894542.123 8      -374.559          48.000    23195758.445 8  93399706.376 8      -286.970          48.000
E33  24766233.555 8 130147478.296 8      2345.312          49.000    24766235.680 8  99723366.783 8      1797.162          49.000
> 2020 05 11 10 57  0.0000000  0 14        .000000000000
G14  23122886.938 5 121511567.889 5     -1418.172          32.000
G25  20423365.039 8 107325516.354 8     -1045.895          51.000    20423367.016 8  83630261.786 8      -814.983          51.000
G29  20321234.375 8 106788799.403 8       795.660          51.000    20321234.125 8  83212071.153 8       619.998          51.000
G32  23674701.211 8 124411385.044 8     -2701.398          48.000    23674703.750 8  96943943.528 8     -2104.989          48.000
R09  19787852.828 8 105666008.675 8     -1654.129          51.000    19787854.164 8  82184715.373 8     -1286.548          50.000
R10  19434531.242 6 103597013.007 6      1214.160          38.000
R20  19446176.062 6 103987456.945 6      1253.559          38.000    19446181.250 7  80879152.964 7       974.990          47.000
C05  39658144.516 5 206510364.630 5        27.418          33.000    39658142.430 6 159686900.267 6        21.700          38.000
C11  21796805.555 8 113501737.228 8       -49.223          50.000    21796803.133 8  87766690.363 8       -38.059          51.000
C25  22465045.062 8 116981359.069 8     -1756.367          49.000
E01  24035191.961 8 126305773.924 8      -971.027          51.000    24035194.727 8  96779747.780 8      -744.034          51.000
E21  27656592.469 5 145336373.983 5     -2417.934          32.000
E26  23197932.070 8 121905979.752 8      -392.641          48.000    23197934.883 8  93408470.261 8      -300.860          49.000
E33  24752869.930 8 130077255.201 8      2331.500          50.000    24752871.219 8  99669559.537 8      1786.402          49.000
> 2020 05 11 10 57 30.0000000  0 14        .000000000000
G25  20429363.859 8 107357041.735 8     -1052.918          50.000    20429365.977 8  83654827.014 8      -820.456          50.000
G29  20316734.672 8 106765152.074 8       783.645          51.000    20316734.414 8  83193644.663 8       610.632          51.000
G32  23690142.312 7 124492527.300 7     -2705.285          46.000    23690144.578 7  97007171.172 7     -2108.014          46.000
R09  19797192.336 8 105715880.187 8     -1667.602          51.000    19797193.320 8  82223504.274 8     -1297.026          50.000
R10  19427740.547 6 103560814.642 6      1201.641          37.000
R20  19439212.859 6 103950220.070 6      1231.953          39.000    19439217.789 8  80850190.956 8       958.186          48.000
C05                                                                  39657978.023 6 159686238.670 6        24.708          38.000
C11  21797129.273 8 113503422.392 8       -60.340          51.000    21797127.125 8  87767993.463 8       -46.701          51.000
C12  24205499.984 5 126044396.872 5     -2761.820          31.000    24205499.523 5  97465514.007 5     -2134.382          30.000
C25  22475195.148 8 117034209.243 8     -1764.207          51.000
E01  24040752.984 8 126334997.002 8      -974.414          51.000    24040755.672 8  96802139.469 8      -746.623          51.000
E21  27670410.500 5 145408986.603 5     -2417.320          33.000
E26  23200210.656 7 121917954.161 7      -402.809          46.000    23200213.141 8  93417645.473 8      -308.717          49.000
E33  24739585.266 8 130007443.989 8      2325.359          51.000    24739585.672 8  99616067.871 8      1781.757          50.000
> 2020 05 11 10 58  0.0000000  0 15        .000000000000
G02  23586263.289 5 123946673.182 5     -1907.844          32.000
G25  20435362.555 8 107388566.554 8     -1067.625          49.000    20435364.852 8  83679391.795 8      -831.916          49.000
G29  20312262.984 8 106741651.971 8       764.109          51.000    20312262.461 8  83175332.899 8       595.410          51.000
G32  23705563.617 7 124573567.619 7     -2716.449          42.000    23705566.234 7  97070319.426 7     -2116.714          43.000
R09  19806566.578 8 105765938.130 8     -1688.754          51.000    19806567.852 8  82262438.211 8     -1313.478          50.000
R10  19420980.273 6 103524777.448 6      1181.777          39.000
R20  19432330.484 6 103913416.398 6      1202.328          40.000    19432335.734 8  80821565.902 8       935.144          49.000
C05                                                                  39657750.047 6 159685320.247 6        21.923          38.000
C11  21797476.195 8 113505228.946 8       -78.883          51.000    21797474.594 8  87769390.423 8       -61.073          51.000
C12  24221376.586 5 126127061.596 5     -2770.309          30.000    24221381.109 5  97529447.265 5     -2142.106          31.000
C25  22485349.898 8 117087083.669 8     -1779.547          51.000
E01  24046292.469 8 126364107.302 8      -985.328          51.000    24046295.086 8  96824444.740 8      -754.962          51.000
E21  27684176.852 5 145481330.380 5     -2423.629          33.000
E26  23202507.141 7 121930020.808 7      -420.621          45.000    23202509.023 8  93426891.326 8      -322.243          48.000
E33  24726295.219 8 129937602.035 8      2311.762          51.000    24726295.289 8  99562552.641 8      1771.269          51.000
> 2020 05 11 10 58 30.0000000  0 12        .000000000000
G25  20441536.242 8 107421010.093 8     -1093.848          50.000    20441538.703 8  83704672.465 8      -852.349          50.000
G29  20307994.164 8 106719218.474 8       733.023          51.000    20307993.617 8  83157852.267 8       571.187          51.000
G32  23721139.492 7 124655422.522 7     -2739.121          42.000    23721143.312 7  97134102.442 7     -2134.383          42.000
R09  19816150.422 8 105817116.815 8     -1721.652          50.000    19816152.273 8  82302243.835 8     -1339.066          50.000
R10  19414425.938 6 103489837.111 6      1149.094          38.000
R20  19425704.344 6 103877982.752 6      1161.520          40.000    19425709.836 8  80794006.408 8       903.404          48.000
C05                                                                  39657633.172 6 159684849.532 6        10.493          38.000
C11  21798020.961 8 113508067.377 8      -108.875          51.000    21798019.969 8  87771585.278 8       -84.192          51.000
C25  22495684.039 8 117140892.966 8     -1806.332          51.000
E01  24051985.656 8 126394024.688 8     -1007.805          51.000    24051988.219 8  96847368.426 8      -772.196          51.000
E26  23204995.695 6 121943098.582 6      -449.746          41.000    23204997.555 8  93436911.948 8      -344.673          48.000
E33  24713174.789 8 129868650.261 8      2286.430          51.000    24713175.078 8  99509719.489 8      1751.973          51.000
> 2020 05 11 10 59  0.0000000  0 14        .000000000000
G02  23608252.016 5 124062210.646 5     -1931.645          33.000
G25  20447731.117 8 107453564.030 8     -1085.883          51.000    20447733.617 8  83730039.162 8      -846.142          51.000
G29  20303774.117 8 106697043.373 8       735.930          51.000    20303773.977 8  83140572.964 8       573.452          51.000
G32  23736716.523 7 124737280.787 7     -2727.707          45.000    23736721.047 7  97197888.065 7     -2125.486          45.000
R09  19825789.953 8 105868594.730 8     -1719.746          49.000    19825792.500 8  82342282.207 8     -1337.580          50.000
R10  19407923.852 6 103455176.132 6      1151.758          38.000
R20  19419181.008 6 103843097.024 6      1154.812          41.000    19419186.148 8  80766873.065 8       898.187          48.000
R21  22755456.617 6 121769048.979 6      4288.641          38.000
C05                                                                  39657473.648 6 159684207.372 6        25.282          38.000
C11  21798609.977 8 113511136.125 8      -105.039          51.000    21798609.570 8  87773958.224 8       -81.190          51.000
C25  22506043.633 8 117194835.786 8     -1799.238          51.000
E01  24057678.883 8 126423941.254 8      -996.066          51.000    24057681.078 8  96870291.489 8      -763.247          51.000
E26  23207522.461 6 121956378.665 6      -444.906          40.000    23207524.992 7  93447087.618 7      -340.920          47.000
E33  24700070.180 8 129799781.830 8      2295.359          51.000    24700070.734 8  99456950.197 8      1758.767          51.000
> 2020 05 11 10 59 30.0000000  0 16        .000000000000
G02  23619331.375 5 124120419.668 5     -1946.434          33.000
G12  22175521.977 4 116533149.089 4     -2531.254          29.000    22175522.859 4  90805058.498 4     -1972.406          27.000
G25  20453975.531 8 107486377.818 8     -1098.363          51.000    20453977.922 8  83755608.350 8      -855.864          51.000
G29  20299631.641 8 106675275.803 8       718.504          51.000    20299631.547 8  83123611.207 8       559.873          51.000
G32  23752322.312 8 124819288.936 8     -2736.367          48.000    23752326.492 8  97261790.473 8     -2132.237          48.000
R09  19835514.383 8 105920523.641 8     -1738.699          50.000    19835517.125 8  82382671.384 8     -1352.322          50.000
R10  19401502.961 6 103420948.659 6      1133.203          38.000
R20  19412788.859 6 103808912.443 6      1127.637          41.000    19412793.008 7  80740285.074 7       877.051          47.000
R21  22731447.328 6 121640575.675 6      4279.824          37.000
C05                                                                  39657300.047 6 159683513.384 6        24.001          38.000
C11  21799271.523 8 113514582.791 8      -121.520          51.000    21799271.906 8  87776623.419 8       -94.051          51.000
C23  22250360.023 5 115863464.868 5      1200.758          35.000
C25  22516457.180 8 117249059.897 8     -1812.414          51.000
E01  24063400.461 8 126454007.003 8     -1005.020          51.000    24063402.156 8  96893328.859 8      -770.059          51.000
E26  23210116.094 6 121970010.160 6      -460.645          37.000    23210118.906 7  93457532.447 7      -352.911          47.000
E33  24687009.945 8 129731147.772 8      2283.555          51.000    24687010.680 8  99404360.481 8      1749.710          51.000
