     3.02           OBSERVATION DATA    M (MIXED)           RINEX VERSION / TYPE
SAVERINEX           SC600               20200509 135931 LCL PGM / RUN BY / DATE
       G = GPS       R = GLONASS       C = COMPASS          COMMENT
       S = SBAS      J = QZSS          E = GALILEO          COMMENT
BEAN                                                        MARKER NAME
1                                                           MARKER NUMBER
GEODETIC                                                    MARKER TYPE
Unige DICCA         GTER                                    OBSERVER / AGENCY
SC60291900056       SC600               2.12(191226)        REC # / TYPE / VERS
                    HEMA45          NONE                    ANT # / TYPE
  4509407.8091   693652.4678  4442337.6214                  APPROX POSITION XYZ
        0.0000        0.0000        0.0000                  ANTENNA: DELTA H/E/N
G    8 C1C L1C D1C S1C C2Y L2Y D2Y S2Y                      SYS / # / OBS TYPES
R    8 C1C L1C D1C S1C C2P L2P D2P S2P                      SYS / # / OBS TYPES
C    4 C1I L1I D1I S1I                                      SYS / # / OBS TYPES
E    8 C1C L1C D1C S1C C7Q L7Q D7Q S7Q                      SYS / # / OBS TYPES
DBHZ                                                        COMMENT
     30.000                                                 INTERVAL
  2020    05    09    11    00    0.0000000     GPS         TIME OF FIRST OBS
  2020    05    09    11    59   30.0000000     GPS         TIME OF LAST OBS
     0                                                      RCV CLOCK OFFS APPL
G L1C  0.00000                                              SYS / PHASE SHIFT
G L2Y  0.00000                                              SYS / PHASE SHIFT
R L1C  0.00000                                              SYS / PHASE SHIFT
R L2P  0.25000                                              SYS / PHASE SHIFT
C L1I  0.00000                                              SYS / PHASE SHIFT
E L1C  0.50000                                              SYS / PHASE SHIFT
E L7Q -0.25000                                              SYS / PHASE SHIFT
 14 R02 -4 R03  5 R04  6 R05  1 R10 -5 R12 -1 R13 -2 R14 -7 GLONASS SLOT / FRQ #
    R15  0 R16 -1 R17  4 R18 -3 R19  3 R23  3               GLONASS SLOT / FRQ #
 C1C   71.950 C2C   71.950 C2P   71.950                     GLONASS COD/PHS/BIS
    18                                                      LEAP SECONDS
*** Above antenna height is from mark to ANTENNA BOTTOM.    COMMENT
    17     4        0.0000        ANT MEASURE TYPE/HEIGT    COMMENT
    0.0000    0.0000    0.0458    0.0405    0.0000          COMMENT
                    BASE STATION                            COMMENT
                                                            END OF HEADER
> 2020 05 09 11 00  0.0000000  0 12        .000000000000
G12  21960210.375 5 115401679.856 5     -2431.309          35.000    21960203.453 5  89923395.582 5     -1894.520          33.000
G25  20361954.969 8 107002795.155 8      -920.465          51.000    20361956.711 8  83378805.230 8      -717.245          51.000
G29  20374862.594 8 107070629.192 8       970.805          51.000    20374861.633 8  83431654.816 8       756.471          51.000
G32  23518580.359 7 123591019.499 7     -2612.273          43.000    23518584.672 7  96304673.674 7     -2035.538          43.000
R15  20362151.055 8 108809159.286 8     -2201.922          51.000    20362154.586 8  84629347.256 8     -1712.606          48.000
R17  20376545.109 4 109039015.272 4     -2676.258          29.000    20376547.891 4  84808101.392 4     -2081.534          29.000
R18  19343094.172 8 103254849.414 8      1364.539          50.000    19343099.625 8  80309316.369 8      1061.308          50.000
C27  21594214.438 8 112446727.796 8       778.742          51.000
C28  23265921.445 6 121151736.251 6     -2263.430          37.000
C30  24418829.180 5 127155232.931 5      3097.719          35.000
E15  25097529.734 8 131888421.393 8      2789.324          49.000    25097533.102 8 101057374.243 8      2137.343          50.000
E30  22251051.500 8 116930061.648 8      -453.566          51.000    22251054.547 8  89595760.498 8      -347.523          51.000
> 2020 05 09 11 00 30.0000000  0 12        .000000000000
G12  21974107.461 6 115474701.291 6     -2437.180          37.000    21974097.156 6  89980295.322 6     -1899.098          37.000
G25  20367243.484 8 107030587.000 8      -931.645          51.000    20367245.125 8  83400461.193 8      -725.957          51.000
G29  20369367.984 8 107041754.977 8       954.699          51.000    20369366.617 8  83409155.435 8       743.921          51.000
G32  23533520.227 7 123669527.907 7     -2621.152          43.000    23533525.047 7  96365849.033 7     -2042.459          44.000
R15  20374558.422 8 108875458.287 8     -2217.406          51.000    20374561.391 8  84680913.097 8     -1724.652          48.000
R17  20391597.742 5 109119577.659 5     -2694.559          34.000    20391601.172 4  84870761.046 4     -2095.768          27.000
R18  19335498.469 8 103214303.100 8      1339.152          51.000    19335503.797 8  80277780.371 8      1041.563          50.000
C27  21589773.227 8 112423601.195 8       763.609          51.000
C28  23278990.109 6 121219785.654 6     -2272.930          39.000
C30  24401001.195 5 127062400.265 5      3091.785          33.000
E15  25081628.359 8 131804858.988 8      2782.004          48.000    25081632.695 8 100993345.936 8      2131.626          50.000
E30  22253663.531 8 116943787.498 8      -460.961          51.000    22253666.625 8  89606277.698 8      -353.210          51.000
> 2020 05 09 11 01  0.0000000  0 12        .000000000000
G12  21988043.195 6 115547931.863 6     -2443.992          39.000    21988037.180 6  90037357.959 6     -1904.419          39.000
G25  20372597.281 8 107058721.669 8      -943.070          51.000    20372598.961 8  83422384.299 8      -734.860          51.000
G29  20363966.555 8 107013370.672 8       938.441          51.000    20363965.102 8  83387037.813 8       731.253          51.000
G32  23548511.750 7 123748307.625 7     -2629.961          45.000    23548517.039 7  96427235.779 7     -2049.320          44.000
R15  20387053.727 8 108942227.325 8     -2233.055          51.000    20387056.367 8  84732844.540 8     -1736.820          48.000
R17  20406759.227 5 109200705.906 5     -2713.469          31.000    20406759.414 4  84933860.685 4     -2110.479          26.000
R18  19328047.367 8 103174527.577 8      1313.430          50.000    19328052.070 8  80246843.849 8      1021.556          49.000
C27  21585420.914 8 112400937.528 8       748.090          51.000
C28  23292115.414 6 121288131.233 6     -2282.555          37.000
C30  24383211.055 5 126969766.941 5      3085.047          30.000
E15  25065770.648 7 131721527.799 7      2774.152          47.000    25065776.031 8 100929494.769 8      2125.682          51.000
E30  22256319.445 8 116957744.511 8      -468.738          51.000    22256322.523 8  89616972.009 8      -359.187          51.000
> 2020 05 09 11 01 30.0000000  0 11        .000000000000
G12  22002017.820 6 115621368.322 6     -2450.617          39.000    22002013.164 6  90094581.080 6     -1909.575          38.000
G25  20378015.797 8 107087196.379 8      -954.082          51.000    20378017.406 8  83444572.382 8      -743.441          51.000
G29  20358657.656 8 106985473.844 8       922.457          51.000    20358656.367 8  83365300.037 8       718.798          51.000
G32  23563553.773 7 123827352.821 7     -2638.426          46.000    23563558.805 7  96488829.417 7     -2055.916          46.000
R15  20399636.094 8 109009463.401 8     -2248.348          51.000    20399638.766 8  84785139.252 8     -1748.715          48.000
R17  20422024.688 5 109282393.222 5     -2731.191          32.000    20422025.984 4  84997405.338 4     -2124.257          29.000
R18  19320739.891 8 103135520.839 8      1288.211          49.000    19320744.414 8  80216505.271 8      1001.945          49.000
C27  21581157.016 8 112378734.094 8       733.082          51.000
C28  23305295.891 5 121356768.245 5     -2292.613          35.000
E15  25049956.305 7 131638426.675 7      2766.770          47.000    25049962.922 8 100865819.876 8      2120.055          51.000
E30  22259019.023 8 116971930.399 8      -476.016          51.000    22259022.023 8  89627841.708 8      -364.727          51.000
> 2020 05 09 11 02  0.0000000  0 12        .000000000000
G12  22016030.086 6 115695002.523 6     -2458.547          40.000    22016026.398 6  90151958.306 6     -1915.754          39.000
G25  20383497.414 8 107116002.967 8      -966.414          51.000    20383499.133 8  83467019.058 8      -753.053          51.000
G29  20353439.930 8 106958056.264 8       905.238          51.000    20353438.703 8  83343935.685 8       705.380          51.000
G32  23578644.008 7 123906652.482 7     -2648.203          45.000    23578648.164 7  96550621.316 7     -2063.535          45.000
R15  20412304.047 8 109077157.715 8     -2264.805          51.000    20412306.867 8  84837790.361 8     -1761.515          48.000
R17  20437391.523 6 109364628.069 6     -2751.055          36.000    20437396.391 4  85061365.773 4     -2139.712          27.000
R18  19313575.312 8 103097275.699 8      1261.504          51.000    19313579.539 8  80186759.053 8       981.167          48.000
C27  21576979.820 8 112356983.003 8       716.883          51.000
C28  23318531.578 6 121425686.900 6     -2302.473          39.000
E02                                                                  26473430.430 5 106597530.978 5     -1720.829          32.000
E15  25034184.250 7 131555549.254 7      2758.195          47.000    25034192.227 8 100802316.368 8      2113.425          51.000
E30  22261760.984 8 116986337.677 8      -484.629          51.000    22261763.625 8  89638881.043 8      -371.294          51.000
> 2020 05 09 11 02 30.0000000  0 13        .000000000000
G12  22030081.234 6 115768843.470 6     -2464.062          38.000    22030079.352 6  90209496.623 6     -1920.052          38.000
G25  20389044.203 8 107145151.399 8      -976.738          51.000    20389046.031 8  83489732.114 8      -761.095          51.000
G29  20348315.688 8 106931128.097 8       890.016          51.000    20348314.227 8  83322952.714 8       693.519          51.000
G32  23593783.828 7 123986213.708 7     -2655.672          43.000    23593787.164 7  96612617.011 7     -2069.358          43.000
R15  20425059.492 8 109145319.996 8     -2279.258          51.000    20425062.219 7  84890805.440 7     -1772.756          47.000
R17  20452865.281 5 109447416.871 5     -2768.504          32.000    20452860.406 4  85125750.858 4     -2153.293          27.000
R18  19306555.836 8 103059803.242 8      1236.738          51.000    19306558.883 7  80157613.788 7       961.908          47.000
C27  21572891.547 8 112335694.336 8       702.480          51.000
C28  23331823.148 6 121494895.478 6     -2311.375          38.000
C30  24330085.922 5 126693163.215 5      3065.727          30.000
E02                                                                  26486260.047 5 106649197.343 5     -1723.460          31.000
E15  25018457.836 8 131472907.183 8      2751.449          49.000    25018466.352 8 100738993.219 8      2108.229          51.000
E30  22264547.180 8 117000976.943 8      -491.195          51.000    22264549.422 8  89650098.133 8      -376.367          51.000
> 2020 05 09 11 03  0.0000000  0 13        .000000000000
G12  22044172.805 5 115842897.996 5     -2472.059          33.000    22044171.984 5  90267201.436 5     -1926.279          34.000
G25  20394657.453 8 107174648.876 8      -988.891          51.000    20394659.055 8  83512717.153 8      -770.564          51.000
G29  20343285.945 8 106904696.567 8       873.098          51.000    20343284.625 8  83302356.720 8       680.336          51.000
G32  23608974.047 6 124066040.738 6     -2664.969          39.000    23608977.164 6  96674819.827 6     -2076.602          39.000
R15  20437903.633 8 109213957.050 8     -2295.422          51.000    20437906.320 7  84944189.780 7     -1785.328          47.000
R17  20468432.852 6 109530713.744 6     -2787.223          36.000    20468450.367 5  85190606.682 5     -2167.840          30.000
R18  19299682.578 8 103023111.670 8      1210.266          51.000    19299685.406 8  80129075.935 8       941.321          48.000
C27  21568893.398 8 112314875.244 8       686.445          51.000
C28  23345170.750 5 121564399.184 5     -2321.496          32.000
C30  24312446.531 5 126601334.610 5      3057.859          33.000
E02                                                                  26499116.977 5 106700972.305 5     -1727.390          32.000
E15  25002778.820 8 131390509.359 8      2742.848          51.000    25002786.656 8 100675857.241 8      2101.662          51.000
E30  22267378.742 8 117015856.007 8      -499.609          51.000    22267380.969 8  89661498.956 8      -382.815          51.000
> 2020 05 09 11 03 30.0000000  0 11        .000000000000
G25  20400333.531 8 107204476.696 8      -999.848          51.000    20400335.164 8  83535959.596 8      -779.102          51.000
G29  20338346.938 8 106878742.532 8       857.043          51.000    20338346.250 8  83282132.809 8       667.826          51.000
G32  23624210.719 6 124146111.836 6     -2673.266          37.000    23624214.188 6  96737212.923 6     -2083.061          37.000
R15  20450833.148 8 109283049.518 8     -2310.805          51.000    20450836.086 7  84997928.332 7     -1797.293          47.000
R17  20484116.664 6 109614594.964 6     -2805.062          41.000    20484118.766 4  85255847.499 4     -2181.724          25.000
R18  19292952.297 8 102987182.717 8      1184.742          51.000    19292954.883 7  80101131.235 7       921.466          47.000
C27  21564981.984 8 112294507.385 8       671.305          51.000
C28  23358570.352 5 121634177.551 5     -2330.820          32.000
C30  24294843.820 5 126509700.768 5      3051.078          34.000
E15  24987143.328 8 131308338.871 8      2735.176          51.000    24987149.789 8 100612895.466 8      2095.757          51.000
E30  22270252.367 8 117030956.836 8      -507.117          51.000    22270254.836 8  89673069.696 8      -388.525          51.000
> 2020 05 09 11 04  0.0000000  0 11        .000000000000
G25  20406075.578 8 107234651.397 8     -1011.906          51.000    20406077.438 8  83559472.334 8      -788.498          51.000
G29  20333502.195 8 106853282.891 8       840.145          51.000    20333501.773 8  83262294.122 8       654.658          51.000
G32  23639497.039 7 124226440.783 7     -2682.102          44.000    23639500.586 7  96799806.874 7     -2089.952          44.000
R15  20463850.656 8 109352613.478 8     -2326.801          51.000    20463854.367 8  85052033.602 8     -1809.737          48.000
R17  20499910.156 5 109699024.267 5     -2822.871          30.000    20499892.648 5  85321491.433 5     -2195.576          30.000
R18  19286367.719 8 102952034.083 8      1158.449          51.000    19286370.359 8  80073793.425 8       901.016          48.000
C27  21561160.578 8 112274607.211 8       655.352          51.000
C28  23372025.648 5 121704245.485 5     -2340.223          34.000
C30  24277282.883 5 126418279.656 5      3044.363          33.000
E15  24971554.375 8 131226413.951 8      2726.613          51.000    24971559.625 8 100550121.868 8      2089.232          51.000
E30  22273171.562 8 117046296.518 8      -515.363          51.000    22273174.016 8  89684823.466 8      -394.889          51.000
> 2020 05 09 11 04 30.0000000  0 10        .000000000000
G25  20411880.539 8 107265156.726 8     -1022.668          51.000    20411882.562 8  83583242.700 8      -796.884          51.000
G29  20328748.398 8 106828301.471 8       824.387          51.000    20328747.938 8  83242828.088 8       642.379          51.000
G32  23654828.984 8 124307008.426 8     -2689.879          48.000    23654832.250 8  96862586.781 8     -2096.013          48.000
R15  20476953.508 8 109422632.055 8     -2341.871          51.000    20476957.727 8  85106492.481 8     -1821.455          48.000
R18  19279926.594 8 102917650.381 8      1132.965          51.000    19279929.844 8  80047050.574 8       881.198          49.000
C27  21557425.812 8 112255158.686 8       640.406          51.000
C28  23385532.195 4 121774584.990 4     -2348.953          29.000
C30  24259762.844 6 126327056.738 6      3037.156          36.000
E15  24956009.055 8 131144720.113 8      2718.910          51.000    24956013.141 8 100487525.336 8      2083.333          51.000
E30  22276133.266 8 117061859.495 8      -522.840          51.000    22276135.617 8  89696748.329 8      -400.597          51.000
> 2020 05 09 11 05  0.0000000  0 10        .000000000000
G25  20417745.680 8 107295978.479 8     -1032.914          51.000    20417747.828 8  83607259.631 8      -804.871          51.000
G29  20324083.148 8 106803784.241 8       809.305          51.000    20324082.812 8  83223723.756 8       630.627          51.000
G32  23670203.180 7 124387797.640 7     -2696.922          47.000    23670205.875 7  96925539.320 7     -2101.501          47.000
R15  20490139.016 8 109493090.148 8     -2356.098          51.000    20490143.258 8  85161293.214 8     -1832.520          48.000
R17  20531746.562 5 109869489.968 5     -2857.715          30.000    20531740.133 4  85454060.418 4     -2222.673          28.000
R18  19273625.875 8 102884017.733 8      1108.328          50.000    19273629.227 8  80020891.868 8       862.033          48.000
C27  21553775.039 8 112236147.884 8       626.195          51.000
C30  24242279.578 6 126236019.516 6      3031.273          39.000
E15  24940505.078 8 131063244.861 8      2712.039          51.000    24940508.172 8 100425096.288 8      2078.008          51.000
E30  22279134.703 8 117077632.192 8      -529.406          51.000    22279137.000 8  89708833.896 8      -405.625          51.000
> 2020 05 09 11 05 30.0000000  0 11        .000000000000
G02  23572772.477 5 123875745.216 5     -1888.910          32.000
G25  20423679.492 8 107327161.105 8     -1044.336          51.000    20423681.609 8  83631557.769 8      -813.768          51.000
G29  20319514.656 8 106779775.537 8       792.973          51.000    20319514.492 8  83205015.686 8       617.901          51.000
G32  23685627.352 7 124468849.837 7     -2704.855          46.000    23685629.555 7  96988696.790 7     -2107.683          46.000
R15  20503415.195 8 109564032.717 8     -2371.598          51.000    20503419.273 8  85216470.711 8     -1844.576          48.000
R18  19267474.555 8 102851181.927 8      1082.402          51.000    19267477.945 8  79995352.890 8       841.868          49.000
C27  21550216.625 8 112217618.896 8       610.754          51.000
C28  23412704.031 5 121916096.368 5     -2366.789          32.000
C30  24224841.758 6 126145213.543 6      3024.270          41.000
E15  24925051.180 8 130982034.443 8      2703.680          49.000    24925054.008 8 100362870.155 8      2071.651          51.000
E30  22282184.477 8 117093659.681 8      -537.449          51.000    22282186.727 8  89721114.691 8      -411.800          51.000
> 2020 05 09 11 06  0.0000000  0 12        .000000000000
G02  23583590.523 5 123932598.167 5     -1902.871          32.000
G25  20429672.102 8 107358653.014 8     -1055.320          51.000    20429674.156 8  83656096.914 8      -822.328          51.000
G29  20315032.961 8 106756223.640 8       776.949          51.000    20315032.664 8  83186663.559 8       605.415          51.000
G32  23701090.789 7 124550110.601 7     -2712.641          42.000    23701093.281 7  97052016.815 7     -2113.746          42.000
R15  20516772.578 8 109635406.565 8     -2386.840          51.000    20516775.617 7  85271983.674 7     -1856.431          47.000
R18  19261462.859 8 102819091.379 8      1056.742          50.000    19261466.586 8  79970393.588 8       821.911          49.000
C27  21546740.812 8 112199520.666 8       595.566          51.000
C28  23426368.039 5 121987234.797 5     -2375.824          34.000
C30  24207439.828 7 126054589.254 7      3017.180          43.000
E02  26576765.656 5 139661843.680 5     -2279.285          31.000    26576762.438 5 107013607.555 5     -1746.337          31.000
E15  24909637.609 7 130901038.912 7      2695.816          46.000    24909640.969 8 100300808.672 8      2065.572          51.000
E30  22285273.062 8 117109891.005 8      -544.984          51.000    22285275.164 8  89733551.686 8      -417.570          51.000
> 2020 05 09 11 06 30.0000000  0 12        .000000000000
G02  23594489.766 5 123989873.674 5     -1914.805          31.000
G25  20435730.461 8 107390490.921 8     -1066.598          50.000    20435732.586 8  83680905.663 8      -831.115          50.000
G29  20310645.312 8 106733165.204 8       760.844          51.000    20310644.852 8  83168695.964 8       592.865          51.000
G32  23716599.828 6 124631613.625 6     -2720.238          41.000    23716603.531 6  97115525.645 6     -2119.666          41.000
R15  20530217.289 8 109707248.402 8     -2402.082          51.000    20530219.547 8  85327860.631 8     -1868.286          48.000
R18  19255597.906 8 102787783.962 8      1030.988          51.000    19255601.219 8  79946043.361 8       801.880          48.000
C27  21543354.781 8 112181889.560 8       580.410          51.000
C28  23440084.547 6 122058652.940 6     -2384.578          37.000
C30  24190080.383 7 125964184.532 7      3010.066          43.000
E02                                                                  26589792.000 5 107066056.268 5     -1749.087          32.000
E15  24894271.258 7 130820296.729 7      2687.598          45.000    24894276.047 8 100238941.250 8      2059.331          51.000
E30  22288407.602 8 117126363.480 8      -552.617          51.000    22288409.812 8  89746173.451 8      -423.425          51.000
> 2020 05 09 11 07  0.0000000  0 12        .000000000000
G25  20441851.891 8 107422660.074 8     -1077.727          49.000    20441854.211 8  83705972.524 8      -839.787          49.000
G29  20306348.562 8 106710585.667 8       744.816          51.000    20306348.266 8  83151101.537 8       580.376          51.000
G32  23732151.859 7 124713341.360 7     -2727.785          44.000    23732156.516 7  97179209.539 7     -2125.550          44.000
R15  20543746.570 8 109779542.645 8     -2417.219          51.000    20543748.781 8  85384089.446 8     -1880.059          48.000
R17  20596615.336 5 110216650.347 5     -2926.359          32.000    20596612.820 4  85724048.996 4     -2276.057          28.000
R18  19249877.164 8 102757245.546 8      1005.227          51.000    19249880.219 8  79922291.268 8       781.843          48.000
C27  21540055.859 8 112164711.035 8       565.270          51.000
C28  23453851.016 6 122130334.538 6     -2394.074          37.000
C30  24172760.711 7 125873986.313 7      3003.336          43.000
E02                                                                  26602842.961 5 107118623.218 5     -1752.850          32.000
E15  24878951.242 7 130739794.800 7      2679.363          47.000    24878956.883 8 100177257.941 8      2053.117          51.000
E30  22291585.391 8 117143063.005 8      -560.320          51.000    22291587.875 8  89758969.181 8      -429.324          51.000
> 2020 05 09 11 07 30.0000000  0 12        .000000000000
G12  22172702.500 5 116518297.088 5     -2529.461          33.000
G25  20448039.344 8 107455175.314 8     -1088.277          51.000    20448041.773 8  83731309.080 8      -848.008          51.000
G29  20302145.227 8 106688499.466 8       729.230          51.000    20302145.414 8  83133891.519 8       568.232          51.000
G32  23747749.227 7 124795305.737 7     -2734.766          46.000    23747753.898 7  97243077.844 7     -2130.986          46.000
R15  20557362.883 8 109852303.908 8     -2431.875          51.000    20557365.102 8  85440681.513 8     -1891.461          48.000
R17  20613102.969 4 110304755.628 4     -2942.012          28.000    20613075.383 5  85792561.334 5     -2288.243          31.000
R18  19244303.406 8 102727491.541 8       979.992          51.000    19244306.125 7  79899149.294 7       762.216          47.000
C27  21536846.445 8 112147999.869 8       550.488          51.000
C28  23467670.125 6 122202292.515 6     -2401.707          37.000
C30  24155483.242 7 125784010.931 7      2996.664          42.000
E15  24863681.438 8 130659549.672 8      2671.730          49.000    24863686.891 8 100115771.448 8      2047.227          51.000
E30  22294809.453 8 117160005.088 8      -567.555          51.000    22294811.898 8  89771950.771 8      -434.933          51.000
> 2020 05 09 11 08  0.0000000  0 12        .000000000000
G02  23627657.969 5 124164181.753 5     -1958.535          32.000
G12  22187164.898 5 116594338.026 5     -2538.348          33.000    22187165.633 5  90852726.597 5     -1977.939          31.000
G25  20454292.703 8 107488036.477 8     -1101.668          51.000    20454295.125 8  83756915.190 8      -858.440          51.000
G29  20298035.977 8 106666906.394 8       711.000          51.000    20298036.086 8  83117065.739 8       554.026          51.000
G32  23763391.148 8 124877503.572 8     -2744.293          48.000    23763394.438 8  97307128.060 8     -2138.410          48.000
R15  20571066.367 8 109925531.353 8     -2449.262          51.000    20571068.703 8  85497636.173 8     -1904.984          48.000
R18  19238876.461 8 102698522.417 8       951.965          51.000    19238878.586 7  79876617.766 7       740.417          47.000
C27  21533726.734 8 112131755.845 8       533.074          51.000
C28  23481541.102 5 122274524.882 5     -2412.672          34.000
C30  24138247.859 6 125694259.654 6      2987.277          40.000
E15  24848461.164 8 130579562.872 8      2661.391          51.000    24848466.180 8 100054482.906 8      2039.229          51.000
E30  22298079.789 8 117177190.191 8      -577.465          51.000    22298081.844 8  89785118.565 8      -442.440          51.000
> 2020 05 09 11 08 30.0000000  0 11        .000000000000
G12  22201668.547 5 116670568.187 5     -2543.988          34.000    22201663.859 5  90912126.914 5     -1982.329          33.000
G25  20460608.672 8 107521226.424 8     -1111.727          51.000    20460610.992 8  83782777.480 8      -866.280          51.000
G29  20294017.383 8 106645789.375 8       696.133          50.000    20294017.477 8  83100610.923 8       542.444          50.000
G32  23779073.594 8 124959914.837 8     -2750.355          49.000    23779075.000 8  97371344.590 8     -2143.134          49.000
R15  20584853.844 8 109999206.916 8     -2463.184          51.000    20584856.273 8  85554939.370 8     -1915.812          49.000
R18  19233593.234 8 102670321.496 8       927.223          50.000    19233595.641 7  79854683.762 7       721.176          47.000
C27  21530693.641 8 112115961.961 8       519.090          51.000
C28  23495461.641 5 122347012.902 5     -2420.176          34.000
C30  24121050.914 6 125604717.090 6      2981.156          37.000
E15  24833287.102 8 130499818.982 8      2654.105          51.000    24833291.656 8  99993380.492 8      2033.665          51.000
E30  22301393.219 8 117194601.758 8      -584.066          51.000    22301394.828 8  89798459.888 8      -447.567          51.000
> 2020 05 09 11 09  0.0000000  0 11        .000000000000
G12  22216211.336 5 116746991.382 5     -2551.043          32.000    22216214.258 5  90971677.434 5     -1987.829          31.000
G25  20466988.109 8 107554749.471 8     -1123.648          51.000    20466990.398 8  83808899.319 8      -875.570          51.000
G29  20290090.172 8 106625152.541 8       679.297          51.000    20290090.273 8  83084530.284 8       529.322          51.000
G32  23794796.969 8 125042541.033 8     -2758.273          49.000    23794797.219 8  97435728.592 8     -2149.304          49.000
R15  20598725.547 8 110073334.445 8     -2479.113          51.000    20598728.422 8  85612594.074 8     -1928.202          48.000
R18  19228454.812 8 102642893.429 8       900.715          50.000    19228457.109 7  79833350.830 7       700.556          47.000
C27  21527748.000 8 112100622.505 8       503.117          51.000
C28  23509432.180 6 122419759.253 6     -2430.000          36.000
C30  24103893.602 5 125515389.018 5      2973.703          35.000
E15  24818160.133 8 130420324.048 8      2645.066          51.000    24818164.477 8  99932468.800 8      2026.775          51.000
E30  22304750.672 8 117212244.780 8      -592.574          51.000    22304751.805 8  89811978.557 8      -454.065          51.000
> 2020 05 09 11 09 30.0000000  0 13        .000000000000
G02  23661523.211 4 124342143.226 4     -1996.398          29.000
G12  22230790.016 5 116823607.254 5     -2557.816          32.000    22230795.750 5  91031377.837 5     -1993.110          32.000
G25  20473430.984 8 107588605.973 8     -1134.270          51.000    20473433.031 8  83835280.993 8      -883.846          51.000
G29  20286254.578 8 106604996.105 8       663.734          51.000    20286254.023 8  83068823.975 8       517.196          51.000
G32  23810560.695 8 125125379.426 8     -2764.852          48.000    23810560.867 8  97500277.952 8     -2154.430          48.000
R15  20612682.266 8 110147913.674 8     -2493.617          51.000    20612684.656 8  85670600.135 8     -1939.480          48.000
R17  20679880.508 5 110662218.027 5     -3010.742          32.000    20679849.867 5  86070505.015 5     -2341.688          30.000
R18  19223461.430 8 102616239.033 8       875.414          50.000    19223464.164 8  79812619.641 8       680.878          48.000
C27  21524889.617 8 112085737.792 8       488.438          51.000
C28  23523451.352 6 122492762.418 6     -2437.887          36.000
C30  24086778.773 6 125426277.281 6      2966.949          39.000
E15  24803080.820 8 130341080.123 8      2637.145          51.000    24803085.000 8  99871749.444 8      2020.672          51.000
E30  22308152.328 8 117230120.240 8      -599.859          51.000    22308153.031 8  89825675.334 8      -459.603          51.000
> 2020 05 09 11 10  0.0000000  0 12        .000000000000
G25  20479933.711 8 107622777.275 8     -1145.734          51.000    20479935.539 8  83861907.957 8      -892.780          51.000
G29  20282506.977 8 106585301.446 8       647.402          51.000    20282505.789 8  83053477.494 8       504.469          51.000
G32  23826360.656 7 125208366.569 7     -2772.129          47.000    23826363.047 7  97564967.963 7     -2160.100          47.000
R15  20626719.531 8 110222924.829 8     -2508.914          51.000    20626722.133 8  85728942.070 8     -1951.381          48.000
R17  20696802.625 5 110752770.644 5     -3027.609          32.000    20696773.492 5  86140934.119 5     -2354.813          30.000
R18  19218609.789 8 102590339.890 8       849.289          50.000    19218612.719 8  79792475.881 8       660.558          48.000
C27  21522115.023 8 112071289.309 8       472.949          51.000
C28  23537514.234 5 122566002.149 5     -2446.328          32.000
C30  24069703.789 6 125337364.857 6      2959.078          40.000
E02  26681636.273 5 140212941.207 5     -2313.652          33.000
E15  24788046.016 8 130262070.205 8      2628.391          51.000    24788050.062 8  99811209.405 8      2013.938          51.000
E30  22311594.867 8 117248210.135 8      -607.969          51.000    22311595.617 8  89839536.405 8      -465.795          51.000
> 2020 05 09 11 10 30.0000000  0 11        .000000000000
G25  20486511.641 8 107657343.882 8     -1157.398          51.000    20486513.203 8  83888842.964 8      -901.869          51.000
G29  20278862.383 8 106566148.961 8       630.816          51.000    20278861.328 8  83038553.485 8       491.545          51.000
G32  23842211.414 7 125291664.110 7     -2779.484          47.000    23842214.984 7  97629875.076 7     -2165.835          47.000
R15  20640852.805 8 110298449.324 8     -2524.582          51.000    20640855.250 7  85787683.306 7     -1963.567          47.000
R18  19213915.148 8 102565278.120 8       822.828          50.000    19213918.180 8  79772983.373 8       639.977          48.000
C27  21519439.477 8 112057356.786 8       457.238          51.000
C28  23551636.812 5 122639563.465 5     -2454.992          30.000
C30  24052683.453 7 125248733.116 7      2951.121          43.000
E02  26694857.570 5 140282422.727 5     -2318.281          34.000
E15  24773071.148 8 130183376.467 8      2619.305          51.000    24773074.992 8  99750911.647 8      2006.964          51.000
E30  22315093.430 8 117266595.575 8      -616.320          51.000    22315094.461 8  89853623.942 8      -472.260          51.000
> 2020 05 09 11 11  0.0000000  0 11        .000000000000
G25  20493145.211 8 107692203.689 8     -1167.797          51.000    20493146.648 8  83916006.443 8      -909.972          51.000
G29  20275301.539 8 106547436.401 8       615.594          51.000    20275300.484 8  83023972.256 8       479.683          51.000
G32  23858093.469 7 125375125.002 7     -2785.590          47.000    23858097.734 7  97694909.483 7     -2170.593          46.000
R15  20655062.375 8 110374382.509 8     -2538.863          51.000    20655064.797 7  85846742.434 7     -1974.671          46.000
R18  19209357.992 8 102540950.230 8       797.738          51.000    19209361.227 8  79754061.693 8       620.466          49.000
C27  21516843.273 8 112043838.989 8       442.777          51.000
C28  23565801.625 5 122713329.648 5     -2463.512          30.000
C30  24035698.195 7 125160282.440 7      2944.430          45.000
E02                                                                  26708103.680 6 107542460.688 6     -1778.907          36.000
E15  24758137.008 8 130104898.573 8      2611.457          51.000    24758140.898 8  99690779.262 8      2000.990          51.000
E30  22318628.812 8 117285175.158 8      -623.445          51.000    22318630.102 8  89867860.226 8      -477.672          51.000
> 2020 05 09 11 11 30.0000000  0 12        .000000000000
G18  24139739.461 6 126855183.962 6      3745.652          36.000
G25  20499842.078 8 107727396.954 8     -1178.469          51.000    20499843.867 8  83943429.761 8      -918.290          51.000
G29  20271832.070 8 106529203.676 8       600.031          51.000    20271831.000 8  83009764.923 8       467.557          51.000
G32  23874013.703 7 125458786.470 7     -2791.754          45.000    23874018.211 7  97760100.211 7     -2175.390          45.000
R15  20669355.578 8 110450764.604 8     -2553.316          50.000    20669358.711 7  85906150.722 7     -1985.916          46.000
R18  19204946.203 8 102517397.433 8       772.434          51.000    19204949.328 8  79735742.863 8       600.782          49.000
C27  21514334.422 8 112030775.717 8       428.102          51.000
C28  23580015.586 5 122787328.745 5     -2471.590          30.000
C30  24018755.539 7 125072054.127 7      2937.516          46.000
E02                                                                  26721367.875 6 107595870.596 6     -1781.778          40.000
E15  24743251.961 8 130026678.409 8      2603.273          51.000    24743255.812 8  99630844.363 8      1994.680          51.000
E30  22322208.969 8 117303989.722 8      -630.895          51.000    22322210.234 8  89882276.579 8      -483.413          51.000
> 2020 05 09 11 12  0.0000000  0 13        .000000000000
G14  23241080.859 6 122132707.249 6     -1615.922          36.000
G18  24118364.141 5 126742854.012 5      3743.660          35.000
G25  20506601.914 8 107762920.896 8     -1189.477          51.000    20506604.008 8  83971110.749 8      -926.862          51.000
G29  20268453.289 8 106511447.955 8       584.062          51.000    20268452.266 8  82995929.309 8       455.117          51.000
G32  23889971.227 7 125542642.944 7     -2798.332          45.000    23889975.430 7  97825442.864 7     -2180.518          45.000
R15  20683732.570 8 110527592.159 8     -2568.148          51.000    20683736.156 7  85965905.469 7     -1997.449          47.000
R18  19200679.062 8 102494617.380 8       746.676          51.000    19200682.039 8  79718025.054 8       580.748          49.000
C27  21511912.438 8 112018164.167 8       413.016          51.000
C28  23594277.008 5 122861590.379 5     -2478.770          33.000
C30  24001855.250 7 124984047.009 7      2930.020          47.000
E02                                                                  26734655.148 6 107649373.516 6     -1784.684          40.000
E15  24728415.938 8 129948714.880 8      2594.754          51.000    24728419.531 8  99571106.086 8      1988.122          51.000
E30  22325833.516 8 117323037.129 8      -638.633          51.000    22325834.727 8  89896871.345 8      -489.270          51.000
> 2020 05 09 11 12 30.0000000  0 14        .000000000000
G14  23250342.047 5 122181373.996 5     -1628.070          34.000
G18  24096992.492 5 126630548.765 5      3743.035          33.000
G25  20513420.234 8 107798751.701 8     -1198.754          51.000    20513422.445 8  83999030.851 8      -934.094          51.000
G29  20265160.875 8 106494145.271 8       569.832          51.000    20265159.633 8  82982446.710 8       444.025          51.000
G32  23905960.797 7 125626667.672 7     -2802.953          45.000    23905964.195 7  97890916.608 7     -2184.119          45.000
R15  20698188.773 8 110604840.126 8     -2581.250          51.000    20698192.469 7  86025987.201 7     -2007.639          47.000
R16  19375186.609 6 103498771.625 6      1142.754          36.000    19375187.758 5  80499045.656 5       888.809          33.000
R18  19196551.828 8 102472585.985 8       722.594          51.000    19196554.672 8  79700889.547 8       562.017          48.000
C27  21509572.430 8 112005980.602 8       399.656          51.000
C28  23608581.336 5 122936072.106 5     -2485.258          32.000
C30  23984993.094 8 124896238.926 8      2924.266          48.000
E02                                                                  26747959.523 6 107702951.276 6     -1786.818          38.000
E15  24713624.742 8 129870985.826 8      2587.789          51.000    24713628.297 8  99511547.474 8      1982.768          51.000
E30  22329498.008 8 117342294.243 8      -644.703          51.000    22329499.289 8  89911626.790 8      -493.963          51.000
> 2020 05 09 11 13  0.0000000  0 14        .000000000000
G14  23259689.125 5 122230502.278 5     -1645.465          31.000
G25  20520308.547 8 107834950.051 8     -1213.398          51.000    20520310.852 8  84027237.355 8      -945.508          51.000
G29  20261966.062 8 106477356.297 8       550.418          51.000    20261964.789 8  82969364.375 8       428.894          51.000
G32  23921993.609 7 125710918.445 7     -2812.598          46.000    23921996.094 7  97956566.498 7     -2191.638          46.000
R15  20712734.891 8 110682569.694 8     -2599.656          51.000    20712738.609 8  86086443.485 8     -2021.958          48.000
R16  19368830.109 5 103464817.895 5      1121.559          35.000    19368832.695 5  80472637.185 5       872.323          34.000
R17  20800229.961 5 111306230.876 5     -3123.723          34.000
R18  19192576.352 8 102451365.087 8       693.277          51.000    19192579.109 8  79684384.415 8       539.216          49.000
C27  21507326.383 8 111994285.055 8       381.059          51.000
C28  23622939.695 5 123010832.267 5     -2496.824          31.000
C30  23968181.070 8 124808691.547 8      2913.254          48.000
E02                                                                  26761294.617 5 107756650.323 5     -1792.742          34.000
E15  24698889.930 8 129793553.625 8      2575.422          50.000    24698893.820 8  99452216.317 8      1973.369          51.000
E30  22333214.070 8 117361822.298 8      -656.098          51.000    22333215.883 8  89926589.840 8      -502.769          51.000
> 2020 05 09 11 13 30.0000000  0 13        .000000000000
G18  24054296.438 5 126406180.689 5      3739.059          31.000
G25  20527262.352 8 107871492.284 8     -1221.863          51.000    20527264.555 8  84055711.809 8      -952.101          51.000
G29  20258864.297 8 106461056.812 8       537.207          51.000    20258863.391 8  82956663.465 8       418.603          51.000
G32  23938064.477 8 125795368.667 8     -2816.230          48.000    23938066.164 8  98022371.807 8     -2194.468          48.000
R15  20727366.727 8 110760755.889 8     -2611.816          51.000    20727370.180 8  86147254.938 8     -2031.413          48.000
R16  19362574.227 6 103431403.347 6      1106.633          36.000    19362577.008 5  80446648.054 5       860.714          34.000
R17  20817796.375 5 111400134.033 5     -3137.062          34.000
R18  19188748.008 8 102430930.507 8       670.086          51.000    19188750.820 8  79668490.867 8       521.178          48.000
C27  21505169.648 8 111983053.926 8       368.730          51.000
C28  23637345.773 5 123085845.872 5     -2502.465          33.000
C30  23951414.812 8 124721382.901 8      2908.367          48.000
E15  24684207.086 8 129716396.210 8      2569.426          49.000    24684211.578 8  99393095.722 8      1968.814          51.000
E30  22336977.281 8 117381598.328 8      -661.227          51.000    22336979.703 8  89941742.880 8      -506.609          51.000
> 2020 05 09 11 14  0.0000000  0 14        .000000000000
G12  22363650.852 5 117521782.532 5     -2607.645          31.000
G25  20534270.367 8 107908319.062 8     -1227.879          51.000    20534272.391 8  84084407.983 8      -956.789          51.000
G29  20255844.523 8 106445187.439 8       526.105          51.000    20255843.891 8  82944297.728 8       409.952          51.000
G32  23954161.375 8 125879956.160 8     -2817.625          48.000    23954162.594 8  98088284.068 8     -2195.555          48.000
R15  20742072.469 8 110839337.586 8     -2621.582          51.000    20742075.781 8  86208373.999 8     -2039.008          48.000
R16  19356409.047 6 103398470.272 6      1094.398          37.000    19356411.539 5  80421033.465 5       851.199          34.000
R17  20835427.039 5 111494514.826 5     -3146.500          31.000
R18  19185055.773 8 102411222.520 8       649.164          51.000    19185058.578 8  79653162.446 8       504.905          48.000
C27  21503090.898 8 111972228.393 8       358.305          51.000
C28  23651788.797 5 123161052.443 5     -2505.828          33.000
C30  23934683.398 7 124634255.734 7      2905.492          47.000
E15  24669565.445 8 129639456.022 8      2565.207          48.000    24669570.453 8  99334141.566 8      1965.629          51.000
E30  22340776.578 8 117401563.709 8      -664.391          51.000    22340779.078 8  89957041.011 8      -509.082          51.000
E36  26717367.148 5 140400710.483 5     -2511.891          32.000
> 2020 05 09 11 14 30.0000000  0 14        .000000000000
G12  22378591.508 5 117600287.933 5     -2619.914          34.000    22378598.781 4  91636636.360 4     -2041.501          29.000
G25  20541344.469 8 107945493.571 8     -1244.281          51.000    20541346.352 8  84113375.123 8      -969.570          51.000
G29  20252918.516 8 106429811.084 8       504.934          51.000    20252917.938 8  82932316.155 8       393.458          51.000
G32  23970295.711 8 125964741.200 8     -2828.867          48.000    23970296.766 8  98154350.265 8     -2204.312          48.000
R15  20756863.953 8 110918378.384 8     -2641.742          51.000    20756867.031 8  86269850.116 8     -2054.691          48.000
R16  19350346.414 6 103366085.334 6      1070.484          36.000    19350348.461 5  80395845.182 5       832.599          34.000
R17  20853147.859 5 111589339.693 5     -3167.344          31.000    20853143.891 4  86791737.031 4     -2463.490          26.000
R18  19181511.602 8 102392305.152 8       617.938          50.000    19181514.523 8  79638448.930 8       480.618          48.000
C27  21501102.039 8 111961870.874 8       338.043          51.000
C28  23666281.039 5 123236512.808 5     -2518.930          34.000
C30  23917998.570 7 124547374.195 7      2892.504          46.000
E15  24654977.523 8 129562797.867 8      2551.172          49.000    24654982.484 8  99275403.514 8      1954.788          51.000
E30  22344624.031 8 117421782.194 8      -677.512          51.000    22344626.344 8  89972533.093 8      -519.168          51.000
E36  26731762.367 5 140476358.753 5     -2524.512          33.000
> 2020 05 09 11 15  0.0000000  0 15        .000000000000
G02  23791468.180 5 125025005.752 5     -2129.539          34.000
G12  22393575.766 5 117679034.493 5     -2616.230          31.000    22393584.648 4  91698001.083 4     -2038.636          29.000
G14  23297883.344 5 122431205.534 5     -1689.668          35.000
G25  20548492.711 8 107983057.642 8     -1245.797          51.000    20548494.438 8  84142645.815 8      -970.751          51.000
G29  20250094.234 8 106414970.017 8       498.652          51.000    20250093.945 8  82920751.709 8       388.560          51.000
G32  23986474.727 8 126049762.673 8     -2825.078          48.000    23986476.164 8  98220600.699 8     -2201.363          48.000
R15  20771749.516 8 110997919.979 8     -2646.656          51.000    20771751.711 8  86331715.779 8     -2058.513          48.000
R16  19344394.508 6 103334293.450 6      1062.965          38.000    19344397.883 6  80371118.136 6       826.750          36.000
R18  19178123.609 8 102374221.102 8       601.883          51.000    19178126.516 8  79624383.562 8       468.131          48.000
C27  21499211.148 8 111952022.626 8       332.520          51.000
C28  23680829.531 5 123312266.770 5     -2517.348          35.000
C30  23901368.414 7 124460781.105 7      2894.316          45.000
E15  24640451.859 8 129486465.179 8      2551.715          50.000    24640455.938 8  99216914.845 8      1955.264          51.000
E30  22348527.719 8 117442296.228 8      -675.883          51.000    22348530.039 8  89988251.621 8      -517.905          51.000
E36  26746209.414 5 140552278.466 5     -2521.945          34.000
> 2020 05 09 11 15 30.0000000  0 14        .000000000000
G02  23803706.602 5 125089312.493 5     -2153.367          35.000
G12  22408574.047 6 117757849.035 6     -2634.074          36.000    22408584.961 5  91759394.130 5     -2052.534          35.000
G25  20555680.781 8 108020831.406 8     -1268.273          51.000    20555682.656 8  84172079.894 8      -988.265          51.000
G29  20247337.344 8 106400483.044 8       471.387          51.000    20247337.398 8  82909463.185 8       367.317          51.000
G32  24002663.672 7 126134837.841 7     -2842.453          46.000    24002665.609 7  98286892.975 7     -2214.899          46.000
R15  20786694.172 8 111077778.593 8     -2673.086          51.000    20786696.336 8  86393827.985 8     -2079.070          48.000
R16  19338519.750 6 103302914.465 6      1033.730          38.000    19338524.453 6  80346712.230 6       804.010          36.000
R18  19174857.586 8 102356787.653 8       564.414          50.000    19174860.484 8  79610824.214 8       438.989          48.000
C27  21497383.766 8 111942505.294 8       306.105          51.000
C28  23695399.648 5 123388134.381 5     -2536.691          33.000
C30  23884759.203 7 124374299.730 7      2875.199          45.000
E15  24625954.539 8 129410279.748 8      2531.395          51.000    24625957.641 8  99158539.045 8      1939.571          51.000
E30  22352453.547 8 117462926.615 8      -695.312          51.000    22352456.016 8  90004059.316 8      -532.805          51.000
E36  26760673.617 5 140628284.372 5     -2540.762          35.000    26760674.852 5 107754148.245 5     -1947.144          33.000
> 2020 05 09 11 16  0.0000000  0 14        .000000000000
G02  23816040.062 5 125154119.843 5     -2161.500          35.000
G12  22423632.430 5 117836985.533 5     -2635.590          35.000
G25  20562955.531 8 108059060.730 8     -1274.812          51.000    20562957.500 8  84201868.959 8      -993.360          51.000
G29  20244694.633 8 106386596.133 8       459.918          51.000    20244694.750 8  82898642.239 8       358.381          51.000
G32  24018908.891 7 126220209.710 7     -2843.680          45.000    24018911.156 7  98353416.442 7     -2215.857          45.000
R15  20801744.188 8 111158203.732 8     -2683.152          51.000    20801746.820 8  86456380.841 8     -2086.896          48.000
R16  19332770.156 6 103272201.206 6      1020.293          39.000    19332773.914 5  80322824.146 5       793.561          35.000
R18  19171760.250 8 102340254.544 8       543.242          51.000    19171763.117 8  79597965.139 8       422.522          48.000
C27  21495666.586 8 111933562.365 8       295.488          51.000
C30  23868219.211 7 124288175.276 7      2871.812          47.000
E02  26841793.266 5 141054569.788 5     -2359.203          34.000
E15  24611532.367 8 129334489.135 8      2526.793          51.000    24611534.984 8  99100465.759 8      1936.099          51.000
E30  22356448.273 8 117483919.886 8      -698.758          51.000    22356451.031 8  90020145.063 8      -535.427          51.000
E36  26775201.289 5 140704624.734 5     -2542.828          35.000    26775201.680 5 107812641.770 5     -1948.829          32.000
> 2020 05 09 11 16 30.0000000  0 17        .000000000000
G02  23828429.500 5 125219226.587 5     -2176.336          32.000    23828436.766 5  97573464.813 5     -1695.846          30.000
G12  22438709.102 4 117916211.980 4     -2644.262          29.000    22438719.234 4  91882803.466 4     -2060.509          25.000
G25  20570279.070 8 108097546.203 8     -1288.934          51.000    20570280.898 8  84231857.619 8     -1004.364          51.000
G29  20242128.211 8 106373109.585 8       440.961          51.000    20242128.164 8  82888133.260 8       343.609          51.000
G32  24035172.258 7 126305675.957 7     -2852.266          45.000    24035174.414 7  98420013.477 7     -2222.548          45.000
R15  20816861.141 8 111238991.433 8     -2700.824          48.000    20816864.969 7  86519215.701 7     -2100.641          47.000
R16  19327107.172 6 103241952.302 6       998.289          38.000    19327110.312 6  80299297.241 6       776.444          36.000
R17  20924857.812 5 111973113.156 5     -3227.098          35.000
R18  19168793.664 8 102324419.022 8       514.320          51.000    19168796.820 8  79585648.628 8       400.027          48.000
R19  21522638.727 6 115131604.982 6      3846.203          36.000    21522635.258 5  89546795.805 5      2991.494          34.000
C27  21494021.555 8 111924996.067 8       277.355          51.000
C28  23724732.672 5 123540917.418 5     -2550.207          32.000
C30  23851710.797 8 124202211.525 8      2861.012          48.000
E02  26855282.320 5 141125460.622 5     -2366.457          33.000
E15  24597147.578 8 129258895.512 8      2514.512          51.000    24597150.406 8  99042543.423 8      1926.722          51.000
E30  22360474.164 8 117505077.295 8      -709.930          51.000    22360477.352 8  90036356.571 8      -543.993          51.000
E36  26789754.852 6 140781111.711 6     -2553.223          36.000
> 2020 05 09 11 17  0.0000000  0 17        .000000000000
G02  23840898.484 5 125284752.987 5     -2190.711          33.000
G12  22453829.289 5 117995678.179 5     -2652.219          33.000    22453848.430 4  91944707.661 4     -2066.664          29.000
G25  20577674.609 8 108136410.066 8     -1301.207          51.000    20577676.406 8  84262141.119 8     -1013.928          51.000
G29  20239661.047 8 106360145.513 8       424.016          51.000    20239661.242 8  82878031.398 8       330.402          51.000
G32  24051476.719 7 126391356.008 7     -2858.957          46.000    24051478.195 7  98486777.092 7     -2227.759          45.000
R15  20832069.367 8 111320265.336 8     -2716.551          49.000    20832074.312 8  86582428.720 8     -2112.873          48.000
R16  19321555.531 6 103212295.188 6       979.410          40.000    19321558.383 6  80276230.613 6       761.763          37.000
R17  20942999.625 5 112070165.129 5     -3242.637          34.000
R18  19165980.953 8 102309405.297 8       487.391          50.000    19165984.328 8  79573971.297 8       379.082          48.000
R19  21501108.656 5 115016441.404 5      3831.770          35.000    21501108.477 5  89457224.268 5      2980.268          35.000
C27  21492471.875 8 111916927.287 8       261.336          51.000
C28  23739450.883 6 123617572.672 6     -2559.402          36.000
C30  23835257.289 8 124116531.107 8      2851.938          50.000
E02  26868807.812 5 141196534.874 5     -2371.543          35.000
E15  24582823.789 8 129183622.735 8      2504.348          51.000    24582827.016 8  98984866.937 8      1918.874          51.000
E30  22364554.969 8 117526521.622 8      -719.008          51.000    22364558.211 8  90052787.940 8      -550.937          51.000
E36  26804354.906 6 140857833.953 6     -2560.973          37.000    26804355.930 5 107930029.345 5     -1962.594          33.000
> 2020 05 09 11 17 30.0000000  0 15        .000000000000
G18  23883985.375 5 125511188.167 5      3719.633          32.000    23884003.086 4  97800999.212 4      2898.412          28.000
G25  20585134.086 8 108175609.916 8     -1311.227          51.000    20585135.852 8  84292686.437 8     -1021.735          51.000
G29  20237285.203 8 106347661.391 8       409.125          51.000    20237285.672 8  82868303.526 8       318.799          51.000
G32  24067813.312 7 126477204.543 7     -2863.527          47.000    24067814.539 7  98553671.974 7     -2231.323          47.000
R15  20847361.656 8 111401981.424 8     -2730.242          51.000    20847366.719 8  86645985.643 8     -2123.525          48.000
R16  19316107.148 6 103183189.178 6       962.188          41.000    19316109.688 6  80253592.587 6       748.368          38.000
R18  19163314.164 8 102295170.194 8       462.461          50.000    19163317.664 8  79562899.542 8       359.689          48.000
R19  21479654.766 5 114901686.021 5      3819.281          35.000    21479657.781 6  89367970.118 6      2970.552          37.000
C27  21491009.734 8 111909313.822 8       247.148          51.000
C28  23754213.109 6 123694459.946 6     -2565.906          37.000
C30  23818850.617 8 124031093.470 8      2844.859          50.000
E02  26882356.688 5 141267737.892 5     -2374.406          32.000
E15  24568553.250 8 129108630.120 8      2496.109          51.000    24568556.648 8  98927405.103 8      1912.546          51.000
E30  22368682.430 8 117548211.186 8      -726.035          51.000    22368685.445 8  90069407.214 8      -556.304          51.000
E36  26818996.023 6 140934772.594 6     -2566.996          36.000    26818997.336 5 107988982.304 5     -1967.120          33.000
> 2020 05 09 11 18  0.0000000  0 17        .000000000000
G12  22484165.773 5 118155113.544 5     -2661.266          34.000
G14  23357534.508 5 122744664.502 5     -1779.719          33.000
G18  23862745.898 6 125399573.436 6      3719.008          36.000
G25  20592636.305 8 108215034.521 8     -1319.914          51.000    20592638.305 8  84323406.896 8     -1028.504          51.000
G29  20234979.781 8 106335545.596 8       395.742          51.000    20234979.969 8  82858862.647 8       308.371          51.000
G32  24084160.227 7 126563107.428 7     -2866.367          47.000    24084161.828 7  98620609.203 7     -2233.536          47.000
R15  20862716.031 8 111484025.862 8     -2742.230          51.000    20862719.906 7  86709797.978 7     -2132.846          47.000
R16  19310741.180 6 103154523.652 6       946.012          41.000    19310743.766 6  80231297.206 6       735.787          39.000
R17  20979497.672 4 112265509.647 4     -3266.758          29.000
R18  19160771.914 8 102281600.476 8       439.258          49.000    19160775.742 8  79552345.338 8       341.645          48.000
R19  21458258.273 6 114787228.660 6      3808.152          36.000    21458262.492 6  89278947.738 6      2961.896          40.000
C27  21489613.820 8 111902045.226 8       234.613          51.000
C28  23768999.859 5 123771467.358 5     -2570.906          35.000
C30  23802469.555 8 123945789.880 8      2839.293          50.000
E15  24554314.711 8 129033808.112 8      2489.145          50.000    24554318.008 8  98870073.967 8      1907.273          51.000
E30  22372835.453 8 117570035.415 8      -731.695          51.000    22372838.156 8  90086129.662 8      -560.650          51.000
E36  26833655.555 6 141011808.882 6     -2571.547          36.000    26833657.625 5 108048017.082 5     -1970.616          33.000
> 2020 05 09 11 18 30.0000000  0 16        .000000000000
G18  23841563.609 6 125288258.373 6      3712.395          38.000    23841564.867 5  97627214.312 5      2892.790          33.000
G25  20600242.914 8 108255007.870 8     -1334.320          51.000    20600244.992 8  84354554.940 8     -1039.730          51.000
G29  20232806.008 8 106324121.783 8       376.570          51.000    20232805.898 8  82849960.987 8       293.431          51.000
G32  24100578.539 7 126649385.896 7     -2875.020          46.000    24100580.938 7  98687839.082 7     -2240.278          46.000
R15  20878193.234 8 111566727.205 8     -2760.250          51.000    20878196.391 8  86774121.206 8     -2146.864          48.000
R16  19305519.164 6 103126630.090 6       924.367          40.000    19305522.211 6  80209602.187 6       718.952          39.000
R17  20997893.484 5 112363961.299 5     -3284.914          33.000
R18  19158415.977 8 102269025.161 8       410.047          50.000    19158419.680 8  79542564.541 8       318.925          48.000
R19  21436980.211 6 114673402.636 6      3791.082          38.000    21436984.891 7  89190416.420 7      2948.622          42.000
C27  21488345.734 8 111895442.315 8       216.215          51.000
C28  23783873.180 5 123848914.308 5     -2581.395          32.000
C30  23786175.727 8 123860942.797 8      2827.797          50.000
E02  26909524.992 5 141410506.188 5     -2383.891          35.000
E15  24540170.195 8 128959482.217 8      2476.531          49.000    24540173.242 8  98813122.957 8      1897.641          50.000
E30  22377075.984 8 117592318.905 8      -743.133          51.000    22377078.492 8  90103204.015 8      -569.410          51.000
E36  26848394.875 6 141089265.323 6     -2581.562          36.000    26848398.094 5 108107370.746 5     -1978.167          33.000
> 2020 05 09 11 19  0.0000000  0 16        .000000000000
G12  22514666.164 5 118315369.481 5     -2677.777          32.000    22514669.211 5  92193823.732 5     -2086.580          31.000
G18  23820372.445 6 125176898.259 6      3709.070          36.000    23820374.703 5  97540440.144 5      2890.179          32.000
G25  20607887.273 8 108295179.288 8     -1346.344          51.000    20607889.367 8  84385857.336 8     -1049.102          51.000
G29  20230697.078 8 106313038.785 8       359.801          51.000    20230696.664 8  82841324.880 8       280.364          51.000
G32  24117000.977 7 126735686.321 7     -2881.117          44.000    24117004.250 7  98755086.090 7     -2245.029          44.000
R15  20893726.078 8 111649727.818 8     -2775.676          51.000    20893728.633 7  86838677.180 7     -2158.862          47.000
R16  19300375.727 7 103099154.835 7       904.574          43.000    19300378.984 6  80188232.544 6       703.558          39.000
R18  19156179.367 8 102257087.766 8       383.215          49.000    19156183.445 8  79533279.933 8       298.059          48.000
R19  21415754.047 6 114559854.069 6      3776.305          39.000    21415759.320 7  89102100.909 7      2937.129          44.000
C27  21487138.656 8 111889157.396 8       200.285          51.000
C28  23798767.461 4 123926425.594 4     -2589.758          29.000
C30  23769903.016 8 123776206.277 8      2818.891          50.000
E02  26923138.602 5 141482050.896 5     -2388.770          35.000
E15  24526053.906 8 128885303.406 8      2466.270          50.000    24526056.516 8  98756284.663 8      1889.670          49.000
E30  22381337.352 8 117614711.617 8      -752.230          51.000    22381339.727 8  90120362.061 8      -576.351          51.000
E36  26863147.367 6 141166789.708 6     -2589.191          37.000    26863151.484 5 108166772.531 5     -1984.414          33.000
> 2020 05 09 11 19 30.0000000  0 15        .000000000000
G18  23799194.492 6 125065611.660 6      3705.434          37.000    23799198.641 5  97453723.399 5      2887.354          31.000
G25  20615591.438 8 108335664.274 8     -1357.855          51.000    20615593.734 8  84417404.070 8     -1058.069          51.000
G29  20228674.945 8 106302411.874 8       343.453          51.000    20228674.250 8  82833044.173 8       267.626          51.000
G32  24133449.047 6 126822121.262 6     -2886.559          40.000    24133452.953 6  98822437.963 6     -2249.263          40.000
R15  20909336.266 8 111733144.321 8     -2790.609          51.000    20909338.797 7  86903556.658 7     -2170.474          47.000
R16  19295333.156 7 103072217.615 7       885.797          42.000    19295335.953 6  80167281.385 6       688.950          40.000
R18  19154084.359 8 102245905.285 8       357.012          50.000    19154088.453 8  79524582.462 8       277.676          48.000
R19  21394602.461 6 114446703.927 6      3761.637          40.000    21394607.922 7  89014095.272 7      2925.717          45.000
C27  21486014.742 8 111883304.667 8       184.832          51.000
C28  23813702.656 5 124004198.046 5     -2597.395          30.000
C30  23753673.945 8 123691696.176 8      2810.012          50.000
E02  26936774.328 6 141553701.144 6     -2393.168          38.000
E15  24511988.469 8 128811388.838 8      2456.367          51.000    24511990.484 8  98699648.843 8      1882.199          49.000
E30  22385641.641 8 117637329.677 8      -760.777          51.000    22385643.867 8  90137692.780 8      -582.823          51.000
E36  26877934.469 6 141244496.038 6     -2596.145          37.000    26877939.219 5 108226313.686 5     -1989.257          34.000
> 2020 05 09 11 20  0.0000000  0 17        .000000000000
G12  22545288.914 5 118476288.874 5     -2689.434          34.000    22545296.391 5  92319220.592 5     -2095.656          31.000
G18  23778038.984 6 124954443.009 6      3702.125          38.000    23778041.969 5  97367098.400 5      2884.767          32.000
G21  23492525.852 6 123454074.163 6      3406.191          37.000
G25  20623363.188 8 108376504.139 8     -1368.750          51.000    20623365.477 8  84449227.323 8     -1066.558          51.000
G29  20226747.414 8 106292282.072 8       327.973          51.000    20226746.211 8  82825150.832 8       255.563          51.000
G32  24149930.117 6 126908729.230 6     -2891.184          41.000    24149934.406 6  98889924.675 6     -2252.870          41.000
R15  20925032.031 8 111817017.943 8     -2804.895          50.000    20925035.039 8  86968791.674 8     -2181.585          48.000
R16  19290399.359 7 103045862.345 7       867.238          43.000    19290402.070 6  80146782.834 6       674.519          40.000
R18  19152138.742 8 102235519.550 8       331.535          50.000    19152143.125 8  79516504.694 8       257.864          49.000
R19  21373533.789 6 114333997.673 6      3748.094          41.000    21373538.820 7  88926434.890 7      2915.184          44.000
C27  21484981.344 8 111877924.785 8       170.117          51.000
C28  23828682.273 4 124082201.093 4     -2604.297          28.000
C30  23737496.359 8 123607454.884 8      2802.203          49.000
E02  26950438.570 6 141625497.292 6     -2396.984          39.000
E15  24497981.867 8 128737781.354 8      2447.055          51.000    24497983.484 8  98643248.342 8      1875.022          50.000
E30  22389996.672 8 117660215.087 8      -768.684          51.000    22389998.914 8  90155228.346 8      -588.905          51.000
E36  26892763.797 6 141322424.103 6     -2602.453          37.000    26892768.922 5 108286024.736 5     -1994.037          35.000
> 2020 05 09 11 20 30.0000000  0 16        .000000000000
G12  22560670.352 5 118557122.856 5     -2694.844          33.000
G18  23756922.367 6 124843476.048 6      3700.836          39.000    23756925.586 6  97280630.701 6      2883.771          36.000
G21  23473106.156 5 123352011.451 5      3402.387          35.000
G25  20631217.820 8 108417779.694 8     -1378.180          51.000    20631219.922 8  84481390.082 8     -1073.906          51.000
G29  20224929.883 8 106282729.906 8       313.691          51.000    20224928.094 8  82817707.592 8       244.438          51.000
G32  24166458.914 7 126995588.254 7     -2894.367          43.000    24166463.695 7  98957606.995 7     -2255.351          43.000
R15  20940828.734 8 111901430.043 8     -2817.730          51.000    20940832.070 8  87034445.504 8     -2191.571          48.000
R16  19285590.469 7 103020173.877 7       850.078          43.000    19285593.406 6  80126802.927 6       661.172          41.000
R18  19150357.812 8 102226012.019 8       307.281          49.000    19150362.133 8  79509109.970 8       238.997          48.000
R19  21352563.875 6 114221820.850 6      3735.332          40.000    21352567.961 7  88839186.314 7      2905.261          43.000
C27  21484054.133 8 111873097.573 8       156.598          51.000
C30  23721385.445 7 123523563.960 7      2795.426          47.000
E02  26964144.883 6 141697520.219 6     -2399.609          37.000
E15  24484049.430 8 128664563.396 8      2439.027          51.000    24484051.109 8  98587146.338 8      1868.871          50.000
E30  22394418.055 8 117683449.277 8      -775.359          51.000    22394420.195 8  90173031.169 8      -594.101          51.000
E36  26907650.359 6 141400653.291 6     -2607.621          37.000    26907655.867 6 108345966.525 6     -1998.176          36.000
> 2020 05 09 11 21  0.0000000  0 17        .000000000000
G12  22576061.141 5 118637989.793 5     -2701.652          34.000
G18  23735791.383 6 124732434.315 6      3696.285          37.000    23735795.094 5  97194104.569 5      2880.213          32.000
G21  23453678.961 5 123249941.035 5      3396.367          33.000    23453683.516 5  96038912.331 5      2646.520          31.000
G25  20639102.062 8 108459211.302 8     -1390.059          51.000    20639103.938 8  84513674.450 8     -1083.163          51.000
G29  20223168.906 8 106273475.344 8       297.141          51.000    20223167.094 8  82810496.248 8       231.538          51.000
G32  24182981.492 7 127082415.834 7     -2900.020          43.000    24182987.156 7  99025264.786 7     -2259.759          43.000
R15  20956672.828 8 111986095.030 8     -2832.922          51.000    20956675.883 7  87100296.061 7     -2203.381          47.000
R16  19280853.391 7 102994870.521 7       830.367          44.000    19280856.664 6  80107122.513 6       645.841          41.000
R18  19148688.047 8 102217098.501 8       280.668          49.000    19148692.398 8  79502177.238 8       218.297          48.000
R19  21331640.438 6 114109892.004 6      3720.414          40.000    21331643.352 7  88752130.597 7      2893.655          44.000
C27  21483180.000 8 111868545.722 8       140.785          51.000
C28  23858766.805 5 124238857.289 5     -2618.789          31.000
C30  23705287.844 7 123439747.800 7      2786.262          46.000
E02  26977839.625 5 141769505.224 5     -2404.699          32.000
E15  24470137.953 8 128591457.018 8      2428.613          51.000    24470140.188 8  98531129.816 8      1860.796          51.000
E30  22398852.734 8 117706753.258 8      -784.336          51.000    22398854.836 8  90190887.472 8      -601.027          51.000
E36  26922540.758 6 141478902.437 6     -2615.348          37.000    26922546.328 6 108405923.600 6     -2003.779          36.000
> 2020 05 09 11 21 30.0000000  0 17        .000000000000
G12  22591471.406 5 118718999.749 5     -2708.207          34.000
G14  23430600.148 5 123128622.714 5     -1875.426          31.000
G18  23714661.266 5 124621397.548 5      3691.527          33.000    23714665.156 5  97107582.613 5      2876.521          31.000
G21  23434267.250 6 123147942.741 6      3389.836          36.000
G25  20647030.594 8 108500875.784 8     -1401.641          51.000    20647032.289 8  84546140.274 8     -1092.191          51.000
G29  20221478.992 8 106264594.791 8       280.812          51.000    20221477.398 8  82803576.324 8       218.815          51.000
G32  24199512.023 7 127169285.894 7     -2905.336          44.000    24199518.836 7  99092955.682 7     -2263.901          44.000
R15  20972578.664 8 112071090.220 8     -2847.887          51.000    20972581.570 7  87166403.389 7     -2215.023          47.000
R16  19276203.750 7 102970032.264 7       810.980          45.000    19276206.836 6  80087803.882 6       630.763          41.000
R18  19147144.266 8 102208856.621 8       254.422          49.000    19147148.633 8  79495766.897 8       197.884          48.000
R19  21310778.625 6 113998292.621 6      3705.293          38.000    21310780.664 7  88665331.115 7      2881.898          45.000
C27  21482373.242 8 111864344.989 8       125.195          51.000
C28  23873830.898 4 124317302.482 4     -2625.496          29.000
C30  23689220.344 8 123356083.872 8      2777.340          49.000
E15  24456262.047 8 128518540.586 8      2418.340          50.000    24456264.883 8  98475258.821 8      1853.011          51.000
E30  22403315.312 8 117730204.523 8      -793.180          51.000    22403317.586 8  90208856.616 8      -607.788          51.000
E36  26937449.227 6 141557246.856 6     -2622.203          37.000    26937454.852 6 108465953.707 6     -2009.319          36.000
> 2020 05 09 11 22  0.0000000  0 14        .000000000000
G14  23441355.234 4 123185153.206 4     -1888.527          28.000
G21  23414940.500 6 123046386.279 6      3385.621          36.000
G25  20655073.195 8 108543139.917 8     -1411.082          51.000    20655074.820 8  84579073.371 8     -1099.544          51.000
G29  20219929.961 8 106256454.734 8       266.617          51.000    20219928.258 8  82797233.412 8       207.754          51.000
G32  24216119.922 7 127256562.516 7     -2908.352          43.000    24216127.984 7  99160963.397 7     -2266.248          43.000
R15  20988616.219 8 112156787.399 8     -2860.445          51.000    20988618.492 7  87233056.685 7     -2224.794          46.000
R16  19271711.305 7 102946034.500 7       793.750          44.000    19271714.305 7  80069138.953 7       617.358          42.000
R18  19145796.000 8 102201658.431 8       230.223          49.000    19145799.969 8  79490168.295 8       179.062          48.000
R19  21290048.312 5 113887399.435 5      3692.508          35.000    21290050.039 7  88579080.896 7      2871.954          45.000
C27  21481703.781 8 111860858.549 8       111.879          51.000
C30  23673253.453 8 123272937.067 8      2770.516          51.000
E15  24442491.883 8 128446182.515 8      2410.215          48.000    24442495.844 8  98419815.645 8      1846.827          51.000
E30  22407875.688 8 117754170.485 8      -799.805          51.000    22407878.398 8  90227220.134 8      -612.837          51.000
E36  26952445.258 6 141636051.887 6     -2626.773          36.000    26952450.648 5 108526336.737 5     -2012.845          35.000
> 2020 05 09 11 22 30.0000000  0 15        .000000000000
G14  23452166.398 5 123241964.712 5     -1899.488          30.000
G21  23395626.547 5 122944847.693 5      3380.793          30.000
G25  20663158.555 8 108585628.986 8     -1421.711          51.000    20663160.328 8  84612181.726 8     -1107.827          51.000
G29  20218450.430 8 106248679.873 8       251.383          51.000    20218448.484 8  82791175.081 8       195.883          51.000
G32  24232733.500 7 127343867.954 7     -2912.277          43.000    24232742.250 7  99228993.554 7     -2269.310          43.000
R15  21004713.445 8 112242804.920 8     -2874.316          51.000    21004715.148 7  87299959.100 7     -2235.582          46.000
R16  19267305.406 7 102922498.653 7       774.988          46.000    19267308.625 7  80050833.284 7       602.769          43.000
R18  19144571.938 8 102195122.864 8       205.016          49.000    19144575.688 8  79485085.082 8       159.457          48.000
R19  21269377.477 5 113776834.196 5      3678.766          32.000    21269380.711 7  88493085.737 7      2861.262          45.000
C27  21481100.352 8 111857714.802 8        97.418          51.000
C30  23657315.102 8 123189937.504 8      2762.473          51.000
E02  27019089.195 5 141986261.581 5     -2415.188          34.000    27019100.859 5 108794715.511 5     -1850.805          35.000
E15  24428757.023 8 128374009.603 8      2400.941          49.000    24428762.109 8  98364514.339 8      1839.721          51.000
E30  22412462.734 8 117778277.029 8      -807.570          51.000    22412465.906 8  90245691.365 8      -618.779          51.000
E36  26967457.250 6 141714941.295 6     -2632.422          36.000    26967462.484 5 108586784.421 5     -2017.293          34.000
> 2020 05 09 11 23  0.0000000  0 14        .000000000000
G02  23995911.125 5 126099334.616 5     -2329.996          33.000
G25  20671308.953 8 108628459.531 8     -1429.516          51.000    20671310.805 8  84645556.157 8     -1113.908          51.000
G29  20217062.555 8 106241386.471 8       239.047          51.000    20217060.492 8  82785491.933 8       186.270          51.000
G32  24249374.555 7 127431316.022 7     -2913.406          42.000    24249383.023 7  99297134.876 7     -2270.190          42.000
R15  21020892.508 8 112329260.223 8     -2885.086          51.000    21020894.172 7  87367202.063 7     -2243.956          47.000
R16  19263008.758 7 102899545.552 7       759.277          46.000    19263011.891 7  80032980.872 7       590.549          43.000
R18  19143494.078 8 102189367.791 8       182.844          51.000    19143497.523 8  79480608.922 8       142.212          48.000
R19  21248790.336 5 113666718.880 5      3667.500          31.000    21248795.719 7  88407440.479 7      2852.497          45.000
C27  21480584.703 8 111855028.886 8        85.809          51.000
C30  23641427.156 8 123107202.147 8      2757.383          51.000
E02  27032892.133 4 142058806.034 4     -2415.734          29.000    27032904.664 5 108850303.023 5     -1850.796          34.000
E15  24415080.578 8 128302139.996 8      2394.609          50.000    24415086.281 8  98309445.452 8      1834.798          51.000
E30  22417098.758 8 117802641.390 8      -812.516          51.000    22417102.289 8  90264360.120 8      -622.547          51.000
E36  26982507.016 5 141794030.200 5     -2635.598          35.000    26982512.633 5 108647384.937 5     -2019.238          32.000
> 2020 05 09 11 23 30.0000000  0 16        .000000000000
G02  24009248.078 6 126169422.415 6     -2343.316          36.000
G14  23473990.812 4 123356652.969 4     -1922.961          29.000
G21  23357088.234 5 122742322.139 5      3369.629          33.000    23357091.117 4  95643410.848 4      2625.685          29.000
G25  20679500.570 8 108671506.434 8     -1441.594          51.000    20679502.359 8  84679099.196 8     -1123.323          51.000
G29  20215742.406 8 106234449.260 8       222.273          51.000    20215740.570 8  82780086.307 8       173.200          51.000
G32  24266018.617 6 127518778.759 6     -2918.582          41.000    24266025.586 6  99365287.590 6     -2274.223          41.000
R15  21037129.203 8 112416025.183 8     -2900.477          50.000    21037131.594 8  87434685.890 8     -2255.926          49.000
R16  19258797.594 7 102877050.381 7       739.121          46.000    19258800.742 7  80015484.628 7       574.872          43.000
R18  19142538.523 8 102184265.651 8       156.219          51.000    19142541.703 8  79476640.593 8       121.503          49.000
R19  21228265.828 5 113556907.983 5      3651.254          32.000    21228272.062 7  88322048.359 7      2839.864          45.000
C27  21480133.102 8 111852676.508 8        69.770          51.000
C28  23934637.273 5 124633947.153 5     -2649.746          30.000
C30  23625566.359 8 123024608.425 8      2747.762          51.000
E15  24401438.656 8 128230450.202 8      2383.582          50.000    24401444.656 8  98254514.333 8      1826.483          51.000
E30  22421760.516 8 117827139.049 8      -821.816          51.000    22421763.930 8  90283131.035 8      -629.680          51.000
E36  26997570.719 5 141873191.908 5     -2642.586          35.000    26997576.430 5 108708052.327 5     -2025.374          31.000
> 2020 05 09 11 24  0.0000000  0 17        .000000000000
G02  24022669.188 5 126239950.682 5     -2354.254          35.000
G14  23485014.492 4 123414586.579 4     -1935.680          28.000
G18  23609485.234 5 124068689.065 5      3678.137          32.000    23609481.344 5  96676878.529 5      2866.081          30.000
G21  23337879.539 5 122641369.687 5      3364.535          33.000
G25  20687772.758 8 108714977.170 8     -1452.074          51.000    20687774.664 8  84712972.473 8     -1131.486          51.000
G29  20214529.164 8 106228074.873 8       207.078          51.000    20214527.883 8  82775119.243 8       161.357          51.000
G32  24282704.516 7 127606460.804 7     -2922.453          42.000    24282708.000 7  99433611.151 7     -2277.236          42.000
R15  21053462.555 8 112503309.628 8     -2914.199          49.000    21053465.969 8  87502573.761 8     -2266.599          49.000
R16  19254712.094 7 102855226.110 7       720.305          46.000    19254714.844 7  79998510.195 7       560.237          43.000
R18  19141744.734 8 102180026.623 8       130.895          51.000    19141747.766 8  79473343.583 8       101.810          49.000
R19  21207842.945 5 113447657.928 5      3636.621          34.000    21207848.961 7  88237076.119 7      2828.483          43.000
C27  21479785.086 8 111850862.916 8        55.355          51.000
C28  23949936.383 5 124713597.594 5     -2656.078          31.000
C30  23609772.297 8 122942363.343 8      2739.574          50.000
E15  24387870.836 8 128159149.216 8      2374.070          50.000    24387876.867 8  98199881.161 8      1819.150          51.000
E30  22426487.062 8 117851978.144 8      -829.758          51.000    22426490.516 8  90302163.575 8      -635.788          51.000
E36  27012687.680 5 141952631.578 5     -2648.727          33.000
> 2020 05 09 11 24 30.0000000  0 15        .000000000000
G02  24036159.188 5 126310845.945 5     -2368.801          31.000
G18  23588516.359 5 123958508.189 5      3671.109          33.000
G21  23318709.578 5 122540625.469 5      3355.742          34.000
G25  20696111.805 8 108758799.712 8     -1465.344          51.000    20696113.812 8  84747119.896 8     -1141.826          51.000
G29  20213409.445 8 106222191.140 8       189.168          51.000    20213408.547 8  82770534.506 8       147.404          51.000
G32  24299417.742 7 127694287.313 7     -2928.590          42.000    24299417.844 7  99502047.315 7     -2282.018          42.000
R15  21069879.766 8 112591039.293 8     -2930.535          51.000    21069883.258 8  87570808.000 8     -2279.302          48.000
R16  19250738.898 7 102834001.839 7       698.652          46.000    19250741.266 7  79982002.441 7       543.393          43.000
R18  19141098.648 8 102176576.750 8       103.059          51.000    19141101.656 8  79470660.353 8        80.157          49.000
R19  21187508.594 5 113338877.899 5      3619.363          35.000    21187512.961 6  88152469.478 6      2815.060          41.000
C27  21479526.625 8 111849516.404 8        38.336          51.000
C28  23965278.508 5 124793486.572 5     -2664.938          30.000
C30  23594030.773 7 122860396.980 7      2728.770          47.000
E15  24374363.648 8 128088166.650 8      2362.062          51.000    24374369.164 8  98145491.952 8      1809.868          51.000
E30  22431264.703 8 117877087.306 8      -840.219          50.000    22431268.523 8  90321403.032 8      -643.768          51.000
> 2020 05 09 11 25  0.0000000  0 16        .000000000000
G12  22700465.852 5 119291765.604 5     -2758.316          32.000    22700462.594 5  92954603.200 5     -2149.353          33.000
G18  23567573.742 5 123848459.163 5      3656.594          35.000
G21  23299576.414 5 122440078.838 5      3339.188          33.000
G25  20704515.227 8 108802960.392 8     -1487.238          51.000    20704517.305 8  84781530.787 8     -1158.887          51.000
G29  20212380.562 8 106216783.878 8       162.805          51.000    20212379.672 8  82766321.055 8       126.861          51.000
G32  24316154.875 6 127782241.804 6     -2943.000          39.000    24316153.875 6  99570583.282 6     -2293.244          38.000
R15  21086377.773 8 112679199.256 8     -2955.445          51.000    21086380.883 8  87639376.872 8     -2298.683          48.000
R16  19246875.742 7 102813366.008 7       668.277          46.000    19246878.336 7  79965952.338 7       519.771          44.000
R18  19140597.602 8 102173901.643 8        66.625          51.000    19140600.711 8  79468579.719 8        51.819          50.000
R19  21167260.148 5 113230557.088 5      3593.695          33.000    21167262.500 6  88068220.024 6      2795.099          40.000
C27  21479355.047 8 111848623.071 8        12.809          51.000
C28  23980659.188 5 124873585.275 5     -2683.207          31.000
C30  23578340.438 8 122778697.232 8      2709.492          48.000
E02  27088320.336 5 142350109.637 5     -2446.000          32.000
E15  24360914.961 8 128017490.354 8      2341.219          51.000    24360919.156 8  98091337.405 8      1793.894          51.000
E30  22436091.367 8 117902453.473 8      -859.391          49.000    22436095.680 8  90340839.437 8      -658.437          51.000
> 2020 05 09 11 25 30.0000000  0 15        .000000000000
G14  23518520.578 5 123590653.902 5     -1976.465          33.000    23518526.211 5  96304447.670 5     -1540.112          32.000
G18  23546666.828 6 123738596.093 6      3661.086          37.000    23546665.898 5  96419676.574 5      2852.797          33.000
G21  23280491.180 5 122339783.859 5      3341.020          33.000
G25  20712992.703 8 108847510.050 8     -1489.594          51.000    20712994.609 8  84816244.785 8     -1160.722          51.000
G29  20211451.719 8 106211903.562 8       155.906          51.000    20211450.742 8  82762518.223 8       121.485          51.000
G32  24332925.367 6 127870372.513 6     -2938.926          36.000    24332924.766 6  99639256.500 6     -2290.078          36.000
R15  21102965.516 8 112767840.321 8     -2960.680          51.000    21102969.117 8  87708319.844 8     -2302.754          48.000
R16  19243132.914 7 102793372.503 7       657.703          47.000    19243135.484 7  79950401.828 7       511.550          43.000
R18  19140251.195 8 102172052.245 8        49.812          51.000    19140254.570 8  79467141.300 8        38.743          50.000
R19  21147106.352 5 113122750.417 5      3586.410          33.000    21147109.430 6  87984370.443 6      2789.433          41.000
C27  21479280.180 8 111848233.017 8         6.520          51.000
C28  23996088.398 5 124953936.482 5     -2680.871          32.000
C30  23562712.180 8 122697315.847 8      2709.379          48.000
E15  24347534.289 8 127947172.794 8      2339.969          51.000    24347537.461 8  98037457.735 8      1792.930          51.000
E30  22440977.125 8 117928128.206 8      -858.992          50.000    22440981.656 8  90360512.285 8      -658.153          51.000
> 2020 05 09 11 26  0.0000000  0 13        .000000000000
G14  23529789.141 6 123649868.645 6     -1985.633          36.000    23529797.188 5  96350589.068 5     -1547.243          35.000
G18  23525730.297 6 123628574.223 6      3659.047          40.000    23525728.406 5  96333945.276 5      2851.202          32.000
G25  20721478.062 8 108892100.845 8     -1498.102          51.000    20721479.859 8  84850990.835 8     -1167.352          51.000
G29  20210556.883 8 106207201.885 8       142.672          51.000    20210556.062 8  82758854.581 8       111.173          51.000
R15  21119577.156 8 112856607.691 8     -2972.238          51.000    21119580.891 7  87777361.050 7     -2311.744          46.000
R16  19239444.695 7 102773670.137 7       640.691          47.000    19239446.938 7  79935077.767 7       498.316          44.000
R18  19139992.969 8 102170674.510 8        26.871          50.000    19139996.469 8  79466069.738 8        20.900          50.000
R19  21126983.461 6 113015107.103 6      3574.246          36.000    21126987.492 7  87900647.874 7      2779.972          42.000
C27  21479235.289 8 111848001.078 8        -5.855          51.000
C28  24011500.797 5 125034199.981 5     -2684.715          34.000
C30  23547079.570 8 122615909.505 8      2702.961          48.000
E15  24334155.430 8 127876867.640 8      2332.246          50.000    24334158.203 8  97983587.580 8      1786.980          51.000
E30  22445855.773 8 117953764.255 8      -864.953          51.000    22445860.102 8  90380155.489 8      -662.789          51.000
> 2020 05 09 11 26 30.0000000  0 13        .000000000000
G14  23541171.016 6 123709679.131 6     -1997.445          36.000    23541176.188 5  96397194.560 5     -1556.451          33.000
G18  23504863.461 6 123518916.366 6      3655.367          37.000    23504862.141 5  96248497.680 5      2848.338          35.000
G25  20730070.102 8 108937252.541 8     -1508.258          51.000    20730072.070 8  84886173.944 8     -1175.266          51.000
G29  20209794.867 8 106203198.049 8       128.035          51.000    20209794.266 8  82755734.720 8        99.768          51.000
R15  21136311.328 8 112946028.722 8     -2985.234          51.000    21136313.836 7  87846910.696 7     -2321.849          45.000
R16  19235910.195 7 102754789.566 7       622.051          47.000    19235912.289 7  79920392.885 7       483.817          44.000
R18  19139921.836 8 102170295.831 8         2.281          50.000    19139925.664 8  79465775.214 8         1.774          50.000
R19  21106991.711 6 112908159.320 6      3559.773          37.000    21106995.547 7  87817466.305 7      2768.713          43.000
C27  21479319.797 8 111848442.005 8       -19.758          51.000
C28  24026995.078 5 125114889.238 5     -2690.336          33.000
C30  23531541.367 7 122534994.729 7      2695.109          47.000
E15  24320877.523 8 127807096.236 8      2322.914          48.000    24320880.789 8  97930126.404 8      1779.904          51.000
E30  22450826.273 8 117979882.023 8      -872.430          51.000    22450829.898 8  90400167.808 8      -668.530          51.000
> 2020 05 09 11 27  0.0000000  0 16        .000000000000
G02  24104548.102 4 126670255.051 4     -2422.734          29.000
G14  23552635.047 6 123769923.838 6     -2009.355          37.000    23552642.656 6  96444138.529 6     -1565.728          37.000
G18  23484036.547 5 123409466.538 5      3650.992          34.000    23484034.875 5  96163212.195 5      2844.929          33.000
G21  23223391.492 5 122039773.658 5      3324.555          33.000
G25  20738738.562 8 108982806.068 8     -1519.031          50.000    20738740.773 8  84921670.177 8     -1183.664          50.000
G29  20209135.383 8 106199732.579 8       112.680          51.000    20209134.953 8  82753034.356 8        87.802          51.000
R15  21153137.344 8 113035940.624 8     -2998.996          51.000    21153139.375 7  87916842.105 7     -2332.553          46.000
R16  19232499.727 7 102736570.956 7       602.445          47.000    19232501.570 7  79906222.855 7       468.569          44.000
R18  19140007.359 8 102170753.700 8       -23.016          49.000    19140011.516 8  79466131.337 8       -17.901          50.000
R19  21087100.055 6 112801748.344 6      3544.301          39.000    21087103.578 7  87734702.264 7      2756.681          42.000
C27  21479503.000 8 111849397.733 8       -34.352          51.000
C28  24042540.672 5 125195845.029 5     -2696.176          32.000
C30  23516065.203 7 122454415.354 7      2686.621          43.000
E02  27144118.266 6 142643305.239 6     -2449.680          36.000
E15  24307670.672 7 127737701.106 7      2312.969          46.000    24307675.500 8  97876953.528 8      1772.269          51.000
E30  22455858.211 8 118006323.152 8      -880.621          51.000    22455861.477 8  90420427.871 8      -674.818          51.000
> 2020 05 09 11 27 30.0000000  0 15        .000000000000
G02  24118436.336 5 126743198.060 5     -2427.582          34.000
G14  23564138.266 6 123830373.099 6     -2014.887          37.000    23564146.523 5  96491241.715 5     -1570.048          35.000
G18  23463207.258 5 123300000.023 5      3652.945          32.000    23463203.812 5  96077913.670 5      2846.454          31.000
G21  23204430.133 5 121940135.525 5      3324.316          34.000
G25  20747440.203 8 109028533.570 8     -1523.660          51.000    20747442.328 8  84957301.971 8     -1187.268          51.000
G29  20208534.828 8 106196577.030 8       103.469          51.000    20208534.625 8  82750575.493 8        80.622          51.000
R15  21170011.469 8 113126110.696 8     -3006.426          51.000    21170013.836 7  87986974.359 7     -2338.331          47.000
R16  19229170.258 7 102718785.182 7       589.152          47.000    19229171.828 7  79892389.475 7       458.230          44.000
R18  19140206.234 8 102171815.937 8       -41.875          50.000    19140210.406 8  79466957.504 8       -32.572          49.000
R19  21067265.422 6 112695645.284 6      3535.309          38.000    21067268.695 6  87652177.694 6      2749.688          41.000
C27  21479741.555 8 111850642.098 8       -42.816          51.000
C30  23500609.344 7 122373946.923 7      2683.910          43.000
E02  27158112.484 5 142716856.389 5     -2447.715          35.000
E15  24294493.242 7 127668455.897 7      2309.184          47.000    24294498.805 8  97823895.540 8      1769.318          51.000
E30  22460908.547 8 118032860.350 8      -882.730          51.000    22460911.586 8  90440761.556 8      -676.414          51.000
> 2020 05 09 11 28  0.0000000  0 15        .000000000000
G02  24132354.539 5 126816334.673 5     -2445.402          34.000
G12  22795175.789 5 119789458.387 5     -2782.367          31.000    22795170.258 5  93342400.329 5     -2168.072          30.000
G14  23575700.766 6 123891132.484 6     -2033.316          37.000    23575708.203 6  96538586.706 6     -1584.399          36.000
G21  23185501.125 5 121840656.784 5      3310.062          35.000    23185503.203 5  94940751.778 5      2579.260          31.000
G25  20756195.586 8 109074543.317 8     -1541.129          50.000    20756197.523 8  84993153.724 8     -1200.880          51.000
G29  20208013.703 8 106193839.472 8        81.453          51.000    20208013.617 8  82748442.343 8        63.473          51.000
R15  21186953.734 8 113216647.962 8     -3027.051          49.000    21186956.852 7  88057392.220 7     -2354.376          46.000
R16  19225942.805 8 102701544.514 8       562.773          48.000    19225944.234 7  79878980.064 7       437.713          44.000
R18  19140538.680 8 102173591.509 8       -73.898          50.000    19140543.031 8  79468338.517 8       -57.474          50.000
R19  21047508.648 6 112589963.728 6      3512.703          37.000    21047512.844 6  87569980.971 6      2732.102          41.000
C27  21480056.406 8 111852282.061 8       -64.020          51.000
C30  23485197.977 7 122293698.150 7      2668.523          46.000
E02  27172121.859 5 142790481.214 5     -2458.004          35.000
E15  24281366.195 8 127599470.457 8      2292.297          49.000    24281371.469 8  97771036.600 8      1756.462          51.000
E30  22465997.859 8 118059602.609 8      -897.676          51.000    22466000.516 8  90461252.365 8      -687.847          51.000
> 2020 05 09 11 28 30.0000000  0 14        .000000000000
G02  24146347.406 5 126889863.324 5     -2456.223          35.000
G14  23587342.266 6 123952308.856 6     -2044.625          38.000    23587347.953 5  96586256.521 5     -1593.220          35.000
G21  23166623.820 6 121741449.377 6      3303.562          36.000    23166623.812 5  94863447.288 5      2574.208          31.000
G25  20765025.492 8 109120944.600 8     -1551.750          51.000    20765027.336 8  85029310.566 8     -1209.156          51.000
G29  20207592.852 8 106191628.665 8        66.348          51.000    20207592.930 8  82746719.664 8        51.703          51.000
R15  21203985.648 8 113307662.365 8     -3040.449          51.000    21203988.867 7  88128181.173 7     -2364.794          46.000
R16  19222838.602 7 102684961.826 7       543.062          47.000    19222839.797 7  79866082.430 7       422.382          44.000
R18  19141025.773 8 102176190.708 8       -98.863          51.000    19141029.891 8  79470360.116 8       -76.894          49.000
R19  21027851.992 6 112484817.769 6      3497.418          37.000    21027856.633 6  87488200.797 6      2720.214          41.000
C27  21480468.031 8 111854425.378 8       -78.395          51.000
C30  23469851.180 8 122213778.640 8      2659.996          48.000
E02  27186165.992 6 142864268.760 6     -2461.770          36.000
E15  24268310.281 8 127530855.543 8      2282.391          51.000    24268314.602 8  97718461.570 8      1748.818          51.000
E30  22471146.742 8 118086659.768 8      -905.715          51.000    22471149.125 8  90481984.448 8      -693.977          51.000
> 2020 05 09 11 29  0.0000000  0 14        .000000000000
G02  24160425.227 5 126963836.724 5     -2469.598          35.000
G14  23599072.719 6 124013954.525 6     -2058.707          37.000    23599076.953 5  96634292.141 5     -1604.184          35.000
G21  23147808.641 6 121642570.930 6      3293.605          38.000    23147809.141 5  94786399.194 5      2566.461          34.000
G25  20773940.328 8 109167792.035 8     -1565.039          51.000    20773942.133 8  85065815.049 8     -1219.511          51.000
G29  20207282.742 8 106189998.513 8        48.648          51.000    20207282.953 8  82745449.426 8        37.908          51.000
R15  21221117.602 8 113399208.522 8     -3056.348          51.000    21221120.789 7  88199383.720 7     -2377.159          46.000
R16  19219868.234 7 102669094.939 7       520.934          47.000    19219869.672 7  79853741.514 7       405.171          44.000
R18  19141677.438 8 102179668.151 8      -126.461          51.000    19141681.258 8  79473064.798 8       -98.359          48.000
R19  21008306.828 6 112380266.303 6      3478.879          37.000    21008310.695 6  87406883.008 6      2705.795          40.000
C27  21480986.633 8 111857125.801 8       -95.355          51.000
C30  23454578.750 8 122134243.987 8      2648.625          50.000
E02  27200255.125 5 142938313.616 5     -2468.320          35.000
E15  24255335.477 8 127462667.345 8      2269.777          51.000    24255339.383 8  97666213.495 8      1739.210          51.000
E30  22476366.188 8 118114087.158 8      -916.465          51.000    22476368.344 8  90503000.227 8      -702.256          51.000
> 2020 05 09 11 29 30.0000000  0 16        .000000000000
G02  24174503.070 5 127037815.543 5     -2470.527          34.000
G12  22842949.438 4 120040508.028 4     -2792.652          29.000    22842953.445 4  93538059.433 4     -2176.093          28.000
G14  23610808.492 6 124075629.253 6     -2060.637          37.000    23610811.977 5  96682350.255 5     -1605.694          34.000
G21  23128972.766 6 121543586.435 6      3297.188          38.000    23128974.938 5  94709268.333 5      2569.237          31.000
G25  20782856.750 8 109214647.774 8     -1566.430          51.000    20782858.688 8  85102325.994 8     -1220.595          51.000
G29  20206999.883 8 106188510.879 8        42.723          51.000    20207000.117 8  82744290.227 8        33.290          51.000
R15  21238265.328 8 113490839.829 8     -3060.348          51.000    21238268.680 7  88270652.425 7     -2380.273          46.000
R16  19216949.039 8 102653501.179 8       510.699          48.000    19216950.805 7  79841613.030 7       397.211          45.000
R17  21420792.008 4 114626927.099 4     -3554.828          29.000
R18  19142410.211 8 102183578.145 8      -141.980          51.000    19142413.648 8  79476105.919 8      -110.429          48.000
R19  20988790.680 6 112275866.499 6      3472.801          38.000    20988793.227 6  87325683.193 6      2701.067          41.000
C27  21481528.859 8 111859948.984 8      -100.578          51.000
C30  23439296.609 8 122054661.662 8      2649.184          50.000
E02  27214305.312 5 143012140.055 5     -2462.992          33.000    27214306.742 5 109580735.382 5     -1886.922          33.000
E15  24242358.438 8 127394469.509 8      2268.867          51.000    24242362.359 8  97613958.040 8      1738.489          51.000
E30  22481572.828 8 118141447.524 8      -915.375          51.000    22481574.719 8  90523964.654 8      -701.439          51.000
> 2020 05 09 11 30  0.0000000  0 15        .000000000000
G02  24188710.805 5 127112478.602 5     -2505.195          33.000
G12  22858978.281 5 120124742.177 5     -2821.398          30.000    22858983.266 4  93603719.062 4     -2198.498          26.000
G14  23622678.797 5 124138011.779 5     -2095.883          34.000    23622680.648 4  96730959.891 4     -1633.168          29.000
G21  23110247.133 6 121445180.127 6      3266.172          39.000    23110251.602 5  94632613.060 5      2545.063          32.000
G25  20791904.430 8 109262192.907 8     -1601.102          51.000    20791906.352 8  85139374.134 8     -1247.612          51.000
G29  20206873.469 8 106187846.448 8         3.664          51.000    20206873.906 8  82743772.490 8         2.855          51.000
R15  21255558.500 8 113583247.968 8     -3098.027          51.000    21255561.250 7  88342525.388 7     -2409.577          45.000
R16  19214210.992 7 102638874.698 7       466.496          47.000    19214212.609 7  79830236.879 7       362.830          44.000
R18  19143353.383 8 102188611.584 8      -191.367          51.000    19143356.430 7  79480020.818 7      -148.841          47.000
R19  20969433.734 6 112172314.965 6      3432.762          39.000    20969435.023 6  87245143.168 6      2669.929          41.000
C27  21482224.188 8 111863569.478 8      -138.738          51.000
C30  23424135.125 8 121975707.977 8      2616.566          51.000
E02  27228446.703 5 143086454.139 5     -2490.602          31.000    27228450.703 5 109637685.677 5     -1908.057          32.000
E15  24229508.977 8 127326944.661 8      2234.766          51.000    24229513.305 8  97562218.249 8      1712.350          51.000
E30  22486896.391 8 118169422.648 8      -947.539          51.000    22486898.117 8  90545400.128 8      -726.057          51.000
> 2020 05 09 11 30 30.0000000  0 13        .000000000000
G14  23634595.898 5 124200637.728 5     -2088.695          35.000    23634595.469 5  96779759.324 5     -1627.549          34.000
G21  23091544.023 6 121346892.751 6      3276.605          37.000
G25  20800995.422 8 109309965.437 8     -1593.309          51.000    20800997.297 8  85176599.477 8     -1241.536          51.000
G29  20206815.609 8 106187542.546 8         6.980          51.000    20206816.008 8  82743535.680 8         5.439          51.000
R15  21272909.117 8 113675961.846 8     -3092.656          51.000    21272910.891 7  88414636.153 7     -2405.402          44.000
R16  19211566.391 7 102624748.032 7       465.312          47.000    19211567.844 7  79819249.476 7       361.910          44.000
R18  19144418.766 8 102194297.966 8      -197.531          51.000    19144421.500 8  79484443.559 8      -153.635          48.000
R19  20950147.594 6 112069144.440 6      3435.980          38.000    20950148.250 6  87164899.493 6      2672.429          40.000
C27  21482984.602 8 111867528.922 8      -134.750          51.000
C30  23409006.703 8 121896926.442 8      2625.977          51.000
E02                                                                  27242595.102 5 109694641.383 5     -1896.605          31.000
E15  24216699.648 8 127259632.332 8      2243.109          51.000    24216704.750 8  97510641.295 8      1718.761          51.000
E30  22492248.906 8 118197551.093 8      -937.297          51.000    22492250.906 8  90566953.096 8      -718.174          51.000
> 2020 05 09 11 31  0.0000000  0 14        .000000000000
G14  23646559.727 6 124263508.949 6     -2100.316          36.000    23646557.633 6  96828749.918 6     -1636.610          36.000
G18  23318197.398 5 122537987.503 5      3612.645          33.000    23318203.320 5  95484146.224 5      2815.045          33.000
G21  23072864.281 6 121248731.350 6      3268.699          37.000
G25  20810130.258 8 109357969.372 8     -1604.867          51.000    20810132.336 8  85214005.129 8     -1250.546          51.000
G29  20206827.008 8 106187602.438 8        -8.953          51.000    20206827.164 8  82743582.348 8        -6.976          51.000
R15  21290317.523 8 113768984.432 8     -3106.719          51.000    21290318.711 7  88486986.985 7     -2416.340          45.000
R16  19209016.445 7 102611127.746 7       444.781          46.000    19209018.273 7  79808655.912 7       345.944          44.000
R18  19145606.992 8 102200640.649 8      -223.145          51.000    19145609.734 7  79489376.789 7      -173.557          47.000
R19  20930933.547 6 111966362.002 6      3419.012          38.000    20930933.484 6  87084957.679 6      2659.234          39.000
C27  21483810.883 8 111871830.927 8      -149.961          51.000
C30  23393911.992 8 121818322.450 8      2616.430          51.000
E02  27256746.531 5 143235163.567 5     -2480.121          34.000
E15  24203931.664 8 127192538.084 8      2232.059          51.000    24203937.547 8  97459231.421 8      1710.339          51.000
E30  22497631.344 8 118225837.620 8      -946.312          51.000    22497633.875 8  90588627.170 8      -725.073          51.000
> 2020 05 09 11 31 30.0000000  0 16        .000000000000
G12  22907172.062 5 120378004.041 5     -2820.613          33.000    22907177.852 5  93801047.995 5     -2197.880          33.000
G14  23658581.562 6 124326683.181 6     -2111.812          39.000    23658578.234 5  96877976.541 5     -1645.571          35.000
G18  23297586.633 5 122429676.939 5      3607.727          35.000    23297592.133 5  95399748.428 5      2811.209          35.000
G21  23054220.828 6 121150758.934 6      3261.582          36.000    23054227.172 4  94403216.752 4      2541.468          28.000
G25  20819320.516 8 109406264.762 8     -1615.613          51.000    20819322.680 8  85251637.893 8     -1258.919          51.000
G29  20206919.078 8 106188085.842 8       -24.051          51.000    20206919.336 8  82743959.043 8       -18.741          51.000
R15  21307794.562 8 113862375.921 8     -3120.121          50.000    21307796.289 7  88559624.755 7     -2426.764          47.000
R16  19206573.117 7 102598076.322 7       424.625          46.000    19206575.133 7  79798504.802 7       330.264          44.000
R17  21501189.922 5 115057208.992 5     -3605.062          32.000
R18  19146929.156 8 102207699.209 8      -248.129          51.000    19146931.461 7  79494866.787 7      -192.986          47.000
R19  20911803.117 6 111864032.048 6      3402.430          36.000    20911803.336 6  87005367.799 6      2646.337          39.000
C27  21484714.195 8 111876534.550 8      -164.422          51.000
C30  23378862.453 8 121739956.984 8      2607.203          50.000
E02  27270913.656 5 143309617.023 5     -2484.215          34.000    27270916.109 5 109808685.164 5     -1903.232          31.000
E15  24191216.711 8 127125723.470 8      2221.598          50.000    24191223.297 8  97408035.825 8      1702.260          51.000
E30  22503055.609 8 118254342.890 8      -954.730          51.000    22503058.109 8  90610468.875 8      -731.553          51.000
> 2020 05 09 11 32  0.0000000  0 14        .000000000000
G14  23670683.305 6 124390277.794 6     -2128.066          38.000    23670679.625 5  96927530.726 5     -1658.240          34.000
G18  23277024.516 6 122321615.736 6      3596.812          39.000    23277028.789 5  95315544.881 5      2802.711          35.000
G21  23035636.945 6 121053098.429 6      3248.605          37.000    23035635.836 5  94327083.634 5      2531.381          33.000
G25  20828589.234 8 109454971.759 8     -1631.664          51.000    20828591.492 8  85289591.393 8     -1271.427          51.000
G29  20207114.516 8 106189112.155 8       -44.531          51.000    20207114.758 8  82744758.783 8       -34.700          51.000
R15  21325362.172 7 113956256.768 7     -3138.723          47.000    21325365.211 7  88632643.226 7     -2441.226          44.000
R16  19204259.547 7 102585718.605 7       399.039          45.000    19204262.008 7  79788893.236 7       310.364          44.000
R18  19148407.984 8 102215594.980 8      -278.352          51.000    19148410.719 8  79501007.979 8      -216.493          48.000
R19  20892780.633 5 111762279.917 5      3380.656          34.000    20892781.773 6  86926227.294 6      2629.399          40.000
C27  21485717.398 8 111881758.311 8      -184.008          51.000
C30  23363881.086 8 121661950.363 8      2593.066          49.000
E02  27285120.000 5 143384272.405 5     -2493.281          35.000    27285123.258 5 109865878.287 5     -1910.236          34.000
E15  24178578.000 8 127059310.106 8      2206.016          49.000    24178585.398 8  97357147.686 8      1690.282          51.000
E30  22508544.492 8 118283187.659 8      -968.305          51.000    22508546.992 8  90632570.719 8      -741.978          51.000
> 2020 05 09 11 32 30.0000000  0 15        .000000000000
G14  23682841.156 6 124454167.055 6     -2133.895          39.000    23682837.031 5  96977314.492 5     -1662.781          33.000
G18  23256486.422 6 122213683.453 6      3596.195          39.000    23256490.008 5  95231441.807 5      2802.230          35.000
G21  23017089.461 6 120955629.239 6      3246.203          36.000    23017088.602 5  94251133.647 5      2529.512          32.000
G25  20837912.680 8 109503966.748 8     -1637.406          51.000    20837915.125 8  85327769.299 8     -1275.904          51.000
G29  20207389.578 8 106190557.754 8       -54.512          51.000    20207389.578 8  82745885.210 8       -42.477          51.000
R15  21342997.047 7 114050500.400 7     -3146.828          47.000    21343001.508 7  88705943.850 7     -2447.536          43.000
R16  19202052.688 7 102573930.694 7       384.016          45.000    19202055.508 7  79779724.851 7       298.679          43.000
R18  19150019.906 8 102224201.134 8      -298.164          51.000    19150022.789 8  79507701.660 8      -231.905          48.000
R19  20873844.148 5 111660982.570 5      3369.238          35.000    20873845.531 6  86847440.468 6      2620.519          40.000
C27  21486796.922 8 111887379.317 8      -193.359          51.000
C28  24215619.906 5 126097082.615 5     -2762.449          32.000
C30  23348945.391 8 121584181.483 8      2588.902          49.000
E02  27299341.578 6 143459004.056 6     -2491.824          36.000    27299347.000 5 109923157.175 5     -1909.143          35.000
E15  24165992.828 8 126993175.982 8      2200.355          50.000    24166000.570 8  97306473.488 8      1686.008          51.000
E30  22514074.320 8 118312249.021 8      -971.762          50.000    22514077.359 8  90654838.518 8      -744.582          51.000
> 2020 05 09 11 33  0.0000000  0 15        .000000000000
G14  23695059.609 6 124518374.356 6     -2145.375          39.000    23695055.609 5  97027346.115 5     -1671.721          34.000
G18  23235977.844 6 122105908.731 6      3590.234          40.000    23235982.133 5  95147461.525 5      2797.582          35.000
G21  22998583.609 5 120858379.661 5      3238.016          35.000    22998583.266 5  94175354.790 5      2523.135          31.000
G25  20847295.695 8 109553275.316 8     -1648.574          50.000    20847298.102 8  85366191.563 8     -1284.603          51.000
G29  20207749.148 8 106192447.178 8       -70.223          51.000    20207749.273 8  82747357.466 8       -54.719          51.000
R15  21360705.609 8 114145131.738 8     -3160.508          49.000    21360710.039 7  88779545.927 7     -2458.176          42.000
R16  19199957.867 7 102562740.261 7       363.363          45.000    19199960.688 7  79771021.193 7       282.616          43.000
R18  19151769.594 8 102233542.529 8      -323.363          51.000    19151772.719 8  79514967.199 8      -251.505          49.000
R19  20854999.094 6 111560168.930 6      3352.715          38.000    20854999.727 6  86769029.894 6      2607.670          40.000
C27  21487957.305 8 111893422.383 8      -208.250          51.000
C28  24231552.844 5 126180060.650 5     -2768.719          32.000
C30  23334060.680 8 121506677.069 8      2579.211          48.000
E02  27313582.742 5 143533840.739 5     -2495.688          34.000    27313589.727 5 109980499.500 5     -1912.513          35.000
E15  24153466.414 8 126927348.082 8      2189.355          50.000    24153473.672 8  97256033.918 8      1677.642          51.000
E30  22519650.312 8 118341553.162 8      -980.582          50.000    22519653.695 8  90677292.348 8      -751.346          51.000
> 2020 05 09 11 33 30.0000000  0 15        .000000000000
G14  23707338.672 6 124582899.985 6     -2156.410          41.000    23707333.969 5  97077625.808 5     -1680.320          35.000
G18  23215500.523 6 121998297.698 6      3583.887          39.000    23215504.602 5  95063608.768 5      2792.639          31.000
G21  22980120.336 5 120761355.705 5      3230.305          35.000    22980120.016 5  94099751.704 5      2517.121          31.000
G25  20856738.867 8 109602900.325 8     -1659.453          50.000    20856741.078 8  85404860.397 8     -1293.080          49.000
G29  20208193.695 8 106194782.818 8       -85.352          51.000    20208193.930 8  82749177.445 8       -66.508          51.000
R15  21378487.789 8 114240152.225 8     -3173.844          51.000    21378491.719 7  88853450.635 7     -2468.548          46.000
R16  19197975.625 7 102552152.697 7       342.832          45.000    19197978.688 7  79762786.405 7       266.647          43.000
R18  19153657.445 8 102243620.892 8      -348.215          51.000    19153660.875 8  79522805.953 8      -270.834          50.000
R19  20836245.789 6 111459845.348 6      3335.723          40.000    20836245.602 7  86691000.476 7      2594.454          43.000
C27  21489199.047 8 111899889.897 8      -222.684          51.000
C28  24247517.656 5 126263201.617 5     -2774.633          33.000
C30  23319228.430 8 121429441.295 8      2570.000          49.000
E02  27327844.453 6 143608785.245 6     -2500.203          37.000    27327852.648 5 110037924.483 5     -1915.722          35.000
E15  24140999.352 8 126861830.743 8      2178.738          51.000    24141005.430 8  97205832.331 8      1669.357          50.000
E30  22525273.102 8 118371103.589 8      -989.148          49.000    22525276.906 8  90699934.894 8      -757.925          51.000
> 2020 05 09 11 34  0.0000000  0 16        .000000000000
G12  22988117.062 5 120803371.987 5     -2848.445          33.000
G14  23719679.781 6 124647751.533 6     -2166.469          41.000    23719674.680 5  97128159.434 5     -1688.164          34.000
G18  23195056.586 5 121890863.601 5      3578.988          35.000    23195061.789 5  94979893.981 5      2788.834          34.000
G21  22961702.258 5 120664570.253 5      3222.465          33.000    22961701.555 4  94024334.510 4      2511.018          29.000
G25  20866244.281 8 109652851.903 8     -1669.793          50.000    20866246.469 8  85443783.687 8     -1301.137          50.000
G29  20208725.047 8 106197574.483 8       -99.957          51.000    20208724.930 8  82751352.785 8       -77.889          51.000
R15  21396344.766 8 114335571.097 8     -3186.547          51.000    21396349.023 7  88927665.260 7     -2478.425          47.000
R16  19196108.812 7 102542180.055 7       322.859          45.000    19196111.742 7  79755029.908 7       251.113          42.000
R18  19155685.242 8 102254445.537 8      -372.531          51.000    19155688.617 8  79531225.115 8      -289.747          49.000
R19  20817586.062 6 111360024.951 6      3319.629          39.000    20817585.766 7  86613362.434 7      2581.934          42.000
C27  21490523.922 8 111906791.348 8      -236.680          51.000
C28  24263515.570 6 126346513.445 6     -2779.336          36.000
C30  23304450.758 8 121352485.496 8      2561.176          50.000
E02  27342128.969 6 143683847.615 6     -2503.492          38.000    27342136.992 6 110095439.788 6     -1918.239          38.000
E15  24128593.656 8 126796635.556 8      2168.445          51.000    24128597.977 8  97155877.603 8      1661.572          49.000
E30  22530945.055 8 118400911.043 8      -997.121          51.000    22530949.102 8  90722774.382 8      -764.064          51.000
> 2020 05 09 11 34 30.0000000  0 16        .000000000000
G12  23004388.555 6 120888866.462 6     -2848.863          36.000    23004386.414 5  94199114.488 5     -2219.890          32.000
G14  23732068.312 7 124712852.072 7     -2171.254          42.000    23732062.898 5  97178887.117 5     -1691.886          35.000
G18  23174633.297 4 121783519.292 4      3578.613          28.000
G21  22943315.648 4 120567951.827 4      3220.504          28.000    22943315.562 4  93949047.372 4      2509.484          27.000
G25  20875797.789 8 109703055.758 8     -1675.004          50.000    20875799.898 8  85482903.542 8     -1305.198          50.000
G29  20209328.852 8 106200747.096 8      -109.465          51.000    20209328.531 8  82753824.943 8       -85.297          51.000
R15  21414261.648 8 114431311.626 8     -3194.004          50.000    21414266.641 8  89002130.069 8     -2484.225          48.000
R16  19194343.453 7 102532749.084 7       308.031          45.000    19194346.242 7  79747694.710 7       239.580          42.000
R18  19157838.211 8 102265939.161 8      -391.469          50.000    19157841.773 8  79540164.617 8      -304.476          49.000
R19  20799006.109 6 111260634.827 6      3308.590          37.000    20799006.148 7  86536059.018 7      2573.348          42.000
C27  21491918.070 8 111914052.598 8      -245.340          51.000
C28  24279532.133 5 126429921.091 5     -2779.023          35.000
C30  23289713.203 8 121275737.394 8      2557.430          50.000
E02  27356421.047 5 143758953.662 5     -2501.387          35.000    27356429.125 6 110152988.507 6     -1916.803          37.000
E15  24116235.141 8 126731689.756 8      2163.449          51.000    24116237.258 7  97106114.006 7      1657.699          47.000
E30  22536652.297 8 118430901.887 8     -1000.074          51.000    22536656.164 8  90745754.387 8      -766.258          51.000
> 2020 05 09 11 35  0.0000000  0 14        .000000000000
G02  24333714.867 5 127874525.692 5     -2588.434          32.000
G14  23744528.227 7 124778328.082 7     -2186.242          42.000    23744522.742 6  97229907.364 6     -1703.565          38.000
G25  20885423.711 8 109753640.219 8     -1690.031          50.000    20885425.852 8  85522319.979 8     -1316.907          50.000
G29  20210029.477 8 106204428.674 8      -128.812          51.000    20210029.320 8  82756693.717 8      -100.373          51.000
R15  21432263.180 8 114527503.214 8     -3211.488          51.000    21432268.148 8  89076945.735 8     -2497.824          48.000
R16  19192704.047 7 102523991.858 7       283.105          46.000    19192706.641 7  79740883.530 7       220.193          42.000
R18  19160140.930 8 102278231.608 8      -420.695          49.000    19160144.750 8  79549725.415 8      -327.207          49.000
R19  20780531.266 6 111161808.973 6      3286.660          36.000    20780532.133 7  86459194.467 7      2556.294          43.000
C27  21493405.695 8 111921800.341 8      -263.961          51.000
C28  24295591.117 6 126513550.412 6     -2788.949          36.000
C30  23275039.359 7 121199325.603 7      2543.895          47.000
E02  27370745.352 5 143834236.936 5     -2510.152          32.000    27370753.797 5 110210669.088 5     -1923.396          33.000
E15  24103948.398 8 126667123.203 8      2148.172          51.000    24103948.953 7  97056640.981 7      1646.044          47.000
E30  22542419.125 8 118461205.149 8     -1012.988          51.000    22542422.641 8  90768973.768 8      -776.246          51.000
> 2020 05 09 11 35 30.0000000  0 14        .000000000000
G12  23037046.594 5 121060501.609 5     -2865.793          35.000    23037045.578 5  94332839.944 5     -2233.061          34.000
G14  23757051.055 7 124844135.298 7     -2198.484          42.000    23757046.461 6  97281185.656 6     -1713.105          37.000
G25  20895114.172 8 109804563.856 8     -1702.062          50.000    20895116.375 8  85562000.689 8     -1326.282          50.000
G29  20210818.875 8 106208576.588 8      -145.004          51.000    20210818.617 8  82759925.846 8      -112.990          51.000
R15  21450341.305 8 114624102.156 8     -3225.730          50.000    21450345.594 8  89152078.229 8     -2508.901          48.000
R16  19191183.445 7 102515868.590 7       261.156          46.000    19191185.852 7  79734565.426 7       203.122          42.000
R18  19162585.180 8 102291279.042 8      -446.320          49.000    19162588.703 8  79559873.401 8      -347.138          49.000
R19  20762154.109 6 111063508.097 6      3268.816          37.000    20762156.258 7  86382738.221 7      2542.413          44.000
C27  21494979.023 8 111929992.936 8      -279.488          51.000
C28  24311686.078 6 126597358.743 6     -2795.828          37.000
C30  23260420.711 7 121123210.349 7      2533.305          46.000
E02  27385095.094 5 143909645.566 5     -2515.141          32.000
E15  24091726.094 8 126602895.813 8      2136.316          51.000    24091726.234 8  97007427.825 8      1636.981          48.000
E30  22548237.727 8 118491779.934 8     -1022.617          51.000    22548240.836 8  90792401.169 8      -783.486          51.000
> 2020 05 09 11 36  0.0000000  0 14        .000000000000
G02  24363395.867 5 128030482.688 5     -2605.738          32.000
G14  23769624.352 7 124910207.316 7     -2204.422          43.000    23769620.453 6  97332670.315 6     -1717.731          36.000
G18  23113598.914 6 121462804.015 6      3558.504          36.000    23113606.812 5  94646312.565 5      2772.857          33.000
G25  20904857.031 8 109855762.686 8     -1708.789          50.000    20904859.109 8  85601895.859 8     -1331.527          50.000
G29  20211684.859 8 106213126.651 8      -155.949          51.000    20211684.227 8  82763471.337 8      -121.519          51.000
R15  21468482.719 8 114721042.587 8     -3234.617          49.000    21468486.711 7  89227476.316 7     -2515.813          47.000
R16  19189769.523 7 102508315.892 7       244.648          46.000    19189772.195 7  79728691.090 7       190.279          43.000
R18  19165158.195 8 102305015.150 8      -466.930          48.000    19165162.227 8  79570557.036 8      -363.168          50.000
R19  20743863.547 6 110965669.526 6      3256.098          36.000    20743866.883 7  86306641.550 7      2532.520          45.000
C27  21496625.430 8 111938566.541 8      -289.734          51.000
C28  24327803.891 6 126681281.305 6     -2797.078          36.000
C30  23245846.773 7 121047329.643 7      2527.969          46.000
E15  24079556.672 8 126538945.157 8      2129.562          51.000    24079557.078 8  96958426.703 8      1631.749          49.000
E30  22554096.117 8 118522563.005 8     -1027.039          51.000    22554098.641 8  90815988.170 8      -786.955          51.000
> 2020 05 09 11 36 30.0000000  0 15        .000000000000
G02  24378318.898 4 128108932.651 4     -2622.047          29.000
G12  23069821.586 5 121232705.611 5     -2877.227          33.000
G14  23782260.984 7 124976613.044 7     -2220.266          43.000    23782257.961 6  97384414.974 6     -1730.083          37.000
G18  23093322.523 6 121356263.347 6      3546.570          38.000    23093329.281 5  94563293.970 5      2763.573          32.000
G25  20914665.750 8 109907307.866 8     -1725.012          50.000    20914667.727 8  85642060.915 8     -1344.165          50.000
G29  20212640.828 8 106218149.279 8      -176.434          51.000    20212639.898 8  82767385.096 8      -137.478          51.000
R15  21486700.945 8 114818395.144 8     -3253.027          48.000    21486704.930 7  89303194.942 7     -2530.135          45.000
R16  19188476.375 7 102501407.950 7       218.359          47.000    19188479.109 7  79723318.232 7       169.835          43.000
R18  19167874.000 8 102319511.164 8      -496.910          48.000    19167877.805 8  79581831.683 8      -386.486          49.000
R19  20725673.508 6 110868368.969 6      3232.941          38.000    20725678.148 7  86230963.378 7      2514.513          46.000
C27  21498358.656 8 111947591.047 8      -309.461          51.000
C28  24343957.266 6 126765387.190 6     -2807.570          36.000
C30  23231332.945 8 120971755.227 8      2512.855          49.000
E15  24067454.227 8 126475343.837 8      2113.062          51.000    24067455.109 8  96909693.244 8      1619.145          51.000
E30  22560007.742 8 118553626.141 8     -1041.266          51.000    22560009.617 8  90839789.764 8      -797.829          51.000
> 2020 05 09 11 37  0.0000000  0 14        .000000000000
G02  24393301.250 5 128187628.668 5     -2627.754          30.000
G14  23794957.555 7 125043332.685 7     -2227.258          45.000    23794955.539 6  97436404.268 6     -1735.529          38.000
G18  23073085.055 6 121249921.512 6      3543.309          41.000    23073089.805 5  94480430.273 5      2761.026          33.000
G25  20924537.047 8 109959182.405 8     -1732.688          51.000    20924539.078 8  85682482.615 8     -1350.146          51.000
G29  20213683.328 8 106223627.151 8      -188.316          51.000    20213682.195 8  82771653.589 8      -146.740          51.000
R15  21504993.016 8 114916141.485 8     -3262.797          50.000    21504997.031 7  89379219.834 7     -2537.731          46.000
R16  19187301.180 7 102495129.548 7       200.777          47.000    19187303.688 7  79718435.030 7       156.160          43.000
R18  19170728.352 8 102334748.181 8      -518.410          49.000    19170732.016 8  79593682.690 8      -403.208          50.000
R19  20707582.438 6 110771592.333 6      3218.852          38.000    20707586.898 7  86155692.685 7      2503.554          45.000
C27  21500175.141 8 111957049.140 8      -320.586          51.000
C28  24360142.641 5 126849658.230 5     -2809.609          35.000
C30  23216876.141 8 120896471.640 8      2506.438          50.000
E15  24055415.422 8 126412076.292 8      2105.273          51.000    24055417.000 8  96861215.532 8      1613.105          51.000
E30  22565969.414 8 118584952.960 8     -1046.734          51.000    22565970.664 8  90863793.412 8      -802.088          51.000
> 2020 05 09 11 37 30.0000000  0 15        .000000000000
G02  24408338.133 5 128266634.760 5     -2639.902          33.000
G14  23807708.523 7 125110338.016 7     -2239.469          45.000    23807707.375 5  97488616.198 5     -1745.041          34.000
G18  23052881.344 7 121143755.419 7      3534.844          42.000    23052882.625 4  94397703.573 4      2754.424          28.000
G25  20934466.039 8 110011359.924 8     -1745.551          51.000    20934468.305 8  85723140.410 8     -1360.169          51.000
G29  20214807.359 8 106229533.238 8      -205.230          51.000    20214805.961 8  82776255.735 8      -159.920          51.000
R15  21523353.375 8 115014253.595 8     -3277.645          49.000    21523357.727 7  89455529.190 7     -2549.282          47.000
R16  19186238.703 7 102489455.974 7       177.879          46.000    19186241.891 7  79714022.218 7       138.347          45.000
R18  19173716.617 8 102350698.085 8      -544.648          49.000    19173720.164 8  79606088.153 8      -423.615          50.000
R19  20689585.133 6 110675315.370 6      3199.816          38.000    20689588.516 7  86080810.639 7      2488.749          44.000
C27  21502069.914 8 111966914.087 8      -336.711          51.000
C28  24376354.383 5 126934066.873 5     -2817.016          33.000
C30  23202470.766 8 120821454.010 8      2494.961          51.000
E02  27442689.281 5 144212297.890 5     -2529.660          34.000
E15  24043435.242 8 126349117.621 8      2092.320          51.000    24043437.562 8  96812974.486 8      1603.257          51.000
E30  22571976.203 8 118616517.728 8     -1057.250          51.000    22571977.211 8  90887979.376 8      -810.092          51.000
> 2020 05 09 11 38  0.0000000  0 14        .000000000000
G02  24423451.219 5 128346055.845 5     -2653.324          34.000
G14  23820540.977 7 125177772.289 7     -2253.766          45.000    23820540.586 6  97541162.346 6     -1756.184          38.000
G18  23032739.578 7 121037913.934 7      3523.578          42.000    23032741.078 5  94315229.801 5      2745.645          35.000
G21  22816009.359 5 119898964.574 5      3151.754          34.000
G25  20944480.406 8 110063986.112 8     -1760.672          51.000    20944482.766 8  85764147.804 8     -1371.955          51.000
G29  20216040.250 8 106236012.366 8      -224.344          51.000    20216038.961 8  82781304.410 8      -174.813          51.000
R15  21541809.109 7 115112878.147 7     -3295.008          46.000    21541814.312 8  89532237.130 8     -2562.787          48.000
R16  19185317.984 7 102484536.773 7       152.539          47.000    19185321.047 7  79710196.168 7       118.641          44.000
R18  19176865.812 8 102367507.364 8      -573.531          50.000    19176868.883 8  79619162.019 8      -446.083          49.000
R19  20671709.016 6 110579689.264 6      3178.320          38.000    20671711.094 7  86006434.822 7      2472.027          42.000
C27  21504070.406 8 111977329.703 8      -355.277          51.000
C30  23188144.578 8 120746848.059 8      2481.160          51.000
E15  24031541.516 8 126286614.925 8      2076.902          51.000    24031544.445 8  96765082.817 8      1591.411          51.000
E30  22578055.906 8 118648466.745 8     -1070.258          51.000    22578057.031 8  90912459.756 8      -820.104          51.000
> 2020 05 09 11 38 30.0000000  0 16        .000000000000
G02  24438590.516 5 128425614.311 5     -2647.965          33.000    24438589.461 5 100071928.655 5     -2063.364          32.000
G12  23135765.844 5 121579265.549 5     -2887.996          31.000    23135764.102 5  94737090.826 5     -2250.396          31.000
G14  23833401.922 7 125245356.843 7     -2248.496          45.000    23833402.477 6  97593825.613 6     -1752.075          37.000
G18  23012607.859 6 120932124.515 6      3532.051          41.000    23012611.016 6  94232796.551 6      2752.250          39.000
G21  22798003.992 6 119804364.875 6      3158.117          36.000    22798008.508 5  93354031.406 5      2460.889          35.000
G25  20954527.773 8 110116785.165 8     -1756.148          50.000    20954530.055 8  85805289.905 8     -1368.427          51.000
G29  20217329.648 8 106242788.306 8      -224.055          51.000    20217328.469 8  82786584.359 8      -174.588          51.000
R15  21560307.516 7 115211733.636 7     -3292.191          44.000    21560313.320 7  89609124.662 7     -2560.593          46.000
R16  19184486.109 7 102480093.499 7       147.121          46.000    19184489.172 7  79706740.281 7       114.428          44.000
R18  19180123.141 8 102384894.653 8      -582.324          50.000    19180126.086 8  79632685.480 8      -452.916          48.000
R19  20653901.891 6 110484436.447 6      3175.617          37.000    20653902.750 6  85932349.330 6      2469.924          40.000
C27  21506123.945 8 111988022.173 8      -354.328          51.000
C30  23173844.781 8 120672381.842 8      2486.645          50.000
E02  27471634.258 5 144364412.153 5     -2527.137          31.000    27471639.961 5 110616906.400 5     -1936.647          32.000
E15  24019682.195 8 126224293.904 8      2081.082          51.000    24019685.312 8  96717330.357 8      1594.592          51.000
E30  22584156.297 8 118680524.904 8     -1063.715          51.000    22584157.500 8  90937023.783 8      -815.018          51.000
> 2020 05 09 11 39  0.0000000  0 16        .000000000000
G02  24453774.484 5 128505407.385 5     -2670.195          30.000
G14  23846309.867 7 125313188.666 7     -2270.934          44.000    23846311.359 6  97646681.546 6     -1769.559          40.000
G18  22992505.562 6 120826489.688 6      3512.848          39.000    22992510.422 6  94150483.701 6      2737.281          39.000
G21  22780041.289 6 119709978.326 6      3137.223          36.000    22780048.938 4  93280483.595 4      2444.574          27.000
G25  20964626.914 8 110169856.412 8     -1779.453          49.000    20964629.375 8  85846644.120 8     -1386.590          49.000
G29  20218694.312 8 106249959.705 8      -251.402          51.000    20218693.016 8  82792172.466 8      -195.898          51.000
R15  21578867.891 7 115310919.603 7     -3317.453          43.000    21578873.523 7  89686269.329 7     -2580.241          42.000
R16  19183762.688 7 102476229.326 7       113.277          47.000    19183765.820 7  79703734.799 7        88.105          42.000
R18  19183507.211 8 102402958.998 8      -619.297          51.000    19183510.094 7  79646735.518 7      -481.675          47.000
R19  20636183.836 6 110389660.040 6      3145.340          37.000    20636184.453 6  85858634.392 6      2446.378          39.000
C27  21508249.570 8 111999089.314 8      -380.914          51.000
C28  24425167.273 5 127188257.382 5     -2833.863          34.000
C30  23159589.773 7 120598155.113 7      2464.418          47.000
E02                                                                  27486121.734 5 110675221.913 5     -1948.781          32.000
E15  24007876.305 8 126162255.249 8      2057.469          51.000    24007879.594 8  96669794.266 8      1576.493          51.000
E30  22590296.211 8 118712792.143 8     -1084.898          51.000    22590297.672 8  90961748.017 8      -831.286          51.000
> 2020 05 09 11 39 30.0000000  0 14        .000000000000
G14  23859294.695 7 125381424.712 7     -2275.746          44.000    23859296.938 6  97699852.462 6     -1773.312          40.000
G18  22972463.891 6 120721171.998 6      3510.574          40.000    22972469.852 6  94068417.945 6      2735.512          40.000
G21  22762150.922 5 119615967.086 5      3133.109          34.000
G25  20974808.289 8 110223359.147 8     -1785.074          50.000    20974810.797 8  85888334.546 8     -1390.967          50.000
G29  20220164.289 8 106257685.248 8      -261.199          51.000    20220162.789 8  82798192.367 8      -203.532          51.000
R15  21597520.508 7 115410596.532 7     -3325.121          47.000    21597524.930 6  89763795.835 6     -2586.208          39.000
R16  19183178.641 7 102473107.655 7        97.230          46.000    19183181.141 7  79701306.841 7        75.627          42.000
R18  19187048.000 8 102421860.997 8      -638.391          51.000    19187051.047 7  79661437.097 7      -496.526          46.000
R19  20618585.922 6 110295525.845 6      3132.715          37.000    20618587.875 6  85785418.903 6      2436.556          41.000
C27  21510476.977 8 112010688.415 8      -390.082          51.000
C28  24441501.562 5 127273314.769 5     -2834.031          34.000
C30  23145409.766 7 120524326.999 7      2459.820          46.000
E15  23996154.484 8 126100659.667 8      2051.383          51.000    23996158.297 8  96622597.685 8      1571.791          51.000
E30  22596506.344 8 118745428.344 8     -1088.453          51.000    22596508.180 8  90986754.964 8      -834.030          51.000
> 2020 05 09 11 40  0.0000000  0 14        .000000000000
G14  23872321.398 7 125449881.245 7     -2287.453          45.000    23872324.297 6  97753195.173 6     -1782.431          37.000
G18  22952449.297 7 120615993.377 7      3501.688          43.000    22952455.297 7  93986460.598 7      2728.591          43.000
G21  22744298.680 5 119522153.000 5      3121.605          35.000    22744306.312 4  93134143.157 4      2432.420          25.000
G25  20985037.383 8 110277112.189 8     -1797.891          49.000    20985039.773 8  85930220.046 8     -1400.954          49.000
G29  20221705.234 8 106265783.130 8      -278.086          51.000    20221703.930 8  82804502.414 8      -216.687          51.000
R15  21616231.828 8 115510579.241 8     -3339.738          51.000    21616233.469 7  89841560.081 7     -2597.577          42.000
R16  19182699.008 7 102470546.232 7        73.984          45.000    19182701.539 7  79699314.616 7        57.543          44.000
R18  19190711.164 8 102441414.905 8      -664.625          51.000    19190713.992 8  79676645.690 8      -516.931          48.000
R19  20601074.844 6 110201852.108 6      3112.840          38.000    20601078.055 7  85712561.543 7      2421.098          45.000
C27  21512771.922 8 112022639.344 8      -406.102          51.000
C28  24457850.891 5 127358450.639 5     -2840.879          34.000
C30  23131273.672 8 120450719.207 8      2447.957          48.000
E15  23984482.984 8 126039327.463 8      2038.172          51.000    23984486.875 8  96575602.901 8      1561.662          50.000
E30  22602752.336 8 118778253.045 8     -1099.152          51.000    22602754.617 8  91011906.341 8      -842.187          51.000
> 2020 05 09 11 40 30.0000000  0 16        .000000000000
G12  23202187.266 4 121928316.503 4     -2918.789          29.000
G14  23885412.688 7 125518677.165 7     -2297.434          45.000    23885415.789 6  97806802.342 6     -1790.211          38.000
G18  22932485.336 7 120511078.408 7      3494.047          44.000    22932490.844 7  93904708.688 7      2722.634          44.000
G21  22726507.977 5 119428660.022 5      3112.227          35.000
G25  20995337.148 8 110331236.853 8     -1808.922          48.000    20995339.406 8  85972395.096 8     -1409.550          48.000
G29  20223339.922 8 106274373.791 8      -293.145          51.000    20223338.852 8  82811196.444 8      -228.424          51.000
R15  21635023.469 8 115610989.475 8     -3352.613          51.000    21635024.547 7  89919656.814 7     -2607.591          44.000
R16  19182347.891 7 102468669.766 7        52.629          46.000    19182350.516 7  79697855.155 7        40.934          44.000
R18  19194519.141 8 102461742.636 8      -689.035          51.000    19194521.844 7  79692456.165 7      -535.916          47.000
R19  20583674.117 6 110108764.798 6      3094.223          39.000    20583677.625 7  85640160.329 7      2406.618          45.000
C27  21515157.242 8 112035061.744 8      -420.547          50.000
C28  24474237.812 5 127443783.927 5     -2846.094          30.000
C30  23117205.070 8 120377453.312 8      2437.836          50.000
E02  27529733.141 5 144669722.573 5     -2552.457          33.000
E15  23972885.266 8 125978381.394 8      2026.496          51.000    23972888.852 8  96528903.969 8      1552.812          51.000
E30  22609057.391 8 118811388.191 8     -1108.352          51.000    22609059.891 8  91037295.593 8      -849.209          51.000
> 2020 05 09 11 41  0.0000000  0 14        .000000000000
G14  23898564.438 7 125587789.831 7     -2301.480          46.000    23898567.328 6  97860656.319 6     -1793.361          38.000
G18  22912568.352 7 120406410.054 7      3492.184          44.000    22912573.203 7  93823148.965 7      2721.182          44.000
G21  22708775.492 6 119335470.805 6      3108.809          36.000    22708772.312 5  92988617.809 5      2422.460          32.000
G25  21005703.562 8 110385712.950 8     -1814.133          49.000    21005705.531 8  86014843.993 8     -1413.610          49.000
G29  20225064.562 8 106283436.688 8      -302.371          51.000    20225063.164 8  82818258.431 8      -235.614          51.000
R15  21653890.398 8 115711805.597 8     -3359.512          50.000    21653892.586 7  89998069.273 7     -2612.954          46.000
R16  19182121.305 7 102467459.997 7        36.816          44.000    19182124.109 7  79696914.228 7        28.635          44.000
R17  21895366.930 5 117166507.676 5     -3781.984          30.000
R18  19198467.938 8 102482821.652 8      -707.508          51.000    19198470.586 7  79708850.964 7      -550.281          47.000
R19  20566379.766 6 110016246.478 6      3082.426          40.000    20566382.852 7  85568201.664 7      2397.442          45.000
C27  21517629.375 8 112047935.007 8      -429.094          51.000
C30  23103198.750 8 120304510.598 8      2433.566          50.000
E15  23961357.297 8 125917802.572 8      2020.730          51.000    23961360.867 8  96482486.449 8      1548.379          51.000
E30  22615417.664 8 118844814.158 8     -1111.441          51.000    22615420.609 8  91062907.682 8      -851.612          51.000
> 2020 05 09 11 41 30.0000000  0 14        .000000000000
G14  23911755.289 7 125657108.160 7     -2323.793          45.000    23911758.023 6  97914670.545 6     -1810.751          40.000
G18  22892677.891 7 120301882.895 7      3471.887          44.000    22892682.320 7  93741699.267 7      2705.369          44.000
G21  22691080.891 6 119242479.884 6      3086.473          40.000    22691080.398 6  92916157.439 6      2405.047          36.000
G25  21016116.242 8 110440431.779 8     -1837.820          50.000    21016117.969 8  86057482.044 8     -1432.068          50.000
G29  20226858.312 8 106292862.425 8      -330.156          51.000    20226856.891 8  82825603.162 8      -257.265          51.000
R15  21672811.219 7 115812915.613 7     -3385.168          47.000    21672815.547 7  90076710.361 7     -2632.911          46.000
R16  19181999.180 7 102466808.016 7         2.480          44.000    19182001.938 7  79696407.152 7         1.929          44.000
R18  19202536.617 8 102504540.428 8      -744.586          51.000    19202539.359 7  79725743.362 7      -579.122          46.000
R19  20549171.781 6 109924189.136 6      3050.750          40.000    20549173.438 7  85496601.551 7      2372.806          44.000
C27  21520167.195 8 112061150.800 8      -456.000          51.000
C30  23089233.383 8 120231784.641 8      2410.914          50.000
E02                                                                  27558920.664 5 110968352.439 5     -1967.416          30.000
E15  23949878.750 8 125857483.774 8      1996.457          50.000    23949882.375 8  96436268.167 8      1529.699          51.000
E30  22621812.781 8 118878422.935 8     -1133.199          51.000    22621816.211 8  91088659.860 8      -868.358          51.000
> 2020 05 09 11 42  0.0000000  0 14        .000000000000
G14  23925008.422 7 125726753.840 7     -2323.422          44.000    23925011.047 6  97968939.869 6     -1810.462          37.000
G18  22872838.203 7 120197624.287 7      3474.352          45.000    22872841.711 7  93660458.833 7      2707.290          42.000
G21  22673448.555 7 119149814.010 7      3087.141          42.000    22673448.430 6  92843950.312 6      2405.567          36.000
G25  21026598.633 8 110495517.475 8     -1838.605          50.000    21026600.625 8  86100405.945 8     -1432.680          50.000
G29  20228744.266 8 106302774.389 8      -334.852          51.000    20228743.172 8  82833326.782 8      -260.923          51.000
R15  21691809.297 7 115914444.362 7     -3387.488          44.000    21691816.469 7  90155677.211 7     -2634.710          46.000
R16  19182005.500 7 102466841.502 7        -8.773          45.000    19182007.914 7  79696433.233 7        -6.821          43.000
R17  21937901.562 5 117394141.459 5     -3802.137          30.000
R18  19206748.242 8 102527023.166 8      -758.457          51.000    19206750.844 7  79743229.926 7      -589.911          46.000
R19  20532072.930 6 109832721.909 6      3042.746          37.000    20532073.844 7  85425460.430 7      2366.583          42.000
C27  21522794.492 8 112074831.501 8      -460.160          51.000
C30  23075332.703 8 120159399.747 8      2410.672          49.000
E15  23938473.602 8 125797550.528 8      1994.930          51.000    23938477.656 8  96390345.284 8      1528.577          51.000
E30  22628266.578 8 118912339.262 8     -1132.086          50.000    22628270.328 8  91114647.671 8      -867.457          51.000
> 2020 05 09 11 42 30.0000000  0 15        .000000000000
G14  23938302.914 7 125796616.530 7     -2334.082          45.000    23938305.180 6  98023378.284 6     -1818.768          38.000
G18  22853029.734 7 120093529.837 7      3465.340          46.000    22853032.000 6  93579346.319 6      2700.265          39.000
G21  22655857.977 7 119057368.345 7      3076.129          44.000    22655857.625 6  92771914.807 6      2396.987          38.000
G25  21037130.352 8 110550862.431 8     -1850.906          50.000    21037132.445 8  86143531.840 8     -1442.265          50.000
G29  20230702.258 8 106313064.426 8      -351.086          51.000    20230701.117 8  82841344.953 8      -273.573          51.000
R15  21710866.016 7 116016280.961 7     -3401.422          47.000    21710874.633 7  90234883.431 7     -2645.553          46.000
R16  19182119.750 7 102467452.551 7       -31.836          45.000    19182122.492 7  79696908.481 7       -24.764          44.000
R17  21959241.188 4 117508334.691 4     -3811.910          29.000
R18  19211082.227 8 102550158.863 8      -783.848          51.000    19211085.516 7  79761224.391 7      -609.656          47.000
R19  20515061.953 5 109741737.950 5      3022.730          33.000    20515064.070 6  85354695.122 6      2351.013          41.000
C27  21525490.469 8 112088869.925 8      -475.691          51.000
C30  23061476.562 8 120087250.546 8      2399.219          49.000
E02  27588176.656 5 144976850.057 5     -2565.867          33.000
E15  23927121.875 8 125737896.548 8      1982.090          51.000    23927126.562 8  96344636.402 8      1518.723          51.000
E30  22634758.688 8 118946456.133 8     -1142.270          51.000    22634762.492 8  91140789.176 8      -875.266          51.000
> 2020 05 09 11 43  0.0000000  0 13        .000000000000
G14  23951652.844 7 125866771.092 7     -2341.660          44.000    23951654.859 6  98078044.158 6     -1824.670          37.000
G18  22833267.938 7 119989679.878 7      3459.281          47.000    22833268.406 6  93498424.361 6      2695.547          39.000
G21  22638324.312 7 118965223.471 7      3068.121          44.000    22638323.953 6  92700113.690 6      2390.744          41.000
G25  21047726.086 8 110606543.774 8     -1860.012          50.000    21047727.812 8  86186919.867 8     -1449.363          50.000
G29  20232746.719 8 106323808.664 8      -364.020          51.000    20232745.836 8  82849717.092 8      -283.649          51.000
R15  21729996.266 8 116118502.761 8     -3412.129          48.000    21730003.828 7  90314389.191 7     -2653.881          44.000
R16  19182357.281 7 102468722.026 7       -51.598          45.000    19182360.227 7  79697895.836 7       -40.132          43.000
R18  19215552.805 8 102574024.234 8      -805.934          51.000    19215556.000 7  79779786.350 7      -626.837          46.000
R19  20498157.836 6 109651318.559 6      3006.270          37.000    20498160.633 7  85284368.947 7      2338.213          42.000
C27  21528269.828 8 112103341.848 8      -487.922          51.000
C30  23047680.266 8 120015414.800 8      2390.863          49.000
E15  23915838.344 8 125678600.388 8      1972.250          51.000    23915843.461 8  96299201.708 8      1511.163          51.000
E30  22641304.070 8 118980851.359 8     -1149.496          51.000    22641307.719 8  91167143.965 8      -880.750          51.000
> 2020 05 09 11 43 30.0000000  0 14        .000000000000
G14  23965050.758 7 125937178.106 7     -2352.031          43.000    23965052.164 6  98132906.699 6     -1832.752          37.000
G18  22813546.430 7 119886040.728 7      3450.273          47.000    22813545.164 6  93417666.685 6      2688.528          39.000
G21  22620840.906 7 118873344.415 7      3057.516          43.000    22620840.375 6  92628519.717 6      2382.483          41.000
G25  21058378.875 8 110662524.486 8     -1871.875          49.000    21058380.656 8  86230541.174 8     -1458.604          49.000
G29  20234870.656 8 106334969.859 8      -379.816          51.000    20234869.852 8  82858414.131 8      -295.961          51.000
R15  21749191.031 8 116221070.629 8     -3425.465          48.000    21749197.117 7  90394164.127 7     -2664.253          44.000
R16  19182711.133 7 102470613.487 7       -74.246          46.000    19182713.984 7  79699366.952 7       -57.750          43.000
R17  22002058.523 4 117737458.562 4     -3828.148          28.000
R18  19220152.977 8 102598580.063 8      -830.879          50.000    19220156.117 7  79798885.332 7      -646.239          47.000
R19  20481354.617 6 109561428.675 6      2986.375          39.000    20481356.609 7  85214454.644 7      2322.739          42.000
C27  21531125.547 8 112118210.011 8      -503.066          51.000
C30  23033938.023 8 119943857.105 8      2379.801          50.000
E15  23904616.320 8 125619626.491 8      1959.590          51.000    23904621.359 8  96254013.937 8      1501.480          51.000
E30  22647895.805 8 119015488.617 8     -1159.484          51.000    22647899.375 8  91193684.195 8      -888.388          51.000
> 2020 05 09 11 44  0.0000000  0 13        .000000000000
G14  23978501.406 7 126007863.134 7     -2360.453          42.000    23978502.016 5  98187985.883 5     -1839.317          35.000
G18  22793870.859 7 119782643.676 7      3442.898          47.000    22793869.219 6  93337097.624 6      2682.781          40.000
G21  22603413.742 6 118781762.775 6      3048.020          40.000    22603412.945 6  92557157.484 6      2375.080          40.000
G25  21069093.961 8 110718832.702 8     -1882.055          49.000    21069096.328 8  86274417.662 8     -1466.536          49.000
G29  20237079.148 8 106346575.143 8      -393.898          51.000    20237078.125 8  82867457.208 8      -306.934          51.000
R15  21768454.859 8 116324011.717 8     -3437.172          48.000    21768460.945 7  90474229.381 7     -2673.356          46.000
R16  19183187.227 7 102473157.221 7       -95.234          46.000    19183190.250 7  79701345.400 7       -74.071          43.000
R18  19224887.508 8 102623853.028 8      -854.020          50.000    19224890.914 7  79818542.097 7      -664.237          47.000
R19  20464656.430 6 109472099.786 6      2968.898          39.000    20464658.633 7  85144976.681 7      2309.143          44.000
C27  21534062.242 8 112133501.582 8      -516.379          51.000
C30  23020255.633 8 119872606.507 8      2370.285          51.000
E15  23893461.453 8 125561004.302 8      1948.547          51.000    23893465.914 8  96209095.656 8      1493.042          51.000
E30  22654539.039 8 119050396.596 8     -1167.832          51.000    22654542.312 8  91220431.856 8      -894.829          51.000
> 2020 05 09 11 44 30.0000000  0 14        .000000000000
G14  23991967.742 6 126078631.339 6     -2368.848          41.000    23991967.828 6  98243129.857 6     -1845.861          38.000
G18  22774204.938 7 119679299.350 7      3435.355          46.000    22774203.859 6  93256569.643 6      2676.900          41.000
G21  22586005.117 5 118690288.542 5      3038.652          35.000    22586005.930 5  92485878.867 5      2367.778          35.000
G25  21079834.602 7 110775275.785 7     -1892.281          47.000    21079837.203 7  86318399.255 7     -1474.505          47.000
G29  20239335.266 8 106358431.342 8      -408.000          51.000    20239334.289 8  82876695.810 8      -317.922          51.000
R15  21787752.008 8 116427128.763 8     -3448.859          49.000    21787758.117 7  90554431.506 7     -2682.446          47.000
R16  19183749.086 7 102476159.137 7      -116.461          46.000    19183752.578 7  79703680.182 7       -90.584          43.000
R18  19229719.344 8 102649645.983 8      -877.160          49.000    19229722.680 7  79838603.268 7      -682.236          47.000
R19  20448026.516 6 109383138.283 6      2950.578          39.000    20448028.984 7  85075784.416 7      2294.894          44.000
C27  21537043.742 8 112149025.128 8      -529.848          51.000
C28  24606229.070 5 128131073.736 5     -2881.578          31.000
C30  23006596.156 8 119801473.452 8      2360.598          51.000
E15  23882337.102 8 125502542.572 8      1937.492          51.000    23882340.617 8  96164300.310 8      1484.539          51.000
E30  22661197.328 8 119085383.280 8     -1176.168          51.000    22661199.805 8  91247239.839 8      -901.214          51.000
> 2020 05 09 11 45  0.0000000  0 15        .000000000000
G02  24640163.805 5 129484910.335 5     -2771.211          32.000
G14  24005519.156 6 126149844.667 6     -2376.012          41.000    24005518.586 6  98298620.729 6     -1851.438          36.000
G18  22754618.586 7 119576375.608 7      3429.223          46.000    22754618.656 6  93176369.381 6      2672.125          40.000
G21  22568684.930 6 118599289.579 6      3030.742          37.000    22568689.156 6  92414970.534 6      2361.617          36.000
G25  21090670.445 7 110832218.347 7     -1900.992          47.000    21090672.664 7  86362770.072 7     -1481.293          47.000
G29  20241708.469 8 106370902.450 8      -420.543          51.000    20241707.539 8  82886413.548 8      -327.696          51.000
R15  21807151.578 8 116530791.197 8     -3458.898          48.000    21807157.070 7  90635057.856 7     -2690.254          46.000
R16  19184466.562 7 102479990.951 7      -136.031          46.000    19184469.922 7  79706660.458 7      -105.802          42.000
R18  19234717.344 8 102676327.077 8      -898.625          49.000    19234721.047 8  79859355.233 8      -698.931          48.000
R19  20431533.961 5 109294918.303 5      2933.555          35.000    20431537.266 7  85007168.858 7      2281.654          43.000
C27  21540138.648 8 112165141.292 8      -541.727          51.000
C28  24622848.594 5 128217602.429 5     -2884.043          32.000
C30  22993028.836 8 119730820.530 8      2352.363          51.000
E15  23871312.688 8 125444607.299 8      1927.781          51.000    23871315.352 8  96119908.363 8      1477.146          51.000
E30  22667940.055 8 119120813.981 8     -1183.012          51.000    22667941.992 8  91274388.030 8      -906.461          51.000
> 2020 05 09 11 45 30.0000000  0 15        .000000000000
G02  24656014.703 5 129568215.069 5     -2780.969          32.000
G14  24019114.703 7 126221289.291 7     -2386.281          42.000    24019113.609 6  98354291.842 6     -1859.437          36.000
G18  22735072.539 7 119473664.605 7      3419.539          46.000    22735072.922 6  93096334.892 6      2664.576          41.000
G21  22551418.750 6 118508556.801 6      3019.344          41.000    22551423.344 6  92344269.688 6      2352.735          40.000
G25  21101561.172 7 110889449.252 7     -1913.059          47.000    21101563.297 7  86407365.599 7     -1490.695          47.000
G29  20244158.289 8 106383776.540 8      -436.688          51.000    20244157.289 8  82896445.307 8      -340.276          51.000
R15  21826612.258 7 116634783.010 7     -3472.598          46.000    21826617.773 7  90715940.358 7     -2700.909          45.000
R16  19185299.648 7 102484440.033 7      -159.398          46.000    19185302.594 7  79710120.849 7      -123.977          42.000
R18  19239841.641 8 102703680.549 8      -923.648          49.000    19239845.297 7  79880630.155 7      -718.393          47.000
R19  20415139.547 6 109207227.381 6      2913.262          36.000    20415143.922 6  84938964.761 6      2265.870          41.000
C27  21543306.969 8 112181640.252 8      -557.012          51.000
C28  24639484.938 4 128304263.022 4     -2889.898          29.000
C30  22979513.164 8 119660439.822 8      2340.738          51.000
E15  23860348.211 8 125386988.719 8      1914.711          51.000    23860350.609 8  96075759.103 8      1467.080          51.000
E30  22674727.125 8 119156478.154 8     -1193.312          51.000    22674728.812 8  91301715.112 8      -914.392          51.000
> 2020 05 09 11 46  0.0000000  0 15        .000000000000
G02  24671915.383 5 129651771.467 5     -2789.367          32.000
G14  24032759.023 7 126292989.095 7     -2394.016          43.000    24032758.023 6  98410161.778 6     -1865.470          38.000
G18  22715572.430 7 119371195.511 7      3411.691          46.000    22715572.531 6  93016488.919 6      2658.464          41.000
G21  22534209.688 7 118418119.319 7      3009.816          45.000    22534213.508 7  92273798.969 7      2345.311          44.000
G25  21112511.664 8 110946994.556 8     -1923.379          48.000    21112513.734 8  86452206.100 8     -1498.734          49.000
G29  20246689.641 8 106397078.972 8      -450.461          51.000    20246688.508 8  82906810.835 8      -351.009          51.000
R15  21846138.867 8 116739129.054 8     -3484.102          48.000    21846144.625 7  90797098.346 7     -2709.857          44.000
R16  19186253.656 7 102489534.635 7      -180.480          46.000    19186256.492 7  79714083.293 7      -140.377          43.000
R18  19245096.492 8 102731730.642 8      -946.527          50.000    19245100.055 8  79902446.914 8      -736.185          48.000
R19  20398851.617 6 109120094.435 6      2894.898          39.000    20398853.805 6  84871194.749 6      2251.591          40.000
C27  21546553.555 8 112198547.061 8      -570.262          51.000
C28  24656142.125 4 128391001.926 4     -2893.152          28.000
C30  22966054.602 8 119590358.297 8      2331.066          51.000
E15  23849448.938 8 125329714.141 8      1903.547          51.000    23849451.484 8  96031873.429 8      1458.538          51.000
E30  22681563.750 8 119192402.439 8     -1201.746          51.000    22681565.062 8  91329241.501 8      -920.786          51.000
> 2020 05 09 11 46 30.0000000  0 14        .000000000000
G02  24687862.961 5 129735575.876 5     -2797.535          34.000
G14  24046450.969 7 126364938.642 7     -2402.191          43.000    24046450.188 6  98466226.325 6     -1871.841          36.000
G18  22696118.695 7 119268968.901 7      3403.582          46.000    22696118.938 7  92936831.880 7      2652.145          43.000
G21  22517057.070 7 118327977.684 7      3000.105          46.000    22517060.203 7  92203558.784 7      2337.745          45.000
G25  21123521.664 8 111004851.573 8     -1933.645          49.000    21123523.766 8  86497289.461 8     -1506.736          49.000
G29  20249301.773 8 106410806.149 8      -464.523          51.000    20249300.820 8  82917507.334 8      -361.966          51.000
R15  21865732.070 8 116843825.217 8     -3495.602          49.000    21865736.000 6  90878528.618 6     -2718.804          38.000
R16  19187328.297 7 102495273.323 7      -201.754          46.000    19187331.219 7  79718546.705 7      -156.920          44.000
R18  19250481.133 8 102760472.843 8      -969.438          50.000    19250484.703 8  79924801.974 8      -754.007          48.000
R19  20382668.820 6 109033519.548 6      2876.789          40.000    20382668.781 7  84803858.823 7      2237.509          42.000
C27  21549877.641 8 112215858.442 8      -583.582          51.000
C30  22952652.805 8 119520574.571 8      2321.320          50.000
E15  23838614.820 8 125272782.285 8      1892.121          51.000    23838617.562 8  95988250.354 8      1449.813          51.000
E30  22688449.188 8 119228584.816 8     -1210.273          51.000    22688450.352 8  91356965.646 8      -927.349          51.000
> 2020 05 09 11 47  0.0000000  0 14        .000000000000
G02  24703856.648 5 129819624.980 5     -2804.531          33.000
G14  24060189.742 7 126437134.962 7     -2410.148          42.000    24060188.742 6  98522483.156 6     -1878.038          38.000
G18  22676711.883 7 119166987.153 7      3395.773          46.000    22676712.758 7  92857365.624 7      2646.057          44.000
G21  22499961.062 7 118238133.551 7      2990.262          47.000    22499963.656 7  92133550.406 7      2330.074          44.000
G25  21134591.031 8 111063019.363 8     -1943.680          51.000    21134592.961 8  86542614.988 8     -1514.556          51.000
G29  20251994.617 8 106424956.930 8      -478.273          51.000    20251993.734 8  82928533.919 8      -372.681          51.000
R15  21885390.047 8 116948869.099 8     -3506.805          48.000    21885390.648 6  90960229.183 6     -2727.524          40.000
R16  19188523.648 7 102501656.548 7      -223.023          46.000    19188526.219 7  79723511.434 7      -173.463          43.000
R18  19255994.789 8 102789904.364 8      -992.000          49.000    19255997.906 8  79947693.140 8      -771.556          48.000
R19  20366589.828 6 108947504.402 6      2858.273          40.000    20366589.898 7  84736958.251 7      2223.105          43.000
C27  21553279.391 8 112233572.867 8      -596.773          51.000
C30  22939307.680 8 119451089.044 8      2311.547          49.000
E15  23827846.086 8 125216193.611 8      1881.105          51.000    23827848.875 8  95944890.216 8      1441.352          51.000
E30  22695383.539 8 119265025.002 8     -1218.484          51.000    22695384.859 8  91384887.329 8      -933.617          51.000
> 2020 05 09 11 47 30.0000000  0 15        .000000000000
G02  24719895.477 5 129903910.769 5     -2813.328          32.000
G14  24073973.781 7 126509568.849 7     -2417.949          42.000    24073971.906 5  98578925.110 5     -1884.119          31.000
G18  22657351.211 7 119065246.949 7      3387.711          47.000    22657352.969 7  92778087.573 7      2639.775          45.000
G21  22482920.656 7 118148583.210 7      2980.590          47.000    22482923.023 7  92063770.946 7      2322.541          43.000
G25  21145718.094 8 111121491.388 8     -1953.609          50.000    21145719.742 8  86588177.587 8     -1522.296          50.000
G29  20254766.617 8 106439523.781 8      -491.984          51.000    20254765.695 8  82939884.715 8      -383.364          51.000
R15  21905111.102 7 117054252.691 7     -3517.809          47.000    21905113.953 7  91042194.058 7     -2736.076          46.000
R16  19189838.539 7 102508679.227 7      -244.391          46.000    19189840.984 7  79728973.521 7      -190.082          44.000
R18  19261635.844 8 102820016.770 8     -1014.508          49.000    19261639.086 8  79971113.888 8      -789.062          49.000
R19  20350614.258 6 108862044.836 6      2839.641          39.000    20350614.742 7  84670489.722 7      2208.609          43.000
C27  21556757.117 8 112251683.161 8      -609.840          51.000
C28  24706266.844 5 128652006.168 5     -2905.832          30.000
C30  22926018.352 8 119381896.497 8      2301.891          49.000
E15  23817141.594 8 125159942.908 8      1869.816          51.000    23817144.453 8  95901789.026 8      1432.722          51.000
E30  22702365.617 8 119301717.063 8     -1226.832          51.000    22702367.297 8  91413002.004 8      -940.025          51.000
> 2020 05 09 11 48  0.0000000  0 14        .000000000000
G02  24735982.555 5 129988454.641 5     -2822.762          32.000
G14  24087806.984 6 126582260.975 6     -2427.418          41.000    24087803.914 5  98635568.309 5     -1891.495          35.000
G18  22638041.742 7 118963774.757 7      3377.758          47.000    22638044.289 7  92699018.365 7      2632.019          46.000
G21  22465941.047 8 118059353.031 8      2968.922          48.000    22465942.914 6  91994240.970 6      2313.446          39.000
G25  21156907.297 8 111180290.914 8     -1965.609          50.000    21156909.078 8  86633995.360 8     -1531.644          50.000
G29  20257622.031 8 106454529.252 8      -507.594          51.000    20257621.250 8  82951577.285 8      -395.528          51.000
R15  21924899.953 7 117159998.285 7     -3531.055          47.000    21924904.992 7  91124440.647 7     -2746.376          47.000
R16  19191277.820 7 102516366.493 7      -267.410          46.000    19191280.133 7  79734952.508 7      -207.986          44.000
R18  19267408.328 8 102850831.677 8     -1039.055          50.000    19267411.688 8  79995081.028 8      -808.154          48.000
R19  20334746.656 6 108777167.169 6      2819.297          38.000    20334747.875 7  84604473.718 7      2192.783          43.000
C27  21560315.289 8 112270211.710 8      -624.746          51.000
C30  22912791.203 8 119313021.052 8      2290.465          51.000
E15  23806505.977 8 125104054.777 8      1856.719          51.000    23806509.203 8  95858965.626 8      1422.636          51.000
E30  22709400.000 8 119338684.847 8     -1237.047          51.000    22709401.898 8  91441327.950 8      -947.888          51.000
> 2020 05 09 11 48 30.0000000  0 16        .000000000000
G02  24752112.727 5 130073225.148 5     -2829.715          31.000
G14  24101683.227 6 126655179.609 6     -2435.328          41.000    24101679.336 5  98692387.973 5     -1897.664          32.000
G18  22618778.461 8 118862544.314 8      3369.418          48.000    22618781.258 7  92620137.550 7      2625.524          46.000
G21  22449017.320 8 117970416.485 8      2958.707          49.000    22449016.414 5  91924939.857 5      2305.492          35.000
G25  21168153.133 8 111239388.353 8     -1975.707          49.000    21168155.062 8  86680045.286 8     -1539.515          49.000
G29  20260555.219 8 106469943.177 8      -521.461          51.000    20260554.516 8  82963588.121 8      -406.333          51.000
R15  21944750.578 7 117266074.283 7     -3542.289          47.000    21944756.531 8  91206944.201 8     -2755.114          48.000
R16  19192835.742 7 102524689.610 7      -288.988          45.000    19192838.352 7  79741426.031 7      -224.769          44.000
R18  19273306.625 8 102882317.246 8     -1061.641          51.000    19273309.969 8  80019569.806 8      -825.720          49.000
R19  20318983.281 6 108692843.760 6      2800.781          39.000    20318984.445 7  84538888.823 7      2178.385          43.000
C27  21563948.133 8 112289128.537 8      -637.879          51.000
C28  24739788.305 5 128826584.863 5     -2914.727          32.000
C30  22899620.812 8 119244434.757 8      2280.527          51.000
E02  27765352.695 5 145907909.486 5     -2608.301          32.000
E15  23795934.227 8 125048500.938 8      1845.324          51.000    23795937.703 8  95816398.391 8      1413.953          51.000
E30  22716481.391 8 119375899.464 8     -1245.523          51.000    22716483.469 8  91469843.022 8      -954.362          51.000
> 2020 05 09 11 49  0.0000000  0 16        .000000000000
G02  24768279.469 5 130158190.750 5     -2836.828          32.000
G14  24115596.172 6 126728291.603 6     -2441.711          40.000    24115591.781 6  98749358.329 6     -1902.635          37.000
G18  22599555.992 8 118761528.582 8      3361.980          48.000    22599558.531 7  92541424.044 7      2619.725          47.000
G21  22432144.055 8 117881745.446 8      2949.629          50.000    22432137.375 6  91855845.700 6      2298.418          36.000
G25  21179449.648 7 111298753.498 7     -1984.891          47.000    21179451.883 7  86726303.795 7     -1546.668          47.000
G29  20263560.156 8 106485734.528 8      -534.293          51.000    20263559.461 8  82975893.080 8      -416.332          51.000
R15  21964657.164 8 117372448.464 8     -3552.488          49.000    21964662.961 8  91289679.638 8     -2763.046          48.000
R16  19194507.273 7 102533619.503 7      -309.449          46.000    19194510.117 7  79748371.508 7      -240.683          45.000
R18  19279324.336 8 102914440.670 8     -1083.074          51.000    19279327.680 8  80044554.699 8      -842.391          49.000
R19  20303318.500 6 108609046.471 6      2782.621          39.000    20303319.461 7  84473713.190 7      2164.264          43.000
C27  21567649.812 8 112308403.016 8      -650.031          51.000
C28  24756576.164 6 128914008.989 6     -2916.859          36.000
C30  22886500.633 8 119176108.873 8      2271.535          51.000
E02  27780238.703 5 145986139.528 5     -2610.527          34.000
E15  23785420.875 8 124993252.439 8      1834.895          51.000    23785424.477 8  95774065.152 8      1405.976          51.000
E30  22723604.172 8 119413331.281 8     -1252.914          51.000    22723606.398 8  91498524.523 8      -960.034          51.000
> 2020 05 09 11 49 30.0000000  0 16        .000000000000
G02  24784501.352 5 130243443.206 5     -2847.496          30.000
G14  24129563.344 6 126801688.702 6     -2451.766          39.000    24129559.398 5  98806550.829 5     -1910.464          33.000
G18  22580392.484 7 118660824.564 7      3351.141          47.000    22580394.844 7  92462953.409 7      2611.278          46.000
G21  22415339.633 8 117793436.354 8      2937.105          51.000    22415332.500 6  91787033.506 6      2288.657          39.000
G25  21190814.820 7 111358480.037 7     -1997.383          47.000    21190816.922 7  86772843.919 7     -1556.399          47.000
G29  20266654.664 8 106501996.232 8      -550.312          51.000    20266653.938 8  82988564.544 8      -428.815          51.000
R15  21984637.016 7 117479214.529 7     -3565.828          47.000    21984642.250 7  91372719.928 7     -2773.422          47.000
R16  19196310.359 7 102543252.767 7      -333.137          45.000    19196313.508 7  79755864.036 7      -259.106          45.000
R18  19285479.195 8 102947295.341 8     -1107.719          51.000    19285482.406 8  80070108.333 8      -861.559          49.000
R19  20287769.750 6 108525872.760 6      2761.652          38.000    20287770.750 7  84409022.585 7      2147.955          43.000
C27  21571437.773 8 112328127.304 8      -665.395          51.000
C28  24773397.750 6 129001597.691 6     -2922.645          37.000
C30  22873447.484 8 119108137.513 8      2259.336          49.000
E02  27795151.211 5 146064506.610 5     -2615.824          32.000
E15  23774983.617 8 124938404.332 8      1821.051          51.000    23774987.406 8  95732038.721 8      1395.395          51.000
E30  22730786.055 8 119451074.645 8     -1263.867          51.000    22730788.211 8  91527444.739 8      -968.406          51.000
> 2020 05 09 11 50  0.0000000  0 14        .000000000000
G14  24143579.211 6 126875343.774 6     -2458.582          37.000    24143576.180 5  98863944.284 5     -1915.781          35.000
G18  22561284.297 8 118560411.341 8      3343.238          48.000    22561286.641 7  92384709.353 7      2605.124          47.000
G21  22398599.945 8 117705468.427 8      2927.531          50.000    22398595.047 7  91718487.132 7      2281.193          43.000
G25  21202244.391 7 111418543.800 7     -2006.879          46.000    21202246.188 7  86819646.843 7     -1563.802          46.000
G29  20269833.852 8 106518703.630 8      -563.383          51.000    20269833.266 8  83001583.301 8      -439.000          51.000
R15  22004684.930 7 117586346.562 7     -3576.133          47.000    22004690.164 7  91456044.832 7     -2781.437          46.000
R16  19198240.930 7 102553565.994 7      -354.230          46.000    19198244.195 7  79763885.439 7      -275.513          45.000
R18  19291765.828 8 102980854.437 8     -1129.316          51.000    19291769.484 8  80096209.864 8      -878.357          50.000
R19  20272333.016 6 108443301.125 6      2743.270          38.000    20272334.523 7  84344800.281 7      2133.654          43.000
C27  21575307.383 8 112348276.837 8      -677.812          51.000
C28  24790245.852 5 129089325.849 5     -2925.109          34.000
C30  22860457.258 8 119040497.964 8      2250.020          48.000
E15  23764618.180 8 124883933.791 8      1810.289          51.000    23764622.203 8  95690301.594 8      1387.066          51.000
E30  22738022.594 8 119489106.019 8     -1271.656          51.000    22738025.055 8  91556585.645 8      -974.368          50.000
> 2020 05 09 11 50 30.0000000  0 14        .000000000000
G14  24157630.305 6 126949185.202 6     -2465.172          39.000    24157627.859 5  98921483.053 5     -1920.910          30.000
G18  22542219.188 8 118460222.768 8      3335.297          49.000    22542221.461 7  92306640.370 7      2598.936          46.000
G21  22381911.938 8 117617774.995 8      2918.027          48.000    22381909.766 7  91650154.617 7      2273.788          44.000
G25  21213725.250 7 111478875.448 7     -2016.051          47.000    21213727.484 7  86866658.515 7     -1570.949          47.000
G29  20273084.273 8 106535786.454 8      -576.184          51.000    20273083.938 8  83014894.605 8      -448.974          51.000
R15  22024789.023 8 117693772.673 8     -3586.367          50.000    22024793.352 7  91539598.429 7     -2789.400          44.000
R16  19200285.688 7 102564490.476 7      -375.121          45.000    19200289.047 7  79772382.250 7      -291.764          44.000
R18  19298171.000 8 103015045.586 8     -1150.844          51.000    19298174.508 8  80122802.973 8      -895.101          49.000
R19  20256996.000 6 108361263.286 6      2725.344          38.000    20256998.250 7  84280993.132 7      2119.715          42.000
C27  21579245.070 8 112368782.144 8      -689.984          51.000
C28  24807107.617 4 129177123.670 4     -2929.133          29.000
C30  22847518.242 8 118973122.688 8      2240.895          49.000
E15  23754311.719 8 124829772.740 8      1799.719          51.000    23754316.156 8  95648801.599 8      1378.984          51.000
E30  22745300.867 8 119527356.645 8     -1279.242          50.000    22745303.930 8  91585894.528 8      -980.196          50.000
> 2020 05 09 11 51  0.0000000  0 13        .000000000000
G14  24171746.430 6 127023366.310 6     -2471.965          40.000    24171743.961 5  98979286.478 5     -1926.203          34.000
G18  22523227.258 8 118360417.954 8      3326.793          48.000    22523229.438 7  92228870.433 7      2592.306          47.000
G21  22365305.484 7 117530514.867 7      2907.652          47.000    22365305.961 7  91582159.660 7      2265.700          46.000
G25  21225286.742 7 111539630.889 7     -2026.004          47.000    21225289.336 8  86914000.395 8     -1578.704          48.000
G29  20276435.969 8 106553399.819 8      -589.586          51.000    20276435.500 8  83028619.297 8      -459.418          51.000
R15  22044977.766 8 117801649.656 8     -3596.992          50.000    22044979.953 6  91623502.687 6     -2797.664          40.000
R16  19202475.188 7 102576185.672 7      -396.301          45.000    19202478.266 7  79781478.520 7      -308.231          44.000
R18  19304723.664 8 103050025.283 8     -1172.750          51.000    19304727.031 8  80150009.398 8      -912.139          49.000
R19  20241789.227 6 108279920.165 6      2706.465          38.000    20241792.180 7  84217726.242 7      2105.028          43.000
C27  21583280.750 8 112389796.964 8      -702.723          51.000
C30  22834660.047 8 118906167.337 8      2231.035          49.000
E15  23744094.047 8 124776078.347 8      1788.227          51.000    23744098.805 8  95607659.174 8      1370.152          51.000
E30  22752650.867 8 119565982.970 8     -1287.520          50.000    22752654.188 8  91615491.295 8      -986.628          49.000
> 2020 05 09 11 51 30.0000000  0 13        .000000000000
G14  24185875.281 6 127097615.391 6     -2479.473          41.000    24185873.586 6  99037142.843 6     -1932.060          37.000
G18  22504257.445 7 118260730.866 7      3317.262          47.000    22504259.859 7  92151192.208 7      2584.882          46.000
G21  22348731.859 8 117443421.126 8      2896.664          49.000    22348733.148 7  91514294.393 7      2257.141          46.000
G25  21236877.766 8 111600540.701 8     -2036.586          49.000    21236880.133 8  86961462.594 8     -1586.950          49.000
G29  20279837.258 8 106571273.683 8      -603.734          51.000    20279836.781 8  83042546.987 8      -470.442          51.000
R15  22065198.711 8 117909702.279 8     -3608.289          50.000    22065198.430 6  91707543.451 6     -2806.453          38.000
R16  19204757.922 7 102588378.988 7      -418.328          45.000    19204760.836 7  79790962.200 7      -325.366          44.000
R18  19311372.641 8 103085517.765 8     -1195.293          51.000    19311376.008 8  80177614.658 8      -929.672          49.000
R19  20226662.438 6 108199000.030 6      2686.785          39.000    20226665.547 7  84154788.346 7      2089.722          44.000
C27  21587362.844 8 112411053.782 8      -716.156          51.000
C30  22821831.500 8 118839366.286 8      2220.492          48.000
E15  23733914.180 8 124722582.566 8      1776.320          51.000    23733918.789 8  95566668.920 8      1361.029          51.000
E30  22760021.594 8 119604716.343 8     -1296.449          51.000    22760024.430 8  91645170.096 8      -993.413          49.000
> 2020 05 09 11 52  0.0000000  0 14        .000000000000
G14  24200031.062 6 127172004.577 6     -2488.051          41.000    24200030.477 5  99095108.394 5     -1938.744          33.000
G18  22485324.141 7 118161239.270 7      3306.914          45.000    22485327.203 7  92073666.287 7      2576.816          45.000
G21  22332205.227 8 117356571.094 8      2884.812          51.000    22332206.219 7  91446619.079 7      2247.909          46.000
G25  21248512.320 8 111661679.449 8     -2047.945          49.000    21248514.445 8  87009103.177 8     -1595.802          49.000
G29  20283302.180 8 106589481.924 8      -618.629          51.000    20283301.727 8  83056735.225 8      -482.048          51.000
R15  22085465.734 8 118018004.819 8     -3620.512          48.000    22085465.234 6  91791778.592 6     -2815.957          40.000
R16  19207148.477 7 102601147.804 7      -441.363          46.000    19207150.930 7  79800893.507 7      -343.280          43.000
R18  19318131.398 8 103121596.513 8     -1218.598          51.000    19318134.711 8  80205675.906 8      -947.798          49.000
R19  20211629.500 6 108118581.250 6      2665.875          40.000    20211631.938 7  84092240.417 7      2073.458          43.000
C27  21591505.234 8 112432625.665 8      -730.371          51.000
C28  24857804.367 5 129441083.118 5     -2939.945          33.000
C30  22809047.484 8 118772794.523 8      2209.125          49.000
E15  23723786.555 8 124669361.201 8      1763.336          51.000    23723790.766 8  95525888.915 8      1351.148          51.000
E30  22767427.055 8 119643631.907 8     -1306.379          50.000    22767429.781 8  91674988.492 8     -1000.974          51.000
> 2020 05 09 11 52 30.0000000  0 14        .000000000000
G14  24214252.156 6 127246735.939 6     -2493.629          40.000    24214251.383 5  99153340.566 5     -1943.087          34.000
G18  22466467.867 8 118062151.022 8      3299.305          48.000    22466470.828 7  91996454.677 7      2570.890          43.000
G21  22315764.656 8 117270172.481 8      2875.574          51.000    22315764.719 7  91379295.523 7      2240.710          45.000
G25  21260229.219 8 111723251.730 8     -2056.531          50.000    21260231.234 8  87057081.560 8     -1602.492          50.000
G29  20286869.586 8 106608228.468 8      -630.656          51.000    20286869.070 8  83071342.925 8      -491.420          51.000
R15  22105817.156 7 118126763.645 7     -3629.684          45.000    22105818.594 6  91876368.763 6     -2823.087          41.000
R16  19209685.930 7 102614701.153 7      -461.699          46.000    19209688.172 7  79811434.991 7      -359.099          43.000
R18  19325038.742 8 103158467.533 8     -1238.910          51.000    19325042.031 8  80234353.367 8      -963.594          50.000
R19  20196729.297 6 108038874.455 6      2648.230          41.000    20196731.039 7  84030246.284 7      2059.735          43.000
C27  21595747.141 8 112454714.712 8      -741.785          51.000
C28  24874748.789 6 129529315.394 6     -2941.953          36.000
C30  22796347.141 8 118706656.007 8      2200.531          50.000
E15  23713750.164 8 124616620.164 8      1753.160          51.000    23713754.570 8  95485476.954 8      1343.363          51.000
E30  22774906.289 8 119682934.887 8     -1313.344          51.000    22774909.641 8  91705103.737 8     -1006.349          51.000
> 2020 05 09 11 53  0.0000000  0 14        .000000000000
G14  24228508.836 6 127321654.378 6     -2500.641          40.000    24228508.297 6  99211718.534 6     -1948.551          36.000
G18  22447660.781 8 117963316.760 8      3290.297          49.000    22447662.312 6  91919441.017 6      2563.871          41.000
G21  22299381.328 8 117184075.460 8      2865.000          51.000    22299380.625 7  91312206.963 7      2232.468          46.000
G25  21271999.516 8 111785104.988 8     -2066.359          48.000    21272001.430 8  87105278.888 8     -1610.150          48.000
G29  20290510.117 8 106627359.994 8      -644.012          51.000    20290509.625 8  83086250.612 8      -501.827          51.000
R15  22126224.602 7 118235822.303 7     -3639.973          45.000    22126228.086 7  91961192.214 7     -2831.087          43.000
R16  19212341.406 7 102628885.509 7      -483.270          46.000    19212343.344 7  79822467.260 7      -375.873          43.000
R18  19332064.914 8 103195973.663 8     -1260.742          51.000    19332068.180 8  80263524.803 8      -980.577          49.000
R19  20181933.438 6 107959726.593 6      2628.930          40.000    20181934.859 7  83968686.872 7      2044.723          44.000
C27  21600059.180 8 112477169.061 8      -754.414          51.000
C28  24891707.367 5 129617624.521 5     -2944.723          35.000
C30  22783700.984 8 118640800.766 8      2190.500          49.000
E15  23703776.273 8 124564208.162 8      1741.562          51.000    23703781.180 8  95445317.108 8      1334.480          51.000
E30  22782430.555 8 119722473.307 8     -1321.754          51.000    22782434.344 8  91735399.395 8     -1012.820          51.000
> 2020 05 09 11 53 30.0000000  0 14        .000000000000
G14  24242805.992 6 127396785.476 6     -2506.906          39.000    24242805.352 6  99270262.188 6     -1953.433          37.000
G18  22428908.406 8 117864767.697 8      3281.102          51.000    22428907.266 6  91842649.651 6      2556.709          41.000
G21  22283061.031 8 117098310.685 8      2854.195          51.000    22283060.070 7  91245377.298 7      2224.048          47.000
G25  21283828.492 7 111847267.149 7     -2076.258          47.000    21283830.461 7  87153716.877 7     -1617.866          47.000
G29  20294229.086 8 106646903.461 8      -657.371          51.000    20294228.477 8  83101479.283 8      -512.237          51.000
R15  22146693.820 7 118345207.542 7     -3650.762          45.000    22146699.234 7  92046269.628 7     -2839.484          46.000
R16  19215120.414 7 102643730.011 7      -504.809          46.000    19215122.055 7  79834012.974 7      -392.632          43.000
R18  19339215.094 8 103234141.245 8     -1282.332          51.000    19339218.062 8  80293210.696 8      -997.369          49.000
R19  20167247.930 6 107881168.710 6      2609.633          40.000    20167249.469 7  83907586.339 7      2029.714          44.000
C27  21604446.695 8 112500015.647 8      -767.109          51.000
C28  24908685.734 5 129706037.152 5     -2947.527          35.000
C30  22771113.750 8 118575257.740 8      2180.480          48.000
E15  23693870.664 8 124512154.370 8      1730.258          51.000    23693875.695 8  95405431.719 8      1325.710          51.000
E30  22790005.039 8 119762275.713 8     -1330.156          51.000    22790008.734 8  91765897.339 8     -1019.181          51.000
> 2020 05 09 11 54  0.0000000  0 14        .000000000000
G14  24257143.242 6 127472128.187 6     -2512.773          40.000    24257142.641 4  99328970.742 4     -1958.014          29.000
G18  22410211.211 8 117766508.641 8      3272.402          51.000    22410208.055 7  91766084.259 7      2549.927          42.000
G21  22266804.531 8 117012882.552 8      2843.918          50.000    22266803.836 7  91178809.946 7      2216.040          46.000
G25  21295716.516 7 111909739.781 7     -2085.691          47.000    21295718.180 7  87202396.768 7     -1625.214          47.000
G29  20298026.750 8 106666859.807 8      -670.109          51.000    20298025.961 8  83117029.679 8      -522.160          51.000
R15  22167225.305 7 118454919.503 7     -3660.461          47.000    22167231.648 7  92131601.105 7     -2847.025          46.000
R16  19218023.641 7 102659237.968 7      -526.125          46.000    19218024.875 7  79846074.716 7      -409.208          42.000
R18  19346488.852 8 103272969.395 8     -1303.301          51.000    19346492.000 8  80323410.360 8     -1013.678          49.000
R19  20152673.852 6 107803204.458 6      2590.848          40.000    20152674.977 7  83846947.485 7      2015.104          44.000
C27  21608909.609 8 112523255.319 8      -779.305          51.000
C28  24925683.906 5 129794553.759 5     -2950.629          33.000
C30  22758586.617 8 118510029.626 8      2170.918          49.000
E15  23684033.812 8 124460461.630 8      1718.852          51.000    23684038.688 8  95365822.986 8      1317.057          51.000
E30  22797630.172 8 119802344.319 8     -1338.238          51.000    22797633.844 8  91796599.268 8     -1025.436          51.000
> 2020 05 09 11 54 30.0000000  0 14        .000000000000
G14  24271514.984 6 127547652.990 6     -2521.641          40.000    24271514.414 5  99387821.185 5     -1964.912          31.000
G18  22391564.391 8 117668515.557 8      3260.914          51.000    22391561.219 7  91689726.073 7      2540.972          44.000
G21  22250607.305 8 116927766.548 8      2830.883          49.000    22250606.977 7  91112485.809 7      2205.886          47.000
G25  21307658.406 7 111972495.476 7     -2097.504          46.000    21307659.938 7  87251297.283 7     -1634.419          46.000
G29  20301897.633 8 106687200.900 8      -685.480          51.000    20301896.805 8  83132879.893 8      -534.141          51.000
R15  22187812.594 8 118564928.840 8     -3673.020          48.000    22187819.164 7  92217163.821 7     -2856.796          45.000
R16  19221045.734 7 102675382.575 7      -549.797          45.000    19221047.031 7  79858631.618 7      -427.620          43.000
R18  19353880.797 8 103312428.325 8     -1326.852          51.000    19353884.008 8  80354100.623 8     -1031.996          49.000
R19  20138206.070 6 107725808.740 6      2569.574          39.000    20138206.977 7  83786750.808 7      1998.558          45.000
C27  21613442.602 8 112546860.287 8      -793.898          51.000
C28  24942694.945 4 129883146.122 4     -2955.367          28.000
C30  22746115.844 8 118445090.530 8      2158.762          51.000
E15  23674260.953 8 124409103.822 8      1705.285          51.000    23674265.492 8  95326470.904 8      1306.635          51.000
E30  22805301.086 8 119842652.389 8     -1348.594          51.000    22805304.547 8  91827484.683 8     -1033.368          51.000
> 2020 05 09 11 55  0.0000000  0 14        .000000000000
G12  23697463.109 5 124531009.548 5     -3060.395          33.000
G14  24285939.531 6 127623455.750 6     -2526.703          40.000    24285938.695 4  99446888.171 4     -1968.869          27.000
G18  22372987.188 8 117570890.253 8      3252.691          50.000    22372985.039 7  91613654.436 7      2534.568          47.000
G21  22234488.656 8 116843063.710 8      2821.207          49.000    22234488.586 7  91046483.620 7      2198.346          46.000
G25  21319672.984 7 112035632.951 7     -2106.359          46.000    21319674.742 7  87300495.288 7     -1641.319          46.000
G29  20305860.430 8 106708024.958 8      -697.570          51.000    20305859.586 8  83149106.438 8      -543.561          51.000
R15  22208474.352 8 118675334.427 8     -3682.059          48.000    22208479.883 7  92303034.720 7     -2863.826          44.000
R16  19224206.008 7 102692265.080 7      -570.340          46.000    19224207.555 7  79871762.443 7      -443.598          43.000
R18  19361409.242 8 103352616.076 8     -1347.062          51.000    19361412.617 8  80385357.785 8     -1047.712          48.000
R19  20123863.008 6 107649083.899 6      2551.023          39.000    20123864.570 7  83727075.949 7      1984.129          45.000
C27  21618064.500 8 112570927.517 8      -805.344          51.000
C30  22733720.094 8 118380539.337 8      2149.816          51.000
E15  23664571.094 8 124358180.838 8      1694.832          51.000    23664574.930 8  95287451.993 8      1298.641          51.000
E30  22813036.461 8 119883299.157 8     -1355.836          51.000    22813039.328 8  91858629.609 8     -1038.917          51.000
> 2020 05 09 11 55 30.0000000  0 13        .000000000000
G14  24300394.844 6 127699419.489 6     -2533.539          41.000    24300393.805 4  99506080.593 4     -1974.195          29.000
G18  22354458.242 8 117473521.382 8      3242.434          49.000    22354457.586 8  91537782.587 8      2526.572          48.000
G21  22218427.500 8 116758662.354 8      2809.551          48.000    22218427.375 7  90980716.353 7      2189.260          45.000
G25  21331738.398 7 112099037.528 7     -2116.836          46.000    21331740.180 7  87349901.448 7     -1649.483          45.000
G29  20309893.148 8 106729216.504 8      -711.238          51.000    20309892.328 8  83165619.329 8      -554.212          51.000
R15  22229188.133 8 118786017.999 8     -3692.727          49.000    22229192.461 7  92389121.863 7     -2872.124          43.000
R16  19227482.883 7 102709770.174 7      -592.703          44.000    19227484.531 7  79885377.510 7      -460.994          43.000
R18  19369052.102 8 103393413.928 8     -1368.805          51.000    19369055.109 8  80417089.433 8     -1064.626          48.000
R19  20109623.102 6 107572915.524 6      2531.027          38.000    20109625.891 7  83667833.900 7      1968.577          45.000
C27  21622753.031 8 112595342.697 8      -818.387          51.000
C30  22721377.047 8 118316263.602 8      2139.176          51.000
E15  23654942.320 8 124307579.270 8      1682.578          51.000    23654945.422 8  95248679.371 8      1289.227          51.000
E30  22820814.438 8 119924170.565 8     -1364.922          51.000    22820816.625 8  91889946.662 8     -1045.828          51.000
> 2020 05 09 11 56  0.0000000  0 13        .000000000000
G14  24314878.703 6 127775533.051 6     -2540.117          39.000    24314878.859 5  99565389.790 5     -1979.309          34.000
G18  22335976.484 8 117376403.200 8      3232.465          48.000    22335977.391 8  91462106.063 8      2518.804          48.000
G21  22202422.484 7 116674556.476 7      2797.875          47.000    22202422.180 7  90915179.348 7      2180.162          44.000
G25  21343853.008 7 112162700.274 7     -2127.160          46.000    21343855.211 7  87399508.770 7     -1657.527          46.000
G29  20313993.711 8 106750765.632 8      -725.012          51.000    20313993.148 8  83182410.851 8      -564.944          51.000
R15  22249951.664 8 118896969.071 8     -3703.625          49.000    22249955.500 7  92475417.087 7     -2880.597          43.000
R16  19230874.680 7 102727890.138 7      -614.836          45.000    19230876.625 7  79899470.803 7      -478.206          43.000
R18  19376807.086 8 103434810.791 8     -1390.625          51.000    19376810.438 8  80449287.005 8     -1081.597          49.000
R19  20095485.031 6 107497296.837 6      2510.543          37.000    20095489.844 7  83609019.406 7      1952.648          45.000
C27  21627506.828 8 112620096.271 8      -831.398          51.000
C30  22709084.773 8 118252255.729 8      2128.355          51.000
E15  23645372.781 8 124257291.408 8      1670.297          51.000    23645375.539 8  95210147.135 8      1279.841          51.000
E30  22828633.359 8 119965258.301 8     -1373.953          51.000    22828635.414 8  91921429.452 8     -1052.763          51.000
> 2020 05 09 11 56 30.0000000  0 13        .000000000000
G14  24329399.430 6 127851840.584 6     -2546.270          37.000    24329400.414 5  99624850.118 5     -1984.106          34.000
G18  22317551.906 8 117279585.984 8      3222.566          48.000    22317554.039 8  91386664.059 8      2511.091          48.000
G21  22186482.789 7 116590795.242 7      2786.738          45.000    22186482.367 7  90849910.884 7      2171.484          43.000
G25  21356025.844 8 112226668.099 8     -2137.016          48.000    21356028.938 8  87449353.815 8     -1665.207          48.000
G29  20318171.141 8 106772718.596 8      -738.035          51.000    20318170.695 8  83199517.041 8      -575.092          51.000
R15  22270773.703 8 119008233.713 8     -3713.500          49.000    22270777.078 7  92561956.224 7     -2888.278          43.000
R16  19234390.781 7 102746673.439 7      -636.648          44.000    19234392.875 7  79914080.029 7      -495.171          43.000
R18  19384682.906 8 103476852.168 8     -1411.621          51.000    19384686.477 8  80481985.856 8     -1097.928          49.000
R19  20081460.383 6 107422278.001 6      2491.074          38.000    20081465.648 7  83550671.438 7      1937.502          44.000
C27  21632334.297 8 112645234.043 8      -843.867          51.000
C30  22696852.648 8 118188563.328 8      2118.262          50.000
E15  23635871.766 8 124207365.448 8      1658.641          51.000    23635874.508 8  95171892.207 8      1270.880          51.000
E30  22836502.375 8 120006609.921 8     -1382.348          51.000    22836504.125 8  91953114.430 8     -1059.201          51.000
> 2020 05 09 11 57  0.0000000  0 13        .000000000000
G14  24343955.273 6 127928334.184 6     -2553.281          37.000    24343957.500 6  99684455.596 6     -1989.567          36.000
G18  22299184.609 7 117183067.394 7      3211.797          47.000    22299186.922 7  91311454.762 7      2502.699          47.000
G21  22170608.109 7 116507376.391 7      2774.465          44.000    22170607.414 7  90784909.197 7      2161.921          42.000
G25  21368255.656 7 112290935.502 7     -2147.758          47.000    21368258.883 7  87499432.288 7     -1673.581          47.000
G29  20322424.305 8 106795069.191 8      -752.137          51.000    20322423.695 8  83216933.085 8      -586.081          51.000
R15  22291652.836 8 119119804.748 8     -3724.641          48.000    22291656.273 7  92648733.613 7     -2896.946          43.000
R16  19238030.148 7 102766115.712 7      -659.305          44.000    19238032.383 7  79929201.773 7      -512.793          42.000
R18  19392678.016 8 103519529.953 8     -1433.625          50.000    19392681.453 8  80515179.683 8     -1115.042          49.000
R19  20067548.539 6 107347855.559 6      2470.438          41.000    20067553.016 7  83492787.344 7      1921.451          44.000
C27  21637234.109 8 112670749.751 8      -857.312          51.000
C30  22684680.539 8 118125182.109 8      2107.109          51.000
E15  23626438.820 8 124157797.113 8      1645.844          51.000    23626441.750 8  95133911.312 8      1261.080          51.000
E30  22844420.625 8 120048220.508 8     -1391.766          51.000    22844421.523 8  91984997.847 8     -1066.451          50.000
> 2020 05 09 11 57 30.0000000  0 13        .000000000000
G14  24358548.383 6 128005022.608 6     -2559.234          38.000    24358551.203 5  99744212.721 5     -1994.212          35.000
G18  22280877.211 7 117086861.723 7      3201.684          47.000    22280879.180 7  91236489.347 7      2494.821          46.000
G21  22154802.016 7 116424313.635 7      2762.801          46.000    22154800.078 7  90720185.024 7      2152.832          42.000
G25  21380544.555 7 112355513.555 7     -2157.844          47.000    21380547.258 7  87549752.837 7     -1681.437          47.000
G29  20326755.086 8 106817827.693 8      -765.367          51.000    20326754.477 8  83234666.992 8      -596.390          51.000
R15  22312590.211 7 119231691.855 7     -3734.855          45.000    22312594.227 7  92735756.808 7     -2904.894          43.000
R16  19241795.539 7 102786229.132 7      -681.590          45.000    19241797.297 7  79944845.538 7      -530.125          42.000
R18  19400793.844 8 103562853.279 8     -1454.812          50.000    19400797.602 8  80548875.604 8     -1131.521          49.000
R19  20053751.164 7 107274042.612 7      2450.336          42.000    20053754.344 7  83435377.286 7      1905.817          44.000
C27  21642208.891 8 112696653.682 8      -869.926          51.000
C30  22672571.055 8 118062124.228 8      2096.484          51.000
E15  23617076.484 8 124108598.671 8      1633.738          51.000    23617079.508 8  95096213.835 8      1251.784          50.000
E30  22852390.086 8 120090101.732 8     -1400.625          51.000    22852390.391 8  92017088.616 8     -1073.203          50.000
> 2020 05 09 11 58  0.0000000  0 14        .000000000000
G12  23802782.320 5 125084464.402 5     -3088.574          31.000
G14  24373175.656 6 128081888.905 6     -2565.848          39.000    24373178.523 5  99804108.475 5     -1999.371          32.000
G18  22262627.305 8 116990958.026 8      3190.895          48.000    22262629.031 7  91161759.284 7      2486.414          44.000
G21  22139061.891 8 116341595.441 8      2750.770          49.000    22139058.930 7  90655729.358 7      2143.460          42.000
G25  21392889.891 7 112420387.984 7     -2168.031          47.000    21392892.039 7  87600304.334 7     -1689.372          47.000
G29  20331160.750 8 106840979.252 8      -778.992          51.000    20331160.289 8  83252707.182 8      -607.007          51.000
R15  22333582.945 7 119343878.933 7     -3745.527          43.000    22333588.578 7  92823013.366 7     -2913.188          44.000
R16  19245684.109 7 102807000.452 7      -704.113          46.000    19245685.484 7  79961000.987 7      -547.644          43.000
R18  19409027.547 8 103606805.283 8     -1476.281          50.000    19409031.258 8  80583060.485 8     -1148.222          48.000
R19  20040065.750 7 107200827.200 7      2429.715          42.000    20040067.438 7  83378431.988 7      1889.778          44.000
C27  21647255.438 8 112722930.990 8      -882.883          51.000
C30  22660521.438 8 117999376.731 8      2085.637          51.000
E15  23607782.359 8 124059757.085 8      1621.367          51.000    23607785.164 8  95058789.795 8      1242.361          50.000
E30  22860408.172 8 120132239.966 8     -1409.648          51.000    22860408.844 8  92049376.298 8     -1080.114          50.000
> 2020 05 09 11 58 30.0000000  0 13        .000000000000
G14  24387836.789 6 128158932.582 6     -2571.375          37.000    24387839.781 5  99864142.405 5     -2003.681          35.000
G18  22244435.609 7 116895361.169 7      3181.031          46.000    22244437.312 7  91087268.297 7      2478.726          45.000
G21  22123388.008 8 116259226.349 8      2739.477          50.000    22123385.398 7  90591545.726 7      2134.660          43.000
G25  21405291.906 7 112485560.472 7     -2177.766          46.000    21405293.914 7  87651088.075 7     -1696.960          46.000
G29  20335641.281 8 106864524.656 8      -791.672          51.000    20335640.844 8  83271054.249 8      -616.887          51.000
R15  22354632.773 7 119456366.178 7     -3754.750          45.000    22354639.359 7  92910503.399 7     -2920.364          44.000
R16  19249696.297 7 102828431.953 7      -725.645          47.000    19249697.469 7  79977669.904 7      -564.393          43.000
R18  19417378.883 8 103651385.495 8     -1496.691          50.000    19417382.438 8  80617733.978 8     -1164.093          48.000
R19  20026491.945 6 107128212.967 6      2410.133          41.000    20026493.094 7  83321954.291 7      1874.551          44.000
C27  21652373.688 8 112749582.517 8      -894.953          51.000
C30  22648531.859 8 117936942.372 8      2075.672          51.000
E15  23598556.703 8 124011275.170 8      1609.723          51.000    23598559.492 8  95021641.371 8      1233.379          51.000
E30  22868475.555 8 120174637.422 8     -1417.957          51.000    22868477.164 8  92081862.635 8     -1086.490          50.000
> 2020 05 09 11 59  0.0000000  0 13        .000000000000
G14  24402529.711 6 128236142.632 6     -2576.125          36.000    24402531.898 4  99924290.095 4     -2007.361          29.000
G18  22226301.141 7 116800065.870 7      3171.934          46.000    22226303.461 7  91013012.244 7      2471.637          46.000
G21  22107779.031 8 116177200.213 8      2728.848          50.000    22107777.383 7  90527629.273 7      2126.375          43.000
G25  21417749.031 7 112551022.441 7     -2186.516          47.000    21417751.023 7  87702097.384 7     -1703.778          47.000
G29  20340194.859 8 106888454.402 8      -803.629          51.000    20340194.414 8  83289700.804 8      -626.204          51.000
R15  22375738.750 8 119569143.297 8     -3763.473          48.000    22375744.164 7  92998218.913 7     -2927.145          43.000
R16  19253830.875 7 102850516.239 7      -746.504          47.000    19253831.539 6  79994846.570 6      -580.614          41.000
R18  19425846.055 8 103696583.075 8     -1516.398          50.000    19425849.391 7  80652887.657 7     -1179.421          46.000
R19  20013028.258 6 107056193.553 6      2391.164          40.000    20013029.672 7  83265939.222 7      1859.794          42.000
C27  21657562.133 8 112776599.114 8      -906.211          51.000
C30  22636600.344 8 117874813.840 8      2066.246          51.000
E15  23589398.086 8 123963145.652 8      1598.883          51.000    23589401.172 8  94984762.947 8      1225.163          51.000
E30  22876590.828 8 120217286.200 8     -1425.398          51.000    22876593.648 8  92114541.543 8     -1092.135          51.000
> 2020 05 09 11 59 30.0000000  0 13        .000000000000
G14  24417255.180 5 128313524.930 5     -2581.945          32.000    24417257.641 4  99984587.956 4     -2011.905          28.000
G18  22208226.312 7 116705083.758 7      3160.875          47.000    22208229.477 7  90939000.224 7      2463.019          46.000
G21  22092237.406 8 116095528.035 8      2716.422          51.000    22092236.414 7  90463988.637 7      2116.695          45.000
G25  21430262.641 7 112616782.241 7     -2196.938          45.000    21430264.930 7  87753338.786 7     -1711.902          45.000
G29  20344823.211 8 106912776.659 8      -817.320          51.000    20344822.953 8  83308653.194 8      -636.873          51.000
R15  22396900.469 8 119682217.466 8     -3774.059          48.000    22396904.438 7  93086165.392 7     -2935.382          45.000
R16  19258089.398 7 102873262.890 7      -769.289          47.000    19258089.977 7  80012538.395 7      -598.336          45.000
R18  19434429.625 8 103742403.804 8     -1537.707          49.000    19434432.898 8  80688526.028 8     -1195.994          48.000
R19  19999677.344 6 106984779.486 6      2370.309          40.000    19999679.078 7  83210394.948 7      1843.573          43.000
C27  21662822.195 8 112803988.350 8      -919.117          51.000
C30  22624729.203 8 117813000.614 8      2055.109          51.000
E15  23580308.492 8 123915378.073 8      1586.199          51.000    23580311.695 8  94948161.830 8      1215.435          51.000
E30  22884756.047 8 120260195.301 8     -1434.656          51.000    22884759.227 8  92147419.948 8     -1099.291          51.000
